~V
VERS. 2.00: Ver 2.00
WRAP.   NO:        
~W
 STRT.FT 500:
 STOP.FT 3500:
 STEP.FT 0.5:
 NULL. -999.250000:
 COMP. GARY DRILLING COMPANY:Company
 WELL. KCL 44-375:Well
 FLD. PIONEER:Field
 LOC. SEC 32 TWN 11N RGE 22W:Location
 STAT. CA:State
 SRVC. :Service Company
 SON. :Service Order #
 DATE. :Log Date
 UWI. :Unique Well ID
~C
 DEPT.FT :
 CALS.IN :
 NPHC.V/V :
 PHES. :
 PHIE. :
 PHIT. :
 PHTS. :
 PHZC. :
 RD.OHMM :
 ROBC.G/C3 :
 RS.OHMM :
 SBL.MV :
 SGRC.GAPI :
 VCLW. :
 VCWS. :
 VSHL. :
 VSHS. :
~P
~A
# ...
   2760.0000      8.6094      0.4467      0.3309      0.3053      0.4076      0.4533      0.4484      1.5244      1.9658      2.1498    -23.3635     84.8920      0.2046      0.2040      0.6269      0.5099
   2760.5000      8.6974      0.4436      0.3088      0.2770      0.3906      0.4468      0.4413      1.4577      2.0162      2.4203    -20.6356     86.4793      0.2272      0.2301      0.7182      0.5752
   2761.0000      8.7597      0.4423      0.2905      0.2601      0.3799      0.4415      0.4355      1.3929      2.0434      2.3035    -18.3764     82.1950      0.2396      0.2518      0.7399      0.6294
   2761.5000      8.7656      0.4483      0.2865      0.2544      0.3803      0.4404      0.4342      1.3732      2.0500      2.1127    -17.8984     83.2656      0.2519      0.2564      0.7456      0.6411
   2762.0000      8.7895      0.4483      0.2846      0.2586      0.3799      0.4398      0.4336      1.3908      2.0514      1.9331    -17.6705     75.5626      0.2426      0.2587      0.7414      0.6468
   2762.5000      8.7952      0.4426      0.2907      0.2604      0.3803      0.4416      0.4355      1.4530      2.0425      1.8999    -18.4426     82.6333      0.2399      0.2515      0.7396      0.6286
   2763.0000      8.8408      0.4160      0.2908      0.2611      0.3697      0.4416      0.4356      1.5569      2.0398      1.9185    -18.4647     81.1793      0.2172      0.2514      0.6657      0.6284
   2763.5000      8.9030      0.4022      0.2848      0.2439      0.3605      0.4398      0.4336      1.7091      2.0505      2.0760    -17.7367     89.3297      0.2332      0.2584      0.7148      0.6460
   2764.0000      8.8988      0.4104      0.2768      0.2384      0.3617      0.4375      0.4311      1.8757      2.0580      2.2828    -16.7588     88.4740      0.2464      0.2679      0.7552      0.6696
   2764.5000      8.8920      0.4340      0.2769      0.2626      0.3784      0.4375      0.4311      2.0556      2.0421      2.6839    -16.7809     73.7076      0.2316      0.2678      0.7374      0.6694
   2765.0000      8.8211      0.4032      0.2992      0.2753      0.3688      0.4440      0.4382      2.1878      2.0328      2.9349    -19.5529     73.1086      0.1869      0.2414      0.5729      0.6036
   2765.5000      8.6348      0.3507      0.3298      0.2607      0.3385      0.4529      0.4480      2.2254      2.0552      3.0336    -23.3563     70.7363      0.1557      0.2053      0.4771      0.5132
   2766.0000      8.4407      0.2907      0.3480      0.2251      0.3039      0.4582      0.4538      2.2122      2.0852      2.7531    -25.6283     88.5902      0.1575      0.1837      0.4826      0.4593
   2766.5000      8.3228      0.2947      0.3380      0.2229      0.3041      0.4553      0.4506      2.1622      2.0903      2.3300    -24.4004     88.6418      0.1623      0.1955      0.4975      0.4888
   2767.0000      8.2715      0.3296      0.3159      0.2291      0.3230      0.4489      0.4435      2.0942      2.0738      2.3724    -21.6725     92.3898      0.1879      0.2217      0.5758      0.5542
   2767.5000      8.2840      0.3682      0.2877      0.2294      0.3431      0.4407      0.4346      2.0101      2.0602      2.3666    -18.1945     95.8035      0.2275      0.2550      0.6971      0.6374
   2768.0000      8.3047      0.3556      0.2739      0.2174      0.3318      0.4367      0.4302      1.8964      2.0809      2.8439    -16.4979     91.5820      0.2288      0.2713      0.7012      0.6781
   2768.5000      8.3261      0.3536      0.2639      0.1844      0.3212      0.4338      0.4270      1.7702      2.1135      2.8647    -15.2699    101.9473      0.2736      0.2831      0.8156      0.7077
   2769.0000      8.4499      0.3591      0.2637      0.1820      0.3176      0.4337      0.4269      1.6322      2.1321      2.5332    -15.2607     96.2167      0.2712      0.2833      0.8180      0.7082
   2769.5000      8.6190      0.3529      0.2520      0.1654      0.3169      0.4303      0.4231      1.5272      2.1266      1.9661    -13.8141    108.1668      0.3031      0.2972      0.8346      0.7430
   2770.0000      8.7292      0.3727      0.2278      0.1651      0.3311      0.4233      0.4154      1.4850      2.1062      1.9148    -10.8361    109.8376      0.3320      0.3257      0.8349      0.7722
   2770.5000      8.7656      0.3824      0.2055      0.1511      0.3414      0.4168      0.4083      1.4933      2.0857      2.0528     -8.0770    121.5236      0.3805      0.3521      0.8489      0.7945
   2771.0000      8.7656      0.4171      0.1914      0.1664      0.3637      0.4127      0.4038      1.5158      2.0603      1.6175     -6.3490    114.3237      0.3947      0.3687      0.8336      0.8086
   2771.5000      8.7656      0.4281      0.1834      0.1716      0.3740      0.4103      0.4013      1.5753      2.0426      1.5121     -5.3711    114.5393      0.4049      0.3782      0.8284      0.8166
   2772.0000      8.7656      0.3987      0.1737      0.1604      0.3589      0.4075      0.3981      1.5988      2.0506      1.6104     -4.1744    113.5955      0.3971      0.3897      0.8396      0.8263
   2772.5000      8.7656      0.3581      0.1617      0.1373      0.3316      0.4040      0.3943      1.5962      2.0850      1.5826     -2.6965    109.5703      0.3885      0.4039      0.8627      0.8383
   2773.0000      8.7656      0.2974      0.1539      0.1055      0.2941      0.4017      0.3918      1.6765      2.1308      2.4692     -1.7498    110.1468      0.3771      0.4131      0.8945      0.8461
   2773.5000      8.7656      0.3044      0.1537      0.0906      0.2898      0.4017      0.3918      1.7967      2.1548      2.3144     -1.7406    112.9858      0.3984      0.4133      0.9094      0.8463
   2774.0000      8.7656      0.3290      0.1357      0.0752      0.2996      0.3964      0.3860      1.9193      2.1532      2.4015      0.4873    117.2307      0.4487      0.4346      0.9248      0.8643
   2774.5000      8.7656      0.3657      0.1299      0.0716      0.3139      0.3948      0.3842      2.1188      2.1516      1.9485      1.1840    118.5964      0.4847      0.4414      0.9284      0.8701
   2775.0000      8.7656      0.3678      0.1208      0.0603      0.3070      0.3921      0.3813      2.2791      2.1749      2.3062      2.4119    111.4314      0.4935      0.4521      0.9397      0.8792
   2775.5000      8.7656      0.3382      0.1153      0.0377      0.2837      0.3905      0.3795      2.3058      2.2134      2.6925      3.4211    107.8139      0.4918      0.4586      0.9623      0.8847
   2776.0000      8.7656      0.2828      0.1279      0.0444      0.2527      0.3942      0.3835      2.3420      2.2516      5.8731      1.3990     95.4380      0.4166      0.4438      0.9556      0.8721
   2776.5000      8.7656      0.2739      0.1419      0.0421      0.2398      0.3982      0.3880      2.4180      2.2830      5.7691     -0.3418     91.8122      0.3953      0.4273      0.9579      0.8581
   2777.0000      8.7656      0.3015      0.1480      0.0382      0.2497      0.4000      0.3899      2.3430      2.2786      4.1908     -1.1139     99.4190      0.4231      0.4200      0.9618      0.8520
   2777.5000      8.7656      0.3220      0.1440      0.0443      0.2656      0.3989      0.3887      2.2820      2.2510      2.7858     -0.6359    104.0641      0.4425      0.4247      0.9557      0.8560
   2778.0000      8.7656      0.3116      0.1401      0.0664      0.2702      0.3977      0.3874      2.2202      2.2268      2.8439     -0.1580     94.7688      0.4075      0.4294      0.9336      0.8599
   2778.5000      8.7656      0.3389      0.1404      0.0647      0.2878      0.3978      0.3875      2.1325      2.2017      2.2444     -0.2113    107.4957      0.4462      0.4290      0.9353      0.8596
   2779.0000      8.7656      0.3730      0.1423      0.0841      0.3131      0.3983      0.3881      2.1510      2.1624      1.7445     -0.4521    110.3996      0.4580      0.4268      0.9159      0.8577
   2779.5000      8.7656      0.4218      0.1423      0.1047      0.3444      0.3984      0.3881      2.3578      2.1250      1.5140     -0.4742    111.3279      0.4793      0.4267      0.8953      0.8577
