~V
VERS. 2.00: Ver 2.00
WRAP.   NO:        
~W
 STRT.FT 500:
 STOP.FT 3500:
 STEP.FT 0.5:
 NULL. -999.250000:
 COMP. GARY DRILLING COMPANY:Company
 WELL. KCL 44-375:Well
 FLD. PIONEER:Field
 LOC. SEC 32 TWN 11N RGE 22W:Location
 STAT. CA:State
 SRVC. :Service Company
 SON. :Service Order #
 DATE. :Log Date
 UWI. :Unique Well ID
~C
 DEPT.FT :
 CALS.IN :
 NPHC.V/V :
 PHES. :
 PHIE. :
 PHIT. :
 PHTS. :
 PHZC. :
 RD.OHMM :
 ROBC.G/C3 :
 RS.OHMM :
 SBL.MV :
 SGRC.GAPI :
 VCLW. :
 VCWS. :
 VSHL. :
 VSHS. :
~P
~A
# ...
   2920.0000      8.7656      0.2634      0.2452      0.0902      0.2412      0.4277      0.4204      2.6778      2.2684      2.1908    -14.8459    106.7228      0.3021      0.3041      0.9098      0.7548
   2920.5000      8.7812      0.2972      0.2292      0.0870      0.2572      0.4230      0.4152      2.4513      2.2521      2.1941    -12.8615    110.3819      0.3404      0.3231      0.9130      0.7708
   2921.0000      8.8047      0.3164      0.2272      0.0962      0.2686      0.4224      0.4146      2.3128      2.2365      2.2198    -12.6270    108.5536      0.3448      0.3254      0.9038      0.7728
   2921.5000      8.8125      0.3429      0.2152      0.0943      0.2857      0.4189      0.4108      2.2991      2.2122      1.9485    -11.1426    115.9994      0.3828      0.3396      0.9057      0.7848
   2922.0000      8.7734      0.3554      0.2133      0.1004      0.2969      0.4184      0.4102      2.3189      2.1919      1.8834    -10.9082    119.2822      0.3929      0.3419      0.8996      0.7867
   2922.5000      8.7656      0.3596      0.2093      0.0957      0.2959      0.4172      0.4089      2.2770      2.1993      2.2837    -10.4238    117.7646      0.4004      0.3465      0.9043      0.7907
   2923.0000      8.7656      0.3027      0.2071      0.0827      0.2630      0.4166      0.4082      2.2055      2.2397      3.0749    -10.1581    110.0128      0.3607      0.3491      0.9173      0.7929
   2923.5000      8.7656      0.2562      0.2072      0.0920      0.2438      0.4166      0.4082      2.1427      2.2527      4.9015    -10.1737     96.9888      0.3036      0.3490      0.9080      0.7928
   2924.0000      8.7656      0.2722      0.2012      0.1123      0.2625      0.4149      0.4063      2.1009      2.2079      3.2540     -9.4393     95.8665      0.3006      0.3561      0.8877      0.7988
   2924.5000      8.7656      0.3500      0.1952      0.0993      0.3037      0.4131      0.4044      2.1026      2.1650      2.3254     -8.7048    125.8145      0.4089      0.3631      0.9007      0.8048
   2925.0000      8.7656      0.4142      0.1812      0.1018      0.3363      0.4090      0.3999      2.1263      2.1399      1.8420     -6.9704    130.8664      0.4691      0.3797      0.8982      0.8188
   2925.5000      8.7656      0.4305      0.1692      0.0942      0.3414      0.4055      0.3961      2.1091      2.1434      1.6069     -5.4860    129.2471      0.4943      0.3939      0.9058      0.8308
   2926.0000      8.7656      0.4245      0.1534      0.0692      0.3355      0.4009      0.3910      2.0340      2.1534      1.8254     -3.5328    142.0150      0.5325      0.4126      0.9308      0.8466
   2926.5000      8.7031      0.4151      0.1494      0.0535      0.3238      0.3998      0.3898      1.9820      2.1764      1.8714     -3.0484    142.0464      0.5406      0.4173      0.9465      0.8506
   2927.0000      8.6172      0.3560      0.1515      0.0531      0.2972      0.4004      0.3904      1.9803      2.1916      2.7288     -3.3140    133.3302      0.4881      0.4148      0.9469      0.8485
   2927.5000      8.6250      0.3122      0.1697      0.0641      0.2823      0.4057      0.3963      2.0179      2.1894      2.7074     -5.5795    134.4762      0.4364      0.3932      0.9359      0.8303
   2928.0000      8.6094      0.3472      0.1860      0.0846      0.3012      0.4104      0.4014      2.1616      2.1698      2.7441     -7.5951    134.4886      0.4331      0.3741      0.9154      0.8140
   2928.5000      8.6094      0.4066      0.1921      0.0967      0.3289      0.4122      0.4034      2.3903      2.1530      2.2265     -8.3607    136.1290      0.4645      0.3668      0.9033      0.8079
   2929.0000      8.6094      0.4582      0.1942      0.1111      0.3532      0.4128      0.4041      2.5295      2.1399      2.0485     -8.6263    129.7500      0.4843      0.3643      0.8889      0.8058
   2929.5000      8.6094      0.4418      0.1983      0.1229      0.3530      0.4140      0.4054      2.6456      2.1227      2.1443     -9.1418    130.0884      0.4603      0.3595      0.8771      0.8017
   2930.0000      8.6094      0.4092      0.2004      0.1248      0.3408      0.4146      0.4060      2.7279      2.1210      2.8274     -9.4074    129.3511      0.4320      0.3570      0.8752      0.7996
   2930.5000      8.6094      0.3361      0.2045      0.1282      0.3041      0.4158      0.4073      2.7640      2.1474      3.1577     -9.9230    111.3613      0.3517      0.3521      0.8718      0.7955
   2931.0000      8.6250      0.2967      0.2167      0.1003      0.2639      0.4193      0.4112      2.8155      2.2309      3.4778    -11.4386    103.9870      0.3272      0.3377      0.8997      0.7833
   2931.5000      8.7422      0.3046      0.2188      0.0754      0.2538      0.4199      0.4119      2.9134      2.2695      2.9174    -11.7041    107.9983      0.3567      0.3352      0.9246      0.7812
   2932.0000      8.7656      0.3618      0.2169      0.0792      0.2853      0.4194      0.4113      2.9697      2.2320      2.6487    -11.4697    119.7282      0.4122      0.3375      0.9208      0.7831
   2932.5000      8.7656      0.3946      0.2149      0.1003      0.3095      0.4188      0.4107      2.9474      2.1957      2.6006    -11.2353    118.0251      0.4183      0.3398      0.8997      0.7851
   2933.0000      8.7656      0.3671      0.2251      0.1203      0.3020      0.4218      0.4139      2.9017      2.1892      2.8098    -12.5009    108.8797      0.3634      0.3278      0.8797      0.7749
   2933.5000      8.7656      0.3414      0.2353      0.1301      0.2941      0.4247      0.4171      2.8690      2.1853      2.7403    -13.7665    106.0885      0.3278      0.3158      0.8699      0.7647
   2934.0000      8.7656      0.3480      0.2414      0.1396      0.3008      0.4265      0.4191      2.8106      2.1718      2.6888    -14.5320    106.4456      0.3224      0.3085      0.8604      0.7586
   2934.5000      8.7266      0.3627      0.2475      0.1408      0.3081      0.4283      0.4211      2.7525      2.1660      3.2979    -15.2976    110.3021      0.3347      0.3013      0.8592      0.7525
   2935.0000      8.6328      0.3448      0.2516      0.1345      0.2881      0.4295      0.4224      2.6473      2.2069      4.1610    -15.8132     98.0657      0.3073      0.2964      0.8655      0.7410
   2935.5000      8.4766      0.2927      0.2638      0.1159      0.2548      0.4330      0.4263      2.5597      2.2548      4.7239    -17.3288     97.0197      0.2778      0.2820      0.8513      0.7050
   2936.0000      8.4922      0.2831      0.2579      0.1006      0.2433      0.4313      0.4243      2.5362      2.2809      3.6600    -16.5943     96.2547      0.2854      0.2890      0.8747      0.7226
   2936.5000      8.7656      0.3244      0.2360      0.1052      0.2665      0.4249      0.4174      2.6026      2.2506      2.5030    -13.8912     97.2208      0.3226      0.3149      0.8948      0.7640
   2937.0000      8.7656      0.3559      0.2098      0.1006      0.2930      0.4173      0.4090      2.7344      2.2037      2.0350    -10.6567    111.9244      0.3849      0.3458      0.8994      0.7902
   2937.5000      8.7656      0.3893      0.1877      0.1014      0.3128      0.4109      0.4020      3.0058      2.1810      1.9780     -7.9223    110.8005      0.4227      0.3719      0.8986      0.8123
   2938.0000      8.7656      0.4082      0.1777      0.0915      0.3125      0.4080      0.3988      3.3147      2.2007      2.1721     -6.6879    104.3815      0.4420      0.3837      0.9085      0.8223
   2938.5000      8.7656      0.4204      0.1798      0.0400      0.2823      0.4086      0.3994      3.6071      2.2880      2.7377     -6.9535    103.3029      0.4846      0.3813      0.9600      0.8202
   2939.0000      8.7656      0.3505      0.1897      0.0282      0.2016      0.4115      0.4026      3.8911      2.4325      6.9353     -8.1878     88.7156      0.3466      0.3695      0.9718      0.8103
   2939.5000      8.7656      0.2424      0.1981      0.0000      0.0981      0.4139      0.4053      4.0969      2.6205     27.4248     -9.2346     66.2069      0.2304      0.3596      1.0000      0.8019
