~V
VERS. 2.00: Ver 2.00
WRAP.   NO:        
~W
 STRT.FT 500:
 STOP.FT 3500:
 STEP.FT 0.5:
 NULL. -999.250000:
 COMP. GARY DRILLING COMPANY:Company
 WELL. KCL 44-375:Well
 FLD. PIONEER:Field
 LOC. SEC 32 TWN 11N RGE 22W:Location
 STAT. CA:State
 SRVC. :Service Company
 SON. :Service Order #
 DATE. :Log Date
 UWI. :Unique Well ID
~C
 DEPT.FT :
 CALS.IN :
 NPHC.V/V :
 PHES. :
 PHIE. :
 PHIT. :
 PHTS. :
 PHZC. :
 RD.OHMM :
 ROBC.G/C3 :
 RS.OHMM :
 SBL.MV :
 SGRC.GAPI :
 VCLW. :
 VCWS. :
 VSHL. :
 VSHS. :
~P
~A
# ...
   2200.0000      8.9219      0.4282      0.3443      0.3287      0.4141      0.4595      0.4549      1.2433      1.7126      1.0271    -12.5037     90.7518      0.1709      0.1921      0.5236      0.4803
   2200.5000      8.9219      0.4433      0.3570      0.3423      0.4219      0.4632      0.4590      1.1556      1.6932      1.0226    -13.4983     88.0567      0.1592      0.1771      0.4878      0.4427
   2201.0000      8.9219      0.4408      0.3506      0.3275      0.4201      0.4614      0.4569      1.0910      1.6945      1.0042    -12.9929     97.9537      0.1852      0.1846      0.5676      0.4616
   2201.5000      8.9219      0.5041      0.3410      0.3454      0.4693      0.4586      0.4539      1.0595      1.6954      1.1040    -12.2374    110.1779      0.2478      0.1959      0.6546      0.4899
   2202.0000      8.9219      0.5053      0.3315      0.3361      0.4717      0.4558      0.4508      1.0674      1.7147      1.1881    -11.4820    114.3336      0.2712      0.2072      0.6639      0.5181
   2202.5000      8.9219      0.5016      0.3124      0.3164      0.4742      0.4503      0.4447      1.1193      1.7620      1.3166     -9.9765    122.1861      0.3156      0.2298      0.6836      0.5745
   2203.0000      8.9219      0.4694      0.2965      0.2836      0.4526      0.4456      0.4397      1.1770      1.8399      1.4120     -8.7211    122.5249      0.3380      0.2486      0.7164      0.6214
   2203.5000      8.9219      0.4622      0.2584      0.2455      0.4277      0.4346      0.4275      1.2546      1.9161      1.7555     -5.7156    109.8665      0.3644      0.2936      0.7545      0.7339
   2204.0000      8.9062      0.4528      0.2331      0.2153      0.4056      0.4272      0.4194      1.3349      1.9760      1.8002     -3.7102    101.1583      0.3805      0.3235      0.7847      0.7669
   2204.5000      8.9062      0.4458      0.2141      0.1910      0.3968      0.4217      0.4134      1.3901      1.9942      1.8186     -2.2048    107.1905      0.4118      0.3460      0.8090      0.7859
   2205.0000      8.8203      0.4754      0.2078      0.2094      0.4149      0.4198      0.4114      1.4217      1.9796      1.6319     -1.6993     98.5207      0.4109      0.3534      0.7906      0.7922
   2205.5000      8.8047      0.4852      0.2047      0.2179      0.4256      0.4189      0.4104      1.4106      1.9596      1.4782     -1.4439    100.1392      0.4154      0.3571      0.7821      0.7953
   2206.0000      8.8047      0.4879      0.2111      0.2135      0.4356      0.4208      0.4124      1.3453      1.9313      1.4285     -1.9384    118.7332      0.4442      0.3495      0.7865      0.7889
   2206.5000      8.8125      0.4547      0.2174      0.2283      0.4310      0.4226      0.4144      1.2720      1.8917      1.2951     -2.4330    120.7819      0.4053      0.3420      0.7717      0.7826
   2207.0000      8.8047      0.4785      0.2301      0.2541      0.4584      0.4263      0.4185      1.2223      1.8355      1.1209     -3.4276    133.8481      0.4087      0.3270      0.7459      0.7699
   2207.5000      8.8125      0.4809      0.2586      0.2968      0.4670      0.4346      0.4276      1.1610      1.7913      1.0353     -5.6721    116.0401      0.3404      0.2933      0.7032      0.7333
   2208.0000      8.7969      0.4786      0.2871      0.3261      0.4619      0.4429      0.4366      1.1273      1.7746      1.0428     -7.9167     99.7145      0.2717      0.2597      0.6739      0.6492
   2208.5000      8.8047      0.4496      0.3123      0.3358      0.4457      0.4502      0.4447      1.0752      1.7793      1.0582     -9.9112     92.9641      0.2197      0.2298      0.6642      0.5745
   2209.0000      8.8125      0.4435      0.3187      0.3482      0.4486      0.4521      0.4467      1.0187      1.7979      1.0976    -10.4058     85.5571      0.2008      0.2223      0.6154      0.5558
   2209.5000      8.7969      0.4475      0.3186      0.3370      0.4505      0.4520      0.4467      0.9827      1.8041      1.0793    -10.4003     94.3898      0.2269      0.2223      0.6630      0.5559
   2210.0000      8.7891      0.4603      0.3092      0.3485      0.4568      0.4493      0.4437      0.9449      1.7953      1.0690     -9.6449     85.3115      0.2165      0.2335      0.6515      0.5838
   2210.5000      8.8047      0.4613      0.3249      0.3538      0.4485      0.4539      0.4487      0.9165      1.7628      0.9839    -10.8895     81.9123      0.1893      0.2149      0.5803      0.5373
   2211.0000      8.8047      0.4580      0.3411      0.3545      0.4394      0.4586      0.4539      0.8976      1.7304      1.0154    -12.1653     81.4490      0.1699      0.1958      0.5206      0.4896
   2211.5000      8.8125      0.4589      0.3729      0.3631      0.4350      0.4678      0.4640      0.8719      1.7006      0.9952    -14.6911     80.5806      0.1440      0.1582      0.4413      0.3954
   2212.0000      8.8047      0.4525      0.3859      0.3731      0.4280      0.4716      0.4682      0.8443      1.6863      0.9807    -16.4356     69.9031      0.1098      0.1429      0.3364      0.3572
   2212.5000      8.8047      0.4535      0.3921      0.3792      0.4275      0.4734      0.4701      0.8236      1.6776      0.9111    -17.6802     68.0213      0.0967      0.1355      0.2962      0.3387
   2213.0000      8.8047      0.4523      0.3971      0.3803      0.4266      0.4749      0.4717      0.8094      1.6780      0.9135    -18.6747     70.1725      0.0927      0.1295      0.2841      0.3239
   2213.5000      8.8047      0.4648      0.3984      0.3832      0.4365      0.4752      0.4721      0.8034      1.6771      0.9466    -18.9193     77.0748      0.1065      0.1281      0.3264      0.3202
   2214.0000      8.8984      0.4884      0.3958      0.3812      0.4561      0.4745      0.4713      0.8005      1.6854      0.9409    -18.4139     91.5720      0.1499      0.1311      0.4593      0.3277
   2214.5000      8.9062      0.4787      0.3895      0.3712      0.4494      0.4726      0.4693      0.8031      1.6932      0.9521    -17.1584     91.7736      0.1564      0.1385      0.4794      0.3463
   2215.0000      8.9219      0.4797      0.3870      0.3747      0.4514      0.4719      0.4685      0.8131      1.7041      0.8998    -16.6530     87.7094      0.1534      0.1415      0.4700      0.3538
   2215.5000      8.9219      0.4603      0.3807      0.3569      0.4381      0.4701      0.4665      0.8214      1.7133      0.8783    -15.3975     90.6201      0.1625      0.1489      0.4978      0.3724
   2216.0000      8.9219      0.4638      0.3695      0.3464      0.4427      0.4668      0.4629      0.8294      1.7255      0.8814    -14.3921     98.5020      0.1927      0.1622      0.5904      0.4056
   2216.5000      8.9219      0.4443      0.3538      0.3359      0.4318      0.4622      0.4579      0.8374      1.7400      0.8896    -13.1367     96.6973      0.1918      0.1808      0.5879      0.4519
   2217.0000      8.9219      0.4584      0.3346      0.3391      0.4428      0.4566      0.4518      0.8399      1.7457      0.8874    -11.6000     95.6871      0.2074      0.2035      0.6356      0.5086
   2217.5000      8.9219      0.4791      0.3346      0.3507      0.4564      0.4566      0.4518      0.8429      1.7428      0.8800    -11.5945     93.4809      0.2114      0.2035      0.6479      0.5087
   2218.0000      8.9219      0.5028      0.3377      0.3632      0.4720      0.4575      0.4528      0.8421      1.7362      0.9050    -11.8391     91.2813      0.2176      0.1998      0.6368      0.4995
   2218.5000      8.9219      0.4873      0.3537      0.3538      0.4581      0.4622      0.4579      0.8417      1.7125      0.9361    -13.1149     98.8944      0.2085      0.1809      0.6389      0.4522
   2219.0000      8.9219      0.4282      0.3716      0.3239      0.4109      0.4674      0.4636      0.8452      1.6971      0.9143    -14.5469    101.2252      0.1740      0.1597      0.5332      0.3992
   2219.5000      8.9219      0.4125      0.3815      0.3236      0.3967      0.4703      0.4667      0.8486      1.6874      0.8874    -15.5415     96.4428      0.1463      0.1480      0.4483      0.3699
