~V
VERS. 2.00: Ver 2.00
WRAP.   NO:        
~W
 STRT.FT 500:
 STOP.FT 3500:
 STEP.FT 0.5:
 NULL. -999.250000:
 COMP. GARY DRILLING COMPANY:Company
 WELL. KCL 44-375:Well
 FLD. PIONEER:Field
 LOC. SEC 32 TWN 11N RGE 22W:Location
 STAT. CA:State
 SRVC. :Service Company
 SON. :Service Order #
 DATE. :Log Date
 UWI. :Unique Well ID
~C
 DEPT.FT :
 CALS.IN :
 NPHC.V/V :
 PHES. :
 PHIE. :
 PHIT. :
 PHTS. :
 PHZC. :
 RD.OHMM :
 ROBC.G/C3 :
 RS.OHMM :
 SBL.MV :
 SGRC.GAPI :
 VCLW. :
 VCWS. :
 VSHL. :
 VSHS. :
~P
~A
# ...
   1180.0000     17.1482      0.5819      0.0000      0.0000      0.2717      0.2717      0.2759      1.6776      1.7797      1.5459     -7.5343     66.5072      0.5225      0.5225      1.3064      1.7418
   1180.5000     15.6836      0.5680      0.0000      0.0000      0.2780      0.2780      0.2747      1.6817      1.6822      1.5399     -6.9917     65.9205      0.5347      0.5347      1.3367      1.7822
   1181.0000     14.6030      0.5512      0.0000      0.0000      0.2832      0.2832      0.2737      1.6843      1.6492      1.5741     -6.5429     66.1753      0.5446      0.5446      1.3616      1.8154
   1181.5000     14.5629      0.5483      0.0000      0.0000      0.2865      0.2865      0.2731      1.6922      1.6765      1.5612     -6.2504     71.2437      0.5510      0.5510      1.3775      1.8367
   1182.0000     15.0301      0.5375      0.0000      0.0000      0.2869      0.2869      0.2730      1.6957      1.7350      1.6153     -6.2078     77.6263      0.5516      0.5516      1.3791      1.8388
   1182.5000     14.0895      0.5193      0.0000      0.0000      0.2775      0.2775      0.2748      1.6960      1.7588      1.6615     -6.9778     76.0155      0.5337      0.5337      1.3342      1.7789
   1183.0000     13.1837      0.4722      0.0000      0.0000      0.2920      0.2920      0.2720      1.7114      1.7404      1.7115     -5.7477     71.3984      0.5615      0.5615      1.4038      1.8718
   1183.5000     13.8945      0.4470      0.0000      0.0000      0.2920      0.2920      0.2720      1.7276      1.7450      1.6193     -5.7364     72.1770      0.5615      0.5615      1.4037      1.8715
   1184.0000     14.7279      0.4550      0.0000      0.0000      0.2834      0.2834      0.2737      1.7419      1.7829      1.5725     -6.4439     73.2735      0.5449      0.5449      1.3623      1.8163
   1184.5000     15.1209      0.4931      0.0000      0.0000      0.2807      0.2807      0.2742      1.7497      1.8428      1.5666     -6.6513     74.2097      0.5398      0.5398      1.3495      1.7994
   1185.0000     15.6823      0.4976      0.0000      0.0000      0.2810      0.2810      0.2741      1.7502      1.8886      1.6578     -6.6088     78.2287      0.5405      0.5405      1.3512      1.8016
   1185.5000     15.3484      0.4928      0.0000      0.0000      0.2747      0.2747      0.2753      1.7461      1.9286      1.7245     -7.1287     79.6433      0.5282      0.5282      1.3205      1.7607
   1186.0000     14.7136      0.4712      0.0000      0.0000      0.2750      0.2750      0.2753      1.7427      1.9529      1.7503     -7.0862     78.6191      0.5289      0.5289      1.3221      1.7628
   1186.5000     14.8616      0.4652      0.0000      0.0000      0.2753      0.2753      0.2752      1.7506      1.9497      1.6961     -7.0436     78.7800      0.5295      0.5295      1.3238      1.7650
   1187.0000     15.1495      0.4569      0.0000      0.0000      0.2760      0.2760      0.2750      1.7493      1.9299      1.6508     -6.9698     77.6806      0.5309      0.5309      1.3271      1.7695
   1187.5000     15.0919      0.4761      0.0000      0.0000      0.2734      0.2734      0.2755      1.7444      1.8962      1.6406     -7.1773     76.9363      0.5258      0.5258      1.3145      1.7526
   1188.0000     14.8685      0.5046      0.0000      0.0000      0.2763      0.2763      0.2750      1.7385      1.8660      1.6216     -6.9160     73.7260      0.5314      0.5314      1.3286      1.7714
   1188.5000     14.9789      0.5033      0.0000      0.0000      0.2972      0.2956      0.2710      1.7252      1.8595      1.6069     -5.1547     71.5099      0.5715      0.5699      1.4287      1.9049
   1189.0000     14.9849      0.4749      0.0000      0.0000      0.2793      0.2793      0.2744      1.7150      1.8669      1.6329     -6.6434     71.7026      0.5370      0.5370      1.3426      1.7901
   1189.5000     14.1367      0.4555      0.0000      0.0000      0.2759      0.2759      0.2751      1.7183      1.8582      1.6283     -6.9133     70.2799      0.5305      0.5305      1.3263      1.7683
   1190.0000     13.1262      0.4769      0.0000      0.0000      0.2758      0.2758      0.2751      1.7274      1.8266      1.6582     -6.9020     71.2992      0.5304      0.5304      1.3261      1.7681
   1190.5000     13.6696      0.5229      0.0000      0.0000      0.2784      0.2784      0.2746      1.7391      1.8400      1.6573     -6.6720     72.8589      0.5354      0.5354      1.3384      1.7846
   1191.0000     13.7060      0.5049      0.0000      0.0000      0.2780      0.2780      0.2746      1.7709      1.8804      1.6480     -6.6919     72.1085      0.5346      0.5346      1.3365      1.7820
   1191.5000     13.3231      0.5123      0.0000      0.0000      0.2806      0.2806      0.2741      1.7943      1.8985      1.6149     -6.4619     71.9741      0.5395      0.5395      1.3488      1.7984
   1192.0000     12.9838      0.4582      0.0000      0.0000      0.3040      0.2949      0.2696      1.8133      1.8446      1.7185     -4.4818     72.4242      0.5845      0.5754      1.4614      1.9485
   1192.5000     12.6928      0.4924      0.0000      0.0000      0.2887      0.2887      0.2726      1.8352      1.7930      1.8607     -5.7518     72.4592      0.5551      0.5551      1.3878      1.8504
   1193.0000     12.3930      0.4553      0.0000      0.0000      0.2856      0.2856      0.2731      1.8550      1.8054      1.9498     -5.9905     73.7200      0.5493      0.5493      1.3733      1.8311
   1193.5000     12.0106      0.4715      0.0000      0.0000      0.2834      0.2834      0.2736      1.8822      1.8716      1.8762     -6.1667     77.4079      0.5450      0.5450      1.3624      1.8165
   1194.0000     11.8816      0.4742      0.0000      0.0000      0.2830      0.2830      0.2736      1.9315      1.9164      1.7655     -6.1866     81.7575      0.5442      0.5442      1.3604      1.8139
   1194.5000     11.8341      0.4880      0.0000      0.0000      0.2826      0.2826      0.2737      1.9810      1.9314      1.7571     -6.2066     82.4301      0.5434      0.5434      1.3585      1.8113
   1195.0000     12.1582      0.4762      0.0000      0.0000      0.2833      0.2833      0.2736      2.0111      1.9321      1.7985     -6.1328     84.1697      0.5447      0.5447      1.3618      1.8158
   1195.5000     12.2530      0.4280      0.0000      0.0000      0.2925      0.2925      0.2718      2.0540      1.9248      1.8631     -5.3402     86.3423      0.5626      0.5626      1.4064      1.8752
   1196.0000     12.3071      0.4300      0.0000      0.0000      0.2921      0.2921      0.2719      2.0838      1.9193      1.9694     -5.3602     88.2118      0.5618      0.5618      1.4044      1.8726
   1196.5000     12.7561      0.4389      0.0000      0.0000      0.2925      0.2925      0.2718      2.1161      1.9100      2.0709     -5.3176     87.8924      0.5624      0.5624      1.4060      1.8747
   1197.0000     12.7563      0.4387      0.0000      0.0000      0.2861      0.2861      0.2730      2.1528      1.8936      2.1381     -5.8376     87.1245      0.5502      0.5502      1.3754      1.8339
   1197.5000     12.5865      0.4131      0.0000      0.0000      0.2745      0.2745      0.2752      2.1905      1.9024      2.1451     -6.7950     86.4176      0.5279      0.5279      1.3198      1.7598
   1198.0000     12.4393      0.4048      0.0000      0.0000      0.2563      0.2563      0.2787      2.2073      1.9283      2.1357     -8.3150     83.7645      0.4928      0.4928      1.2320      1.6427
   1198.5000     12.1127      0.4260      0.0000      0.0000      0.2678      0.2678      0.2765      2.2209      1.9705      2.0586     -7.3349     84.2319      0.5149      0.5149      1.2873      1.7164
   1199.0000     11.7393      0.4452      0.0000      0.0000      0.2644      0.2644      0.2772      2.2249      1.9863      2.0442     -7.6049     85.4950      0.5084      0.5084      1.2710      1.6947
   1199.5000     12.5058      0.4175      0.0000      0.0000      0.2766      0.2766      0.2748      2.2173      1.9896      2.0315     -6.5623     87.0343      0.5319      0.5319      1.3298      1.7731
