~V
VERS. 2.00: Ver 2.00
WRAP.   NO:        
~W
 STRT.FT 500:
 STOP.FT 3500:
 STEP.FT 0.5:
 NULL. -999.250000:
 COMP. GARY DRILLING COMPANY:Company
 WELL. KCL 44-375:Well
 FLD. PIONEER:Field
 LOC. SEC 32 TWN 11N RGE 22W:Location
 STAT. CA:State
 SRVC. :Service Company
 SON. :Service Order #
 DATE. :Log Date
 UWI. :Unique Well ID
~C
 DEPT.FT :
 CALS.IN :
 NPHC.V/V :
 PHES. :
 PHIE. :
 PHIT. :
 PHTS. :
 PHZC. :
 RD.OHMM :
 ROBC.G/C3 :
 RS.OHMM :
 SBL.MV :
 SGRC.GAPI :
 VCLW. :
 VCWS. :
 VSHL. :
 VSHS. :
~P
~A
# ...
   3060.0000      8.7656      0.2711      0.2376      0.0838      0.2384      0.4248      0.4174      3.3477      2.2846      4.4347    -15.4885    102.4774      0.3093      0.3122      0.9162      0.7624
   3060.5000      8.7501      0.2232      0.2436      0.0835      0.2165      0.4266      0.4193      3.3118      2.3095      4.6016    -16.2541     95.5243      0.2659      0.3050      0.8148      0.7564
   3061.0000      8.7191      0.2142      0.2497      0.0942      0.2190      0.4284      0.4212      3.2126      2.2922      3.4532    -17.0197     96.2662      0.2496      0.2979      0.7649      0.7446
   3061.5000      8.7340      0.2327      0.2393      0.0833      0.2256      0.4254      0.4179      3.1533      2.2887      3.3128    -15.7540    102.7027      0.2844      0.3101      0.8716      0.7607
   3062.0000      8.9164      0.2510      0.2272      0.0876      0.2391      0.4218      0.4140      3.0686      2.2627      4.1230    -14.2696    105.5455      0.3029      0.3244      0.9124      0.7728
   3062.5000      9.0648      0.2638      0.2111      0.1064      0.2552      0.4171      0.4089      2.9279      2.2229      3.2776    -12.2851     99.7178      0.2975      0.3435      0.8936      0.7889
   3063.0000      9.0778      0.3115      0.2053      0.1103      0.2877      0.4154      0.4070      2.8065      2.1709      2.8760    -11.5820    116.3757      0.3549      0.3503      0.8897      0.7947
   3063.5000      8.9820      0.3707      0.1871      0.1012      0.3127      0.4102      0.4012      2.7458      2.1611      2.5631     -9.3475    120.6293      0.4230      0.3718      0.8988      0.8129
   3064.0000      8.9839      0.4010      0.1790      0.0822      0.3166      0.4078      0.3987      2.6726      2.1821      2.7531     -8.3631    123.7058      0.4688      0.3813      0.9178      0.8210
   3064.5000      9.0134      0.3777      0.1831      0.0888      0.3114      0.4090      0.3999      2.5996      2.1726      2.6451     -8.8787    125.3558      0.4452      0.3765      0.9112      0.8169
   3065.0000      9.2532      0.3338      0.1788      0.0970      0.2986      0.4077      0.3986      2.5689      2.1621      2.6863     -8.3630    118.8061      0.4032      0.3816      0.9030      0.8212
   3065.5000      9.3305      0.2962      0.1848      0.1081      0.2865      0.4095      0.4005      2.5643      2.1558      2.6250     -9.1286    113.9200      0.3568      0.3745      0.8919      0.8152
   3066.0000      9.3289      0.3097      0.1871      0.1031      0.2965      0.4101      0.4012      2.5747      2.1389      2.8384     -9.4254    130.4497      0.3868      0.3718      0.8969      0.8129
   3066.5000      9.1249      0.3208      0.1888      0.1097      0.3024      0.4107      0.4018      2.6051      2.1332      2.8125     -9.6598    127.6335      0.3854      0.3697      0.8903      0.8112
   3067.0000      9.2474      0.3491      0.1888      0.1046      0.3095      0.4107      0.4018      2.6238      2.1457      2.9736     -9.6753    127.8689      0.4097      0.3697      0.8954      0.8112
   3067.5000      9.0937      0.3431      0.1909      0.0971      0.3015      0.4112      0.4024      2.6457      2.1641      2.9857     -9.9409    126.4735      0.4087      0.3673      0.9029      0.8091
   3068.0000      8.8863      0.3596      0.1888      0.0938      0.3063      0.4106      0.4018      2.6882      2.1681      3.1628     -9.7065    126.5473      0.4249      0.3697      0.9062      0.8112
   3068.5000      8.7784      0.3357      0.1908      0.0940      0.2956      0.4112      0.4024      2.7444      2.1739      2.9646     -9.9721    123.5584      0.4032      0.3673      0.9060      0.8092
   3069.0000      8.7656      0.3675      0.1949      0.0923      0.3056      0.4124      0.4037      2.8434      2.1789      2.8577    -10.4876    125.3438      0.4266      0.3625      0.9077      0.8051
   3069.5000      8.7656      0.3870      0.1989      0.0906      0.3122      0.4136      0.4050      2.9781      2.1802      2.6987    -11.0032    129.6846      0.4432      0.3578      0.9094      0.8011
   3070.0000      8.7656      0.3979      0.1969      0.0866      0.3140      0.4130      0.4043      3.0354      2.1863      2.8675    -10.7688    128.7068      0.4549      0.3602      0.9134      0.8031
   3070.5000      8.7656      0.3593      0.1949      0.0711      0.2905      0.4124      0.4037      3.0188      2.2147      3.7950    -10.5344    126.8121      0.4387      0.3625      0.9289      0.8051
   3071.0000      8.7656      0.3075      0.1929      0.0652      0.2692      0.4118      0.4030      3.0065      2.2256      4.8933    -10.2999    126.7768      0.4079      0.3649      0.9348      0.8071
   3071.5000      8.7656      0.3285      0.1828      0.0604      0.2782      0.4089      0.3998      2.9863      2.2197      4.6675     -9.0655    128.8507      0.4357      0.3768      0.9396      0.8172
   3072.0000      8.7656      0.3430      0.1787      0.0689      0.2880      0.4077      0.3985      2.9503      2.2053      3.6016     -8.5811    124.6068      0.4382      0.3816      0.9311      0.8213
   3072.5000      8.7656      0.3780      0.1729      0.0563      0.3001      0.4060      0.3967      2.9053      2.2056      3.0010     -7.8779    135.5531      0.4876      0.3885      0.9437      0.8271
   3073.0000      8.7656      0.3689      0.1648      0.0487      0.2968      0.4037      0.3941      2.8105      2.2061      2.7740     -6.8935    139.1399      0.4962      0.3980      0.9513      0.8352
   3073.5000      8.7656      0.3787      0.1608      0.0620      0.3065      0.4025      0.3928      2.7139      2.1881      2.6463     -6.4091    131.8494      0.4890      0.4028      0.9380      0.8392
   3074.0000      8.7656      0.3816      0.1588      0.0686      0.3134      0.4019      0.3922      2.6265      2.1711      2.5256     -6.1747    134.2707      0.4897      0.4052      0.9314      0.8412
   3074.5000      8.7656      0.3936      0.1588      0.0710      0.3193      0.4019      0.3922      2.5731      2.1668      2.5453     -6.1902    134.2660      0.4965      0.4052      0.9290      0.8412
   3075.0000      8.7656      0.3890      0.1570      0.0630      0.3138      0.4014      0.3916      2.5319      2.1777      2.8058     -5.9871    135.3567      0.5017      0.4072      0.9370      0.8430
   3075.5000      8.7656      0.3876      0.1530      0.0585      0.3098      0.4002      0.3903      2.5271      2.1878      2.9527     -5.5026    130.4892      0.5025      0.4120      0.9415      0.8470
   3076.0000      8.7656      0.3797      0.1487      0.0498      0.3047      0.3989      0.3889      2.5492      2.1944      3.0010     -4.9870    133.7523      0.5097      0.4171      0.9502      0.8513
   3076.5000      8.7656      0.3916      0.1464      0.0470      0.3095      0.3983      0.3882      2.5714      2.1928      2.9218     -4.7213    136.4411      0.5249      0.4198      0.9530      0.8536
   3077.0000      8.7656      0.3935      0.1484      0.0565      0.3142      0.3989      0.3888      2.5813      2.1812      2.9571     -4.9869    134.5945      0.5156      0.4174      0.9435      0.8516
   3077.5000      8.7656      0.3718      0.1504      0.0591      0.3106      0.3994      0.3895      2.5853      2.1687      2.9335     -5.2524    141.9894      0.5030      0.4150      0.9409      0.8496
   3078.0000      8.7656      0.3641      0.1487      0.0611      0.3103      0.3989      0.3889      2.6107      2.1610      2.7687     -5.0493    143.4965      0.4983      0.4171      0.9389      0.8513
   3078.5000      8.7656      0.3650      0.1507      0.0601      0.3106      0.3995      0.3896      2.6335      2.1609      2.5721     -5.3148    146.3895      0.5009      0.4147      0.9399      0.8493
   3079.0000      8.7656      0.3796      0.1467      0.0558      0.3163      0.3983      0.3883      2.6550      2.1602      2.5519     -4.8304    149.3549      0.5210      0.4195      0.9442      0.8533
   3079.5000      8.7656      0.3834      0.1567      0.0622      0.3195      0.4013      0.3915      2.6541      2.1551      2.7275     -6.0960    152.8790      0.5147      0.4076      0.9378      0.8433
