~V
VERS. 2.00: Ver 2.00
WRAP.   NO:        
~W
 STRT.FT 500:
 STOP.FT 3500:
 STEP.FT 0.5:
 NULL. -999.250000:
 COMP. GARY DRILLING COMPANY:Company
 WELL. KCL 44-375:Well
 FLD. PIONEER:Field
 LOC. SEC 32 TWN 11N RGE 22W:Location
 STAT. CA:State
 SRVC. :Service Company
 SON. :Service Order #
 DATE. :Log Date
 UWI. :Unique Well ID
~C
 DEPT.FT :
 CALS.IN :
 NPHC.V/V :
 PHES. :
 PHIE. :
 PHIT. :
 PHTS. :
 PHZC. :
 RD.OHMM :
 ROBC.G/C3 :
 RS.OHMM :
 SBL.MV :
 SGRC.GAPI :
 VCLW. :
 VCWS. :
 VSHL. :
 VSHS. :
~P
~A
# ...
   3200.0000      8.2031      0.3514      0.1192      0.0000      0.2657      0.3899      0.3790      2.8995      2.2766      3.2289     -2.2031   -999.2500      0.5621      0.4510      1.0000      0.8808
   3200.5000      8.0703      0.3682      0.1167      0.0000      0.2746      0.3891      0.3782      2.8596      2.2669      2.9189     -1.7344   -999.2500      0.5809      0.4540      1.0000      0.8833
   3201.0000      7.9961      0.3823      0.1196      0.0000      0.2807      0.3899      0.3791      2.8552      2.2626      2.8179     -2.2656   -999.2500      0.5888      0.4506      1.0000      0.8804
   3201.5000      8.0000      0.3771      0.1255      0.0000      0.2769      0.3917      0.3810      2.8207      2.2682      2.9691     -3.0312   -999.2500      0.5775      0.4436      1.0000      0.8745
   3202.0000      8.0469      0.3616      0.1336      0.0000      0.2762      0.3940      0.3836      2.8270      2.2569      3.1645     -4.0312   -999.2500      0.5561      0.4341      1.0000      0.8664
   3202.5000      8.1562      0.3509      0.1376      0.0131      0.2780      0.3952      0.3849      2.8240      2.2423      3.3184     -4.5312   -999.2500      0.5298      0.4293      0.9869      0.8624
   3203.0000      8.2578      0.3574      0.1356      0.0138      0.2824      0.3946      0.3842      2.8215      2.2361      3.4370     -4.2812   -999.2500      0.5371      0.4317      0.9862      0.8644
   3203.5000      8.1484      0.3598      0.1396      0.0288      0.2889      0.3958      0.3855      2.8145      2.2197      2.9721     -4.7812   -999.2500      0.5203      0.4269      0.9712      0.8604
   3204.0000      8.1484      0.3510      0.1578      0.0666      0.2953      0.4010      0.3913      2.8125      2.1920      3.3602     -7.0312   -999.2500      0.4575      0.4055      0.9334      0.8422
   3204.5000      8.0156      0.3513      0.0000      0.0000      0.2560      0.3999      0.3900   -999.2500      2.1673   -999.2500     -6.5312   -999.2500      0.4222      0.4102      1.0000      1.0000
   3205.0000      7.9961      0.3708      0.0000      0.0017      0.2571      0.3999      0.3901   -999.2500      2.1638   -999.2500     -6.5625   -999.2500      0.4212      0.4099      0.9983      1.0000
   3205.5000      7.9961      0.3881      0.0000      0.0144      0.2699      0.4005      0.3907   -999.2500      2.1577   -999.2500     -6.8125   -999.2500      0.4212      0.4076      0.9856      1.0000
   3206.0000      7.9961      0.3668      0.0000      0.0300      0.2854      0.4005      0.3907   -999.2500      2.1380   -999.2500     -6.8125   -999.2500      0.4212      0.4076      0.9700      1.0000
   3206.5000      7.9961      0.3495      0.0000      0.0238      0.2791      0.4005      0.3907   -999.2500      2.1164   -999.2500     -6.8125   -999.2500      0.4212      0.4076      0.9762      1.0000
   3207.0000      7.8398      0.3411      0.0000      0.0133      0.2631      0.3999      0.3901   -999.2500      2.1383   -999.2500     -6.5625   -999.2500      0.4120      0.4099      0.9867      1.0000
   3207.5000      7.7812      0.3503      0.0000      0.0031      0.2509      0.4006      0.3908   -999.2500      2.1656   -999.2500     -6.8438   -999.2500      0.4086      0.4072      0.9969      1.0000
   3208.0000      7.5781      0.3454      0.0000      0.0098      0.2503      0.4000      0.3902   -999.2500      2.1855   -999.2500     -6.5938   -999.2500      0.3965      0.4096      0.9902      1.0000
   3208.5000      7.5352   -999.2500      0.0000      0.0086      0.2475      0.4005      0.3907   -999.2500      2.1862   -999.2500     -6.8125   -999.2500      0.3939      0.4076      0.9914      1.0000
   3209.0000      7.5352   -999.2500      0.0000      0.0103      0.2492      0.4006      0.3908   -999.2500      2.1814   -999.2500     -6.8438   -999.2500      0.3939      0.4072      0.9897      1.0000
   3209.5000      7.5234   -999.2500      0.0000      0.0131      0.2515      0.4005      0.3907   -999.2500      2.1731   -999.2500     -6.8125   -999.2500      0.3932      0.4076      0.9869      1.0000
   3210.0000      7.4727   -999.2500      0.0000      0.0144      0.2510      0.4011      0.3913   -999.2500      2.1751   -999.2500     -7.0625   -999.2500      0.3902      0.4052      0.9856      1.0000
   3210.5000      7.4648   -999.2500      0.0000      0.0165      0.2528      0.4798      0.4777   -999.2500      2.1700   -999.2500     -7.0312   -999.2500      0.3897      0.0852      0.9835      0.2129
   3211.0000      7.4648   -999.2500      0.0000      0.0179      0.2542      0.4808      0.4789   -999.2500      2.1651   -999.2500     -7.2812   -999.2500      0.3897      0.0809      0.9821      0.2022
   3211.5000      7.4648   -999.2500      0.0000      0.0169      0.2532      0.4798      0.4777   -999.2500      2.1687   -999.2500     -7.0312   -999.2500      0.3897      0.0852      0.9831      0.2129
   3212.0000      7.4531   -999.2500      0.0000      0.0147      0.2506      0.4798      0.4777   -999.2500      2.1779   -999.2500     -7.0312   -999.2500      0.3890      0.0852      0.9853      0.2129
   3212.5000      7.4531   -999.2500      0.0000      0.0112      0.2472      0.4788      0.4767   -999.2500      2.1902   -999.2500     -6.8125   -999.2500      0.3890      0.0889      0.9888      0.2223
   3213.0000      7.4648   -999.2500      0.0000      0.0090      0.2454      0.4788      0.4767   -999.2500      2.1963   -999.2500     -6.8125   -999.2500      0.3897      0.0889      0.9910      0.2223
   3213.5000      7.4531   -999.2500      0.0000      0.0081      0.2441      0.4787      0.4766   -999.2500      2.2005   -999.2500     -6.7812   -999.2500      0.3890      0.0895      0.9919      0.2237
   3214.0000      7.4531   -999.2500      0.0000      0.0076      0.2436      0.4787      0.4766   -999.2500      2.2025   -999.2500     -6.7812   -999.2500      0.3890      0.0895      0.9924      0.2237
   3214.5000      7.4453   -999.2500      0.0000      0.0072      0.2429      0.4777      0.4754   -999.2500      2.2048   -999.2500     -6.5312   -999.2500      0.3885      0.0937      0.9928      0.2344
   3215.0000      7.4531   -999.2500      0.0000      0.0105      0.2464      0.4787      0.4766   -999.2500      2.1930   -999.2500     -6.7812   -999.2500      0.3890      0.0895      0.9895      0.2237
   3215.5000      7.4453   -999.2500      0.0000      0.0072      0.2429      0.4787      0.4766   -999.2500      2.2049   -999.2500     -6.7812   -999.2500      0.3885      0.0895      0.9928      0.2237
   3216.0000      7.4453   -999.2500      0.0000      0.0075      0.2432      0.4787      0.4765   -999.2500      2.2041   -999.2500     -6.7812   -999.2500      0.3885      0.0895      0.9925      0.2237
   3216.5000      7.4453   -999.2500      0.0000      0.0075      0.2431      0.4787      0.4765   -999.2500      2.2042   -999.2500     -6.7812   -999.2500      0.3885      0.0895      0.9925      0.2237
   3217.0000      7.4375   -999.2500      0.0000      0.0122      0.2476      0.4787      0.4765   -999.2500      2.1890   -999.2500     -6.7812   -999.2500      0.3880      0.0895      0.9878      0.2237
   3217.5000      7.4414   -999.2500      0.0000      0.0132      0.2486      0.4787      0.4765   -999.2500      2.1854   -999.2500     -6.7812   -999.2500      0.3883      0.0895      0.9868      0.2237
   3218.0000      7.4453   -999.2500      0.0000      0.0139      0.2495      0.4788      0.4767   -999.2500      2.1823   -999.2500     -6.8125   -999.2500      0.3885      0.0889      0.9861      0.2223
   3218.5000      7.4375   -999.2500      0.0000      0.0154      0.2507      0.4788      0.4767   -999.2500      2.1781   -999.2500     -6.8125   -999.2500      0.3880      0.0889      0.9846      0.2223
   3219.0000      7.4375   -999.2500      0.0000      0.0142      0.2496      0.4788      0.4767   -999.2500      2.1823   -999.2500     -6.8125   -999.2500      0.3880      0.0889      0.9858      0.2223
   3219.5000      7.4258   -999.2500      0.0000      0.0154      0.2503      0.4788      0.4767   -999.2500      2.1797   -999.2500     -6.8125   -999.2500      0.3873      0.0889      0.9846      0.2223
