~V
VERS. 2.00: Ver 2.00
WRAP.   NO:        
~W
 STRT.FT 500:
 STOP.FT 3500:
 STEP.FT 0.5:
 NULL. -999.250000:
 COMP. GARY DRILLING COMPANY:Company
 WELL. KCL 44-375:Well
 FLD. PIONEER:Field
 LOC. SEC 32 TWN 11N RGE 22W:Location
 STAT. CA:State
 SRVC. :Service Company
 SON. :Service Order #
 DATE. :Log Date
 UWI. :Unique Well ID
~C
 DEPT.FT :
 CALS.IN :
 NPHC.V/V :
 PHES. :
 PHIE. :
 PHIT. :
 PHTS. :
 PHZC. :
 RD.OHMM :
 ROBC.G/C3 :
 RS.OHMM :
 SBL.MV :
 SGRC.GAPI :
 VCLW. :
 VCWS. :
 VSHL. :
 VSHS. :
~P
~A
# ...
   1900.0000      9.0669      0.4977      0.2357      0.2933      0.4709      0.4293      0.4215      1.2449      1.7563      1.2980     -7.3021    104.5289      0.3553      0.3225      0.7067      0.7643
   1900.5000      9.0703      0.5000      0.2279      0.2976      0.4708      0.4270      0.4190      1.2267      1.7439      1.3596     -6.8172     99.9794      0.3465      0.3318      0.7024      0.7721
   1901.0000      9.0703      0.5033      0.2364      0.3225      0.4708      0.4294      0.4217      1.1999      1.7211      1.3407     -7.3636     84.1580      0.2965      0.3218      0.6775      0.7636
   1901.5000      9.0703      0.4511      0.2325      0.3004      0.4297      0.4283      0.4205      1.1827      1.7043      1.2584     -7.1288     77.7526      0.2587      0.3264      0.6996      0.7675
   1902.0000      9.0703      0.4424      0.2563      0.3037      0.4237      0.4352      0.4281      1.1713      1.7076      1.1368     -8.6439     77.5131      0.2400      0.2982      0.6963      0.7437
   1902.5000      9.0703      0.4502      0.2722      0.3081      0.4327      0.4398      0.4331      1.1636      1.7241      1.1346     -9.6591     84.8448      0.2492      0.2794      0.6919      0.6986
   1903.0000      9.0703      0.4795      0.2841      0.3123      0.4576      0.4433      0.4369      1.1504      1.7485      1.2174    -10.4242     96.3258      0.2906      0.2653      0.6877      0.6633
   1903.5000      9.0703      0.5090      0.2684      0.3147      0.4794      0.4387      0.4319      1.1598      1.7659      1.3537     -9.4394     97.3777      0.3293      0.2839      0.6853      0.7098
   1904.0000      9.0703      0.5065      0.2482      0.3066      0.4789      0.4329      0.4255      1.1703      1.7750      1.3382     -8.1733     97.9143      0.3447      0.3078      0.6934      0.7518
   1904.5000      9.0703      0.4920      0.2364      0.3013      0.4696      0.4294      0.4217      1.1969      1.7717      1.3889     -7.4384     95.8038      0.3365      0.3217      0.6987      0.7636
   1905.0000      9.0703      0.4415      0.2246      0.2911      0.4401      0.4260      0.4179      1.2336      1.7769      1.4292     -6.7036     88.1112      0.2979      0.3357      0.7089      0.7754
   1905.5000      9.0653      0.4873      0.2405      0.2986      0.4714      0.4306      0.4230      1.2554      1.7952      1.4479     -7.7188     98.1693      0.3456      0.3169      0.7014      0.7595
   1906.0000      8.9816      0.4802      0.2287      0.2696      0.4677      0.4272      0.4192      1.2580      1.8040      1.3727     -6.9839    116.4005      0.3963      0.3308      0.7304      0.7713
   1906.5000      8.9273      0.5142      0.2164      0.2839      0.4853      0.4236      0.4153      1.2557      1.7895      1.4285     -6.2178    108.4839      0.4030      0.3454      0.7161      0.7836
   1907.0000      8.9219      0.4643      0.2170      0.2861      0.4502      0.4238      0.4155      1.2544      1.7618      1.5035     -6.2642     95.8792      0.3281      0.3447      0.7139      0.7830
   1907.5000      8.9219      0.4773      0.2368      0.3012      0.4556      0.4295      0.4218      1.2690      1.7454      1.5492     -7.5294     92.8201      0.3088      0.3212      0.6988      0.7632
   1908.0000      8.9219      0.4535      0.2611      0.2897      0.4391      0.4366      0.4296      1.2936      1.7443      1.4012     -9.0758    100.0254      0.2989      0.2925      0.7103      0.7311
   1908.5000      9.0550      0.4739      0.2652      0.2887      0.4559      0.4378      0.4309      1.3191      1.7597      1.3641     -9.3409    109.5391      0.3344      0.2877      0.7113      0.7192
   1909.0000      9.3430      0.4637      0.2455      0.2819      0.4570      0.4320      0.4246      1.3585      1.7901      1.3893     -8.1061    108.9621      0.3504      0.3110      0.7181      0.7545
   1909.5000      9.5594      0.4898      0.2178      0.2554      0.4675      0.4240      0.4158      1.3963      1.8237      1.4052     -6.3712    118.8469      0.4242      0.3437      0.7446      0.7822
   1910.0000      9.8891      0.4773      0.1827      0.2226      0.4526      0.4138      0.4046      1.4438      1.8544      1.4369     -4.1676    122.5437      0.4599      0.3851      0.7774      0.8173
   1910.5000      9.3210      0.4563      0.1551      0.2036      0.4372      0.4058      0.3957      1.4865      1.8721      1.5591     -2.4328    119.2507      0.4672      0.4178      0.7964      0.8449
   1911.0000      8.8993      0.4564      0.1275      0.1924      0.4344      0.3977      0.3869      1.5302      1.8822      1.6503     -0.6979    116.3772      0.4842      0.4504      0.8076      0.8725
   1911.5000      8.7873      0.4806      0.1276      0.2044      0.4479      0.3978      0.3869      1.5527      1.8773      1.6554     -0.7131    111.6032      0.4869      0.4503      0.7956      0.8724
   1912.0000      8.7656      0.5141      0.1320      0.2253      0.4706      0.3990      0.3883      1.5473      1.8571      1.6878     -1.0095    108.5386      0.4906      0.4451      0.7747      0.8680
   1912.5000      8.7656      0.5091      0.1479      0.2364      0.4738      0.4037      0.3934      1.5225      1.8370      1.6961     -2.0246    111.5175      0.4749      0.4263      0.7636      0.8521
   1913.0000      8.7656      0.5075      0.1638      0.2486      0.4782      0.4083      0.3985      1.4843      1.8183      1.6480     -3.0398    113.2530      0.4591      0.4075      0.7514      0.8362
   1913.5000      8.7656      0.5104      0.1718      0.2635      0.4843      0.4106      0.4010      1.4402      1.7970      1.5704     -3.5549    111.1032      0.4416      0.3980      0.7365      0.8282
   1914.0000      8.7715      0.4842      0.1798      0.2603      0.4653      0.4129      0.4036      1.4069      1.7744      1.5207     -4.0701    111.3851      0.4100      0.3886      0.7397      0.8202
   1914.5000      8.7675      0.4867      0.1848      0.2648      0.4641      0.4144      0.4052      1.3769      1.7591      1.4696     -4.3977    110.0515      0.3987      0.3826      0.7352      0.8152
   1915.0000      8.7656      0.4554      0.1928      0.2593      0.4427      0.4167      0.4077      1.3697      1.7548      1.4151     -4.9129    107.4756      0.3670      0.3732      0.7407      0.8072
   1915.5000      8.8021      0.4766      0.2013      0.2748      0.4572      0.4192      0.4105      1.3785      1.7575      1.3879     -5.4593    103.8701      0.3649      0.3631      0.7252      0.7987
   1916.0000      8.8554      0.4600      0.2019      0.2730      0.4536      0.4193      0.4106      1.3990      1.7853      1.3631     -5.5057    102.3778      0.3611      0.3625      0.7270      0.7981
   1916.5000      8.9105      0.4737      0.1856      0.2324      0.4553      0.4146      0.4054      1.4298      1.8377      1.4199     -4.4896    120.5698      0.4458      0.3817      0.7676      0.8144
   1917.0000      8.9219      0.4714      0.1465      0.1907      0.4381      0.4032      0.3930      1.4527      1.8955      1.5306     -2.0360    120.0911      0.4947      0.4279      0.8093      0.8535
   1917.5000      8.9219      0.4929      0.1115      0.1560      0.4433      0.3931      0.3818      1.4752      1.9138      1.6991      0.6676    138.1267      0.5747      0.4692      0.8440      0.8885
   1918.0000      8.9219      0.4823      0.0878      0.1489      0.4431      0.3862      0.3742      1.4991      1.8970      1.7576      2.9025    139.5905      0.5884      0.4973      0.8511      0.9122
   1918.5000      8.9027      0.5329      0.0855      0.1642      0.4765      0.3855      0.3735      1.5175      1.8708      1.7327      3.3561    144.3278      0.6247      0.5000      0.8358      0.9145
   1919.0000      8.8855      0.5252      0.1040      0.1943      0.4796      0.3909      0.3794      1.5238      1.8454      1.6601      1.3409    134.2609      0.5706      0.4781      0.8057      0.8960
   1919.5000      8.8763      0.5499      0.1176      0.2173      0.4957      0.3948      0.3837      1.5217      1.8341      1.5763      0.0445    126.5172      0.5566      0.4620      0.7827      0.8824
