~V
VERS. 2.00: Ver 2.00
WRAP.   NO:        
~W
 STRT.FT 500:
 STOP.FT 3500:
 STEP.FT 0.5:
 NULL. -999.250000:
 COMP. GARY DRILLING COMPANY:Company
 WELL. KCL 44-375:Well
 FLD. PIONEER:Field
 LOC. SEC 32 TWN 11N RGE 22W:Location
 STAT. CA:State
 SRVC. :Service Company
 SON. :Service Order #
 DATE. :Log Date
 UWI. :Unique Well ID
~C
 DEPT.FT :
 CALS.IN :
 NPHC.V/V :
 PHES. :
 PHIE. :
 PHIT. :
 PHTS. :
 PHZC. :
 RD.OHMM :
 ROBC.G/C3 :
 RS.OHMM :
 SBL.MV :
 SGRC.GAPI :
 VCLW. :
 VCWS. :
 VSHL. :
 VSHS. :
~P
~A
# ...
   2620.0000      8.6875      0.3404      0.3706      0.3266      0.3702      0.4654      0.4616      1.7132      1.9098      1.1057    -19.7464     63.8137      0.0872      0.1580      0.2672      0.3950
   2620.5000      8.6719      0.3700      0.3710      0.3594      0.4014      0.4655      0.4617      1.4364      1.8402      1.0091    -19.8310     65.4742      0.0841      0.1575      0.2576      0.3938
   2621.0000      8.6875      0.3640      0.3708      0.3622      0.3996      0.4655      0.4617      1.2183      1.8347      1.0830    -19.8530     61.9670      0.0747      0.1578      0.2290      0.3944
   2621.5000      8.6719      0.3553      0.3712      0.3608      0.3962      0.4656      0.4618      1.1135      1.8297      1.2435    -19.9376     62.9066      0.0709      0.1573      0.2173      0.3933
   2622.0000      8.6641      0.3729      0.3773      0.3708      0.4081      0.4674      0.4638      1.0763      1.8177      1.3985    -20.6472     62.3024      0.0746      0.1500      0.2286      0.3751
   2622.5000      8.6172      0.3745      0.3801      0.3736      0.4109      0.4681      0.4646      1.0755      1.8091      1.5219    -21.4192     63.3619      0.0745      0.1468      0.2285      0.3671
   2623.0000      8.6094      0.3778      0.3809      0.3651      0.4067      0.4684      0.4649      1.0942      1.8348      1.5266    -21.6913     63.4365      0.0831      0.1458      0.2546      0.3646
   2623.5000      8.6094      0.3815      0.3801      0.3553      0.4013      0.4682      0.4646      1.1236      1.8654      1.5574    -21.5259     62.7936      0.0920      0.1468      0.2819      0.3669
   2624.0000      8.6094      0.3980      0.3748      0.3593      0.4089      0.4666      0.4629      1.1765      1.8681      1.4864    -20.5479     62.2724      0.0993      0.1531      0.3043      0.3827
   2624.5000      8.6094      0.4124      0.3769      0.3725      0.4216      0.4672      0.4636      1.2113      1.8464      1.3985    -20.8200     61.1880      0.0983      0.1506      0.3012      0.3764
   2625.0000      8.6094      0.3779      0.3801      0.3617      0.4042      0.4681      0.4646      1.2300      1.8453      1.4616    -21.6546     62.8170      0.0850      0.1468      0.2605      0.3670
   2625.5000      8.6094      0.3644      0.3837      0.3517      0.3929      0.4692      0.4658      1.2417      1.8641      1.5607    -22.6767     61.7478      0.0825      0.1425      0.2527      0.3563
   2626.0000      8.5859      0.3343      0.3866      0.3420      0.3772      0.4700      0.4667      1.2340      1.8668      1.7751    -23.5112     62.1311      0.0704      0.1391      0.2157      0.3477
   2626.5000      8.4609      0.3323      0.3906      0.3443      0.3791      0.4712      0.4680      1.2277      1.8532      1.7571    -24.6583     64.7366      0.0697      0.1343      0.2136      0.3358
   2627.0000      8.3672      0.3483      0.3933      0.3552      0.3912      0.4720      0.4688      1.2139      1.8360      1.5882    -25.4304     64.5424      0.0719      0.1312      0.2203      0.3279
   2627.5000      8.3047      0.3654      0.3989      0.3614      0.4021      0.4736      0.4706      1.2009      1.8268      1.3965    -27.0149     67.4691      0.0813      0.1245      0.2493      0.3113
   2628.0000      8.3047      0.3836      0.4064      0.3750      0.4134      0.4758      0.4730      1.1741      1.8188      1.3228    -29.0995     60.4666      0.0769      0.1157      0.2357      0.2892
   2628.5000      8.3047      0.4038      0.4140      0.3876      0.4249      0.4780      0.4754      1.1388      1.8148      1.3714    -31.2466     53.6083      0.0747      0.1066      0.2288      0.2665
   2629.0000      8.4141      0.4029      0.4226      0.3633      0.4177      0.4805      0.4782      1.0697      1.8428      1.4093    -33.6436     71.8184      0.1088      0.0965      0.3334      0.2412
   2629.5000      8.4531      0.4202      0.4154      0.3407      0.4142      0.4784      0.4759      0.9894      1.8904      1.4243    -31.7282     78.6384      0.1471      0.1050      0.4508      0.2625
   2630.0000      8.4531      0.4139      0.4016      0.3231      0.4036      0.4744      0.4715      0.9349      1.9189      1.3090    -28.0003     82.9783      0.1609      0.1213      0.4930      0.3033
   2630.5000      8.4531      0.4138      0.3912      0.3156      0.4036      0.4714      0.4681      0.8848      1.9184      1.1652    -25.2099     90.2047      0.1760      0.1336      0.5394      0.3340
   2631.0000      8.4531      0.4274      0.3847      0.3452      0.4196      0.4695      0.4661      0.8616      1.8836      1.0000    -23.4819     78.4582      0.1489      0.1412      0.4564      0.3531
   2631.5000      8.4531      0.4482      0.3901      0.3726      0.4422      0.4710      0.4678      0.8427      1.8376      0.9062    -25.0040     75.1161      0.1392      0.1349      0.4267      0.3372
   2632.0000      8.3984      0.4535      0.3918      0.3818      0.4489      0.4715      0.4683      0.8066      1.8227      0.8567    -25.5261     73.3888      0.1342      0.1329      0.4113      0.3321
   2632.5000      8.3047      0.4356      0.3908      0.3665      0.4356      0.4712      0.4680      0.7697      1.8380      1.0044    -25.2981     80.0354      0.1383      0.1340      0.4237      0.3351
   2633.0000      8.3125      0.4040      0.3864      0.3432      0.4161      0.4699      0.4666      0.7480      1.8515      0.9927    -24.1327     91.1255      0.1457      0.1393      0.4466      0.3481
   2633.5000      8.4297      0.4086      0.3806      0.3540      0.4215      0.4683      0.4648      0.7331      1.8391      1.0939    -22.5923     87.1917      0.1351      0.1461      0.4139      0.3652
   2634.0000      8.5859      0.3705      0.3763      0.3424      0.4032      0.4670      0.4634      0.7381      1.8336      0.9361    -21.6143     89.2598      0.1216      0.1511      0.3726      0.3778
   2634.5000      8.6094      0.3890      0.3716      0.3422      0.4114      0.4656      0.4619      0.7648      1.8393      0.9118    -21.1364     92.2462      0.1384      0.1567      0.4243      0.3918
   2635.0000      8.6094      0.3980      0.3674      0.3429      0.4154      0.4644      0.4605      0.7934      1.8420      0.7968    -20.7210     92.9914      0.1449      0.1616      0.4442      0.4041
   2635.5000      8.6094      0.4188      0.3627      0.3467      0.4239      0.4631      0.4590      0.8265      1.8506      0.7769    -20.2431     91.2132      0.1543      0.1672      0.4730      0.4180
   2636.0000      8.6094      0.3963      0.3580      0.3163      0.4035      0.4617      0.4575      0.8749      1.8862      0.8604    -19.7651     99.8357      0.1742      0.1728      0.5340      0.4319
   2636.5000      8.4766      0.3855      0.3539      0.2872      0.3855      0.4605      0.4562      0.9301      1.9353      0.9696    -19.3497    103.9710      0.1967      0.1777      0.6029      0.4441
   2637.0000      8.4531      0.4272      0.3328      0.2769      0.3955      0.4544      0.4495      1.0178      1.9701      1.4012    -17.0593    103.3985      0.2372      0.2025      0.7231      0.5063
   2637.5000      8.4531      0.4416      0.3124      0.2419      0.3949      0.4484      0.4430      1.1352      1.9944      1.5140    -14.8313    118.6022      0.3061      0.2267      0.7581      0.5667
   2638.0000      8.4531      0.4406      0.2872      0.2339      0.3840      0.4411      0.4349      1.2790      2.0283      1.8080    -12.0722    102.5213      0.3002      0.2564      0.7661      0.6411
   2638.5000      8.5391      0.3952      0.2666      0.2076      0.3530      0.4351      0.4284      1.4466      2.0653      2.0871     -9.8130     98.9979      0.2907      0.2808      0.7924      0.7020
   2639.0000      8.6094      0.3975      0.2466      0.1750      0.3508      0.4293      0.4220      1.6157      2.0753      1.9465     -7.6163    116.0460      0.3516      0.3045      0.8250      0.7534
   2639.5000      8.6328      0.4139      0.2243      0.1590      0.3520      0.4228      0.4149      1.8193      2.0926      1.7130     -5.1696    113.3344      0.3860      0.3308      0.8410      0.7757
