~V
VERS. 2.00: Ver 2.00
WRAP.   NO:        
~W
 STRT.FT 500:
 STOP.FT 3500:
 STEP.FT 0.5:
 NULL. -999.250000:
 COMP. GARY DRILLING COMPANY:Company
 WELL. KCL 44-375:Well
 FLD. PIONEER:Field
 LOC. SEC 32 TWN 11N RGE 22W:Location
 STAT. CA:State
 SRVC. :Service Company
 SON. :Service Order #
 DATE. :Log Date
 UWI. :Unique Well ID
~C
 DEPT.FT :
 CALS.IN :
 NPHC.V/V :
 PHES. :
 PHIE. :
 PHIT. :
 PHTS. :
 PHZC. :
 RD.OHMM :
 ROBC.G/C3 :
 RS.OHMM :
 SBL.MV :
 SGRC.GAPI :
 VCLW. :
 VCWS. :
 VSHL. :
 VSHS. :
~P
~A
# ...
   1620.0000      9.2266      0.4930      0.2812      0.2961      0.4741      0.4437      0.4372      1.7995      1.7928      1.8096     -4.3797    114.4120      0.3559      0.2708      0.7039      0.6771
   1620.5000      9.2266      0.4960      0.2967      0.2716      0.4605      0.4482      0.4421      1.8348      1.8602      2.0463     -5.4261    115.4309      0.3777      0.2525      0.7284      0.6313
   1621.0000      9.2266      0.5092      0.2888      0.2530      0.4573      0.4459      0.4396      1.8479      1.8937      2.1051     -4.9100    116.9119      0.4086      0.2618      0.7470      0.6545
   1621.5000      9.2266      0.4777      0.2739      0.2454      0.4449      0.4415      0.4348      1.8517      1.8828      2.0044     -3.9252    119.5758      0.3991      0.2794      0.7546      0.6985
   1622.0000      9.2266      0.4577      0.2627      0.2543      0.4451      0.4383      0.4313      1.8514      1.8456      1.9556     -3.1903    121.7450      0.3814      0.2926      0.7457      0.7314
   1622.5000      9.2578      0.4286      0.2586      0.2551      0.4357      0.4371      0.4299      1.8119      1.8235      1.9236     -2.9242    125.3711      0.3613      0.2975      0.7449      0.7414
   1623.0000      9.2266      0.4390      0.2624      0.2620      0.4418      0.4382      0.4312      1.7496      1.8209      1.8883     -3.1894    121.9084      0.3595      0.2930      0.7380      0.7324
   1623.5000      9.1641      0.4588      0.2700      0.2798      0.4541      0.4404      0.4336      1.6959      1.8130      1.7281     -3.7045    114.4911      0.3487      0.2840      0.7202      0.7101
   1624.0000      9.0703      0.4651      0.2738      0.2926      0.4564      0.4415      0.4348      1.6283      1.7848      1.6379     -3.9697    109.6590      0.3276      0.2795      0.7074      0.6988
   1624.5000      9.0703      0.4801      0.2888      0.3059      0.4572      0.4459      0.4396      1.5783      1.7436      1.5191     -4.9848    106.0073      0.3027      0.2617      0.6941      0.6544
   1625.0000      8.9688      0.4645      0.3085      0.3069      0.4424      0.4516      0.4459      1.5407      1.7200      1.5055     -6.3125    104.0458      0.2709      0.2384      0.6931      0.5961
   1625.5000      8.9219      0.4662      0.3273      0.3168      0.4424      0.4571      0.4519      1.5205      1.7126      1.4838     -7.5777    101.3492      0.2513      0.2162      0.6832      0.5405
   1626.0000      8.9219      0.4623      0.3274      0.3197      0.4406      0.4571      0.4519      1.5188      1.7191      1.4986     -7.5928     97.3250      0.2417      0.2161      0.6803      0.5403
   1626.5000      8.9219      0.4525      0.3237      0.3004      0.4385      0.4560      0.4507      1.5443      1.7445      1.4944     -7.3580    109.8313      0.2763      0.2204      0.6996      0.5511
   1627.0000      8.9219      0.4968      0.3088      0.3106      0.4718      0.4517      0.4460      1.5631      1.7669      1.5207     -6.3731    110.9913      0.3224      0.2381      0.6894      0.5952
   1627.5000      8.9219      0.4911      0.3014      0.3047      0.4741      0.4495      0.4436      1.5823      1.8017      1.7245     -5.8883    111.5832      0.3388      0.2468      0.6953      0.6171
   1628.0000      8.9219      0.5205      0.2935      0.3111      0.4883      0.4472      0.4411      1.6035      1.8064      1.8294     -5.3722    107.0214      0.3545      0.2561      0.6889      0.6403
   1628.5000      9.0000      0.4887      0.2936      0.3102      0.4697      0.4472      0.4411      1.6186      1.7833      1.9331     -5.3873    104.9586      0.3189      0.2560      0.6898      0.6401
   1629.0000      9.0234      0.4909      0.3054      0.3189      0.4662      0.4507      0.4449      1.6369      1.7552      1.7887     -6.1837    102.0513      0.2946      0.2421      0.6811      0.6053
   1629.5000      9.0078      0.4580      0.3167      0.3080      0.4442      0.4540      0.4485      1.6581      1.7533      1.6252     -6.9489    104.2550      0.2724      0.2287      0.6920      0.5719
   1630.0000      9.0625      0.4760      0.3205      0.3128      0.4625      0.4551      0.4497      1.6608      1.7838      1.5215     -7.2140    107.3356      0.2993      0.2242      0.6872      0.5605
   1630.5000      8.9219      0.4993      0.3019      0.2902      0.4699      0.4496      0.4437      1.6188      1.8327      1.4853     -5.9792    112.7838      0.3594      0.2463      0.7098      0.6157
   1631.0000      8.9219      0.5048      0.2865      0.2646      0.4618      0.4452      0.4388      1.5821      1.8712      1.7005     -4.9631    115.2778      0.3944      0.2645      0.7354      0.6611
   1631.5000      8.9219      0.4701      0.2753      0.2735      0.4499      0.4419      0.4352      1.5322      1.8511      1.8096     -4.2282    107.9533      0.3528      0.2776      0.7265      0.6941
   1632.0000      8.9219      0.4341      0.2941      0.2993      0.4409      0.4474      0.4412      1.4982      1.8144      1.7281     -5.4934    100.0611      0.2832      0.2554      0.7007      0.6385
   1632.5000      8.9219      0.4485      0.3059      0.3212      0.4508      0.4508      0.4450      1.4811      1.7967      1.5086     -6.2898     92.0583      0.2591      0.2415      0.6788      0.6037
   1633.0000      8.9219      0.4580      0.3163      0.3214      0.4528      0.4538      0.4483      1.4644      1.7867      1.4598     -6.9924     95.3935      0.2628      0.2292      0.6786      0.5730
   1633.5000      8.9219      0.4733      0.3164      0.3302      0.4618      0.4538      0.4483      1.4483      1.7875      1.4944     -7.0076     91.1781      0.2632      0.2291      0.6698      0.5728
   1634.0000      8.9219      0.4850      0.3202      0.3301      0.4651      0.4549      0.4496      1.4427      1.7710      1.4963     -7.2727     94.5580      0.2700      0.2246      0.6699      0.5615
   1634.5000      8.9219      0.4468      0.3278      0.3188      0.4394      0.4571      0.4520      1.4599      1.7634      1.4511     -7.7879     95.0238      0.2412      0.2156      0.6812      0.5391
   1635.0000      8.9219      0.4602      0.3316      0.3280      0.4471      0.4583      0.4532      1.4804      1.7596      1.4313     -8.0530     92.6958      0.2382      0.2111      0.6720      0.5278
   1635.5000      8.9219      0.4481      0.3392      0.3257      0.4450      0.4605      0.4556      1.5155      1.7799      1.6434     -8.5682     94.7904      0.2385      0.2021      0.6743      0.5054
   1636.0000      8.9219      0.4691      0.3468      0.3384      0.4594      0.4627      0.4580      1.5659      1.7877      1.8455     -9.0833     91.4671      0.2420      0.1932      0.6616      0.4830
   1636.5000      8.9609      0.4578      0.3515      0.3354      0.4546      0.4640      0.4595      1.6267      1.8092      1.8397     -9.4110     90.7620      0.2385      0.1875      0.6646      0.4689
   1637.0000      9.0391      0.4458      0.3479      0.3019      0.4387      0.4630      0.4584      1.6930      1.8465      1.8334     -9.1761    101.5857      0.2737      0.1919      0.6981      0.4797
   1637.5000      9.0703      0.4434      0.3329      0.2738      0.4278      0.4586      0.4536      1.7505      1.8829      1.8590     -8.1913    106.5322      0.3081      0.2095      0.7262      0.5238
   1638.0000      9.0703      0.4559      0.3180      0.2700      0.4337      0.4543      0.4488      1.7871      1.8840      2.0266     -7.2064    107.0133      0.3275      0.2272      0.7300      0.5679
   1638.5000      9.0703      0.4945      0.2876      0.2632      0.4630      0.4454      0.4391      1.8046      1.8485      1.9962     -5.1903    126.9049      0.3996      0.2631      0.7368      0.6578
   1639.0000      9.0703      0.5250      0.2839      0.2820      0.4890      0.4444      0.4380      1.8019      1.8124      1.8091     -4.9555    130.9477      0.4139      0.2675      0.7180      0.6686
   1639.5000      9.0703      0.5052      0.2727      0.2830      0.4819      0.4411      0.4344      1.7687      1.7993      1.8220     -4.2206    127.8054      0.3977      0.2807      0.7170      0.7017
