~V
VERS. 2.00: Ver 2.00
WRAP.   NO:        
~W
 STRT.FT 500:
 STOP.FT 3500:
 STEP.FT 0.5:
 NULL. -999.250000:
 COMP. GARY DRILLING COMPANY:Company
 WELL. KCL 44-375:Well
 FLD. PIONEER:Field
 LOC. SEC 32 TWN 11N RGE 22W:Location
 STAT. CA:State
 SRVC. :Service Company
 SON. :Service Order #
 DATE. :Log Date
 UWI. :Unique Well ID
~C
 DEPT.FT :
 CALS.IN :
 NPHC.V/V :
 PHES. :
 PHIE. :
 PHIT. :
 PHTS. :
 PHZC. :
 RD.OHMM :
 ROBC.G/C3 :
 RS.OHMM :
 SBL.MV :
 SGRC.GAPI :
 VCLW. :
 VCWS. :
 VSHL. :
 VSHS. :
~P
~A
# ...
   1320.0000     11.6172      0.4023      0.4130      0.3794      0.4030      0.4833      0.4804      3.4540      1.5698      3.3354    -15.7946     46.7704      0.0471      0.1172      0.1445      0.2929
   1320.5000     11.8359      0.4251      0.4142      0.4211      0.4436      0.4836      0.4808      3.3841      1.4709      3.3583    -15.9956     46.2305      0.0451      0.1157      0.1381      0.2892
   1321.0000     11.6328      0.4946      0.4162      0.5052      0.5259      0.4842      0.4815      3.3139      1.3992      3.1973    -16.3217     45.0538      0.0412      0.1133      0.1263      0.2833
   1321.5000     12.9297      0.5566      0.4143      0.5751      0.5991      0.4836      0.4809      3.2312      1.3438      3.0180    -16.0228     48.2747      0.0481      0.1156      0.1473      0.2890
   1322.0000     14.8984      0.5758      0.4175      0.5753      0.6000      0.4846      0.4819      3.1628      1.3201      3.0383    -16.5363     51.4321      0.0494      0.1118      0.1513      0.2795
   1322.5000     16.9062      0.5747      0.4163      0.5757      0.6000      0.4842      0.4815      3.0742      1.3264      3.0830    -16.3624     50.0193      0.0485      0.1131      0.1486      0.2829
   1323.0000     19.8906      0.5704      0.4164      0.5681      0.6000      0.4842      0.4815      3.0476      1.3761      2.9453    -16.3760     53.3159      0.0638      0.1131      0.1954      0.2827
   1323.5000     19.1406      0.5651      0.4164      0.5539      0.5920      0.4843      0.4815      3.0479      1.4172      2.7200    -16.3895     55.8106      0.0761      0.1130      0.2333      0.2826
   1324.0000     17.0312      0.5322      0.4165      0.5168      0.5504      0.4843      0.4816      3.0903      1.4585      2.7753    -16.4031     52.0448      0.0670      0.1130      0.2054      0.2824
   1324.5000     14.1250      0.4875      0.4153      0.4663      0.4951      0.4839      0.4812      3.1349      1.5202      2.9964    -16.2292     47.0837      0.0577      0.1143      0.1767      0.2858
   1325.0000     11.3359      0.4916      0.4138      0.4583      0.4926      0.4835      0.4807      3.2621      1.5644      3.1492    -15.9927     44.1731      0.0687      0.1161      0.2282      0.2904
   1325.5000     11.0625      0.5132      0.4150      0.4609      0.5080      0.4838      0.4811      3.4265      1.6061      3.2272    -16.1938     48.2226      0.0943      0.1147      0.3900      0.2867
   1326.0000     12.0625      0.4884      0.4115      0.4315      0.4774      0.4828      0.4800      3.6024      1.6269      3.0944    -15.6449     47.6912      0.0918      0.1189      0.3674      0.2971
   1326.5000     11.4141      0.4544      0.4103      0.4008      0.4474      0.4825      0.4796      3.8604      1.6828      3.4110    -15.4709     47.8829      0.0932      0.1202      0.2857      0.3005
   1327.0000     10.7656      0.4059      0.4104      0.3778      0.4127      0.4825      0.4796      4.0154      1.7181      3.8752    -15.4845     40.0940      0.0696      0.1202      0.2134      0.3004
   1327.5000     10.7812      0.4060      0.4104      0.3777      0.4127      0.4825      0.4796      4.2140      1.7066      4.4753    -15.4981     42.3653      0.0699      0.1201      0.2142      0.3002
   1328.0000     10.9531      0.3908      0.4093      0.3621      0.3871      0.4822      0.4792      4.3201      1.6453      4.6125    -15.3241     43.7846      0.0500      0.1215      0.1531      0.3036
   1328.5000     11.0781      0.4234      0.4093      0.3971      0.4263      0.4822      0.4793      4.4524      1.6035      4.7817    -15.3377     47.3231      0.0584      0.1214      0.1790      0.3035
   1329.0000     11.1953      0.4483      0.4110      0.4168      0.4519      0.4826      0.4798      4.4622      1.6056      4.9345    -15.6013     48.5617      0.0702      0.1195      0.2490      0.2987
   1329.5000     11.4141      0.4406      0.4110      0.3991      0.4392      0.4826      0.4798      4.4477      1.6627      4.7201    -15.6148     47.2510      0.0802      0.1194      0.2784      0.2986
   1330.0000     11.6719      0.4162      0.4146      0.3880      0.4269      0.4837      0.4809      4.4294      1.7330      4.3981    -16.1909     42.6062      0.0776      0.1151      0.2380      0.2879
   1330.5000     10.8594      0.4328      0.4158      0.3985      0.4479      0.4841      0.4813      4.4221      1.7721      4.1669    -16.3920     45.6143      0.0987      0.1137      0.3025      0.2842
   1331.0000     10.6484      0.4598      0.4143      0.4136      0.4693      0.4836      0.4808      4.3549      1.7879      4.2058    -16.1555     40.1624      0.1113      0.1155      0.3411      0.2888
   1331.5000     11.0781      0.4572      0.4124      0.4102      0.4667      0.4830      0.4802      4.2748      1.7849      4.0942    -15.8566     41.9129      0.1130      0.1178      0.3462      0.2945
   1332.0000     10.5781      0.3830      0.4108      0.3810      0.4242      0.4826      0.4797      4.2164      1.8071      4.2392    -15.6202     42.2405      0.0864      0.1196      0.2647      0.2991
   1332.5000      9.9844      0.3521      0.4108      0.3688      0.4053      0.4826      0.4797      4.0878      1.8129      4.4246    -15.6337     41.3762      0.0729      0.1196      0.2233      0.2989
   1333.0000      9.8438      0.3602      0.4113      0.3731      0.4119      0.4827      0.4799      4.0442      1.8089      5.0798    -15.7098     43.1675      0.0776      0.1190      0.2378      0.2976
   1333.5000      9.8438      0.3837      0.4097      0.3802      0.4194      0.4823      0.4794      4.0185      1.7804      5.1152    -15.4734     40.6284      0.0783      0.1209      0.2399      0.3022
   1334.0000      9.9141      0.3806      0.4066      0.3621      0.4013      0.4813      0.4784      4.0187      1.7430      4.3882    -14.9869     46.3190      0.0786      0.1246      0.2407      0.3114
   1334.5000     10.0859      0.3741      0.4066      0.3493      0.3823      0.4814      0.4784      3.9920      1.7042      3.9912    -15.0005     46.8254      0.0659      0.1245      0.2021      0.3113
   1335.0000     10.1484      0.3571      0.4039      0.3328      0.3618      0.4806      0.4775      3.9303      1.6907      3.8023    -14.5765     47.0859      0.0581      0.1278      0.1779      0.3194
   1335.5000     10.1484      0.3660      0.4039      0.3447      0.3779      0.4806      0.4775      3.7350      1.7084      4.3045    -14.5901     46.9734      0.0666      0.1277      0.2040      0.3193
   1336.0000     10.0078      0.3621      0.4040      0.3504      0.3890      0.4806      0.4775      3.5574      1.7462      4.6125    -14.6037     48.3385      0.0770      0.1277      0.2360      0.3191
   1336.5000     10.0000      0.3880      0.4024      0.3635      0.4074      0.4801      0.4770      3.5418      1.7444      4.3077    -14.3672     47.0927      0.0878      0.1295      0.2692      0.3237
   1337.0000      9.9453      0.4031      0.4021      0.3642      0.4112      0.4800      0.4769      3.4535      1.7274      3.5237    -14.3183     49.6402      0.0941      0.1299      0.2884      0.3248
   1337.5000      9.8047      0.3920      0.4009      0.3517      0.3968      0.4797      0.4765      3.3820      1.7144      3.3641    -14.1444     51.8425      0.0902      0.1313      0.2764      0.3281
   1338.0000      9.6875      0.3820      0.3994      0.3501      0.3937      0.4792      0.4760      3.2871      1.7265      3.6993    -13.9079     49.4866      0.0872      0.1331      0.2671      0.3327
   1338.5000      9.6875      0.3596      0.3994      0.3449      0.3805      0.4792      0.4760      3.1369      1.7368      3.9669    -13.9215     43.5651      0.0712      0.1330      0.2181      0.3326
   1339.0000      9.6875      0.3550      0.3983      0.3405      0.3750      0.4789      0.4757      3.0935      1.7313      4.0351    -13.7476     43.5942      0.0689      0.1344      0.2113      0.3360
   1339.5000      9.6953      0.3734      0.4015      0.3468      0.3817      0.4798      0.4767      3.1963      1.7090      3.8523    -14.2611     44.9312      0.0697      0.1306      0.2136      0.3265
