~V
VERS. 2.00: Ver 2.00
WRAP.   NO:        
~W
 STRT.FT 500:
 STOP.FT 3500:
 STEP.FT 0.5:
 NULL. -999.250000:
 COMP. GARY DRILLING COMPANY:Company
 WELL. KCL 44-375:Well
 FLD. PIONEER:Field
 LOC. SEC 32 TWN 11N RGE 22W:Location
 STAT. CA:State
 SRVC. :Service Company
 SON. :Service Order #
 DATE. :Log Date
 UWI. :Unique Well ID
~C
 DEPT.FT :
 CALS.IN :
 NPHC.V/V :
 PHES. :
 PHIE. :
 PHIT. :
 PHTS. :
 PHZC. :
 RD.OHMM :
 ROBC.G/C3 :
 RS.OHMM :
 SBL.MV :
 SGRC.GAPI :
 VCLW. :
 VCWS. :
 VSHL. :
 VSHS. :
~P
~A
# ...
   2340.0000      8.9219      0.3999      0.2114      0.1778      0.3698      0.4203      0.4120      1.7273      2.0160      1.2367      0.5201    110.8066      0.3841      0.3481      0.8222      0.7886
   2340.5000      8.9219      0.4627      0.2080      0.2090      0.4142      0.4193      0.4109      1.5609      1.9629      1.0110      0.8380    112.0449      0.4103      0.3522      0.7910      0.7920
   2341.0000      8.9219      0.4665      0.2025      0.2062      0.4177      0.4177      0.4091      1.3979      1.9571      1.0899      1.3435    115.3695      0.4231      0.3587      0.7938      0.7975
   2341.5000      8.9219      0.4611      0.2140      0.2282      0.4255      0.4211      0.4128      1.2957      1.9220      1.1638      0.3176    114.9955      0.3944      0.3451      0.7718      0.7860
   2342.0000      8.9219      0.4279      0.2199      0.2369      0.4187      0.4228      0.4147      1.2400      1.8880      1.3398     -0.2082    119.2506      0.3636      0.3381      0.7631      0.7801
   2342.5000      8.9219      0.4070      0.2394      0.2391      0.4080      0.4284      0.4209      1.2033      1.8891      1.3407     -1.9527    121.8453      0.3379      0.3151      0.7609      0.7606
   2343.0000      8.8984      0.4462      0.2418      0.2499      0.4290      0.4291      0.4216      1.1749      1.8834      1.3618     -2.1660    120.9701      0.3582      0.3122      0.7501      0.7582
   2343.5000      8.7734      0.4810      0.2394      0.2606      0.4531      0.4284      0.4209      1.1516      1.8597      1.3909     -1.9418    128.1321      0.3848      0.3150      0.7394      0.7606
   2344.0000      8.7656      0.4851      0.2564      0.3221      0.4704      0.4334      0.4263      1.1249      1.8035      1.3072     -3.4676    102.7461      0.2966      0.2950      0.6779      0.7374
   2344.5000      8.7656      0.4739      0.2955      0.3533      0.4588      0.4447      0.4388      1.0904      1.7735      1.3358     -6.9935     87.8186      0.2110      0.2488      0.6466      0.6220
   2345.0000      8.7656      0.4526      0.3425      0.3589      0.4419      0.4584      0.4538      1.0566      1.7590      1.3462    -11.2380     88.1810      0.1661      0.1932      0.5090      0.4831
   2345.5000      8.7656      0.4597      0.3673      0.3671      0.4465      0.4656      0.4617      1.0215      1.7588      1.3252    -13.4826     90.1973      0.1590      0.1639      0.4872      0.4097
   2346.0000      8.7656      0.4451      0.3755      0.3661      0.4396      0.4680      0.4643      0.9940      1.7683      1.2821    -14.2271     88.9784      0.1470      0.1541      0.4506      0.3853
   2346.5000      8.7656      0.4598      0.3700      0.3705      0.4507      0.4664      0.4625      0.9769      1.7755      1.1745    -13.7217     89.2155      0.1604      0.1607      0.4917      0.4017
   2347.0000      8.7656      0.4440      0.3534      0.3545      0.4436      0.4616      0.4572      0.9648      1.7832      1.1337    -12.2162     95.0036      0.1781      0.1803      0.5458      0.4507
   2347.5000      8.7656      0.4696      0.3444      0.3625      0.4550      0.4590      0.4544      0.9713      1.7684      1.1088    -11.3983     91.5971      0.1851      0.1909      0.5671      0.4772
   2348.0000      8.7656      0.4535      0.3423      0.3579      0.4418      0.4583      0.4537      0.9785      1.7559      1.1615    -11.2054     89.2142      0.1678      0.1933      0.5141      0.4834
   2348.5000      8.7656      0.4593      0.3506      0.3611      0.4425      0.4607      0.4563      0.9905      1.7415      1.1456    -11.9499     89.7959      0.1628      0.1836      0.4988      0.4590
   2349.0000      8.7656      0.4236      0.3533      0.3441      0.4254      0.4615      0.4572      1.0018      1.7658      1.1988    -12.1945     94.3598      0.1626      0.1804      0.4982      0.4509
   2349.5000      8.7656      0.4609      0.3395      0.3417      0.4540      0.4575      0.4528      1.0102      1.7851      1.1845    -10.9390    106.6783      0.2246      0.1966      0.6583      0.4916
   2350.0000      8.7656      0.4624      0.3199      0.3299      0.4548      0.4518      0.4465      1.0192      1.8176      1.2205     -9.1523    106.4300      0.2499      0.2198      0.6701      0.5496
   2350.5000      8.7656      0.4684      0.3096      0.3224      0.4543      0.4488      0.4432      1.0268      1.8314      1.1833     -8.2094    105.6720      0.2638      0.2320      0.6776      0.5801
   2351.0000      8.7656      0.4335      0.3034      0.3110      0.4343      0.4470      0.4413      1.0243      1.8393      1.1843     -7.6415    105.3094      0.2466      0.2393      0.6890      0.5983
   2351.5000      8.7656      0.4271      0.3093      0.3166      0.4327      0.4487      0.4431      1.0253      1.8322      1.1452     -8.1673    103.8398      0.2323      0.2324      0.6834      0.5811
   2352.0000      8.7656      0.4356      0.3117      0.3308      0.4415      0.4494      0.4439      1.0293      1.8149      1.1657     -8.3806    100.4404      0.2214      0.2296      0.6692      0.5740
   2352.5000      8.7656      0.4069      0.3278      0.3418      0.4270      0.4541      0.4490      1.0291      1.7940      1.1701     -9.8439     91.3289      0.1705      0.2105      0.5224      0.5263
   2353.0000      8.7656      0.4453      0.3449      0.3554      0.4453      0.4591      0.4545      1.0282      1.7858      1.0974    -11.4009     93.3613      0.1797      0.1903      0.5507      0.4757
   2353.5000      8.7656      0.4531      0.3476      0.3585      0.4527      0.4599      0.4554      1.0126      1.7949      1.0907    -11.6455     94.3318      0.1884      0.1870      0.5772      0.4676
   2354.0000      8.7656      0.4682      0.3428      0.3601      0.4612      0.4585      0.4538      0.9981      1.8048      1.1497    -11.2026     93.0564      0.2023      0.1927      0.6198      0.4819
   2354.5000      8.7500      0.4557      0.3267      0.3456      0.4535      0.4538      0.4487      1.0041      1.8092      1.2601     -9.7284     97.4319      0.2158      0.2118      0.6544      0.5295
   2355.0000      8.7266      0.4658      0.3209      0.3499      0.4603      0.4521      0.4468      1.0204      1.8034      1.1601     -9.1917     96.1880      0.2207      0.2187      0.6501      0.5467
   2355.5000      8.6641      0.4749      0.3270      0.3714      0.4619      0.4539      0.4488      1.0450      1.7844      1.0376     -9.7487     79.8116      0.1810      0.2114      0.5546      0.5285
   2356.0000      8.6172      0.4920      0.3434      0.3841      0.4682      0.4586      0.4540      1.0819      1.7628      0.9428    -11.2433     76.1644      0.1682      0.1920      0.5155      0.4800
   2356.5000      8.6094      0.4659      0.3564      0.3831      0.4595      0.4624      0.4582      1.0737      1.7943      1.0659    -12.4253     74.3627      0.1528      0.1767      0.4683      0.4417
   2357.0000      8.6094      0.4576      0.3612      0.3370      0.4448      0.4638      0.4597      1.0448      1.8462      1.3778    -12.8574     99.5693      0.2158      0.1710      0.6612      0.4276
   2357.5000      8.6094      0.4212      0.3523      0.3222      0.4244      0.4612      0.4568      1.0461      1.8564      1.9248    -12.0395    100.9795      0.2043      0.1816      0.6261      0.4539
   2358.0000      8.6094      0.4186      0.3686      0.3666      0.4320      0.4659      0.4621      1.0580      1.7906      1.4103    -13.5340     82.8528      0.1308      0.1622      0.4007      0.4055
   2358.5000      8.7188      0.4152      0.3825      0.3599      0.4134      0.4700      0.4665      1.0671      1.7459      1.2857    -15.2786     83.9561      0.1071      0.1459      0.3282      0.3647
   2359.0000      8.7500      0.4063      0.3846      0.3575      0.4126      0.4706      0.4672      1.0740      1.7610      1.0577    -15.7731     86.0713      0.1103      0.1433      0.3380      0.3582
   2359.5000      8.7344      0.4722      0.3467      0.3610      0.4627      0.4596      0.4551      1.0552      1.8073      1.0384    -11.5177     93.3347      0.2033      0.1881      0.6232      0.4702
