~V
VERS. 2.00: Ver 2.00
WRAP.   NO:        
~W
 STRT.FT 500:
 STOP.FT 3500:
 STEP.FT 0.5:
 NULL. -999.250000:
 COMP. GARY DRILLING COMPANY:Company
 WELL. KCL 44-375:Well
 FLD. PIONEER:Field
 LOC. SEC 32 TWN 11N RGE 22W:Location
 STAT. CA:State
 SRVC. :Service Company
 SON. :Service Order #
 DATE. :Log Date
 UWI. :Unique Well ID
~C
 DEPT.FT :
 CALS.IN :
 NPHC.V/V :
 PHES. :
 PHIE. :
 PHIT. :
 PHTS. :
 PHZC. :
 RD.OHMM :
 ROBC.G/C3 :
 RS.OHMM :
 SBL.MV :
 SGRC.GAPI :
 VCLW. :
 VCWS. :
 VSHL. :
 VSHS. :
~P
~A
# ...
   2480.0000      8.4766      0.4576      0.3725      0.3489      0.4476      0.4666      0.4628      0.9626      1.8356      1.0411    -14.7543    101.0095      0.1974      0.1567      0.6051      0.3918
   2480.5000      8.4922      0.4477      0.3789      0.3295      0.4343      0.4684      0.4648      0.9787      1.8667      1.1295    -15.5264    103.6036      0.2096      0.1492      0.6423      0.3730
   2481.0000      8.4844      0.4463      0.3808      0.3163      0.4278      0.4690      0.4655      1.0002      1.8883      1.2299    -16.0484    105.9270      0.2229      0.1469      0.6832      0.3672
   2481.5000      8.4609      0.4518      0.3682      0.3232      0.4316      0.4653      0.4614      1.0203      1.8843      1.2338    -14.3830    102.4739      0.2168      0.1619      0.6643      0.4047
   2482.0000      8.4531      0.4614      0.3608      0.3294      0.4386      0.4631      0.4590      1.0387      1.8763      1.2139    -13.6551    101.7901      0.2183      0.1706      0.6689      0.4266
   2482.5000      8.4531      0.4660      0.3328      0.3161      0.4392      0.4550      0.4501      1.0554      1.8823      1.2256    -10.8334    104.7182      0.2462      0.2037      0.6839      0.5092
   2483.0000      8.4531      0.4641      0.3205      0.3008      0.4338      0.4514      0.4462      1.0717      1.8981      1.1869     -9.6054    107.4426      0.2661      0.2182      0.6992      0.5454
   2483.5000      8.4531      0.4610      0.3129      0.3052      0.4367      0.4492      0.4437      1.0866      1.8825      1.0170     -8.8463    107.4860      0.2630      0.2272      0.6948      0.5681
   2484.0000      8.4531      0.4362      0.3349      0.3177      0.4304      0.4556      0.4508      1.0959      1.8597      0.9683    -11.1183    108.7749      0.2253      0.2012      0.6823      0.5029
   2484.5000      8.4531      0.4454      0.3374      0.3200      0.4336      0.4563      0.4516      1.0784      1.8647      1.1317    -11.3904    106.9178      0.2272      0.1983      0.6800      0.4957
   2485.0000      8.4531      0.4051      0.3398      0.2945      0.4039      0.4570      0.4523      1.0343      1.9015      1.4369    -11.6625    109.1097      0.2187      0.1954      0.6704      0.4885
   2485.5000      8.4531      0.4097      0.3453      0.2726      0.3956      0.4586      0.4541      1.0078      1.9408      1.5603    -12.2471    114.2549      0.2461      0.1889      0.7274      0.4722
   2486.0000      8.4531      0.3896      0.3477      0.2866      0.3875      0.4593      0.4549      0.9878      1.9354      1.2574    -12.5191    102.9069      0.2017      0.1860      0.6182      0.4650
   2486.5000      8.4531      0.4339      0.3599      0.3236      0.4233      0.4629      0.4588      0.9712      1.8818      0.9892    -13.7912    100.6299      0.1994      0.1716      0.6111      0.4289
   2487.0000      8.4531      0.4506      0.3648      0.3447      0.4436      0.4643      0.4603      0.9513      1.8372      0.8869    -14.3133    102.8410      0.1978      0.1658      0.6062      0.4145
   2487.5000      8.4531      0.4634      0.3721      0.3588      0.4546      0.4664      0.4626      0.9188      1.8204      0.8614    -15.0853     99.5227      0.1917      0.1572      0.5874      0.3929
   2488.0000      8.4922      0.4486      0.3721      0.3515      0.4477      0.4664      0.4626      0.8794      1.8174      0.9513    -15.1074    104.4479      0.1923      0.1572      0.5893      0.3930
   2488.5000      8.7656      0.4426      0.3745      0.3714      0.4458      0.4671      0.4634      0.8589      1.8126      0.9470    -15.3795     88.5986      0.1487      0.1543      0.4556      0.3858
   2489.0000      8.7656      0.4370      0.3720      0.3763      0.4449      0.4664      0.4626      0.8560      1.8043      1.0185    -15.1515     86.7546      0.1373      0.1573      0.4206      0.3931
   2489.5000      8.7656      0.4387      0.3786      0.3783      0.4467      0.4683      0.4647      0.8573      1.8007      0.8977    -15.9236     86.6259      0.1367      0.1494      0.4190      0.3736
   2490.0000      8.7656      0.4074      0.3786      0.3681      0.4287      0.4683      0.4647      0.8559      1.7968      0.9133    -15.9457     86.4144      0.1213      0.1495      0.3717      0.3737
   2490.5000      8.7656      0.4047      0.3695      0.3708      0.4284      0.4656      0.4618      0.8524      1.8021      0.8784    -14.9678     82.9372      0.1151      0.1602      0.3527      0.4006
   2491.0000      8.7656      0.4167      0.3622      0.3554      0.4332      0.4635      0.4595      0.8382      1.8085      0.9991    -14.2398     97.7108      0.1555      0.1689      0.4765      0.4222
   2491.5000      8.7656      0.4451      0.3597      0.3705      0.4496      0.4628      0.4587      0.8289      1.8027      0.9635    -14.0119     93.5599      0.1581      0.1718      0.4846      0.4295
   2492.0000      8.7656      0.4590      0.3646      0.3896      0.4490      0.4642      0.4602      0.8282      1.7707      0.9535    -14.5340     74.7227      0.1189      0.1661      0.3642      0.4152
   2492.5000      8.7656      0.4499      0.3767      0.3852      0.4373      0.4677      0.4641      0.8312      1.7471      0.8176    -15.8060     72.0524      0.1042      0.1517      0.3195      0.3793
   2493.0000      8.7656      0.4652      0.3844      0.3907      0.4454      0.4700      0.4665      0.8260      1.7348      0.7599    -17.5781     73.0806      0.1092      0.1426      0.3348      0.3566
   2493.5000      8.7656      0.4675      0.3873      0.3921      0.4509      0.4708      0.4675      0.8245      1.7557      0.8428    -18.3502     74.2513      0.1177      0.1392      0.3608      0.3480
   2494.0000      8.7656      0.4825      0.3882      0.3937      0.4650      0.4711      0.4678      0.8150      1.7778      0.9781    -18.6222     78.1704      0.1425      0.1381      0.4367      0.3452
   2494.5000      8.7656      0.4778      0.3872      0.3917      0.4665      0.4708      0.4674      0.8122      1.7962      1.0907    -18.3943     80.1139      0.1497      0.1392      0.4587      0.3481
   2495.0000      8.7656      0.4862      0.3863      0.3917      0.4714      0.4705      0.4671      0.8168      1.8021      1.0573    -18.1664     81.3091      0.1594      0.1404      0.4886      0.3510
   2495.5000      8.7656      0.4674      0.3862      0.3874      0.4597      0.4705      0.4671      0.8216      1.7921      0.9986    -18.1884     82.5234      0.1446      0.1404      0.4432      0.3510
   2496.0000      8.7656      0.4772      0.3852      0.3906      0.4623      0.4702      0.4668      0.8201      1.7803      0.9140    -17.9605     80.4987      0.1434      0.1416      0.4395      0.3540
   2496.5000      8.7656      0.4959      0.3833      0.4007      0.4705      0.4696      0.4662      0.8178      1.7619      0.9490    -17.4826     74.5175      0.1396      0.1439      0.4277      0.3597
   2497.0000      8.7656      0.5207      0.3842      0.4086      0.4867      0.4699      0.4665      0.8037      1.7658      0.9118    -17.7547     73.5871      0.1563      0.1428      0.4790      0.3569
   2497.5000      8.7266      0.5271      0.3833      0.4100      0.4905      0.4696      0.4662      0.7883      1.7611      0.8779    -17.5267     75.0690      0.1609      0.1439      0.4930      0.3598
   2498.0000      8.6094      0.5038      0.3823      0.4051      0.4749      0.4693      0.4658      0.7737      1.7568      0.9972    -17.2988     72.4636      0.1397      0.1451      0.4282      0.3627
   2498.5000      8.4766      0.5309      0.3842      0.4145      0.4921      0.4699      0.4664      0.7524      1.7454      1.1095    -17.8209     73.8085      0.1552      0.1428      0.4756      0.3570
   2499.0000      8.4531      0.5083      0.3881      0.4090      0.4762      0.4710      0.4677      0.7452      1.7405      1.0471    -18.8429     71.2279      0.1343      0.1382      0.4117      0.3456
   2499.5000      8.4531      0.5044      0.3890      0.4082      0.4736      0.4713      0.4680      0.7508      1.7413      0.8917    -19.1150     70.4583      0.1309      0.1371      0.4012      0.3428
