~V
VERS. 2.00: Ver 2.00
WRAP.   NO:        
~W
 STRT.FT 500:
 STOP.FT 3500:
 STEP.FT 0.5:
 NULL. -999.250000:
 COMP. GARY DRILLING COMPANY:Company
 WELL. KCL 44-375:Well
 FLD. PIONEER:Field
 LOC. SEC 32 TWN 11N RGE 22W:Location
 STAT. CA:State
 SRVC. :Service Company
 SON. :Service Order #
 DATE. :Log Date
 UWI. :Unique Well ID
~C
 DEPT.FT :
 CALS.IN :
 NPHC.V/V :
 PHES. :
 PHIE. :
 PHIT. :
 PHTS. :
 PHZC. :
 RD.OHMM :
 ROBC.G/C3 :
 RS.OHMM :
 SBL.MV :
 SGRC.GAPI :
 VCLW. :
 VCWS. :
 VSHL. :
 VSHS. :
~P
~A
# ...
   1040.0000      9.0538      0.4930   -999.2500   -999.2500   -999.2500   -999.2500   -999.2500      3.0186      2.1406      2.2367     -9.0373    117.8265   -999.2500   -999.2500   -999.2500   -999.2500
   1040.5000      9.0703      0.4131   -999.2500   -999.2500   -999.2500   -999.2500   -999.2500      3.1719      2.2238      2.5202     -9.5993    116.7208   -999.2500   -999.2500   -999.2500   -999.2500
   1041.0000      9.0703      0.3271   -999.2500   -999.2500   -999.2500   -999.2500   -999.2500      3.3515      2.2760      4.3299    -10.7863    103.5424   -999.2500   -999.2500   -999.2500   -999.2500
   1041.5000      9.0703      0.2992   -999.2500   -999.2500   -999.2500   -999.2500   -999.2500      3.4954      2.2453      5.4175    -13.2546     95.5604   -999.2500   -999.2500   -999.2500   -999.2500
   1042.0000      9.0703      0.3100   -999.2500   -999.2500   -999.2500   -999.2500   -999.2500      3.6999      2.2026      5.1738    -16.3166     98.1458   -999.2500   -999.2500   -999.2500   -999.2500
   1042.5000      9.0005      0.3370   -999.2500   -999.2500   -999.2500   -999.2500   -999.2500      3.9399      2.1886      4.6638    -19.2535    102.0786   -999.2500   -999.2500   -999.2500   -999.2500
   1043.0000      8.9436      0.3507   -999.2500   -999.2500   -999.2500   -999.2500   -999.2500      4.0165      2.1744      4.8130    -21.4405    104.9224   -999.2500   -999.2500   -999.2500   -999.2500
   1043.5000      9.0272      0.3484   -999.2500   -999.2500   -999.2500   -999.2500   -999.2500      3.9817      2.1615      4.6787    -23.5025    104.3564   -999.2500   -999.2500   -999.2500   -999.2500
   1044.0000      9.0665      0.3391   -999.2500   -999.2500   -999.2500   -999.2500   -999.2500      3.9314      2.1436      4.7545    -24.5020     87.3649   -999.2500   -999.2500   -999.2500   -999.2500
   1044.5000      9.0703      0.3282   -999.2500   -999.2500   -999.2500   -999.2500   -999.2500      3.8713      2.1484      4.4246    -25.3140     84.1839   -999.2500   -999.2500   -999.2500   -999.2500
   1045.0000      9.0500      0.3278   -999.2500   -999.2500   -999.2500   -999.2500   -999.2500      3.8110      2.1463      4.3299    -25.5635     85.6341   -999.2500   -999.2500   -999.2500   -999.2500
   1045.5000      8.9393      0.3366   -999.2500   -999.2500   -999.2500   -999.2500   -999.2500      3.7562      2.1512      4.2919    -25.6255     86.6225   -999.2500   -999.2500   -999.2500   -999.2500
   1046.0000      8.9219      0.3376   -999.2500   -999.2500   -999.2500   -999.2500   -999.2500      3.7493      2.1480      4.2546    -25.6250     83.8911   -999.2500   -999.2500   -999.2500   -999.2500
   1046.5000      8.9219      0.3128   -999.2500   -999.2500   -999.2500   -999.2500   -999.2500      3.7189      2.1453      4.3045    -26.0512     82.0145   -999.2500   -999.2500   -999.2500   -999.2500
   1047.0000      8.9482      0.2709   -999.2500   -999.2500   -999.2500   -999.2500   -999.2500      3.7216      2.1536      4.6937    -26.2899     82.2902   -999.2500   -999.2500   -999.2500   -999.2500
   1047.5000      9.0186      0.2698   -999.2500   -999.2500   -999.2500   -999.2500   -999.2500      3.7789      2.1677      4.8329    -26.2161     84.5978   -999.2500   -999.2500   -999.2500   -999.2500
   1048.0000      9.1938      0.2915   -999.2500   -999.2500   -999.2500   -999.2500   -999.2500      3.8193      2.1802      4.2546    -24.7673     96.8569   -999.2500   -999.2500   -999.2500   -999.2500
   1048.5000      9.2912      0.3043   -999.2500   -999.2500   -999.2500   -999.2500   -999.2500      3.8431      2.1893      3.8932    -22.6935     99.8481   -999.2500   -999.2500   -999.2500   -999.2500
   1049.0000      9.5293      0.3017   -999.2500   -999.2500   -999.2500   -999.2500   -999.2500      3.8362      2.2046      3.7657    -19.7447    101.3579   -999.2500   -999.2500   -999.2500   -999.2500
   1049.5000      9.7502      0.2964   -999.2500   -999.2500   -999.2500   -999.2500   -999.2500      3.6972      2.2181      3.9482    -17.2959    101.7256   -999.2500   -999.2500   -999.2500   -999.2500
   1050.0000      9.8587      0.3284      0.3123      0.0993      0.2341      0.3617      0.4870      3.4864      2.2039      3.8322    -15.9721    103.7747      0.2222      0.0988      0.9007      0.3292
   1050.5000      9.9567      0.3902      0.3005      0.0034      0.2793      0.3597      0.4817      3.2980      2.1699      3.2979    -14.6796     97.6014      0.4549      0.1186      0.9966      0.3952
   1051.0000     10.1825      0.4230      0.2918      0.0000      0.3074      0.3583      0.4778      3.0201      2.1373      2.8425    -13.7308     96.5144      0.5119      0.1330      1.0000      0.4435
   1051.5000     10.6621      0.4371      0.2598      0.1575      0.3409      0.3528      0.4635      2.7190      2.0619      2.2855    -11.6882     94.9539      0.3027      0.1859      0.8425      0.6196
   1052.0000     11.9428      0.4646      0.0000      0.0000      0.2779      0.2779      0.2760      2.4796      1.8541      2.1641     -9.9582     87.7445      0.5345      0.5345      1.3363      1.7817
   1052.5000     15.1851      0.5321      0.0000      0.0000      0.2935      0.2935      0.2730      2.2704      1.6359      1.5908     -8.6656     68.8423      0.5644      0.5644      1.4110      1.8814
   1053.0000     17.4077      0.5717      0.0000      0.0000      0.3030      0.2964      0.2712      2.0819      1.4630      1.4763     -7.8731     64.5994      0.5826      0.5760      1.4566      1.9421
   1053.5000     19.1257      0.6060      0.0000      0.0000      0.2943      0.2943      0.2729      1.9661      1.3795      1.3749     -8.5805     62.4066      0.5659      0.5659      1.4147      1.8863
   1054.0000     21.2379      0.6240      0.0000      0.0000      0.2977      0.2969      0.2722      1.8359      1.3350      1.4715     -8.2880     59.5983      0.5725      0.5717      1.4311      1.9082
   1054.5000     21.7300      0.6259      0.0000      0.0000      0.2882      0.2882      0.2740      1.7537      1.3179      1.4940     -9.0579     56.5981      0.5543      0.5543      1.3856      1.8475
   1055.0000     21.5184      0.6116      0.0000      0.0000      0.2886      0.2886      0.2740      1.7088      1.3129      1.5278     -9.0154     55.2571      0.5550      0.5550      1.3875      1.8500
   1055.5000     21.8626      0.5844      0.0000      0.0000      0.2852      0.2852      0.2746      1.6898      1.3074      1.5290     -9.2853     61.8215      0.5484      0.5484      1.3711      1.8281
   1056.0000     22.2206      0.6294      0.0000      0.0000      0.2825      0.2825      0.2751      1.6768      1.3119      1.5183     -9.4928     61.0484      0.5433      0.5433      1.3584      1.8112
   1056.5000     21.8244      0.6393      0.0000      0.0000      0.2852      0.2852      0.2746      1.6818      1.3285      1.5591     -9.2627     60.0560      0.5485      0.5485      1.3712      1.8282
   1057.0000     20.7527      0.6311      0.0000      0.0000      0.2799      0.2799      0.2756      1.6910      1.3526      1.5435     -9.6889     58.9800      0.5383      0.5383      1.3457      1.7942
   1057.5000     21.5796      0.5706      0.0000      0.0000      0.2773      0.2773      0.2761      1.6877      1.3793      1.5090     -9.8964     59.2781      0.5332      0.5332      1.3330      1.7773
   1058.0000     22.3310      0.5418      0.0000      0.0000      0.2712      0.2712      0.2773      1.6868      1.4023      1.4879    -10.3851     70.5296      0.5215      0.5215      1.3038      1.7385
   1058.5000     22.4531      0.5184      0.0000      0.0000      0.2739      0.2739      0.2767      1.6772      1.4240      1.5078    -10.1550     62.7562      0.5267      0.5267      1.3166      1.7555
   1059.0000     22.4199      0.5441      0.0000      0.0000      0.2765      0.2765      0.2762      1.6651      1.4333      1.5001     -9.9250     63.4379      0.5318      0.5318      1.3294      1.7725
   1059.5000     22.4393      0.5661      0.0000      0.0000      0.2822      0.2822      0.2751      1.6506      1.4248      1.5172     -9.4449     63.6475      0.5427      0.5427      1.3567      1.8090
