~V
VERS. 2.00: Ver 2.00
WRAP.   NO:        
~W
 STRT.FT 500:
 STOP.FT 3500:
 STEP.FT 0.5:
 NULL. -999.250000:
 COMP. GARY DRILLING COMPANY:Company
 WELL. KCL 44-375:Well
 FLD. PIONEER:Field
 LOC. SEC 32 TWN 11N RGE 22W:Location
 STAT. CA:State
 SRVC. :Service Company
 SON. :Service Order #
 DATE. :Log Date
 UWI. :Unique Well ID
~C
 DEPT.FT :
 CALS.IN :
 NPHC.V/V :
 PHES. :
 PHIE. :
 PHIT. :
 PHTS. :
 PHZC. :
 RD.OHMM :
 ROBC.G/C3 :
 RS.OHMM :
 SBL.MV :
 SGRC.GAPI :
 VCLW. :
 VCWS. :
 VSHL. :
 VSHS. :
~P
~A
# ...
   1760.0000      8.9219      0.4581      0.3215      0.3045      0.4486      0.4548      0.4495      1.3522      1.7714      1.4415     -9.9034    108.5425      0.2882      0.2221      0.6955      0.5554
   1760.5000      8.9219      0.4590      0.3216      0.3005      0.4423      0.4548      0.4495      1.3519      1.7414      1.3775     -9.9186    109.9417      0.2837      0.2220      0.6995      0.5551
   1761.0000      8.9219      0.4422      0.3293      0.2888      0.4263      0.4571      0.4520      1.3434      1.7214      1.3622    -10.4337    113.6820      0.2749      0.2129      0.7112      0.5322
   1761.5000      8.9219      0.4777      0.3486      0.3047      0.4515      0.4627      0.4581      1.3234      1.7169      1.3932    -11.6989    120.7564      0.2938      0.1901      0.6953      0.4751
   1762.0000      8.9219      0.4869      0.3487      0.3060      0.4596      0.4627      0.4581      1.2996      1.7270      1.4205    -11.7140    124.7761      0.3072      0.1900      0.6940      0.4749
   1762.5000      8.9219      0.5034      0.3488      0.3100      0.4722      0.4627      0.4582      1.2733      1.7352      1.4397    -11.7292    126.7033      0.3244      0.1899      0.6900      0.4746
   1763.0000      8.9312      0.4989      0.3450      0.3284      0.4697      0.4616      0.4570      1.2648      1.7409      1.4558    -11.4943    106.0582      0.2826      0.1943      0.6716      0.4857
   1763.5000      8.9284      0.5111      0.3490      0.3357      0.4783      0.4628      0.4582      1.2671      1.7424      1.3506    -11.7595    104.4917      0.2852      0.1897      0.6643      0.4741
   1764.0000      8.9219      0.5011      0.3529      0.3419      0.4711      0.4639      0.4595      1.2730      1.7395      1.3148    -12.0246     97.5108      0.2583      0.1850      0.6581      0.4625
   1764.5000      8.9306      0.4970      0.3568      0.3402      0.4685      0.4650      0.4607      1.2788      1.7413      1.2835    -12.2898     98.5820      0.2565      0.1804      0.6598      0.4509
   1765.0000      8.9290      0.4861      0.3569      0.3347      0.4637      0.4651      0.4607      1.2790      1.7586      1.3064    -12.3049     99.3338      0.2580      0.1803      0.6653      0.4507
   1765.5000      8.9219      0.4904      0.3445      0.3182      0.4726      0.4615      0.4568      1.2795      1.7926      1.3775    -11.5076    110.4215      0.3087      0.1949      0.6818      0.4874
   1766.0000      8.9219      0.4688      0.3215      0.2931      0.4558      0.4548      0.4494      1.2848      1.8267      1.4518    -10.0227    111.6515      0.3252      0.2221      0.7069      0.5553
   1766.5000      8.9219      0.4797      0.3062      0.2969      0.4585      0.4503      0.4445      1.2989      1.8377      1.4344     -9.0379    101.8445      0.3231      0.2402      0.7031      0.6006
   1767.0000      8.9219      0.4546      0.3062      0.3015      0.4479      0.4503      0.4446      1.3218      1.8286      1.4341     -9.0530     97.7585      0.2929      0.2401      0.6985      0.6003
   1767.5000      8.9219      0.4619      0.3217      0.3159      0.4543      0.4548      0.4495      1.3296      1.8188      1.3995    -10.0682     94.6350      0.2768      0.2218      0.6841      0.5546
   1768.0000      8.9219      0.4409      0.3333      0.3142      0.4450      0.4582      0.4532      1.3307      1.8122      1.4372    -10.8333     98.2252      0.2615      0.2081      0.6858      0.5203
   1768.5000      8.9219      0.4529      0.3450      0.3235      0.4533      0.4616      0.4569      1.3203      1.7969      1.4894    -11.5985     99.6239      0.2595      0.1944      0.6765      0.4859
   1769.0000      8.9219      0.4743      0.3527      0.3317      0.4587      0.4638      0.4594      1.3091      1.7719      1.5059    -12.1136     97.6102      0.2541      0.1852      0.6683      0.4629
   1769.5000      8.9219      0.4902      0.3644      0.3367      0.4658      0.4672      0.4631      1.3002      1.7554      1.4482    -12.8788    100.7102      0.2582      0.1714      0.6633      0.4285
   1770.0000      8.9498      0.5043      0.3606      0.3362      0.4749      0.4661      0.4619      1.2837      1.7538      1.3637    -12.6439    104.1170      0.2775      0.1759      0.6638      0.4396
   1770.5000      9.0221      0.4935      0.3530      0.3341      0.4686      0.4639      0.4595      1.2690      1.7599      1.3285    -12.1591    100.6312      0.2691      0.1849      0.6659      0.4621
   1771.0000      9.0703      0.5006      0.3377      0.3336      0.4733      0.4594      0.4546      1.2601      1.7608      1.3413    -11.1742     98.8648      0.2795      0.2030      0.6664      0.5074
   1771.5000      9.0703      0.4604      0.3377      0.3239      0.4468      0.4595      0.4546      1.2531      1.7579      1.3471    -11.1894     95.9248      0.2457      0.2029      0.6761      0.5072
   1772.0000      9.0703      0.4559      0.3378      0.3227      0.4430      0.4595      0.4546      1.2467      1.7546      1.2940    -11.2045     95.0683      0.2407      0.2028      0.6773      0.5069
   1772.5000      9.1059      0.4444      0.3418      0.3208      0.4362      0.4606      0.4559      1.2419      1.7575      1.3000    -11.4697     93.7335      0.2308      0.1981      0.6792      0.4953
   1773.0000      9.1943      0.4678      0.3457      0.3404      0.4517      0.4618      0.4571      1.2328      1.7584      1.3325    -11.7348     86.6127      0.2226      0.1935      0.6596      0.4837
   1773.5000      9.2381      0.4614      0.3496      0.3426      0.4482      0.4629      0.4584      1.2362      1.7611      1.3912    -12.0000     83.2607      0.2111      0.1888      0.6471      0.4720
   1774.0000      9.2987      0.4328      0.3613      0.3354      0.4291      0.4663      0.4621      1.2507      1.7587      1.4285    -12.7652     81.0126      0.1873      0.1751      0.5739      0.4376
   1774.5000      9.3828      0.4090      0.3652      0.3221      0.4109      0.4674      0.4633      1.2757      1.7510      1.4401    -13.0303     84.6731      0.1776      0.1704      0.5443      0.4260
   1775.0000      9.3828      0.4114      0.3768      0.3253      0.4099      0.4708      0.4671      1.3209      1.7427      1.4511    -13.7955     84.2478      0.1693      0.1566      0.5187      0.3916
   1775.5000      9.3828      0.4293      0.3833      0.3199      0.4197      0.4727      0.4691      1.3611      1.7333      1.4785    -14.3106     96.4031      0.1996      0.1490      0.6116      0.3724
   1776.0000      9.3828      0.4554      0.3809      0.3117      0.4390      0.4720      0.4683      1.4169      1.7374      1.5047    -14.0758    113.4472      0.2545      0.1519      0.6883      0.3797
   1776.5000      9.3861      0.4597      0.3655      0.3067      0.4485      0.4675      0.4634      1.4961      1.7670      1.5733    -13.0909    118.0572      0.2835      0.1700      0.6933      0.4250
   1777.0000      9.3984      0.4535      0.3454      0.3131      0.4494      0.4617      0.4570      1.6094      1.8205      1.6559    -11.7936    100.9302      0.2726      0.1938      0.6869      0.4845
   1777.5000      9.3970      0.4492      0.3223      0.2892      0.4352      0.4550      0.4496      1.8055      1.8661      1.6830    -10.3087     96.5710      0.2920      0.2211      0.7108      0.5527
   1778.0000      9.3906      0.4259      0.3185      0.2929      0.4169      0.4539      0.4484      2.0333      1.8911      1.7430    -10.0739     75.9017      0.2479      0.2255      0.7071      0.5638
   1778.5000      9.3918      0.4093      0.3350      0.2904      0.4042      0.4586      0.4537      2.3824      1.9080      1.8595    -11.1515     71.9895      0.2277      0.2061      0.6977      0.5152
   1779.0000      9.3963      0.3565      0.3457      0.2648      0.3665      0.4617      0.4571      2.6618      1.9559      2.1834    -11.8542     70.6949      0.2034      0.1934      0.6232      0.4835
   1779.5000      9.3838      0.3418      0.3535      0.2331      0.3387      0.4640      0.4596      2.8746      2.0359      2.9601    -12.3693     63.9843      0.2111      0.1842      0.6470      0.4605
