~V
VERS. 2.00: Ver 2.00
WRAP.   NO:        
~W
 STRT.FT 500:
 STOP.FT 3500:
 STEP.FT 0.5:
 NULL. -999.250000:
 COMP. GARY DRILLING COMPANY:Company
 WELL. KCL 44-375:Well
 FLD. PIONEER:Field
 LOC. SEC 32 TWN 11N RGE 22W:Location
 STAT. CA:State
 SRVC. :Service Company
 SON. :Service Order #
 DATE. :Log Date
 UWI. :Unique Well ID
~C
 DEPT.FT :
 CALS.IN :
 NPHC.V/V :
 PHES. :
 PHIE. :
 PHIT. :
 PHTS. :
 PHZC. :
 RD.OHMM :
 ROBC.G/C3 :
 RS.OHMM :
 SBL.MV :
 SGRC.GAPI :
 VCLW. :
 VCWS. :
 VSHL. :
 VSHS. :
~P
~A
# ...
   1480.0000      9.2188      0.3986      0.3944      0.3387      0.3914      0.4772      0.4739      2.6272      1.6842      2.7805    -15.1982     57.5949      0.1054      0.1380      0.3231      0.3450
   1480.5000      9.2266      0.4381      0.3956      0.3693      0.4263      0.4775      0.4743      2.7107      1.6705      2.8384    -15.3992     54.8464      0.1139      0.1365      0.3491      0.3412
   1481.0000      9.1094      0.4178      0.3953      0.3526      0.4065      0.4774      0.4741      2.7931      1.6754      2.7531    -15.3503     55.6431      0.1078      0.1369      0.3304      0.3423
   1481.5000      8.9844      0.4289      0.4003      0.3699      0.4212      0.4789      0.4757      2.9385      1.6793      3.0336    -16.1139     51.4625      0.1026      0.1310      0.3144      0.3275
   1482.0000      8.9219      0.4346      0.4037      0.3739      0.4265      0.4799      0.4768      3.1292      1.6893      2.8647    -16.6274     51.8625      0.1050      0.1270      0.3219      0.3175
   1482.5000      8.9219      0.4272      0.4025      0.3691      0.4187      0.4795      0.4764      3.4237      1.6816      2.8760    -16.4535     50.6342      0.0991      0.1284      0.3036      0.3211
   1483.0000      8.9219      0.4061      0.4004      0.3593      0.4062      0.4789      0.4758      3.8616      1.6972      3.3738    -16.1546     49.1961      0.0938      0.1308      0.2875      0.3271
   1483.5000      8.9219      0.3756      0.3992      0.3472      0.3898      0.4786      0.4754      4.2750      1.7243      3.8701    -15.9806     46.7448      0.0852      0.1322      0.2610      0.3306
   1484.0000      8.9219      0.3711      0.3959      0.3528      0.4003      0.4776      0.4743      5.0154      1.7549      4.8369    -15.4942     46.8216      0.0949      0.1361      0.2907      0.3403
   1484.5000      9.0312      0.3779      0.3889      0.3682      0.4254      0.4756      0.4721      5.7509      1.8032      5.9931    -14.4453     44.1355      0.1145      0.1444      0.3509      0.3610
   1485.0000      8.9219      0.3411      0.3890      0.3205      0.3803      0.4756      0.4721      6.4911      1.9052      8.4060    -14.4588     38.1037      0.1195      0.1444      0.3661      0.3609
   1485.5000      8.9219      0.2706      0.3911      0.2670      0.3080      0.4762      0.4728      7.0238      2.0534     13.7742    -14.7849     33.2247      0.0819      0.1419      0.2511      0.3546
   1486.0000      8.9219      0.2217      0.3911      0.2183      0.2605      0.4762      0.4728      7.3715      2.1557     20.1661    -14.7985     28.5631      0.0844      0.1418      0.2587      0.3545
   1486.5000      9.0469      0.2310      0.3949      0.2438      0.2815      0.4773      0.4740      7.3373      2.0893     17.7285    -15.3745     28.8616      0.0753      0.1373      0.2307      0.3433
   1487.0000      9.0625      0.2878      0.3945      0.2889      0.3414      0.4772      0.4739      7.2569      1.9502      8.7967    -15.3256     42.1644      0.1050      0.1378      0.3219      0.3444
   1487.5000      8.9453      0.3452      0.3950      0.3390      0.3936      0.4773      0.4740      6.7853      1.8578      6.9271    -15.4016     44.8711      0.1092      0.1372      0.3347      0.3431
   1488.0000      8.9062      0.3613      0.3896      0.3582      0.4144      0.4758      0.4723      6.1190      1.8102      6.3498    -14.6027     47.0624      0.1125      0.1436      0.3447      0.3589
   1488.5000      8.9062      0.3386      0.3884      0.3475      0.3961      0.4754      0.4719      5.5780      1.7876      6.3705    -14.4288     46.4752      0.0972      0.1450      0.2979      0.3625
   1489.0000      8.9062      0.3283      0.3897      0.3363      0.3828      0.4758      0.4723      5.0475      1.7765      6.3156    -14.6298     50.0709      0.0931      0.1435      0.2855      0.3586
   1489.5000      8.9219      0.3346      0.3964      0.3378      0.3822      0.4777      0.4745      4.8065      1.7681      6.0238    -15.6434     51.3565      0.0886      0.1355      0.2717      0.3388
   1490.0000      8.9219      0.3358      0.3877      0.3276      0.3818      0.4752      0.4717      4.7741      1.7649      6.2818    -14.3445     58.1584      0.1083      0.1458      0.3318      0.3645
   1490.5000      8.9219      0.3579      0.4077      0.3474      0.3923      0.4810      0.4781      4.9090      1.7555      5.5613    -17.3580     54.9604      0.0896      0.1222      0.2747      0.3054
   1491.0000      8.9219      0.3726      0.3894      0.3448      0.4015      0.4757      0.4722      5.0228      1.7553      4.8811    -14.6216     54.0032      0.1134      0.1437      0.3475      0.3594
   1491.5000      8.8906      0.3709      0.3845      0.3428      0.4112      0.4743      0.4707      5.0061      1.8385      5.3926    -13.8852     50.3966      0.1368      0.1496      0.4193      0.3740
   1492.0000      8.7656      0.3041      0.3966      0.2812      0.3447      0.4778      0.4745      4.6750      1.9683      8.1378    -15.7112     50.0830      0.1270      0.1353      0.3891      0.3382
   1492.5000      8.8750      0.2858      0.4096      0.2765      0.3119      0.4815      0.4787      4.4197      2.0629     11.4827    -17.6623     38.2473      0.0708      0.1200      0.2169      0.2999
   1493.0000      8.9062      0.3124      0.3942      0.2899      0.3551      0.4771      0.4738      4.2532      1.9417      7.1119    -15.3634     53.0826      0.1304      0.1381      0.3996      0.3453
   1493.5000      8.8516      0.3705      0.3872      0.3417      0.4111      0.4750      0.4715      4.1438      1.8298      4.1581    -14.3144     55.8803      0.1387      0.1464      0.4251      0.3661
   1494.0000      8.7656      0.3768      0.3782      0.3350      0.4072      0.4724      0.4687      4.0057      1.7733      3.6715    -13.5155     62.9530      0.1445      0.1570      0.4427      0.3924
   1494.5000      8.7656      0.3771      0.3742      0.3334      0.4036      0.4712      0.4674      3.7524      1.7647      3.6532    -13.2791     60.1483      0.1405      0.1618      0.4306      0.4044
   1495.0000      8.7656      0.3822      0.3898      0.3397      0.4020      0.4758      0.4723      3.4655      1.7510      3.6306    -14.7301     59.6839      0.1247      0.1433      0.3820      0.3583
   1495.5000      8.7969      0.3915      0.3919      0.3449      0.4071      0.4764      0.4730      3.3213      1.7471      3.5048    -15.0562     59.1343      0.1245      0.1408      0.3815      0.3520
   1496.0000      8.8203      0.3930      0.3986      0.3557      0.4136      0.4783      0.4751      3.2534      1.7572      3.7227    -16.0698     55.4217      0.1157      0.1329      0.3545      0.3322
   1496.5000      8.7734      0.3796      0.4053      0.3567      0.4110      0.4803      0.4773      3.1945      1.7701      4.3236    -17.0833     56.7570      0.1085      0.1249      0.3325      0.3123
   1497.0000      8.7812      0.3825      0.4037      0.3581      0.4140      0.4798      0.4768      3.2593      1.7685      4.9933    -16.8469     57.3195      0.1119      0.1269      0.3428      0.3171
   1497.5000      8.8047      0.3770      0.3971      0.3438      0.4028      0.4779      0.4746      3.3939      1.7544      4.3363    -15.8605     61.2126      0.1180      0.1347      0.3616      0.3367
   1498.0000      8.8203      0.3892      0.3938      0.3442      0.4071      0.4769      0.4736      3.6353      1.7533      3.4031    -15.3740     60.8050      0.1258      0.1386      0.3856      0.3464
   1498.5000      8.8984      0.4014      0.3972      0.3530      0.4221      0.4779      0.4747      3.8897      1.7708      3.4091    -15.8876     64.5407      0.1381      0.1346      0.4233      0.3364
   1499.0000      8.9688      0.3840      0.4089      0.3643      0.4251      0.4813      0.4784      4.1050      1.7981      3.9912    -17.6512     61.4981      0.1215      0.1207      0.3725      0.3018
   1499.5000      9.1797      0.3713      0.3972      0.3486      0.4147      0.4779      0.4747      4.2452      1.8257      5.4376    -15.9147     59.7144      0.1323      0.1345      0.4056      0.3362
