~V
VERS. 2.00: Ver 2.00
WRAP.   NO:        
~W
 STRT.FT 500:
 STOP.FT 3500:
 STEP.FT 0.5:
 NULL. -999.250000:
 COMP. GARY DRILLING COMPANY:Company
 WELL. KCL 44-375:Well
 FLD. PIONEER:Field
 LOC. SEC 32 TWN 11N RGE 22W:Location
 STAT. CA:State
 SRVC. :Service Company
 SON. :Service Order #
 DATE. :Log Date
 UWI. :Unique Well ID
~C
 DEPT.FT :
 CALS.IN :
 NPHC.V/V :
 PHES. :
 PHIE. :
 PHIT. :
 PHTS. :
 PHZC. :
 RD.OHMM :
 ROBC.G/C3 :
 RS.OHMM :
 SBL.MV :
 SGRC.GAPI :
 VCLW. :
 VCWS. :
 VSHL. :
 VSHS. :
~P
~A
# ...
   2040.0000      8.7656      0.4598      0.3682      0.3543      0.4475      0.4672      0.4632      1.1247      1.7626      1.2592    -14.9516     75.8784      0.1863      0.1649      0.5708      0.4123
   2040.5000      8.7656      0.4570      0.3567      0.3486      0.4497      0.4638      0.4595      1.1222      1.7780      1.1995    -14.2001     79.4437      0.2023      0.1786      0.6199      0.4464
   2041.0000      8.7656      0.4484      0.3452      0.3393      0.4443      0.4605      0.4559      1.1202      1.7771      1.1783    -13.4486     83.1931      0.2101      0.1922      0.6437      0.4804
   2041.5000      8.7656      0.4607      0.3337      0.3398      0.4483      0.4571      0.4522      1.1176      1.7636      1.1346    -12.6971     81.8770      0.2170      0.2057      0.6602      0.5143
   2042.0000      8.7656      0.4723      0.3337      0.3397      0.4546      0.4571      0.4522      1.1110      1.7582      1.1443    -12.6955     86.2557      0.2297      0.2058      0.6603      0.5144
   2042.5000      8.7656      0.4988      0.3222      0.3369      0.4722      0.4538      0.4485      1.1159      1.7608      1.1276    -11.9440     92.6050      0.2706      0.2193      0.6631      0.5483
   2043.0000      8.7656      0.4855      0.3184      0.3305      0.4659      0.4527      0.4473      1.1176      1.7734      1.2037    -11.6925     93.3308      0.2709      0.2238      0.6695      0.5596
   2043.5000      8.7656      0.4776      0.3222      0.3286      0.4610      0.4538      0.4485      1.1215      1.7730      1.1920    -11.9409     94.0677      0.2647      0.2193      0.6714      0.5483
   2044.0000      8.7656      0.4573      0.3265      0.3206      0.4496      0.4550      0.4499      1.1286      1.7769      1.1804    -12.2207     97.4131      0.2579      0.2143      0.6794      0.5357
   2044.5000      8.7656      0.4687      0.3226      0.3189      0.4545      0.4539      0.4487      1.1279      1.7684      1.1459    -11.9691    100.2782      0.2712      0.2188      0.6811      0.5469
   2045.0000      8.7656      0.4884      0.3112      0.3249      0.4664      0.4506      0.4450      1.1221      1.7661      1.1724    -11.2176     97.1288      0.2830      0.2323      0.6751      0.5807
   2045.5000      8.7656      0.4929      0.3107      0.3216      0.4702      0.4504      0.4449      1.1158      1.7720      1.3285    -11.1848    100.7823      0.2972      0.2328      0.6784      0.5821
   2046.0000      8.7656      0.4790      0.3074      0.3240      0.4604      0.4495      0.4438      1.1115      1.7660      1.3959    -10.9645     94.5991      0.2728      0.2368      0.6760      0.5919
   2046.5000      8.7656      0.4568      0.3373      0.3384      0.4399      0.4582      0.4533      1.1097      1.7368      1.2617    -12.9318     80.7193      0.2030      0.2014      0.6220      0.5035
   2047.0000      8.7656      0.4962      0.3525      0.3588      0.4653      0.4626      0.4582      1.1018      1.7175      1.1757    -13.9302     84.7702      0.2130      0.1835      0.6412      0.4587
   2047.5000      8.7656      0.5299      0.3639      0.3612      0.4896      0.4659      0.4618      1.0897      1.7061      1.1248    -14.6787     98.7484      0.2567      0.1700      0.6388      0.4251
   2048.0000      8.7656      0.5614      0.3491      0.3564      0.5132      0.4616      0.4571      1.0746      1.7198      1.1611    -13.7084    107.7178      0.3137      0.1875      0.6436      0.4686
   2048.5000      8.7344      0.5443      0.3302      0.3478      0.5008      0.4561      0.4510      1.0672      1.7273      1.1881    -12.4569    103.0730      0.3060      0.2099      0.6522      0.5247
   2049.0000      8.7266      0.5229      0.3150      0.3354      0.4856      0.4517      0.4462      1.0595      1.7289      1.2598    -11.4554    102.4606      0.3005      0.2278      0.6646      0.5695
   2049.5000      8.7188      0.5072      0.3188      0.3342      0.4744      0.4528      0.4474      1.0542      1.7294      1.3493    -11.7038     99.3662      0.2803      0.2233      0.6658      0.5583
   2050.0000      8.7266      0.4983      0.3296      0.3312      0.4693      0.4559      0.4509      1.0415      1.7404      1.3471    -12.4211    101.1844      0.2762      0.2105      0.6688      0.5262
   2050.5000      8.7266      0.5016      0.3258      0.3280      0.4727      0.4548      0.4497      1.0366      1.7500      1.2520    -12.1695    103.1910      0.2893      0.2150      0.6720      0.5374
   2051.0000      8.7188      0.5003      0.3220      0.3314      0.4710      0.4537      0.4484      1.0364      1.7434      1.2620    -11.9180     99.4753      0.2793      0.2194      0.6686      0.5486
   2051.5000      8.7031      0.4859      0.3263      0.3328      0.4580      0.4549      0.4498      1.0557      1.7205      1.2903    -12.1977     96.2264      0.2504      0.2144      0.6672      0.5361
   2052.0000      8.7031      0.4782      0.3451      0.3390      0.4500      0.4604      0.4558      1.0817      1.7016      1.2025    -13.4462     92.8860      0.2220      0.1921      0.6610      0.4803
   2052.5000      8.7188      0.4819      0.3682      0.3445      0.4526      0.4671      0.4632      1.0963      1.7003      1.1328    -14.9759     95.8668      0.2162      0.1649      0.6555      0.4122
   2053.0000      8.7188      0.4876      0.3606      0.3475      0.4600      0.4649      0.4608      1.1288      1.7262      1.3361    -14.4744     93.5996      0.2251      0.1738      0.6525      0.4345
   2053.5000      8.7500      0.4929      0.3408      0.3410      0.4695      0.4592      0.4544      1.1775      1.7677      1.4540    -13.1604     93.3102      0.2571      0.1972      0.6590      0.4931
   2054.0000      8.7656      0.4911      0.3032      0.3012      0.4669      0.4482      0.4424      1.2253      1.8284      1.4522    -10.6588    104.7040      0.3312      0.2417      0.6988      0.6043
   2054.5000      8.7656      0.4748      0.2693      0.2539      0.4386      0.4384      0.4316      1.2858      1.8996      1.3672     -8.4073    104.2569      0.3694      0.2817      0.7461      0.7044
   2055.0000      8.7656      0.4338      0.2205      0.1997      0.4034      0.4242      0.4160      1.3480      1.9535      1.4425     -5.1558    108.9894      0.4074      0.3395      0.8003      0.7795
   2055.5000      8.7656      0.4229      0.1909      0.1839      0.3936      0.4156      0.4066      1.4094      1.9699      1.5175     -3.1855    105.0193      0.4194      0.3744      0.8161      0.8091
   2056.0000      8.7656      0.4255      0.1610      0.1785      0.3955      0.4069      0.3970      1.4450      1.9675      1.5016     -1.1840    101.4093      0.4341      0.4098      0.8215      0.8390
   2056.5000      8.7656      0.4354      0.1536      0.1722      0.4000      0.4047      0.3946      1.4473      1.9677      1.5670     -0.6824    105.3184      0.4556      0.4186      0.8278      0.8464
   2057.0000      8.7656      0.4424      0.1504      0.1936      0.4104      0.4038      0.3936      1.4163      1.9433      1.6175     -0.4622     97.3246      0.4336      0.4223      0.8064      0.8496
   2057.5000      8.7656      0.4512      0.1612      0.2342      0.4296      0.4069      0.3971      1.3775      1.8904      1.5938     -1.1794     89.3046      0.3908      0.4095      0.7658      0.8388
   2058.0000      8.7656      0.4492      0.1988      0.2822      0.4461      0.4178      0.4091      1.3335      1.8247      1.4306     -3.6778     86.4506      0.3279      0.3651      0.7178      0.8012
   2058.5000      8.7656      0.4571      0.2405      0.3171      0.4498      0.4300      0.4224      1.2870      1.7780      1.3023     -6.4576     74.8969      0.2653      0.3158      0.6829      0.7595
   2059.0000      8.7656      0.4633      0.2892      0.3339      0.4505      0.4441      0.4379      1.2509      1.7660      1.2261     -9.7060     74.6517      0.2332      0.2582      0.6661      0.6456
   2059.5000      8.7656      0.4695      0.3009      0.3294      0.4571      0.4475      0.4416      1.2090      1.7776      1.1814    -10.4858     87.3491      0.2554      0.2444      0.6706      0.6111
