~Version Information
VERS.                     2.0: CWLS log ASCII Standard Version 2.00
WRAP.                     YES: Multiple lines per depth step
~Well Information Block
#MNEM.UNIT                               Data Type  Information
#---------                               ---------  -----------
STRT.FT                                   632.0000:
STOP.FT                                  6808.0000:
STEP.FT                                     0.5000:
NULL.                 -999.25                     :
COMP.                                             :COMPANY            
WELL.     SAN EMIDIO A 46X-19 REDRILL             :WELL               
FLD .                                             :FIELD              
CTRY.                                             :COUNTRY            
STAT.                                             :STATE              
LOC .                                             :LOCATION           
UWI .                                             :UNIQUE WELL ID     
SRVC.                                             :Service company    
DATE.                                             :LOG DATE           
~Curve Information
#MNEM.UNIT           API CODE  Curve Description
#---------           --------  -----------------
DEPT.FT                      :   1 DEPTH
SP  .MV                      :   2
GR  .GAPI                    :   3
SFLU.OHMM                    :   4
ILM .OHMM                    :   5
ILD .OHMM                    :   6
DGR .                        :   7
CALI.                        :   8
RHOB.                        :   9
NPOR.                        :  10
DRHO.                        :  11
RS  .OHMM                    :  12
RM  .OHMM                    :  13
RD  .OHMM                    :  14
SBL .MV                      :  15
ROBS.G/C3                    :  16
DROS.G/C3                    :  17
CALS.IN                      :  18
GRS .GAPI                    :  19
NPHS.PU-S                    :  20
DEVI.DEG                     :  21
TVD .FT                      :  22
AZIM.DEG                     :  23
NORT.FT                      :  24
EAST.FT                      :  25
OFFS.FT                      :  26
SFLU.OHMM                    :  27
ILMC.OHMM                    :  28
ILDC.OHMM                    :  29
ROBC.G/C3                    :  30
GRC .GAPI                    :  31
NPHC.PU-S                    :  32
~A
# ...
  6797.000 
 -19.786  126.07  20.595  17.552  17.682 -999.25  9.2220  2.1010  0.2860 
  0.0520  20.595  17.552  17.682 -9.7860  2.0800  0.0460  9.3890 -999.25 
  0.2860  0.9465  6726.1  239.00  30.642 -5.9752  17.442  21.659  17.825 
  17.619  2.0828 -999.25  0.2561 
  6797.500 
 -19.699  126.08  22.047  18.147  18.416 -999.25  9.2870  2.1110  0.2870 
  0.0490  22.047  18.147  18.416 -9.6990  2.0530  0.0460  9.2850 -999.25 
  0.2870  0.9376  6726.6  239.00  30.638 -5.9822  17.434  23.091  18.408 
  18.345  2.0555 -999.25  0.2571 
  6798.000 
 -19.775  126.02  23.866  18.901  19.537 -999.25  9.3360  2.1020  0.2880 
  0.0480  23.866  18.901  19.537 -9.7750  2.0390  0.0460  9.0700 -999.25 
  0.2880  0.9287  6727.1  239.00  30.633 -5.9891  17.426  24.805  19.115 
  19.451  2.0411 -999.25  0.2581 
  6798.500 
 -20.126  125.56  25.834  19.904  20.573 -999.25  9.3890  2.0800  0.2890 
  0.0460  25.834  19.904  20.573 -10.126  2.0330  0.0470  8.9670 -999.25 
  0.2890  0.9198  6727.6  239.00  30.629 -5.9960  17.418  26.735  20.105 
  20.474  2.0330 -999.25  0.2591 
  6799.000 
 -20.321  125.09  26.708  20.959  21.504 -999.25  9.2850  2.0530  0.2900 
  0.0460  26.708  20.959  21.504 -10.321  2.0340  0.0470  8.9720 -999.25 
  0.2900  0.9109  6728.1  239.00  30.625 -6.0028  17.411  27.631  21.184 
  21.396  2.0340 -999.25  0.2602 
  6799.500 
 -20.516  124.49  25.007  22.152  22.770 -999.25  9.0700  2.0390  0.2910 
  0.0460  25.007  22.152  22.770 -10.516  2.0430  0.0480  8.9770 -999.25 
  0.2910  0.9020  6728.6  239.00  30.621 -6.0096  17.403  25.899  22.405 
  22.649  2.0430 -999.25  0.2612 
  6800.000 
 -20.669  123.54  23.412  23.284  23.071 -999.25  8.9670  2.0330  0.2910 
  0.0470  23.412  23.284  23.071 -10.669  2.0590  0.0500  8.9980 -999.25 
  0.2910  0.8931  6729.1  239.00  30.617 -6.0163  17.395  24.285  23.574 
  22.948  2.0590 -999.25  0.2613 
  6800.500 
 -20.956  122.64  21.170  23.376  22.533 -999.25  8.9720  2.0340  0.2900 
  0.0470  21.170  23.376  22.533 -10.956  2.0870  0.0530  9.0710 -999.25 
  0.2900  0.8841  6729.6  239.00  30.613 -6.0229  17.388  22.040  23.705 
  22.418  2.0892 -999.25  0.2602 
  6801.000 
 -21.284  121.43  20.077  22.088  20.904 -999.25  8.9770  2.0430  0.2850 
  0.0480  20.077  22.088  20.904 -11.284  2.1160  0.0580  9.2040 -999.25 
  0.2850  0.8752  6730.1  239.00  30.609 -6.0294  17.381  21.003  22.440 
  20.810  2.1185 -999.25  0.2549 
  6801.500 
 -21.850  121.60  18.625  20.156  19.429 -999.25  8.9980  2.0590  0.2790 
  0.0500  18.625  20.156  19.429 -11.850  2.1330  0.0630  9.3410 -999.25 
  0.2790  0.8663  6730.6  239.00  30.605 -6.0359  17.373  19.586  20.500 
  19.351  2.1359 -999.25  0.2486 
  6802.000 
 -22.375  121.58  16.965  19.116  19.614 -999.25  9.0710  2.0870  0.2670 
  0.0530  16.965  19.116  19.614 -12.375  2.1410  0.0660  9.3940 -999.25 
  0.2670  0.8574  6731.1  239.00  30.601 -6.0423  17.366  17.892  19.442 
  19.536  2.1440 -999.25  0.2360 
  6802.500 
 -22.623  121.27  15.367  19.477  20.094 -999.25  9.2040  2.1160  0.2540 
  0.0580  15.367  19.477  20.094 -12.623  2.1320  0.0690  9.4000 -999.25 
  0.2540  0.8485  6731.6  239.00  30.598 -6.0487  17.359  16.231  19.818 
  20.013  2.1350 -999.25  0.2224 
  6803.000 
 -22.710  117.55  17.870  19.410  20.286 -999.25  9.3410  2.1330  0.2360 
  0.0630  17.870  19.410  20.286 -12.710  2.1110  0.0650  9.3880 -999.25 
  0.2360  0.8396  6732.1  239.00  30.594 -6.0549  17.352  18.829  19.745 
  20.203  2.1139 -999.25  0.2037 
  6803.500 
 -22.558  109.82  20.366  21.285  20.330 -999.25  9.3940  2.1410  0.2210 
  0.0660  20.366  21.285  20.330 -12.558  2.0740  0.0610  9.4010 -999.25 
  0.2210  0.8307  6732.6  239.00  30.590 -6.0612  17.345  21.429  21.693 
  20.247  2.0768 -999.25  0.1884 
  6804.000 
 -22.643  96.937  23.467  22.703  20.334 -999.25  9.4000  2.1320  0.2050 
  0.0690  23.467  22.703  20.334 -12.643  2.0450  0.0530  9.4820 -999.25 
  0.2050  0.8218  6733.1  239.00  30.586 -6.0673  17.338  24.705  23.207 
  20.254  2.0479 -999.25  0.1723 
  6804.500 
 -22.651  93.096  25.731  24.941  20.303 -999.25  9.3880  2.1110  0.1910 
  0.0650  25.731  24.941  20.303 -12.651  2.0230  0.0460  9.6510 -999.25 
  0.1910  0.8129  6733.6  239.00  30.583 -6.0734  17.331  27.193  25.648 
  20.228  2.0261 -999.25  0.1584 
  6805.000 
 -22.658  92.606  28.265  26.555  20.160 -999.25  9.4010  2.0740  0.1810 
  0.0610  28.265  26.555  20.160 -12.658  2.0070  0.0390  9.7960 -999.25 
  0.1810  0.8040  6734.1  239.00  30.579 -6.0794  17.324  29.964  27.454 
  20.091  2.0103 -999.25  0.1485 
  6805.500 
 -22.588  92.714  32.569  28.120  20.093 -999.25  9.4820  2.0450  0.1710 
  0.0530  32.569  28.120  20.093 -12.588  1.9980  0.0330  9.8730 -999.25 
  0.1710  0.7950  6734.6  239.00  30.576 -6.0853  17.317  34.540  29.188 
  20.027  2.0014 -999.25  0.1387 
  6806.000 
 -22.355  92.764  35.127  28.965  20.024 -999.25  9.6510  2.0230  0.1670 
  0.0460  35.127  28.965  20.024 -12.355  2.0040  0.0270  9.7220 -999.25 
  0.1670  0.7861  6735.1  239.00  30.572 -6.0912  17.311  37.045  29.979 
  19.953  2.0072 -999.25  0.1348 
  6806.500 
 -22.204  92.753  35.985  29.619  19.993 -999.25  9.7960  2.0070  0.1650 
  0.0390  35.985  29.619  19.993 -12.204  2.0270  0.0270  8.6790 -999.25 
  0.1650  0.7772  6735.6  239.00  30.569 -6.0970  17.304  36.736  29.838 
  19.890  2.0270 -999.25  0.1324 
  6807.000 
 -21.852  92.681  36.798  29.957  19.998 -999.25  9.8730  1.9980  0.1670 
  0.0330  36.798  29.957  19.998 -11.852 -999.25 -999.25 -999.25 -999.25 
  0.1670  0.7683  6736.1  239.00  30.565 -6.1028  17.298  36.798  29.957 
  19.998 -999.25 -999.25  0.1340 
  6807.500 
 -21.700  92.672  36.907  30.131  20.005 -999.25  9.7220  2.0040  0.1680 
  0.0270  36.907  30.131  20.005 -11.700 -999.25 -999.25 -999.25 -999.25 
  0.1680  0.7594  6736.6  239.00  30.562 -6.1085  17.291  36.907  30.131 
  20.005 -999.25 -999.25  0.1350 
  6808.000 
 -21.707  92.538  37.016  30.195  19.974 -999.25  8.6790  2.0270  0.1700 
  0.0270  37.016  30.195  19.974 -11.707 -999.25 -999.25 -999.25 -999.25 
  0.1700  0.7505  6737.1  239.00  30.558 -6.1141  17.285  37.016  30.195 
  19.974 -999.25 -999.25  0.1370 
