~Version Information
VERS.                     2.0: CWLS log ASCII Standard Version 2.00
WRAP.                     YES: Multiple lines per depth step
~Well Information Block
#MNEM.UNIT                               Data Type  Information
#---------                               ---------  -----------
STRT.FT                                   632.0000:
STOP.FT                                  6808.0000:
STEP.FT                                     0.5000:
NULL.                 -999.25                     :
COMP.                                             :COMPANY            
WELL.     SAN EMIDIO A 46X-19 REDRILL             :WELL               
FLD .                                             :FIELD              
CTRY.                                             :COUNTRY            
STAT.                                             :STATE              
LOC .                                             :LOCATION           
UWI .                                             :UNIQUE WELL ID     
SRVC.                                             :Service company    
DATE.                                             :LOG DATE           
~Curve Information
#MNEM.UNIT           API CODE  Curve Description
#---------           --------  -----------------
DEPT.FT                      :   1 DEPTH
SP  .MV                      :   2
GR  .GAPI                    :   3
SFLU.OHMM                    :   4
ILM .OHMM                    :   5
ILD .OHMM                    :   6
DGR .                        :   7
CALI.                        :   8
RHOB.                        :   9
NPOR.                        :  10
DRHO.                        :  11
RS  .OHMM                    :  12
RM  .OHMM                    :  13
RD  .OHMM                    :  14
SBL .MV                      :  15
ROBS.G/C3                    :  16
DROS.G/C3                    :  17
CALS.IN                      :  18
GRS .GAPI                    :  19
NPHS.PU-S                    :  20
DEVI.DEG                     :  21
TVD .FT                      :  22
AZIM.DEG                     :  23
NORT.FT                      :  24
EAST.FT                      :  25
OFFS.FT                      :  26
SFLU.OHMM                    :  27
ILMC.OHMM                    :  28
ILDC.OHMM                    :  29
ROBC.G/C3                    :  30
GRC .GAPI                    :  31
NPHC.PU-S                    :  32
~A
# ...
  5162.000 
 -52.161  88.711  3.0520  2.5500  2.4630 -999.25 -999.25 -999.25 -999.25 
 -999.25  3.0520  2.5500  2.4630 -19.305 -999.25 -999.25 -999.25 -999.25 
 -999.25  15.955  5114.4  212.61  173.93  198.00  263.00  3.0520  2.5500 
  2.4630 -999.25 -999.25 -999.25 
  5162.500 
 -50.964  87.392  2.7950  2.4940  2.4490 -999.25 -999.25 -999.25 -999.25 
 -999.25  2.7950  2.4940  2.4490 -18.121 -999.25 -999.25 -999.25 -999.25 
 -999.25  15.953  5114.9  212.63  173.81  197.93  262.86  2.7950  2.4940 
  2.4490 -999.25 -999.25 -999.25 
  5163.000 
 -48.728  87.211  2.4180  2.4400  2.4270 -999.25 -999.25 -999.25 -999.25 
 -999.25  2.4180  2.4400  2.4270 -15.897 -999.25 -999.25 -999.25 -999.25 
 -999.25  15.952  5115.4  212.65  173.70  197.85  262.73  2.4180  2.4400 
  2.4270 -999.25 -999.25 -999.25 
  5163.500 
 -46.932  90.984  2.1110  2.3960  2.4000 -999.25 -999.25 -999.25 -999.25 
 -999.25  2.1110  2.3960  2.4000 -14.114 -999.25 -999.25 -999.25 -999.25 
 -999.25  15.950  5115.9  212.68  173.58  197.78  262.59  2.1110  2.3960 
  2.4000 -999.25 -999.25 -999.25 
  5164.000 
 -45.455  94.936  1.9720  2.3480  2.3440 -999.25 -999.25 -999.25 -999.25 
 -999.25  1.9720  2.3480  2.3440 -12.650 -999.25 -999.25 -999.25 -999.25 
 -999.25  15.948  5116.3  212.70  173.47  197.70  262.46  1.9720  2.3480 
  2.3440 -999.25 -999.25 -999.25 
  5164.500 
 -44.537  97.691  1.9190  2.3270  2.2930 -999.25 -999.25 -999.25 -999.25 
 -999.25  1.9190  2.3270  2.2930 -11.745 -999.25 -999.25 -999.25 -999.25 
 -999.25  15.947  5116.8  212.72  173.35  197.63  262.32  1.9190  2.3270 
  2.2930 -999.25 -999.25 -999.25 
  5165.000 
 -44.339  99.846  1.9400  2.3140  2.2430 -999.25 -999.25 -999.25 -999.25 
 -999.25  1.9400  2.3140  2.2430 -11.559 -999.25 -999.25 -999.25 -999.25 
 -999.25  15.945  5117.3  212.74  173.24  197.56  262.19  1.9400  2.3140 
  2.2430 -999.25 -999.25 -999.25 
  5165.500 
 -44.699  98.287  1.9620  2.3060  2.1980 -999.25 -999.25 -999.25 -999.25 
 -999.25  1.9620  2.3060  2.1980 -11.932 -999.25 -999.25 -999.25 -999.25 
 -999.25  15.944  5117.8  212.76  173.12  197.48  262.06  1.9620  2.3060 
  2.1980 -999.25 -999.25 -999.25 
  5166.000 
 -45.698  95.171  1.9760  2.3230  2.1740 -999.25 -999.25 -999.25 -999.25 
 -999.25  1.9760  2.3230  2.1740 -12.944 -999.25 -999.25 -999.25 -999.25 
 -999.25  15.942  5118.3  212.78  173.01  197.41  261.92  1.9760  2.3230 
  2.1740 -999.25 -999.25 -999.25 
  5166.500 
 -46.697  91.276  1.9870  2.3440  2.1660 -999.25 -999.25 -999.25 -999.25 
 -999.25  1.9870  2.3440  2.1660 -13.956 -999.25 -999.25 -999.25 -999.25 
 -999.25  15.940  5118.7  212.81  172.89  197.33  261.79  1.9870  2.3440 
  2.1660 -999.25 -999.25 -999.25 
  5167.000 
 -47.497  88.220  2.0130  2.3750  2.1660 -999.25 -999.25 -999.25 -999.25 
 -999.25  2.0130  2.3750  2.1660 -14.769 -999.25 -999.25 -999.25 -999.25 
 -999.25  15.939  5119.2  212.83  172.77  197.26  261.65  2.0130  2.3750 
  2.1660 -999.25 -999.25 -999.25 
  5167.500 
 -48.815  90.195  2.0770  2.3970  2.1750 -999.25 -999.25 -999.25 -999.25 
 -999.25  2.0770  2.3970  2.1750 -16.099 -999.25 -999.25 -999.25 -999.25 
 -999.25  15.937  5119.7  212.85  172.66  197.18  261.52  2.0770  2.3970 
  2.1750 -999.25 -999.25 -999.25 
  5168.000 
 -50.494  94.208  2.3750  2.4280  2.2070 -999.25 -999.25 -999.25 -999.25 
 -999.25  2.3750  2.4280  2.2070 -17.791 -999.25 -999.25 -999.25 -999.25 
 -999.25  15.935  5120.2  212.87  172.54  197.11  261.38  2.3750  2.4280 
  2.2070 -999.25 -999.25 -999.25 
  5168.500 
 -53.170  97.202  2.9820  2.4410  2.2150 -999.25 -999.25 -999.25 -999.25 
 -999.25  2.9820  2.4410  2.2150 -20.480 -999.25 -999.25 -999.25 -999.25 
 -999.25  15.934  5120.7  212.89  172.43  197.04  261.25  2.9820  2.4410 
  2.2150 -999.25 -999.25 -999.25 
  5169.000 
 -56.086  101.03  3.7440  2.4280  2.2150 -999.25 -999.25 -999.25 -999.25 
 -999.25  3.7440  2.4280  2.2150 -23.409 -999.25 -999.25 -999.25 -999.25 
 -999.25  15.932  5121.2  212.91  172.31  196.96  261.12  3.7440  2.4280 
  2.2150 -999.25 -999.25 -999.25 
  5169.500 
 -59.282  102.23  4.2570  2.3970  2.2030 -999.25 -999.25 -999.25 -999.25 
 -999.25  4.2570  2.3970  2.2030 -26.617 -999.25 -999.25 -999.25 -999.25 
 -999.25  15.930  5121.6  212.94  172.20  196.89  260.98  4.2570  2.3970 
  2.2030 -999.25 -999.25 -999.25 
  5170.000 
 -61.839  103.31  4.6750  2.3530  2.1750 -999.25 -999.25 -999.25 -999.25 
 -999.25  4.6750  2.3530  2.1750 -29.187 -999.25 -999.25 -999.25 -999.25 
 -999.25  15.929  5122.1  212.96  172.08  196.81  260.85  4.6750  2.3530 
  2.1750 -999.25 -999.25 -999.25 
  5170.500 
 -62.399  104.57  4.2730  2.2690  2.1200 -999.25 -999.25 -999.25 -999.25 
 -999.25  4.2730  2.2690  2.1200 -29.760 -999.25 -999.25 -999.25 -999.25 
 -999.25  15.927  5122.6  212.98  171.97  196.74  260.71  4.2730  2.2690 
  2.1200 -999.25 -999.25 -999.25 
  5171.000 
 -59.564  105.28  3.4290  2.1670  2.0620 -999.25 -999.25 -999.25 -999.25 
 -999.25  3.4290  2.1670  2.0620 -26.938 -999.25 -999.25 -999.25 -999.25 
 -999.25  15.926  5123.1  213.00  171.85  196.66  260.58  3.4290  2.1670 
  2.0620 -999.25 -999.25 -999.25 
  5171.500 
 -54.493  106.42  2.5700  2.0660  2.0400 -999.25 -999.25 -999.25 -999.25 
 -999.25  2.5700  2.0660  2.0400 -21.880 -999.25 -999.25 -999.25 -999.25 
 -999.25  15.924  5123.6  213.02  171.74  196.59  260.45  2.5700  2.0660 
  2.0400 -999.25 -999.25 -999.25 
  5172.000 
 -48.663  107.08  1.7290  2.0070  1.9990 -999.25 -999.25 -999.25 -999.25 
 -999.25  1.7290  2.0070  1.9990 -16.062 -999.25 -999.25 -999.25 -999.25 
 -999.25  15.922  5124.0  213.05  171.62  196.51  260.31  1.7290  2.0070 
  1.9990 -999.25 -999.25 -999.25 
  5172.500 
 -45.429  106.06  1.4770  1.9630  1.9630 -999.25 -999.25 -999.25 -999.25 
 -999.25  1.4770  1.9630  1.9630 -12.841 -999.25 -999.25 -999.25 -999.25 
 -999.25  15.921  5124.5  213.07  171.51  196.44  260.18  1.4770  1.9630 
  1.9630 -999.25 -999.25 -999.25 
  5173.000 
 -42.874  104.74  1.4240  1.8990  1.9200 -999.25 -999.25 -999.25 -999.25 
 -999.25  1.4240  1.8990  1.9200 -10.299 -999.25 -999.25 -999.25 -999.25 
 -999.25  15.919  5125.0  213.09  171.39  196.36  260.04  1.4240  1.8990 
  1.9200 -999.25 -999.25 -999.25 
  5173.500 
 -40.279  101.80  1.4110  1.8310  1.8750 -999.25 -999.25 -999.25 -999.25 
 -999.25  1.4110  1.8310  1.8750 -7.7167 -999.25 -999.25 -999.25 -999.25 
 -999.25  15.917  5125.5  213.11  171.28  196.29  259.91  1.4110  1.8310 
  1.8750 -999.25 -999.25 -999.25 
  5174.000 
 -39.161  95.751  1.4370  1.7780  1.8310 -999.25 -999.25 -999.25 -999.25 
 -999.25  1.4370  1.7780  1.8310 -6.6115 -999.25 -999.25 -999.25 -999.25 
 -999.25  15.916  5126.0  213.13  171.16  196.21  259.77  1.4370  1.7780 
  1.8310 -999.25 -999.25 -999.25 
  5174.500 
 -38.204  89.460  1.4340  1.7520  1.7940 -999.25 -999.25 -999.25 -999.25 
 -999.25  1.4340  1.7520  1.7940 -5.6673 -999.25 -999.25 -999.25 -999.25 
 -999.25  15.914  5126.4  213.15  171.05  196.14  259.64  1.4340  1.7520 
  1.7940 -999.25 -999.25 -999.25 
  5175.000 
 -37.326  85.625  1.4140  1.7200  1.7680 -999.25 -999.25 -999.25 -999.25 
 -999.25  1.4140  1.7200  1.7680 -4.8020 -999.25 -999.25 -999.25 -999.25 
 -999.25  15.913  5126.9  213.18  170.93  196.06  259.51  1.4140  1.7200 
  1.7680 -999.25 -999.25 -999.25 
  5175.500 
 -36.927  82.329  1.4010  1.7050  1.7550 -999.25 -999.25 -999.25 -999.25 
 -999.25  1.4010  1.7050  1.7550 -4.4158 -999.25 -999.25 -999.25 -999.25 
 -999.25  15.911  5127.4  213.20  170.82  195.99  259.37  1.4010  1.7050 
  1.7550 -999.25 -999.25 -999.25 
  5176.000 
 -36.569  79.213  1.3850  1.6920  1.7490 -999.25 -999.25 -999.25 -999.25 
 -999.25  1.3850  1.6920  1.7490 -4.0706 -999.25 -999.25 -999.25 -999.25 
 -999.25  15.909  5127.9  213.22  170.70  195.91  259.24  1.3850  1.6920 
  1.7490 -999.25 -999.25 -999.25 
  5176.500 
 -36.569  77.175  1.3800  1.6830  1.7560 -999.25 -999.25 -999.25 -999.25 
 -999.25  1.3800  1.6830  1.7560 -4.0834 -999.25 -999.25 -999.25 -999.25 
 -999.25  15.908  5128.4  213.24  170.59  195.84  259.10  1.3800  1.6830 
  1.7560 -999.25 -999.25 -999.25 
