~Version Information
VERS.                     2.0: CWLS log ASCII Standard Version 2.00
WRAP.                     YES: Multiple lines per depth step
~Well Information Block
#MNEM.UNIT                               Data Type  Information
#---------                               ---------  -----------
STRT.FT                                   632.0000:
STOP.FT                                  6808.0000:
STEP.FT                                     0.5000:
NULL.                 -999.25                     :
COMP.                                             :COMPANY            
WELL.     SAN EMIDIO A 46X-19 REDRILL             :WELL               
FLD .                                             :FIELD              
CTRY.                                             :COUNTRY            
STAT.                                             :STATE              
LOC .                                             :LOCATION           
UWI .                                             :UNIQUE WELL ID     
SRVC.                                             :Service company    
DATE.                                             :LOG DATE           
~Curve Information
#MNEM.UNIT           API CODE  Curve Description
#---------           --------  -----------------
DEPT.FT                      :   1 DEPTH
SP  .MV                      :   2
GR  .GAPI                    :   3
SFLU.OHMM                    :   4
ILM .OHMM                    :   5
ILD .OHMM                    :   6
DGR .                        :   7
CALI.                        :   8
RHOB.                        :   9
NPOR.                        :  10
DRHO.                        :  11
RS  .OHMM                    :  12
RM  .OHMM                    :  13
RD  .OHMM                    :  14
SBL .MV                      :  15
ROBS.G/C3                    :  16
DROS.G/C3                    :  17
CALS.IN                      :  18
GRS .GAPI                    :  19
NPHS.PU-S                    :  20
DEVI.DEG                     :  21
TVD .FT                      :  22
AZIM.DEG                     :  23
NORT.FT                      :  24
EAST.FT                      :  25
OFFS.FT                      :  26
SFLU.OHMM                    :  27
ILMC.OHMM                    :  28
ILDC.OHMM                    :  29
ROBC.G/C3                    :  30
GRC .GAPI                    :  31
NPHC.PU-S                    :  32
~A
# ...
  4337.000 
 -66.563  85.800  4.0730  3.9920  5.2000 -999.25 -999.25 -999.25 -999.25 
 -999.25  4.0730  3.9920  5.2000 -5.4581 -999.25 -999.25 -999.25 -999.25 
 -999.25  4.3955  4307.7  170.52  323.13  257.99  410.92  4.0730  3.9920 
  5.2000 -999.25 -999.25 -999.25 
  4337.500 
 -66.325  91.369  4.0950  3.9880  5.2180 -999.25 -999.25 -999.25 -999.25 
 -999.25  4.0950  3.9880  5.2180 -5.2341 -999.25 -999.25 -999.25 -999.25 
 -999.25  4.4116  4308.2  170.63  323.10  258.00  410.89  4.0950  3.9880 
  5.2180 -999.25 -999.25 -999.25 
  4338.000 
 -66.127  99.452  3.9840  3.9840  5.2370 -999.25 -999.25 -999.25 -999.25 
 -999.25  3.9840  3.9840  5.2370 -5.0501 -999.25 -999.25 -999.25 -999.25 
 -999.25  4.4278  4308.7  170.74  323.06  258.00  410.87  3.9840  3.9840 
  5.2370 -999.25 -999.25 -999.25 
  4338.500 
 -65.969  101.90  3.8540  3.9830  5.2360 -999.25 -999.25 -999.25 -999.25 
 -999.25  3.8540  3.9830  5.2360 -4.9061 -999.25 -999.25 -999.25 -999.25 
 -999.25  4.4439  4309.2  170.85  323.02  258.01  410.85  3.8540  3.9830 
  5.2360 -999.25 -999.25 -999.25 
  4339.000 
 -65.811  102.44  3.7490  3.9970  5.2360 -999.25 -999.25 -999.25 -999.25 
 -999.25  3.7490  3.9970  5.2360 -4.7620 -999.25 -999.25 -999.25 -999.25 
 -999.25  4.4600  4309.7  170.97  322.98  258.02  410.83  3.7490  3.9970 
  5.2360 -999.25 -999.25 -999.25 
  4339.500 
 -65.774  102.50  3.7070  3.9970  5.2160 -999.25 -999.25 -999.25 -999.25 
 -999.25  3.7070  3.9970  5.2160 -4.7390 -999.25 -999.25 -999.25 -999.25 
 -999.25  4.4762  4310.2  171.08  322.94  258.02  410.80  3.7070  3.9970 
  5.2160 -999.25 -999.25 -999.25 
  4340.000 
 -65.655  101.84  3.7750  4.0040  5.2160 -999.25 -999.25 -999.25 -999.25 
 -999.25  3.7750  4.0040  5.2160 -4.6340 -999.25 -999.25 -999.25 -999.25 
 -999.25  4.4923  4310.7  171.19  322.90  258.03  410.78  3.7750  4.0040 
  5.2160 -999.25 -999.25 -999.25 
  4340.500 
 -65.617  99.258  3.8100  4.0110  5.1860 -999.25 -999.25 -999.25 -999.25 
 -999.25  3.8100  4.0110  5.1860 -4.6100 -999.25 -999.25 -999.25 -999.25 
 -999.25  4.5084  4311.2  171.31  322.86  258.03  410.76  3.8100  4.0110 
  5.1860 -999.25 -999.25 -999.25 
  4341.000 
 -65.979  95.421  3.8730  4.0100  5.1290 -999.25 -999.25 -999.25 -999.25 
 -999.25  3.8730  4.0100  5.1290 -4.9860 -999.25 -999.25 -999.25 -999.25 
 -999.25  4.5245  4311.7  171.42  322.83  258.04  410.73  3.8730  4.0100 
  5.1290 -999.25 -999.25 -999.25 
  4341.500 
 -66.500  92.183  3.7540  4.0030  5.0910 -999.25 -999.25 -999.25 -999.25 
 -999.25  3.7540  4.0030  5.0910 -5.5210 -999.25 -999.25 -999.25 -999.25 
 -999.25  4.5407  4312.2  171.53  322.79  258.04  410.71  3.7540  4.0030 
  5.0910 -999.25 -999.25 -999.25 
  4342.000 
 -66.741  89.604  3.6110  4.0020  5.0350 -999.25 -999.25 -999.25 -999.25 
 -999.25  3.6110  4.0020  5.0350 -5.7760 -999.25 -999.25 -999.25 -999.25 
 -999.25  4.5568  4312.7  171.65  322.75  258.05  410.69  3.6110  4.0020 
  5.0350 -999.25 -999.25 -999.25 
  4342.500 
 -66.305  92.177  3.5980  4.0020  4.9970 -999.25 -999.25 -999.25 -999.25 
 -999.25  3.5980  4.0020  4.9970 -5.3540 -999.25 -999.25 -999.25 -999.25 
 -999.25  4.5729  4313.1  171.76  322.71  258.06  410.66  3.5980  4.0020 
  4.9970 -999.25 -999.25 -999.25 
  4343.000 
 -65.827  95.708  3.6500  4.0090  4.9870 -999.25 -999.25 -999.25 -999.25 
 -999.25  3.6500  4.0090  4.9870 -4.8899 -999.25 -999.25 -999.25 -999.25 
 -999.25  4.5891  4313.6  171.87  322.67  258.06  410.64  3.6500  4.0090 
  4.9870 -999.25 -999.25 -999.25 
  4343.500 
 -65.350  98.521  3.7180  4.0150  5.0140 -999.25 -999.25 -999.25 -999.25 
 -999.25  3.7180  4.0150  5.0140 -4.4269 -999.25 -999.25 -999.25 -999.25 
 -999.25  4.6052  4314.1  171.98  322.63  258.07  410.61  3.7180  4.0150 
  5.0140 -999.25 -999.25 -999.25 
  4344.000 
 -64.953  100.43  3.7790  4.0370  5.0320 -999.25 -999.25 -999.25 -999.25 
 -999.25  3.7790  4.0370  5.0320 -4.0439 -999.25 -999.25 -999.25 -999.25 
 -999.25  4.6213  4314.6  172.10  322.59  258.07  410.59  3.7790  4.0370 
  5.0320 -999.25 -999.25 -999.25 
  4344.500 
 -64.874  100.91  3.8200  4.0440  5.0500 -999.25 -999.25 -999.25 -999.25 
 -999.25  3.8200  4.0440  5.0500 -3.9789 -999.25 -999.25 -999.25 -999.25 
 -999.25  4.6374  4315.1  172.21  322.55  258.08  410.57  3.8200  4.0440 
  5.0500 -999.25 -999.25 -999.25 
  4345.000 
 -64.876  97.972  3.8480  4.0660  5.0730 -999.25 -999.25 -999.25 -999.25 
 -999.25  3.8480  4.0660  5.0730 -3.9949 -999.25 -999.25 -999.25 -999.25 
 -999.25  4.6536  4315.6  172.32  322.51  258.08  410.54  3.8480  4.0660 
  5.0730 -999.25 -999.25 -999.25 
  4345.500 
 -65.159  95.812  3.8980  4.0880  5.0960 -999.25 -999.25 -999.25 -999.25 
 -999.25  3.8980  4.0880  5.0960 -4.2919 -999.25 -999.25 -999.25 -999.25 
 -999.25  4.6697  4316.1  172.44  322.47  258.09  410.52  3.8980  4.0880 
  5.0960 -999.25 -999.25 -999.25 
  4346.000 
 -65.320  93.115  3.9550  4.1410  5.1420 -999.25 -999.25 -999.25 -999.25 
 -999.25  3.9550  4.1410  5.1420 -4.4669 -999.25 -999.25 -999.25 -999.25 
 -999.25  4.6858  4316.6  172.55  322.43  258.09  410.49  3.9550  4.1410 
  5.1420 -999.25 -999.25 -999.25 
  4346.500 
 -65.482  89.817  4.2170  4.1860  5.1850 -999.25 -999.25 -999.25 -999.25 
 -999.25  4.2170  4.1860  5.1850 -4.6428 -999.25 -999.25 -999.25 -999.25 
 -999.25  4.7020  4317.1  172.66  322.39  258.10  410.47  4.2170  4.1860 
  5.1850 -999.25 -999.25 -999.25 
  4347.000 
 -65.364  88.915  4.4310  4.2470  5.2270 -999.25 -999.25 -999.25 -999.25 
 -999.25  4.4310  4.2470  5.2270 -4.5388 -999.25 -999.25 -999.25 -999.25 
 -999.25  4.7181  4317.6  172.77  322.35  258.10  410.44  4.4310  4.2470 
  5.2270 -999.25 -999.25 -999.25 
  4347.500 
 -65.087  87.654  4.5290  4.2860  5.3130 -999.25 -999.25 -999.25 -999.25 
 -999.25  4.5290  4.2860  5.3130 -4.2758 -999.25 -999.25 -999.25 -999.25 
 -999.25  4.7342  4318.1  172.89  322.30  258.11  410.42  4.5290  4.2860 
  5.3130 -999.25 -999.25 -999.25 
  4348.000 
 -64.969  87.412  4.5700  4.3170  5.3720 -999.25 -999.25 -999.25 -999.25 
 -999.25  4.5700  4.3170  5.3720 -4.1718 -999.25 -999.25 -999.25 -999.25 
 -999.25  4.7503  4318.6  173.00  322.26  258.12  410.39  4.5700  4.3170 
  5.3720 -999.25 -999.25 -999.25 
  4348.500 
 -64.891  90.584  4.3090  4.3330  5.4110 -999.25 -999.25 -999.25 -999.25 
 -999.25  4.3090  4.3330  5.4110 -4.1078 -999.25 -999.25 -999.25 -999.25 
 -999.25  4.7682  4319.1  173.06  322.22  258.12  410.36  4.3090  4.3330 
  5.4110 -999.25 -999.25 -999.25 
  4349.000 
 -64.852  94.654  4.0330  4.3560  5.4500 -999.25 -999.25 -999.25 -999.25 
 -999.25  4.0330  4.3560  5.4500 -4.0828 -999.25 -999.25 -999.25 -999.25 
 -999.25  4.7861  4319.6  173.11  322.18  258.13  410.34  4.0330  4.3560 
  5.4500 -999.25 -999.25 -999.25 
  4349.500 
 -64.815  96.088  3.9660  4.3790  5.4790 -999.25 -999.25 -999.25 -999.25 
 -999.25  3.9660  4.3790  5.4790 -4.0598 -999.25 -999.25 -999.25 -999.25 
 -999.25  4.8039  4320.1  173.17  322.14  258.13  410.31  3.9660  4.3790 
  5.4790 -999.25 -999.25 -999.25 
  4350.000 
 -64.856  95.247  4.0470  4.3870  5.5190 -999.25 -999.25 -999.25 -999.25 
 -999.25  4.0470  4.3870  5.5190 -4.1147 -999.25 -999.25 -999.25 -999.25 
 -999.25  4.8218  4320.6  173.22  322.10  258.14  410.29  4.0470  4.3870 
  5.5190 -999.25 -999.25 -999.25 
  4350.500 
 -64.779  92.128  4.3460  4.4350  5.5290 -999.25 -999.25 -999.25 -999.25 
 -999.25  4.3460  4.4350  5.5290 -4.0517 -999.25 -999.25 -999.25 -999.25 
 -999.25  4.8396  4321.1  173.28  322.06  258.14  410.26  4.3460  4.4350 
  5.5290 -999.25 -999.25 -999.25 
  4351.000 
 -64.662  91.346  4.5250  4.4670  5.5380 -999.25 -999.25 -999.25 -999.25 
 -999.25  4.5250  4.4670  5.5380 -3.9487 -999.25 -999.25 -999.25 -999.25 
 -999.25  4.8575  4321.6  173.33  322.01  258.14  410.23  4.5250  4.4670 
  5.5380 -999.25 -999.25 -999.25 
  4351.500 
 -64.664  94.218  4.6930  4.4750  5.5470 -999.25 -999.25 -999.25 -999.25 
 -999.25  4.6930  4.4750  5.5470 -3.9647 -999.25 -999.25 -999.25 -999.25 
 -999.25  4.8753  4322.1  173.39  321.97  258.15  410.21  4.6930  4.4750 
  5.5470 -999.25 -999.25 -999.25 
