~Version Information
VERS.                     2.0: CWLS log ASCII Standard Version 2.00
WRAP.                     YES: Multiple lines per depth step
~Well Information Block
#MNEM.UNIT                               Data Type  Information
#---------                               ---------  -----------
STRT.FT                                   632.0000:
STOP.FT                                  6808.0000:
STEP.FT                                     0.5000:
NULL.                 -999.25                     :
COMP.                                             :COMPANY            
WELL.     SAN EMIDIO A 46X-19 REDRILL             :WELL               
FLD .                                             :FIELD              
CTRY.                                             :COUNTRY            
STAT.                                             :STATE              
LOC .                                             :LOCATION           
UWI .                                             :UNIQUE WELL ID     
SRVC.                                             :Service company    
DATE.                                             :LOG DATE           
~Curve Information
#MNEM.UNIT           API CODE  Curve Description
#---------           --------  -----------------
DEPT.FT                      :   1 DEPTH
SP  .MV                      :   2
GR  .GAPI                    :   3
SFLU.OHMM                    :   4
ILM .OHMM                    :   5
ILD .OHMM                    :   6
DGR .                        :   7
CALI.                        :   8
RHOB.                        :   9
NPOR.                        :  10
DRHO.                        :  11
RS  .OHMM                    :  12
RM  .OHMM                    :  13
RD  .OHMM                    :  14
SBL .MV                      :  15
ROBS.G/C3                    :  16
DROS.G/C3                    :  17
CALS.IN                      :  18
GRS .GAPI                    :  19
NPHS.PU-S                    :  20
DEVI.DEG                     :  21
TVD .FT                      :  22
AZIM.DEG                     :  23
NORT.FT                      :  24
EAST.FT                      :  25
OFFS.FT                      :  26
SFLU.OHMM                    :  27
ILMC.OHMM                    :  28
ILDC.OHMM                    :  29
ROBC.G/C3                    :  30
GRC .GAPI                    :  31
NPHC.PU-S                    :  32
~A
# ...
  1067.000 
 -139.68  105.81  3.5430  5.6030  8.1750 -999.25 -999.25 -999.25 -999.25 
 -999.25  3.5430  5.6030  8.1750 -7.6521 -999.25 -999.25 -999.25 -999.25 
 -999.25  3.4091  1066.8  22.727  11.568  3.3013  10.514  3.5430  5.6030 
  8.1750 -999.25 -999.25 -999.25 
  1067.500 
 -140.64  100.95  3.8980  5.9980  8.6870 -999.25 -999.25 -999.25 -999.25 
 -999.25  3.8980  5.9980  8.6870 -8.6179 -999.25 -999.25 -999.25 -999.25 
 -999.25  3.4133  1067.3  22.749  11.595  3.3128  10.542  3.8980  5.9980 
  8.6870 -999.25 -999.25 -999.25 
  1068.000 
 -141.03  93.632  4.2730  6.3960  9.6280 -999.25 -999.25 -999.25 -999.25 
 -999.25  4.2730  6.3960  9.6280 -9.0226 -999.25 -999.25 -999.25 -999.25 
 -999.25  3.4175  1067.8  22.771  11.623  3.3243  10.569  4.2730  6.3960 
  9.6280 -999.25 -999.25 -999.25 
  1068.500 
 -141.75  87.635  4.8950  6.6980  10.063 -999.25 -999.25 -999.25 -999.25 
 -999.25  4.8950  6.6980  10.063 -9.7484 -999.25 -999.25 -999.25 -999.25 
 -999.25  3.4217  1068.3  22.793  11.650  3.3359  10.597  4.8950  6.6980 
  10.063 -999.25 -999.25 -999.25 
  1069.000 
 -142.31  77.675  5.6380  6.8670  10.673 -999.25 -999.25 -999.25 -999.25 
 -999.25  5.6380  6.8670  10.673 -10.313 -999.25 -999.25 -999.25 -999.25 
 -999.25  3.4259  1068.8  22.815  11.678  3.3475  10.624  5.6380  6.8670 
  10.673 -999.25 -999.25 -999.25 
  1069.500 
 -142.90  70.356  6.4710  7.0400  10.973 -999.25 -999.25 -999.25 -999.25 
 -999.25  6.4710  7.0400  10.973 -10.918 -999.25 -999.25 -999.25 -999.25 
 -999.25  3.4302  1069.3  22.836  11.705  3.3591  10.652  6.4710  7.0400 
  10.973 -999.25 -999.25 -999.25 
  1070.000 
 -143.38  64.118  7.0800  7.4530  11.076 -999.25 -999.25 -999.25 -999.25 
 -999.25  7.0800  7.4530  11.076 -11.404 -999.25 -999.25 -999.25 -999.25 
 -999.25  3.4344  1069.8  22.858  11.733  3.3707  10.680  7.0800  7.4530 
  11.076 -999.25 -999.25 -999.25 
  1070.500 
 -143.54  60.942  7.8480  7.6070  10.937 -999.25 -999.25 -999.25 -999.25 
 -999.25  7.8480  7.6070  10.937 -11.568 -999.25 -999.25 -999.25 -999.25 
 -999.25  3.4386  1070.3  22.880  11.761  3.3824  10.708  7.8480  7.6070 
  10.937 -999.25 -999.25 -999.25 
  1071.000 
 -143.09  63.770  8.5090  7.7630  10.859 -999.25 -999.25 -999.25 -999.25 
 -999.25  8.5090  7.7630  10.859 -11.133 -999.25 -999.25 -999.25 -999.25 
 -999.25  3.4428  1070.8  22.902  11.788  3.3941  10.735  8.5090  7.7630 
  10.859 -999.25 -999.25 -999.25 
  1071.500 
 -142.57  67.258  9.1240  7.8070  10.941 -999.25 -999.25 -999.25 -999.25 
 -999.25  9.1240  7.8070  10.941 -10.617 -999.25 -999.25 -999.25 -999.25 
 -999.25  3.4470  1071.3  22.924  11.816  3.4058  10.763  9.1240  7.8070 
  10.941 -999.25 -999.25 -999.25 
  1072.000 
 -142.24  68.465  9.4670  7.8090  11.104 -999.25 -999.25 -999.25 -999.25 
 -999.25  9.4670  7.8090  11.104 -10.302 -999.25 -999.25 -999.25 -999.25 
 -999.25  3.4512  1071.8  22.946  11.844  3.4175  10.791  9.4670  7.8090 
  11.104 -999.25 -999.25 -999.25 
  1072.500 
 -142.12  67.450  9.5030  7.7820  11.107 -999.25 -999.25 -999.25 -999.25 
 -999.25  9.5030  7.7820  11.107 -10.187 -999.25 -999.25 -999.25 -999.25 
 -999.25  3.4554  1072.3  22.968  11.871  3.4293  10.819  9.5030  7.7820 
  11.107 -999.25 -999.25 -999.25 
  1073.000 
 -142.19  65.775  9.4880  7.6980  10.967 -999.25 -999.25 -999.25 -999.25 
 -999.25  9.4880  7.6980  10.967 -10.271 -999.25 -999.25 -999.25 -999.25 
 -999.25  3.4596  1072.7  22.990  11.899  3.4410  10.847  9.4880  7.6980 
  10.967 -999.25 -999.25 -999.25 
  1073.500 
 -142.39  63.800  9.4900  7.5180  10.809 -999.25 -999.25 -999.25 -999.25 
 -999.25  9.4900  7.5180  10.809 -10.476 -999.25 -999.25 -999.25 -999.25 
 -999.25  3.4638  1073.2  23.012  11.927  3.4529  10.875  9.4900  7.5180 
  10.809 -999.25 -999.25 -999.25 
  1074.000 
 -142.63  66.988  9.3360  7.2350  10.556 -999.25 -999.25 -999.25 -999.25 
 -999.25  9.3360  7.2350  10.556 -10.721 -999.25 -999.25 -999.25 -999.25 
 -999.25  3.4680  1073.7  23.033  11.955  3.4647  10.903  9.3360  7.2350 
  10.556 -999.25 -999.25 -999.25 
  1074.500 
 -142.86  73.598  8.5820  6.8240  10.366 -999.25 -999.25 -999.25 -999.25 
 -999.25  8.5820  6.8240  10.366 -10.966 -999.25 -999.25 -999.25 -999.25 
 -999.25  3.4722  1074.2  23.055  11.983  3.4765  10.931  8.5820  6.8240 
  10.366 -999.25 -999.25 -999.25 
  1075.000 
 -142.90  79.247  7.7460  6.5440  10.236 -999.25 -999.25 -999.25 -999.25 
 -999.25  7.7460  6.5440  10.236 -11.010 -999.25 -999.25 -999.25 -999.25 
 -999.25  3.4764  1074.7  23.077  12.011  3.4884  10.959  7.7460  6.5440 
  10.236 -999.25 -999.25 -999.25 
  1075.500 
 -142.69  86.458  7.1600  6.2740  10.070 -999.25 -999.25 -999.25 -999.25 
 -999.25  7.1600  6.2740  10.070 -10.815 -999.25 -999.25 -999.25 -999.25 
 -999.25  3.4807  1075.2  23.099  12.038  3.5003  10.988  7.1600  6.2740 
  10.070 -999.25 -999.25 -999.25 
  1076.000 
 -142.17  88.445  6.7530  6.2990  9.9440 -999.25 -999.25 -999.25 -999.25 
 -999.25  6.7530  6.2990  9.9440 -10.300 -999.25 -999.25 -999.25 -999.25 
 -999.25  3.4849  1075.7  23.121  12.066  3.5123  11.016  6.7530  6.2990 
  9.9440 -999.25 -999.25 -999.25 
  1076.500 
 -141.57  84.729  6.6930  6.5830  9.9090 -999.25 -999.25 -999.25 -999.25 
 -999.25  6.6930  6.5830  9.9090 -9.7047 -999.25 -999.25 -999.25 -999.25 
 -999.25  3.4891  1076.2  23.143  12.094  3.5242  11.044  6.6930  6.5830 
  9.9090 -999.25 -999.25 -999.25 
  1077.000 
 -140.80  82.273  6.7560  6.8430  9.9470 -999.25 -999.25 -999.25 -999.25 
 -999.25  6.7560  6.8430  9.9470 -8.9485 -999.25 -999.25 -999.25 -999.25 
 -999.25  3.4933  1076.7  23.165  12.122  3.5362  11.072  6.7560  6.8430 
  9.9470 -999.25 -999.25 -999.25 
  1077.500 
 -140.48  78.137  6.8690  7.0740  10.246 -999.25 -999.25 -999.25 -999.25 
 -999.25  6.8690  7.0740  10.246 -8.6332 -999.25 -999.25 -999.25 -999.25 
 -999.25  3.4975  1077.2  23.187  12.150  3.5482  11.101  6.8690  7.0740 
  10.246 -999.25 -999.25 -999.25 
  1078.000 
 -140.47  75.021  6.9720  7.2990  10.669 -999.25 -999.25 -999.25 -999.25 
 -999.25  6.9720  7.2990  10.669 -8.6380 -999.25 -999.25 -999.25 -999.25 
 -999.25  3.5017  1077.7  23.208  12.178  3.5603  11.129  6.9720  7.2990 
  10.669 -999.25 -999.25 -999.25 
  1078.500 
 -140.51  74.367  7.0510  7.5040  11.526 -999.25 -999.25 -999.25 -999.25 
 -999.25  7.0510  7.5040  11.526 -8.6828 -999.25 -999.25 -999.25 -999.25 
 -999.25  3.5059  1078.2  23.230  12.207  3.5723  11.157  7.0510  7.5040 
  11.526 -999.25 -999.25 -999.25 
  1079.000 
 -140.63  72.391  6.9750  7.6300  12.157 -999.25 -999.25 -999.25 -999.25 
 -999.25  6.9750  7.6300  12.157 -8.8075 -999.25 -999.25 -999.25 -999.25 
 -999.25  3.5101  1078.7  23.252  12.235  3.5844  11.186  6.9750  7.6300 
  12.157 -999.25 -999.25 -999.25 
  1079.500 
 -140.94  69.456  6.9500  7.7590  12.777 -999.25 -999.25 -999.25 -999.25 
 -999.25  6.9500  7.7590  12.777 -9.1323 -999.25 -999.25 -999.25 -999.25 
 -999.25  3.5143  1079.2  23.274  12.263  3.5965  11.214  6.9500  7.7590 
  12.777 -999.25 -999.25 -999.25 
  1080.000 
 -141.22  68.171  7.2650  7.8890  13.208 -999.25 -999.25 -999.25 -999.25 
 -999.25  7.2650  7.8890  13.208 -9.4171 -999.25 -999.25 -999.25 -999.25 
 -999.25  3.5185  1079.7  23.296  12.291  3.6087  11.243  7.2650  7.8890 
  13.208 -999.25 -999.25 -999.25 
  1080.500 
 -141.45  66.887  7.6350  7.9490  13.629 -999.25 -999.25 -999.25 -999.25 
 -999.25  7.6350  7.9490  13.629 -9.6628 -999.25 -999.25 -999.25 -999.25 
 -999.25  3.5227  1080.2  23.318  12.319  3.6208  11.271  7.6350  7.9490 
  13.629 -999.25 -999.25 -999.25 
  1081.000 
 -141.67  62.269  8.0090  8.0240  13.744 -999.25 -999.25 -999.25 -999.25 
 -999.25  8.0090  8.0240  13.744 -9.8876 -999.25 -999.25 -999.25 -999.25 
 -999.25  3.5270  1080.7  23.340  12.347  3.6330  11.300  8.0090  8.0240 
  13.744 -999.25 -999.25 -999.25 
  1081.500 
 -141.88  58.493  8.2340  8.0840  13.861 -999.25 -999.25 -999.25 -999.25 
 -999.25  8.2340  8.0840  13.861 -10.111 -999.25 -999.25 -999.25 -999.25 
 -999.25  3.5312  1081.2  23.362  12.376  3.6452  11.329  8.2340  8.0840 
  13.861 -999.25 -999.25 -999.25 
