~Version Information
VERS.                     2.0: CWLS log ASCII Standard Version 2.00
WRAP.                     YES: Multiple lines per depth step
~Well Information Block
#MNEM.UNIT                               Data Type  Information
#---------                               ---------  -----------
STRT.FT                                   632.0000:
STOP.FT                                  6808.0000:
STEP.FT                                     0.5000:
NULL.                 -999.25                     :
COMP.                                             :COMPANY            
WELL.     SAN EMIDIO A 46X-19 REDRILL             :WELL               
FLD .                                             :FIELD              
CTRY.                                             :COUNTRY            
STAT.                                             :STATE              
LOC .                                             :LOCATION           
UWI .                                             :UNIQUE WELL ID     
SRVC.                                             :Service company    
DATE.                                             :LOG DATE           
~Curve Information
#MNEM.UNIT           API CODE  Curve Description
#---------           --------  -----------------
DEPT.FT                      :   1 DEPTH
SP  .MV                      :   2
GR  .GAPI                    :   3
SFLU.OHMM                    :   4
ILM .OHMM                    :   5
ILD .OHMM                    :   6
DGR .                        :   7
CALI.                        :   8
RHOB.                        :   9
NPOR.                        :  10
DRHO.                        :  11
RS  .OHMM                    :  12
RM  .OHMM                    :  13
RD  .OHMM                    :  14
SBL .MV                      :  15
ROBS.G/C3                    :  16
DROS.G/C3                    :  17
CALS.IN                      :  18
GRS .GAPI                    :  19
NPHS.PU-S                    :  20
DEVI.DEG                     :  21
TVD .FT                      :  22
AZIM.DEG                     :  23
NORT.FT                      :  24
EAST.FT                      :  25
OFFS.FT                      :  26
SFLU.OHMM                    :  27
ILMC.OHMM                    :  28
ILDC.OHMM                    :  29
ROBC.G/C3                    :  30
GRC .GAPI                    :  31
NPHC.PU-S                    :  32
~A
# ...
  3527.000 
 -92.908  55.258  10.020  8.4190  12.669 -999.25 -999.25 -999.25 -999.25 
 -999.25  10.020  8.4190  12.669 -10.731 -999.25 -999.25 -999.25 -999.25 
 -999.25  8.2373  3502.5  40.157  286.45  197.39  342.12  10.020  8.4190 
  12.669 -999.25 -999.25 -999.25 
  3527.500 
 -92.707  55.859  9.9100  8.4340  12.461 -999.25 -999.25 -999.25 -999.25 
 -999.25  9.9100  8.4340  12.461 -10.541 -999.25 -999.25 -999.25 -999.25 
 -999.25  8.2375  3503.0  40.154  286.50  197.43  342.19  9.9100  8.4340 
  12.461 -999.25 -999.25 -999.25 
  3528.000 
 -92.466  58.076  9.7650  8.4330  12.346 -999.25 -999.25 -999.25 -999.25 
 -999.25  9.7650  8.4330  12.346 -10.312 -999.25 -999.25 -999.25 -999.25 
 -999.25  8.2378  3503.5  40.150  286.55  197.48  342.26  9.7650  8.4330 
  12.346 -999.25 -999.25 -999.25 
  3528.500 
 -92.265  62.510  9.8180  8.4170  12.143 -999.25 -999.25 -999.25 -999.25 
 -999.25  9.8180  8.4170  12.143 -10.123 -999.25 -999.25 -999.25 -999.25 
 -999.25  8.2381  3504.0  40.147  286.61  197.53  342.34  9.8180  8.4170 
  12.143 -999.25 -999.25 -999.25 
  3529.000 
 -92.224  67.004  9.8890  8.3860  11.966 -999.25 -999.25 -999.25 -999.25 
 -999.25  9.8890  8.3860  11.966 -10.093 -999.25 -999.25 -999.25 -999.25 
 -999.25  8.2383  3504.5  40.144  286.66  197.57  342.41  9.8890  8.3860 
  11.966 -999.25 -999.25 -999.25 
  3529.500 
 -92.183  67.245  9.8890  8.3390  11.856 -999.25 -999.25 -999.25 -999.25 
 -999.25  9.8890  8.3390  11.856 -10.064 -999.25 -999.25 -999.25 -999.25 
 -999.25  8.2386  3505.0  40.141  286.72  197.62  342.48  9.8890  8.3390 
  11.856 -999.25 -999.25 -999.25 
  3530.000 
 -92.222  67.307  9.8340  8.2780  11.768 -999.25 -999.25 -999.25 -999.25 
 -999.25  9.8340  8.2780  11.768 -10.115 -999.25 -999.25 -999.25 -999.25 
 -999.25  8.2389  3505.5  40.137  286.77  197.66  342.55  9.8340  8.2780 
  11.768 -999.25 -999.25 -999.25 
  3530.500 
 -92.341  67.608  9.8150  8.1720  11.703 -999.25 -999.25 -999.25 -999.25 
 -999.25  9.8150  8.1720  11.703 -10.246 -999.25 -999.25 -999.25 -999.25 
 -999.25  8.2392  3506.0  40.134  286.83  197.71  342.62  9.8150  8.1720 
  11.703 -999.25 -999.25 -999.25 
  3531.000 
 -92.339  66.771  9.7250  8.0520  11.616 -999.25 -999.25 -999.25 -999.25 
 -999.25  9.7250  8.0520  11.616 -10.255 -999.25 -999.25 -999.25 -999.25 
 -999.25  8.2394  3506.5  40.131  286.88  197.76  342.69  9.7250  8.0520 
  11.616 -999.25 -999.25 -999.25 
  3531.500 
 -92.338  64.078  9.5820  7.8910  11.552 -999.25 -999.25 -999.25 -999.25 
 -999.25  9.5820  7.8910  11.552 -10.266 -999.25 -999.25 -999.25 -999.25 
 -999.25  8.2397  3507.0  40.128  286.94  197.80  342.76  9.5820  7.8910 
  11.552 -999.25 -999.25 -999.25 
  3532.000 
 -92.297  63.421  9.4420  7.7610  11.404 -999.25 -999.25 -999.25 -999.25 
 -999.25  9.4420  7.7610  11.404 -10.237 -999.25 -999.25 -999.25 -999.25 
 -999.25  8.2400  3507.5  40.124  286.99  197.85  342.84  9.4420  7.7610 
  11.404 -999.25 -999.25 -999.25 
  3532.500 
 -92.256  66.238  9.3210  7.5920  11.258 -999.25 -999.25 -999.25 -999.25 
 -999.25  9.3210  7.5920  11.258 -10.207 -999.25 -999.25 -999.25 -999.25 
 -999.25  8.2403  3508.0  40.121  287.05  197.90  342.91  9.3210  7.5920 
  11.258 -999.25 -999.25 -999.25 
  3533.000 
 -92.335  68.696  9.2020  7.3580  11.073 -999.25 -999.25 -999.25 -999.25 
 -999.25  9.2020  7.3580  11.073 -10.298 -999.25 -999.25 -999.25 -999.25 
 -999.25  8.2405  3508.5  40.118  287.10  197.94  342.98  9.2020  7.3580 
  11.073 -999.25 -999.25 -999.25 
  3533.500 
 -92.054  68.817  8.6140  7.0800  10.791 -999.25 -999.25 -999.25 -999.25 
 -999.25  8.6140  7.0800  10.791 -10.029 -999.25 -999.25 -999.25 -999.25 
 -999.25  8.2408  3509.0  40.114  287.16  197.99  343.05  8.6140  7.0800 
  10.791 -999.25 -999.25 -999.25 
  3534.000 
 -91.853  69.238  7.7870  6.8250  10.479 -999.25 -999.25 -999.25 -999.25 
 -999.25  7.7870  6.8250  10.479 -9.8396 -999.25 -999.25 -999.25 -999.25 
 -999.25  8.2411  3509.4  40.111  287.21  198.03  343.12  7.7870  6.8250 
  10.479 -999.25 -999.25 -999.25 
  3534.500 
 -92.051  73.013  7.2100  6.6270  10.138 -999.25 -999.25 -999.25 -999.25 
 -999.25  7.2100  6.6270  10.138 -10.049 -999.25 -999.25 -999.25 -999.25 
 -999.25  8.2414  3509.9  40.108  287.27  198.08  343.19  7.2100  6.6270 
  10.138 -999.25 -999.25 -999.25 
  3535.000 
 -92.290  76.788  6.7370  6.4230  9.8440 -999.25 -999.25 -999.25 -999.25 
 -999.25  6.7370  6.4230  9.8440 -10.300 -999.25 -999.25 -999.25 -999.25 
 -999.25  8.2416  3510.4  40.105  287.32  198.13  343.26  6.7370  6.4230 
  9.8440 -999.25 -999.25 -999.25 
  3535.500 
 -92.568  81.042  6.1690  6.2030  9.2830 -999.25 -999.25 -999.25 -999.25 
 -999.25  6.1690  6.2030  9.2830 -10.590 -999.25 -999.25 -999.25 -999.25 
 -999.25  8.2419  3510.9  40.101  287.38  198.17  343.33  6.1690  6.2030 
  9.2830 -999.25 -999.25 -999.25 
  3536.000 
 -92.727  85.236  5.6910  5.9570  8.8990 -999.25 -999.25 -999.25 -999.25 
 -999.25  5.6910  5.9570  8.8990 -10.760 -999.25 -999.25 -999.25 -999.25 
 -999.25  8.2422  3511.4  40.098  287.43  198.22  343.41  5.6910  5.9570 
  8.8990 -999.25 -999.25 -999.25 
  3536.500 
 -91.567  88.233  5.3080  5.7220  8.5630 -999.25 -999.25 -999.25 -999.25 
 -999.25  5.3080  5.7220  8.5630 -9.6122 -999.25 -999.25 -999.25 -999.25 
 -999.25  8.2425  3511.9  40.095  287.49  198.26  343.48  5.3080  5.7220 
  8.5630 -999.25 -999.25 -999.25 
  3537.000 
 -90.408  90.031  5.1260  5.5360  8.2690 -999.25 -999.25 -999.25 -999.25 
 -999.25  5.1260  5.5360  8.2690 -8.4649 -999.25 -999.25 -999.25 -999.25 
 -999.25  8.2427  3512.4  40.091  287.54  198.31  343.55  5.1260  5.5360 
  8.2690 -999.25 -999.25 -999.25 
  3537.500 
 -88.570  91.051  4.9590  5.3360  8.0440 -999.25 -999.25 -999.25 -999.25 
 -999.25  4.9590  5.3360  8.0440 -6.6386 -999.25 -999.25 -999.25 -999.25 
 -999.25  8.2430  3512.9  40.088  287.60  198.36  343.62  4.9590  5.3360 
  8.0440 -999.25 -999.25 -999.25 
  3538.000 
 -87.371  91.353  4.9040  5.2680  7.7970 -999.25 -999.25 -999.25 -999.25 
 -999.25  4.9040  5.2680  7.7970 -5.4513 -999.25 -999.25 -999.25 -999.25 
 -999.25  8.2433  3513.4  40.085  287.65  198.40  343.69  4.9040  5.2680 
  7.7970 -999.25 -999.25 -999.25 
  3538.500 
 -87.051  91.414  4.8500  5.2670  7.6970 -999.25 -999.25 -999.25 -999.25 
 -999.25  4.8500  5.2670  7.6970 -5.1431 -999.25 -999.25 -999.25 -999.25 
 -999.25  8.2435  3513.9  40.082  287.71  198.45  343.76  4.8500  5.2670 
  7.6970 -999.25 -999.25 -999.25 
  3539.000 
 -87.209  91.416  4.8770  5.2380  7.5840 -999.25 -999.25 -999.25 -999.25 
 -999.25  4.8770  5.2380  7.5840 -5.3128 -999.25 -999.25 -999.25 -999.25 
 -999.25  8.2438  3514.4  40.078  287.76  198.50  343.83  4.8770  5.2380 
  7.5840 -999.25 -999.25 -999.25 
  3539.500 
 -87.527  92.017  5.0120  5.0960  7.5150 -999.25 -999.25 -999.25 -999.25 
 -999.25  5.0120  5.0960  7.5150 -5.6425 -999.25 -999.25 -999.25 -999.25 
 -999.25  8.2441  3514.9  40.075  287.82  198.54  343.91  5.0120  5.0960 
  7.5150 -999.25 -999.25 -999.25 
  3540.000 
 -87.766  93.755  5.1230  4.9840  7.4460 -999.25 -999.25 -999.25 -999.25 
 -999.25  5.1230  4.9840  7.4460 -5.8932 -999.25 -999.25 -999.25 -999.25 
 -999.25  8.2444  3515.4  40.072  287.87  198.59  343.98  5.1230  4.9840 
  7.4460 -999.25 -999.25 -999.25 
  3540.500 
 -88.084  98.908  5.1990  4.8400  7.2830 -999.25 -999.25 -999.25 -999.25 
 -999.25  5.1990  4.8400  7.2830 -6.2229 -999.25 -999.25 -999.25 -999.25 
 -999.25  8.2446  3515.9  40.068  287.93  198.63  344.05  5.1990  4.8400 
  7.2830 -999.25 -999.25 -999.25 
  3541.000 
 -88.083  101.19  5.2270  4.7080  7.1640 -999.25 -999.25 -999.25 -999.25 
 -999.25  5.2270  4.7080  7.1640 -6.2336 -999.25 -999.25 -999.25 -999.25 
 -999.25  8.2449  3516.4  40.065  287.98  198.68  344.12  5.2270  4.7080 
  7.1640 -999.25 -999.25 -999.25 
  3541.500 
 -87.922  102.03  5.1880  4.6740  7.0850 -999.25 -999.25 -999.25 -999.25 
 -999.25  5.1880  4.6740  7.0850 -6.0843 -999.25 -999.25 -999.25 -999.25 
 -999.25  8.2452  3516.9  40.062  288.03  198.73  344.19  5.1880  4.6740 
  7.0850 -999.25 -999.25 -999.25 
