~Version Information
VERS.                     2.0: CWLS log ASCII Standard Version 2.00
WRAP.                     YES: Multiple lines per depth step
~Well Information Block
#MNEM.UNIT                               Data Type  Information
#---------                               ---------  -----------
STRT.FT                                   632.0000:
STOP.FT                                  6808.0000:
STEP.FT                                     0.5000:
NULL.                 -999.25                     :
COMP.                                             :COMPANY            
WELL.     SAN EMIDIO A 46X-19 REDRILL             :WELL               
FLD .                                             :FIELD              
CTRY.                                             :COUNTRY            
STAT.                                             :STATE              
LOC .                                             :LOCATION           
UWI .                                             :UNIQUE WELL ID     
SRVC.                                             :Service company    
DATE.                                             :LOG DATE           
~Curve Information
#MNEM.UNIT           API CODE  Curve Description
#---------           --------  -----------------
DEPT.FT                      :   1 DEPTH
SP  .MV                      :   2
GR  .GAPI                    :   3
SFLU.OHMM                    :   4
ILM .OHMM                    :   5
ILD .OHMM                    :   6
DGR .                        :   7
CALI.                        :   8
RHOB.                        :   9
NPOR.                        :  10
DRHO.                        :  11
RS  .OHMM                    :  12
RM  .OHMM                    :  13
RD  .OHMM                    :  14
SBL .MV                      :  15
ROBS.G/C3                    :  16
DROS.G/C3                    :  17
CALS.IN                      :  18
GRS .GAPI                    :  19
NPHS.PU-S                    :  20
DEVI.DEG                     :  21
TVD .FT                      :  22
AZIM.DEG                     :  23
NORT.FT                      :  24
EAST.FT                      :  25
OFFS.FT                      :  26
SFLU.OHMM                    :  27
ILMC.OHMM                    :  28
ILDC.OHMM                    :  29
ROBC.G/C3                    :  30
GRC .GAPI                    :  31
NPHC.PU-S                    :  32
~A
# ...
  1487.000 
 -132.35  86.792  7.2080  8.1650  11.254 -999.25 -999.25 -999.25 -999.25 
 -999.25  7.2080  8.1650  11.254 -7.6826 -999.25 -999.25 -999.25 -999.25 
 -999.25  6.4233  1485.1  24.493  44.262  20.268  45.629  7.2080  8.1650 
  11.254 -999.25 -999.25 -999.25 
  1487.500 
 -132.71  83.728  8.2990  8.5310  12.109 -999.25 -999.25 -999.25 -999.25 
 -999.25  8.2990  8.5310  12.109 -8.0534 -999.25 -999.25 -999.25 -999.25 
 -999.25  6.4264  1485.6  24.479  44.312  20.291  45.682  8.2990  8.5310 
  12.109 -999.25 -999.25 -999.25 
  1488.000 
 -133.35  78.502  9.2460  8.6560  12.722 -999.25 -999.25 -999.25 -999.25 
 -999.25  9.2460  8.6560  12.722 -8.7051 -999.25 -999.25 -999.25 -999.25 
 -999.25  6.4295  1486.1  24.465  44.363  20.315  45.734  9.2460  8.6560 
  12.722 -999.25 -999.25 -999.25 
  1488.500 
 -133.55  75.197  9.9850  8.7500  13.439 -999.25 -999.25 -999.25 -999.25 
 -999.25  9.9850  8.7500  13.439 -8.9149 -999.25 -999.25 -999.25 -999.25 
 -999.25  6.4326  1486.6  24.451  44.414  20.338  45.787  9.9850  8.7500 
  13.439 -999.25 -999.25 -999.25 
  1489.000 
 -133.91  71.772  10.394  8.8450  13.812 -999.25 -999.25 -999.25 -999.25 
 -999.25  10.394  8.8450  13.812 -9.2867 -999.25 -999.25 -999.25 -999.25 
 -999.25  6.4357  1487.1  24.436  44.465  20.361  45.839  10.394  8.8450 
  13.812 -999.25 -999.25 -999.25 
  1489.500 
 -134.16  68.408  10.961  9.1740  14.143 -999.25 -999.25 -999.25 -999.25 
 -999.25  10.961  9.1740  14.143 -9.5374 -999.25 -999.25 -999.25 -999.25 
 -999.25  6.4387  1487.6  24.422  44.516  20.384  45.892  10.961  9.1740 
  14.143 -999.25 -999.25 -999.25 
  1490.000 
 -134.20  66.784  11.536  9.3090  14.219 -999.25 -999.25 -999.25 -999.25 
 -999.25  11.536  9.3090  14.219 -9.5872 -999.25 -999.25 -999.25 -999.25 
 -999.25  6.4418  1488.1  24.408  44.568  20.407  45.944  11.536  9.3090 
  14.219 -999.25 -999.25 -999.25 
  1490.500 
 -134.32  64.620  11.987  9.2050  14.164 -999.25 -999.25 -999.25 -999.25 
 -999.25  11.987  9.2050  14.164 -9.7180 -999.25 -999.25 -999.25 -999.25 
 -999.25  6.4449  1488.6  24.394  44.619  20.430  45.997  11.987  9.2050 
  14.164 -999.25 -999.25 -999.25 
  1491.000 
 -134.72  63.116  11.876  9.0700  14.136 -999.25 -999.25 -999.25 -999.25 
 -999.25  11.876  9.0700  14.136 -10.129 -999.25 -999.25 -999.25 -999.25 
 -999.25  6.4480  1489.1  24.380  44.670  20.454  46.049  11.876  9.0700 
  14.136 -999.25 -999.25 -999.25 
  1491.500 
 -135.00  64.014  11.363  9.0350  14.160 -999.25 -999.25 -999.25 -999.25 
 -999.25  11.363  9.0350  14.160 -10.419 -999.25 -999.25 -999.25 -999.25 
 -999.25  6.4511  1489.6  24.366  44.721  20.477  46.102  11.363  9.0350 
  14.160 -999.25 -999.25 -999.25 
  1492.000 
 -135.37  65.272  11.403  9.1340  14.158 -999.25 -999.25 -999.25 -999.25 
 -999.25  11.403  9.1340  14.158 -10.790 -999.25 -999.25 -999.25 -999.25 
 -999.25  6.4541  1490.1  24.352  44.772  20.500  46.154  11.403  9.1340 
  14.158 -999.25 -999.25 -999.25 
  1492.500 
 -135.97  66.230  11.805  9.3180  14.129 -999.25 -999.25 -999.25 -999.25 
 -999.25  11.805  9.3180  14.129 -11.401 -999.25 -999.25 -999.25 -999.25 
 -999.25  6.4572  1490.6  24.338  44.823  20.523  46.207  11.805  9.3180 
  14.129 -999.25 -999.25 -999.25 
  1493.000 
 -136.33  64.546  11.782  9.4200  14.127 -999.25 -999.25 -999.25 -999.25 
 -999.25  11.782  9.4200  14.127 -11.772 -999.25 -999.25 -999.25 -999.25 
 -999.25  6.4603  1491.1  24.324  44.875  20.546  46.260  11.782  9.4200 
  14.127 -999.25 -999.25 -999.25 
  1493.500 
 -136.59  63.403  11.545  9.4710  14.125 -999.25 -999.25 -999.25 -999.25 
 -999.25  11.545  9.4710  14.125 -12.043 -999.25 -999.25 -999.25 -999.25 
 -999.25  6.4634  1491.6  24.310  44.926  20.570  46.312  11.545  9.4710 
  14.125 -999.25 -999.25 -999.25 
  1494.000 
 -136.85  64.121  11.480  9.4000  14.097 -999.25 -999.25 -999.25 -999.25 
 -999.25  11.480  9.4000  14.097 -12.313 -999.25 -999.25 -999.25 -999.25 
 -999.25  6.4665  1492.0  24.296  44.977  20.593  46.365  11.480  9.4000 
  14.097 -999.25 -999.25 -999.25 
  1494.500 
 -137.38  67.120  11.928  9.2450  14.018 -999.25 -999.25 -999.25 -999.25 
 -999.25  11.928  9.2450  14.018 -12.844 -999.25 -999.25 -999.25 -999.25 
 -999.25  6.4695  1492.5  24.282  45.029  20.616  46.418  11.928  9.2450 
  14.018 -999.25 -999.25 -999.25 
  1495.000 
 -137.58  66.517  11.818  8.9760  13.913 -999.25 -999.25 -999.25 -999.25 
 -999.25  11.818  8.9760  13.913 -13.055 -999.25 -999.25 -999.25 -999.25 
 -999.25  6.4726  1493.0  24.267  45.080  20.639  46.470  11.818  8.9760 
  13.913 -999.25 -999.25 -999.25 
  1495.500 
 -137.78  64.233  11.516  8.6040  13.911 -999.25 -999.25 -999.25 -999.25 
 -999.25  11.516  8.6040  13.911 -13.266 -999.25 -999.25 -999.25 -999.25 
 -999.25  6.4757  1493.5  24.253  45.131  20.662  46.523  11.516  8.6040 
  13.911 -999.25 -999.25 -999.25 
  1496.000 
 -138.06  61.769  10.999  8.3840  13.908 -999.25 -999.25 -999.25 -999.25 
 -999.25  10.999  8.3840  13.908 -13.556 -999.25 -999.25 -999.25 -999.25 
 -999.25  6.4788  1494.0  24.239  45.183  20.685  46.576  10.999  8.3840 
  13.908 -999.25 -999.25 -999.25 
  1496.500 
 -138.34  59.244  10.351  8.1560  13.906 -999.25 -999.25 -999.25 -999.25 
 -999.25  10.351  8.1560  13.906 -13.847 -999.25 -999.25 -999.25 -999.25 
 -999.25  6.4819  1494.5  24.225  45.234  20.709  46.629  10.351  8.1560 
  13.906 -999.25 -999.25 -999.25 
  1497.000 
 -138.74  57.261  9.8860  7.9040  13.803 -999.25 -999.25 -999.25 -999.25 
 -999.25  9.8860  7.9040  13.803 -14.258 -999.25 -999.25 -999.25 -999.25 
 -999.25  6.4849  1495.0  24.211  45.286  20.732  46.681  9.8860  7.9040 
  13.803 -999.25 -999.25 -999.25 
  1497.500 
 -139.07  55.277  9.7580  7.6320  13.624 -999.25 -999.25 -999.25 -999.25 
 -999.25  9.7580  7.6320  13.624 -14.589 -999.25 -999.25 -999.25 -999.25 
 -999.25  6.4880  1495.5  24.197  45.337  20.755  46.734  9.7580  7.6320 
  13.624 -999.25 -999.25 -999.25 
  1498.000 
 -139.27  56.295  9.4230  7.3830  13.350 -999.25 -999.25 -999.25 -999.25 
 -999.25  9.4230  7.3830  13.350 -14.799 -999.25 -999.25 -999.25 -999.25 
 -999.25  6.4911  1496.0  24.183  45.389  20.778  46.787  9.4230  7.3830 
  13.350 -999.25 -999.25 -999.25 
  1498.500 
 -139.31  60.674  8.9660  7.1560  13.010 -999.25 -999.25 -999.25 -999.25 
 -999.25  8.9660  7.1560  13.010 -14.850 -999.25 -999.25 -999.25 -999.25 
 -999.25  6.4942  1496.5  24.169  45.441  20.801  46.840  8.9660  7.1560 
  13.010 -999.25 -999.25 -999.25 
  1499.000 
 -139.11  65.475  8.3920  6.8460  12.701 -999.25 -999.25 -999.25 -999.25 
 -999.25  8.3920  6.8460  12.701 -14.661 -999.25 -999.25 -999.25 -999.25 
 -999.25  6.4973  1497.0  24.155  45.492  20.824  46.893  8.3920  6.8460 
  12.701 -999.25 -999.25 -999.25 
  1499.500 
 -138.27  72.856  7.7830  6.6230  12.153 -999.25 -999.25 -999.25 -999.25 
 -999.25  7.7830  6.6230  12.153 -13.831 -999.25 -999.25 -999.25 -999.25 
 -999.25  6.5004  1497.5  24.141  45.544  20.847  46.946  7.7830  6.6230 
  12.153 -999.25 -999.25 -999.25 
  1500.000 
 -137.15  79.213  6.9840  5.9450  11.564 -999.25 -999.25 -999.25 -999.25 
 -999.25  6.9840  5.9450  11.564 -12.721 -999.25 -999.25 -999.25 -999.25 
 -999.25  6.5034  1498.0  24.127  45.596  20.871  46.999  6.9840  5.9450 
  11.564 -999.25 -999.25 -999.25 
  1500.500 
 -135.55  78.134  5.3840  5.8480  10.387 -999.25 -999.25 -999.25 -999.25 
 -999.25  5.3840  5.8480  10.387 -11.124 -999.25 -999.25 -999.25 -999.25 
 -999.25  6.5065  1498.5  24.113  45.647  20.894  47.052  5.3840  5.8480 
  10.387 -999.25 -999.25 -999.25 
  1501.000 
 -133.94  77.595  4.8770  5.7740  10.032 -999.25 -999.25 -999.25 -999.25 
 -999.25  4.8770  5.7740  10.032 -9.5271 -999.25 -999.25 -999.25 -999.25 
 -999.25  6.5096  1499.0  24.098  45.699  20.917  47.105  4.8770  5.7740 
  10.032 -999.25 -999.25 -999.25 
  1501.500 
 -132.62  77.056  4.8060  5.6800  9.6360 -999.25 -999.25 -999.25 -999.25 
 -999.25  4.8060  5.6800  9.6360 -8.2139 -999.25 -999.25 -999.25 -999.25 
 -999.25  6.5127  1499.5  24.084  45.751  20.940  47.158  4.8060  5.6800 
  9.6360 -999.25 -999.25 -999.25 
