~Version Information
VERS.                     2.0: CWLS log ASCII Standard Version 2.00
WRAP.                     YES: Multiple lines per depth step
~Well Information Block
#MNEM.UNIT                               Data Type  Information
#---------                               ---------  -----------
STRT.FT                                   632.0000:
STOP.FT                                  6808.0000:
STEP.FT                                     0.5000:
NULL.                 -999.25                     :
COMP.                                             :COMPANY            
WELL.     SAN EMIDIO A 46X-19 REDRILL             :WELL               
FLD .                                             :FIELD              
CTRY.                                             :COUNTRY            
STAT.                                             :STATE              
LOC .                                             :LOCATION           
UWI .                                             :UNIQUE WELL ID     
SRVC.                                             :Service company    
DATE.                                             :LOG DATE           
~Curve Information
#MNEM.UNIT           API CODE  Curve Description
#---------           --------  -----------------
DEPT.FT                      :   1 DEPTH
SP  .MV                      :   2
GR  .GAPI                    :   3
SFLU.OHMM                    :   4
ILM .OHMM                    :   5
ILD .OHMM                    :   6
DGR .                        :   7
CALI.                        :   8
RHOB.                        :   9
NPOR.                        :  10
DRHO.                        :  11
RS  .OHMM                    :  12
RM  .OHMM                    :  13
RD  .OHMM                    :  14
SBL .MV                      :  15
ROBS.G/C3                    :  16
DROS.G/C3                    :  17
CALS.IN                      :  18
GRS .GAPI                    :  19
NPHS.PU-S                    :  20
DEVI.DEG                     :  21
TVD .FT                      :  22
AZIM.DEG                     :  23
NORT.FT                      :  24
EAST.FT                      :  25
OFFS.FT                      :  26
SFLU.OHMM                    :  27
ILMC.OHMM                    :  28
ILDC.OHMM                    :  29
ROBC.G/C3                    :  30
GRC .GAPI                    :  31
NPHC.PU-S                    :  32
~A
# ...
  5567.000 
 -47.353  86.097  1.6290  1.8220  1.9970 -999.25 -999.25 -999.25 -999.25 
 -999.25  1.6290  1.8220  1.9970 -17.679 -999.25 -999.25 -999.25 -999.25 
 -999.25  12.001  5508.6  236.17  110.63  132.50  171.92  1.6290  1.8220 
  1.9970 -999.25 -999.25 -999.25 
  5567.500 
 -46.785  84.372  1.5970  1.8030  1.9980 -999.25 -999.25 -999.25 -999.25 
 -999.25  1.5970  1.8030  1.9980 -17.114 -999.25 -999.25 -999.25 -999.25 
 -999.25  12.001  5509.0  236.17  110.57  132.42  171.82  1.5970  1.8030 
  1.9980 -999.25 -999.25 -999.25 
  5568.000 
 -46.338  81.929  1.5710  1.7970  1.9950 -999.25 -999.25 -999.25 -999.25 
 -999.25  1.5710  1.7970  1.9950 -16.670 -999.25 -999.25 -999.25 -999.25 
 -999.25  12.001  5509.5  236.16  110.51  132.33  171.72  1.5710  1.7970 
  1.9950 -999.25 -999.25 -999.25 
  5568.500 
 -45.851  79.307  1.5490  1.8110  1.9890 -999.25 -999.25 -999.25 -999.25 
 -999.25  1.5490  1.8110  1.9890 -16.186 -999.25 -999.25 -999.25 -999.25 
 -999.25  12.001  5510.0  236.16  110.46  132.24  171.61  1.5490  1.8110 
  1.9890 -999.25 -999.25 -999.25 
  5569.000 
 -45.245  76.684  1.5330  1.8290  1.9860 -999.25 -999.25 -999.25 -999.25 
 -999.25  1.5330  1.8290  1.9860 -15.583 -999.25 -999.25 -999.25 -999.25 
 -999.25  12.001  5510.5  236.15  110.40  132.16  171.51  1.5330  1.8290 
  1.9860 -999.25 -999.25 -999.25 
  5569.500 
 -44.319  75.738  1.5200  1.8400  1.9830 -999.25 -999.25 -999.25 -999.25 
 -999.25  1.5200  1.8400  1.9830 -14.660 -999.25 -999.25 -999.25 -999.25 
 -999.25  12.001  5511.0  236.14  110.34  132.07  171.41  1.5200  1.8400 
  1.9830 -999.25 -999.25 -999.25 
  5570.000 
 -43.272  75.869  1.5180  1.8410  1.9770 -999.25 -999.25 -999.25 -999.25 
 -999.25  1.5180  1.8410  1.9770 -13.616 -999.25 -999.25 -999.25 -999.25 
 -999.25  12.001  5511.5  236.14  110.28  131.98  171.31  1.5180  1.8410 
  1.9770 -999.25 -999.25 -999.25 
  5570.500 
 -42.506  76.539  1.5190  1.8420  1.9790 -999.25 -999.25 -999.25 -999.25 
 -999.25  1.5190  1.8420  1.9790 -12.853 -999.25 -999.25 -999.25 -999.25 
 -999.25  12.001  5512.0  236.13  110.22  131.90  171.21  1.5190  1.8420 
  1.9790 -999.25 -999.25 -999.25 
  5571.000 
 -41.978  77.691  1.5310  1.8330  1.9790 -999.25 -999.25 -999.25 -999.25 
 -999.25  1.5310  1.8330  1.9790 -12.329 -999.25 -999.25 -999.25 -999.25 
 -999.25  12.001  5512.5  236.13  110.17  131.81  171.10  1.5310  1.8330 
  1.9790 -999.25 -999.25 -999.25 
  5571.500 
 -41.771  79.078  1.5400  1.8340  1.9770 -999.25 -999.25 -999.25 -999.25 
 -999.25  1.5400  1.8340  1.9770 -12.125 -999.25 -999.25 -999.25 -999.25 
 -999.25  12.001  5513.0  236.12  110.11  131.73  171.00  1.5400  1.8340 
  1.9770 -999.25 -999.25 -999.25 
  5572.000 
 -41.924  81.186  1.5690  1.8410  1.9780 -999.25 -999.25 -999.25 -999.25 
 -999.25  1.5690  1.8410  1.9780 -12.281 -999.25 -999.25 -999.25 -999.25 
 -999.25  12.001  5513.4  236.12  110.05  131.64  170.90  1.5690  1.8410 
  1.9780 -999.25 -999.25 -999.25 
  5572.500 
 -42.473  83.354  1.6140  1.8470  1.9790 -999.25 -999.25 -999.25 -999.25 
 -999.25  1.6140  1.8470  1.9790 -12.833 -999.25 -999.25 -999.25 -999.25 
 -999.25  12.001  5513.9  236.11  109.99  131.55  170.80  1.6140  1.8470 
  1.9790 -999.25 -999.25 -999.25 
  5573.000 
 -42.827  83.247  1.6510  1.8530  1.9800 -999.25 -999.25 -999.25 -999.25 
 -999.25  1.6510  1.8530  1.9800 -13.190 -999.25 -999.25 -999.25 -999.25 
 -999.25  12.001  5514.4  236.11  109.93  131.47  170.70  1.6510  1.8530 
  1.9800 -999.25 -999.25 -999.25 
  5573.500 
 -43.417  83.018  1.6550  1.8310  1.9660 -999.25 -999.25 -999.25 -999.25 
 -999.25  1.6550  1.8310  1.9660 -13.783 -999.25 -999.25 -999.25 -999.25 
 -999.25  12.001  5514.9  236.10  109.88  131.38  170.59  1.6550  1.8310 
  1.9660 -999.25 -999.25 -999.25 
  5574.000 
 -43.728  82.611  1.6130  1.8080  1.9570 -999.25 -999.25 -999.25 -999.25 
 -999.25  1.6130  1.8080  1.9570 -14.097 -999.25 -999.25 -999.25 -999.25 
 -999.25  12.001  5515.4  236.10  109.82  131.29  170.49  1.6130  1.8080 
  1.9570 -999.25 -999.25 -999.25 
  5574.500 
 -43.561  82.444  1.5530  1.7960  1.9540 -999.25 -999.25 -999.25 -999.25 
 -999.25  1.5530  1.7960  1.9540 -13.933 -999.25 -999.25 -999.25 -999.25 
 -999.25  12.001  5515.9  236.09  109.76  131.21  170.39  1.5530  1.7960 
  1.9540 -999.25 -999.25 -999.25 
  5575.000 
 -43.114  83.354  1.5120  1.7800  1.9480 -999.25 -999.25 -999.25 -999.25 
 -999.25  1.5120  1.7800  1.9480 -13.490 -999.25 -999.25 -999.25 -999.25 
 -999.25  12.001  5516.4  236.09  109.70  131.12  170.29  1.5120  1.7800 
  1.9480 -999.25 -999.25 -999.25 
  5575.500 
 -42.066  83.845  1.4900  1.7780  1.9470 -999.25 -999.25 -999.25 -999.25 
 -999.25  1.4900  1.7780  1.9470 -12.445 -999.25 -999.25 -999.25 -999.25 
 -999.25  12.001  5516.9  236.08  109.64  131.04  170.19  1.4900  1.7780 
  1.9470 -999.25 -999.25 -999.25 
  5576.000 
 -41.339  81.285  1.4940  1.7760  1.9460 -999.25 -999.25 -999.25 -999.25 
 -999.25  1.4940  1.7760  1.9460 -11.721 -999.25 -999.25 -999.25 -999.25 
 -999.25  12.001  5517.4  236.08  109.59  130.95  170.08  1.4940  1.7760 
  1.9460 -999.25 -999.25 -999.25 
  5576.500 
 -41.014  79.319  1.4980  1.7800  1.9370 -999.25 -999.25 -999.25 -999.25 
 -999.25  1.4980  1.7800  1.9370 -11.399 -999.25 -999.25 -999.25 -999.25 
 -999.25  12.001  5517.8  236.07  109.53  130.86  169.98  1.4980  1.7800 
  1.9370 -999.25 -999.25 -999.25 
  5577.000 
 -40.524  77.115  1.4980  1.7810  1.9270 -999.25 -999.25 -999.25 -999.25 
 -999.25  1.4980  1.7810  1.9270 -10.912 -999.25 -999.25 -999.25 -999.25 
 -999.25  12.001  5518.3  236.06  109.47  130.78  169.88  1.4980  1.7810 
  1.9270 -999.25 -999.25 -999.25 
  5577.500 
 -40.236  75.510  1.4960  1.7780  1.9210 -999.25 -999.25 -999.25 -999.25 
 -999.25  1.4960  1.7780  1.9210 -10.627 -999.25 -999.25 -999.25 -999.25 
 -999.25  12.001  5518.8  236.06  109.41  130.69  169.78  1.4960  1.7780 
  1.9210 -999.25 -999.25 -999.25 
  5578.000 
 -39.871  76.181  1.4820  1.7660  1.9150 -999.25 -999.25 -999.25 -999.25 
 -999.25  1.4820  1.7660  1.9150 -10.265 -999.25 -999.25 -999.25 -999.25 
 -999.25  12.001  5519.3  236.05  109.35  130.60  169.68  1.4820  1.7660 
  1.9150 -999.25 -999.25 -999.25 
  5578.500 
 -39.303  77.989  1.4680  1.7670  1.9160 -999.25 -999.25 -999.25 -999.25 
 -999.25  1.4680  1.7670  1.9160 -9.7005 -999.25 -999.25 -999.25 -999.25 
 -999.25  12.001  5519.8  236.05  109.30  130.52  169.57  1.4680  1.7670 
  1.9160 -999.25 -999.25 -999.25 
  5579.000 
 -38.935  82.133  1.4420  1.7650  1.9110 -999.25 -999.25 -999.25 -999.25 
 -999.25  1.4420  1.7650  1.9110 -9.3356 -999.25 -999.25 -999.25 -999.25 
 -999.25  12.001  5520.3  236.04  109.24  130.43  169.47  1.4420  1.7650 
  1.9110 -999.25 -999.25 -999.25 
  5579.500 
 -38.730  85.437  1.4610  1.7660  1.9070 -999.25 -999.25 -999.25 -999.25 
 -999.25  1.4610  1.7660  1.9070 -9.1338 -999.25 -999.25 -999.25 -999.25 
 -999.25  12.001  5520.8  236.04  109.18  130.35  169.37  1.4610  1.7660 
  1.9070 -999.25 -999.25 -999.25 
  5580.000 
 -38.722  84.791  1.4920  1.7670  1.8980 -999.25 -999.25 -999.25 -999.25 
 -999.25  1.4920  1.7670  1.8980 -9.1289 -999.25 -999.25 -999.25 -999.25 
 -999.25  12.001  5521.3  236.03  109.12  130.26  169.27  1.4920  1.7670 
  1.8980 -999.25 -999.25 -999.25 
  5580.500 
 -38.993  84.264  1.5060  1.7710  1.8990 -999.25 -999.25 -999.25 -999.25 
 -999.25  1.5060  1.7710  1.8990 -9.4030 -999.25 -999.25 -999.25 -999.25 
 -999.25  12.001  5521.8  236.03  109.06  130.17  169.17  1.5060  1.7710 
  1.8990 -999.25 -999.25 -999.25 
  5581.000 
 -39.425  81.224  1.5130  1.7720  1.9000 -999.25 -999.25 -999.25 -999.25 
 -999.25  1.5130  1.7720  1.9000 -9.8381 -999.25 -999.25 -999.25 -999.25 
 -999.25  12.001  5522.2  236.02  109.01  130.09  169.06  1.5130  1.7720 
  1.9000 -999.25 -999.25 -999.25 
  5581.500 
 -39.975  79.138  1.5190  1.7660  1.8970 -999.25 -999.25 -999.25 -999.25 
 -999.25  1.5190  1.7660  1.8970 -10.391 -999.25 -999.25 -999.25 -999.25 
 -999.25  12.001  5522.7  236.02  108.95  130.00  168.96  1.5190  1.7660 
  1.8970 -999.25 -999.25 -999.25 
