~Version Information
VERS.                     2.0: CWLS log ASCII Standard Version 2.00
WRAP.                     YES: Multiple lines per depth step
~Well Information Block
#MNEM.UNIT                               Data Type  Information
#---------                               ---------  -----------
STRT.FT                                   632.0000:
STOP.FT                                  6808.0000:
STEP.FT                                     0.5000:
NULL.                 -999.25                     :
COMP.                                             :COMPANY            
WELL.     SAN EMIDIO A 46X-19 REDRILL             :WELL               
FLD .                                             :FIELD              
CTRY.                                             :COUNTRY            
STAT.                                             :STATE              
LOC .                                             :LOCATION           
UWI .                                             :UNIQUE WELL ID     
SRVC.                                             :Service company    
DATE.                                             :LOG DATE           
~Curve Information
#MNEM.UNIT           API CODE  Curve Description
#---------           --------  -----------------
DEPT.FT                      :   1 DEPTH
SP  .MV                      :   2
GR  .GAPI                    :   3
SFLU.OHMM                    :   4
ILM .OHMM                    :   5
ILD .OHMM                    :   6
DGR .                        :   7
CALI.                        :   8
RHOB.                        :   9
NPOR.                        :  10
DRHO.                        :  11
RS  .OHMM                    :  12
RM  .OHMM                    :  13
RD  .OHMM                    :  14
SBL .MV                      :  15
ROBS.G/C3                    :  16
DROS.G/C3                    :  17
CALS.IN                      :  18
GRS .GAPI                    :  19
NPHS.PU-S                    :  20
DEVI.DEG                     :  21
TVD .FT                      :  22
AZIM.DEG                     :  23
NORT.FT                      :  24
EAST.FT                      :  25
OFFS.FT                      :  26
SFLU.OHMM                    :  27
ILMC.OHMM                    :  28
ILDC.OHMM                    :  29
ROBC.G/C3                    :  30
GRC .GAPI                    :  31
NPHC.PU-S                    :  32
~A
# ...
  3122.000 
 -94.388  79.603  5.6560  5.1800  7.6390 -999.25 -999.25 -999.25 -999.25 
 -999.25  5.6560  5.1800  7.6390 -6.3880 -999.25 -999.25 -999.25 -999.25 
 -999.25  8.0156  3101.6  42.814  243.56  159.47  284.98  5.6560  5.1800 
  7.6390 -999.25 -999.25 -999.25 
  3122.500 
 -94.063  79.074  5.7200  5.1910  7.6550 -999.25 -999.25 -999.25 -999.25 
 -999.25  5.7200  5.1910  7.6550 -6.0630 -999.25 -999.25 -999.25 -999.25 
 -999.25  8.0158  3102.1  42.811  243.61  159.52  285.05  5.7200  5.1910 
  7.6550 -999.25 -999.25 -999.25 
  3123.000 
 -93.977  78.721  5.7750  5.2020  7.6580 -999.25 -999.25 -999.25 -999.25 
 -999.25  5.7750  5.2020  7.6580 -5.9770 -999.25 -999.25 -999.25 -999.25 
 -999.25  8.0161  3102.6  42.808  243.66  159.57  285.12  5.7750  5.2020 
  7.6580 -999.25 -999.25 -999.25 
  3123.500 
 -94.170  79.506  5.7240  5.1750  7.6460 -999.25 -999.25 -999.25 -999.25 
 -999.25  5.7240  5.1750  7.6460 -6.1700 -999.25 -999.25 -999.25 -999.25 
 -999.25  8.0164  3103.1  42.805  243.71  159.61  285.19  5.7240  5.1750 
  7.6460 -999.25 -999.25 -999.25 
  3124.000 
 -94.324  85.087  5.6520  5.1290  7.6070 -999.25 -999.25 -999.25 -999.25 
 -999.25  5.6520  5.1290  7.6070 -6.3240 -999.25 -999.25 -999.25 -999.25 
 -999.25  8.0166  3103.6  42.801  243.76  159.66  285.26  5.6520  5.1290 
  7.6070 -999.25 -999.25 -999.25 
  3124.500 
 -94.318  86.112  5.4900  5.0560  7.5400 -999.25 -999.25 -999.25 -999.25 
 -999.25  5.4900  5.0560  7.5400 -6.3180 -999.25 -999.25 -999.25 -999.25 
 -999.25  8.0169  3104.1  42.798  243.81  159.71  285.33  5.4900  5.0560 
  7.5400 -999.25 -999.25 -999.25 
  3125.000 
 -93.953  85.762  5.3140  4.9930  7.5140 -999.25 -999.25 -999.25 -999.25 
 -999.25  5.3140  4.9930  7.5140 -5.9530 -999.25 -999.25 -999.25 -999.25 
 -999.25  8.0172  3104.6  42.795  243.86  159.76  285.40  5.3140  4.9930 
  7.5140 -999.25 -999.25 -999.25 
  3125.500 
 -93.708  84.933  5.1430  4.9580  7.4070 -999.25 -999.25 -999.25 -999.25 
 -999.25  5.1430  4.9580  7.4070 -5.7080 -999.25 -999.25 -999.25 -999.25 
 -999.25  8.0175  3105.1  42.791  243.91  159.80  285.47  5.1430  4.9580 
  7.4070 -999.25 -999.25 -999.25 
  3126.000 
 -93.781  83.386  4.8780  4.9320  7.2610 -999.25 -999.25 -999.25 -999.25 
 -999.25  4.8780  4.9320  7.2610 -5.7810 -999.25 -999.25 -999.25 -999.25 
 -999.25  8.0177  3105.5  42.788  243.97  159.85  285.54  4.8780  4.9320 
  7.2610 -999.25 -999.25 -999.25 
  3126.500 
 -93.774  83.395  4.4520  4.9150  7.2110 -999.25 -999.25 -999.25 -999.25 
 -999.25  4.4520  4.9150  7.2110 -5.7740 -999.25 -999.25 -999.25 -999.25 
 -999.25  8.0180  3106.0  42.785  244.02  159.90  285.61  4.4520  4.9150 
  7.2110 -999.25 -999.25 -999.25 
  3127.000 
 -94.049  84.422  4.2310  4.9260  7.3330 -999.25 -999.25 -999.25 -999.25 
 -999.25  4.2310  4.9260  7.3330 -6.0490 -999.25 -999.25 -999.25 -999.25 
 -999.25  8.0183  3106.5  42.782  244.07  159.95  285.68  4.2310  4.9260 
  7.3330 -999.25 -999.25 -999.25 
  3127.500 
 -94.442  86.465  4.1850  4.9820  7.4300 -999.25 -999.25 -999.25 -999.25 
 -999.25  4.1850  4.9820  7.4300 -6.4420 -999.25 -999.25 -999.25 -999.25 
 -999.25  8.0186  3107.0  42.778  244.12  159.99  285.75  4.1850  4.9820 
  7.4300 -999.25 -999.25 -999.25 
  3128.000 
 -95.033  91.145  4.1330  5.1130  7.5830 -999.25 -999.25 -999.25 -999.25 
 -999.25  4.1330  5.1130  7.5830 -7.0330 -999.25 -999.25 -999.25 -999.25 
 -999.25  8.0188  3107.5  42.775  244.17  160.04  285.82  4.1330  5.1130 
  7.5830 -999.25 -999.25 -999.25 
  3128.500 
 -95.108  95.464  4.2890  5.2670  7.8250 -999.25 -999.25 -999.25 -999.25 
 -999.25  4.2890  5.2670  7.8250 -7.1080 -999.25 -999.25 -999.25 -999.25 
 -999.25  8.0191  3108.0  42.772  244.22  160.09  285.89  4.2890  5.2670 
  7.8250 -999.25 -999.25 -999.25 
  3129.000 
 -95.223  100.20  4.5080  5.4950  8.2250 -999.25 -999.25 -999.25 -999.25 
 -999.25  4.5080  5.4950  8.2250 -7.2230 -999.25 -999.25 -999.25 -999.25 
 -999.25  8.0194  3108.5  42.768  244.27  160.13  285.96  4.5080  5.4950 
  8.2250 -999.25 -999.25 -999.25 
  3129.500 
 -95.456  100.51  4.7470  5.6910  8.6290 -999.25 -999.25 -999.25 -999.25 
 -999.25  4.7470  5.6910  8.6290 -7.4560 -999.25 -999.25 -999.25 -999.25 
 -999.25  8.0197  3109.0  42.765  244.32  160.18  286.03  4.7470  5.6910 
  8.6290 -999.25 -999.25 -999.25 
  3130.000 
 -95.809  97.825  4.9800  5.9600  8.9860 -999.25 -999.25 -999.25 -999.25 
 -999.25  4.9800  5.9600  8.9860 -7.8090 -999.25 -999.25 -999.25 -999.25 
 -999.25  8.0199  3109.5  42.762  244.38  160.23  286.10  4.9800  5.9600 
  8.9860 -999.25 -999.25 -999.25 
  3130.500 
 -96.442  93.345  5.2730  6.1850  9.6380 -999.25 -999.25 -999.25 -999.25 
 -999.25  5.2730  6.1850  9.6380 -8.4420 -999.25 -999.25 -999.25 -999.25 
 -999.25  8.0202  3110.0  42.759  244.43  160.28  286.17  5.2730  6.1850 
  9.6380 -999.25 -999.25 -999.25 
  3131.000 
 -97.154  89.164  5.5830  6.3700  10.167 -999.25 -999.25 -999.25 -999.25 
 -999.25  5.5830  6.3700  10.167 -9.1540 -999.25 -999.25 -999.25 -999.25 
 -999.25  8.0205  3110.5  42.755  244.48  160.32  286.24  5.5830  6.3700 
  10.167 -999.25 -999.25 -999.25 
  3131.500 
 -98.385  86.059  5.9220  6.5860  10.530 -999.25 -999.25 -999.25 -999.25 
 -999.25  5.9220  6.5860  10.530 -10.385 -999.25 -999.25 -999.25 -999.25 
 -999.25  8.0208  3111.0  42.752  244.53  160.37  286.31  5.9220  6.5860 
  10.530 -999.25 -999.25 -999.25 
  3132.000 
 -99.776  83.313  6.3050  6.7840  10.827 -999.25 -999.25 -999.25 -999.25 
 -999.25  6.3050  6.7840  10.827 -11.776 -999.25 -999.25 -999.25 -999.25 
 -999.25  8.0210  3111.5  42.749  244.58  160.42  286.38  6.3050  6.7840 
  10.827 -999.25 -999.25 -999.25 
  3132.500 
 -99.779  79.251  6.6630  7.0010  10.990 -999.25 -999.25 -999.25 -999.25 
 -999.25  6.6630  7.0010  10.990 -11.779 -999.25 -999.25 -999.25 -999.25 
 -999.25  8.0213  3112.0  42.745  244.63  160.47  286.45  6.6630  7.0010 
  10.990 -999.25 -999.25 -999.25 
  3133.000 
 -99.783  73.632  7.0550  7.0800  11.054 -999.25 -999.25 -999.25 -999.25 
 -999.25  7.0550  7.0800  11.054 -11.783 -999.25 -999.25 -999.25 -999.25 
 -999.25  8.0216  3112.5  42.742  244.68  160.51  286.52  7.0550  7.0800 
  11.054 -999.25 -999.25 -999.25 
  3133.500 
 -99.786  73.462  7.3470  7.2000  11.119 -999.25 -999.25 -999.25 -999.25 
 -999.25  7.3470  7.2000  11.119 -11.786 -999.25 -999.25 -999.25 -999.25 
 -999.25  8.0218  3113.0  42.739  244.73  160.56  286.59  7.3470  7.2000 
  11.119 -999.25 -999.25 -999.25 
  3134.000 
 -99.790  76.764  7.6940  7.3360  11.183 -999.25 -999.25 -999.25 -999.25 
 -999.25  7.6940  7.3360  11.183 -11.790 -999.25 -999.25 -999.25 -999.25 
 -999.25  8.0221  3113.5  42.736  244.78  160.61  286.66  7.6940  7.3360 
  11.183 -999.25 -999.25 -999.25 
  3134.500 
 -99.793  80.605  7.9110  7.4880  11.269 -999.25 -999.25 -999.25 -999.25 
 -999.25  7.9110  7.4880  11.269 -11.793 -999.25 -999.25 -999.25 -999.25 
 -999.25  8.0224  3114.0  42.732  244.84  160.66  286.73  7.9110  7.4880 
  11.269 -999.25 -999.25 -999.25 
  3135.000 
 -99.796  82.948  8.1790  7.5860  11.355 -999.25 -999.25 -999.25 -999.25 
 -999.25  8.1790  7.5860  11.355 -11.796 -999.25 -999.25 -999.25 -999.25 
 -999.25  8.0227  3114.5  42.729  244.89  160.70  286.80  8.1790  7.5860 
  11.355 -999.25 -999.25 -999.25 
  3135.500 
 -99.800  82.120  8.4090  7.7580  11.591 -999.25 -999.25 -999.25 -999.25 
 -999.25  8.4090  7.7580  11.591 -11.800 -999.25 -999.25 -999.25 -999.25 
 -999.25  8.0229  3115.0  42.726  244.94  160.75  286.87  8.4090  7.7580 
  11.591 -999.25 -999.25 -999.25 
  3136.000 
 -99.803  75.602  8.6460  7.9180  11.808 -999.25 -999.25 -999.25 -999.25 
 -999.25  8.6460  7.9180  11.808 -11.803 -999.25 -999.25 -999.25 -999.25 
 -999.25  8.0232  3115.5  42.723  244.99  160.80  286.94  8.6460  7.9180 
  11.808 -999.25 -999.25 -999.25 
  3136.500 
 -99.806  73.456  8.9220  8.1110  12.186 -999.25 -999.25 -999.25 -999.25 
 -999.25  8.9220  8.1110  12.186 -11.806 -999.25 -999.25 -999.25 -999.25 
 -999.25  8.0235  3115.9  42.719  245.04  160.85  287.01  8.9220  8.1110 
  12.186 -999.25 -999.25 -999.25 
