~Version Information
VERS.                     2.0: CWLS log ASCII Standard Version 2.00
WRAP.                     YES: Multiple lines per depth step
~Well Information Block
#MNEM.UNIT                               Data Type  Information
#---------                               ---------  -----------
STRT.FT                                   632.0000:
STOP.FT                                  6808.0000:
STEP.FT                                     0.5000:
NULL.                 -999.25                     :
COMP.                                             :COMPANY            
WELL.     SAN EMIDIO A 46X-19 REDRILL             :WELL               
FLD .                                             :FIELD              
CTRY.                                             :COUNTRY            
STAT.                                             :STATE              
LOC .                                             :LOCATION           
UWI .                                             :UNIQUE WELL ID     
SRVC.                                             :Service company    
DATE.                                             :LOG DATE           
~Curve Information
#MNEM.UNIT           API CODE  Curve Description
#---------           --------  -----------------
DEPT.FT                      :   1 DEPTH
SP  .MV                      :   2
GR  .GAPI                    :   3
SFLU.OHMM                    :   4
ILM .OHMM                    :   5
ILD .OHMM                    :   6
DGR .                        :   7
CALI.                        :   8
RHOB.                        :   9
NPOR.                        :  10
DRHO.                        :  11
RS  .OHMM                    :  12
RM  .OHMM                    :  13
RD  .OHMM                    :  14
SBL .MV                      :  15
ROBS.G/C3                    :  16
DROS.G/C3                    :  17
CALS.IN                      :  18
GRS .GAPI                    :  19
NPHS.PU-S                    :  20
DEVI.DEG                     :  21
TVD .FT                      :  22
AZIM.DEG                     :  23
NORT.FT                      :  24
EAST.FT                      :  25
OFFS.FT                      :  26
SFLU.OHMM                    :  27
ILMC.OHMM                    :  28
ILDC.OHMM                    :  29
ROBC.G/C3                    :  30
GRC .GAPI                    :  31
NPHC.PU-S                    :  32
~A
# ...
  3932.000 
 -76.819  98.616  3.0960  4.4830  6.2920 -999.25 -999.25 -999.25 -999.25 
 -999.25  3.0960  4.4830  6.2920 -4.3854 -999.25 -999.25 -999.25 -999.25 
 -999.25  6.1650  3904.1  45.463  326.61  231.32  394.52  3.0960  4.4830 
  6.2920 -999.25 -999.25 -999.25 
  3932.500 
 -76.937  95.804  3.2170  4.9040  6.7460 -999.25 -999.25 -999.25 -999.25 
 -999.25  3.2170  4.9040  6.7460 -4.5174 -999.25 -999.25 -999.25 -999.25 
 -999.25  6.1559  3904.6  45.548  326.65  231.36  394.57  3.2170  4.9040 
  6.7460 -999.25 -999.25 -999.25 
  3933.000 
 -77.175  92.752  3.4000  5.2680  7.3000 -999.25 -999.25 -999.25 -999.25 
 -999.25  3.4000  5.2680  7.3000 -4.7694 -999.25 -999.25 -999.25 -999.25 
 -999.25  6.1467  3905.1  45.634  326.69  231.40  394.62  3.4000  5.2680 
  7.3000 -999.25 -999.25 -999.25 
  3933.500 
 -78.092  89.400  3.6580  5.8370  7.9420 -999.25 -999.25 -999.25 -999.25 
 -999.25  3.6580  5.8370  7.9420 -5.7004 -999.25 -999.25 -999.25 -999.25 
 -999.25  6.1376  3905.6  45.719  326.72  231.43  394.68  3.6580  5.8370 
  7.9420 -999.25 -999.25 -999.25 
  3934.000 
 -79.209  85.988  4.0320  6.5160  8.6890 -999.25 -999.25 -999.25 -999.25 
 -999.25  4.0320  6.5160  8.6890 -6.8314 -999.25 -999.25 -999.25 -999.25 
 -999.25  6.1284  3906.1  45.804  326.76  231.47  394.73  4.0320  6.5160 
  8.6890 -999.25 -999.25 -999.25 
  3934.500 
 -81.004  86.530  4.4920  6.9990  9.6630 -999.25 -999.25 -999.25 -999.25 
 -999.25  4.4920  6.9990  9.6630 -8.6404 -999.25 -999.25 -999.25 -999.25 
 -999.25  6.1193  3906.6  45.890  326.80  231.51  394.78  4.4920  6.9990 
  9.6630 -999.25 -999.25 -999.25 
  3935.000 
 -82.120  88.089  5.2500  7.5050  10.380 -999.25 -999.25 -999.25 -999.25 
 -999.25  5.2500  7.5050  10.380 -9.7704 -999.25 -999.25 -999.25 -999.25 
 -999.25  6.1101  3907.1  45.975  326.83  231.55  394.84  5.2500  7.5050 
  10.380 -999.25 -999.25 -999.25 
  3935.500 
 -82.957  85.517  6.0790  7.5600  10.768 -999.25 -999.25 -999.25 -999.25 
 -999.25  6.0790  7.5600  10.768 -10.621 -999.25 -999.25 -999.25 -999.25 
 -999.25  6.1010  3907.6  46.061  326.87  231.59  394.89  6.0790  7.5600 
  10.768 -999.25 -999.25 -999.25 
  3936.000 
 -83.634  82.824  6.7610  7.4230  10.908 -999.25 -999.25 -999.25 -999.25 
 -999.25  6.7610  7.4230  10.908 -11.312 -999.25 -999.25 -999.25 -999.25 
 -999.25  6.0918  3908.1  46.146  326.91  231.63  394.94  6.7610  7.4230 
  10.908 -999.25 -999.25 -999.25 
  3936.500 
 -83.992  79.532  7.3970  7.2760  10.948 -999.25 -999.25 -999.25 -999.25 
 -999.25  7.3970  7.2760  10.948 -11.684 -999.25 -999.25 -999.25 -999.25 
 -999.25  6.0827  3908.5  46.231  326.95  231.66  395.00  7.3970  7.2760 
  10.948 -999.25 -999.25 -999.25 
  3937.000 
 -84.470  76.720  8.1220  7.1440  10.949 -999.25 -999.25 -999.25 -999.25 
 -999.25  8.1220  7.1440  10.949 -12.176 -999.25 -999.25 -999.25 -999.25 
 -999.25  6.0736  3909.0  46.317  326.98  231.70  395.05  8.1220  7.1440 
  10.949 -999.25 -999.25 -999.25 
  3937.500 
 -84.628  74.266  8.7080  7.4110  10.909 -999.25 -999.25 -999.25 -999.25 
 -999.25  8.7080  7.4110  10.909 -12.348 -999.25 -999.25 -999.25 -999.25 
 -999.25  6.0644  3909.5  46.402  327.02  231.74  395.10  8.7080  7.4110 
  10.909 -999.25 -999.25 -999.25 
  3938.000 
 -84.626  72.113  9.2510  7.5620  10.732 -999.25 -999.25 -999.25 -999.25 
 -999.25  9.2510  7.5620  10.732 -12.360 -999.25 -999.25 -999.25 -999.25 
 -999.25  6.0553  3910.0  46.487  327.05  231.78  395.16  9.2510  7.5620 
  10.732 -999.25 -999.25 -999.25 
  3938.500 
 -84.425  71.576  9.1340  7.5630  10.518 -999.25 -999.25 -999.25 -999.25 
 -999.25  9.1340  7.5630  10.518 -12.173 -999.25 -999.25 -999.25 -999.25 
 -999.25  6.0461  3910.5  46.573  327.09  231.82  395.21  9.1340  7.5630 
  10.518 -999.25 -999.25 -999.25 
  3939.000 
 -84.143  71.758  9.0010  7.4940  10.328 -999.25 -999.25 -999.25 -999.25 
 -999.25  9.0010  7.4940  10.328 -11.905 -999.25 -999.25 -999.25 -999.25 
 -999.25  6.0370  3911.0  46.658  327.13  231.86  395.26  9.0010  7.4940 
  10.328 -999.25 -999.25 -999.25 
  3939.500 
 -84.022  73.078  9.1180  7.3850  10.122 -999.25 -999.25 -999.25 -999.25 
 -999.25  9.1180  7.3850  10.122 -11.798 -999.25 -999.25 -999.25 -999.25 
 -999.25  6.0278  3911.5  46.743  327.16  231.89  395.31  9.1180  7.3850 
  10.122 -999.25 -999.25 -999.25 
  3940.000 
 -83.781  74.638  9.3210  7.2780  9.9750 -999.25 -999.25 -999.25 -999.25 
 -999.25  9.3210  7.2780  9.9750 -11.571 -999.25 -999.25 -999.25 -999.25 
 -999.25  6.0187  3912.0  46.829  327.20  231.93  395.37  9.3210  7.2780 
  9.9750 -999.25 -999.25 -999.25 
  3940.500 
 -83.700  76.377  9.5470  7.2120  9.8310 -999.25 -999.25 -999.25 -999.25 
 -999.25  9.5470  7.2120  9.8310 -11.504 -999.25 -999.25 -999.25 -999.25 
 -999.25  6.0095  3912.5  46.914  327.23  231.97  395.42  9.5470  7.2120 
  9.8310 -999.25 -999.25 -999.25 
  3941.000 
 -83.619  77.218  9.6530  7.1730  9.7590 -999.25 -999.25 -999.25 -999.25 
 -999.25  9.6530  7.1730  9.7590 -11.437 -999.25 -999.25 -999.25 -999.25 
 -999.25  6.0004  3913.0  47.000  327.27  232.01  395.47  9.6530  7.1730 
  9.7590 -999.25 -999.25 -999.25 
  3941.500 
 -83.696  75.663  8.9540  7.1470  9.7780 -999.25 -999.25 -999.25 -999.25 
 -999.25  8.9540  7.1470  9.7780 -11.528 -999.25 -999.25 -999.25 -999.25 
 -999.25  6.0004  3913.5  47.147  327.31  232.05  395.52  8.9540  7.1470 
  9.7780 -999.25 -999.25 -999.25 
  3942.000 
 -83.895  71.413  8.6640  7.1480  9.9770 -999.25 -999.25 -999.25 -999.25 
 -999.25  8.6640  7.1480  9.9770 -11.741 -999.25 -999.25 -999.25 -999.25 
 -999.25  6.0004  3914.0  47.294  327.34  232.09  395.57  8.6640  7.1480 
  9.9770 -999.25 -999.25 -999.25 
  3942.500 
 -84.292  70.098  8.4610  7.2010  10.163 -999.25 -999.25 -999.25 -999.25 
 -999.25  8.4610  7.2010  10.163 -12.152 -999.25 -999.25 -999.25 -999.25 
 -999.25  6.0004  3914.5  47.442  327.38  232.12  395.63  8.4610  7.2010 
  10.163 -999.25 -999.25 -999.25 
  3943.000 
 -84.570  69.681  8.3530  7.2670  10.313 -999.25 -999.25 -999.25 -999.25 
 -999.25  8.3530  7.2670  10.313 -12.444 -999.25 -999.25 -999.25 -999.25 
 -999.25  6.0004  3915.0  47.589  327.41  232.16  395.68  8.3530  7.2670 
  10.313 -999.25 -999.25 -999.25 
  3943.500 
 -84.728  70.282  8.6180  7.3620  10.447 -999.25 -999.25 -999.25 -999.25 
 -999.25  8.6180  7.3620  10.447 -12.616 -999.25 -999.25 -999.25 -999.25 
 -999.25  6.0004  3915.5  47.736  327.45  232.20  395.73  8.6180  7.3620 
  10.447 -999.25 -999.25 -999.25 
  3944.000 
 -84.727  71.183  9.0060  7.4030  10.563 -999.25 -999.25 -999.25 -999.25 
 -999.25  9.0060  7.4030  10.563 -12.629 -999.25 -999.25 -999.25 -999.25 
 -999.25  6.0004  3916.0  47.884  327.48  232.24  395.78  9.0060  7.4030 
  10.563 -999.25 -999.25 -999.25 
  3944.500 
 -84.725  69.389  9.3600  7.4710  10.641 -999.25 -999.25 -999.25 -999.25 
 -999.25  9.3600  7.4710  10.641 -12.641 -999.25 -999.25 -999.25 -999.25 
 -999.25  6.0004  3916.5  48.031  327.52  232.28  395.84  9.3600  7.4710 
  10.641 -999.25 -999.25 -999.25 
  3945.000 
 -84.644  65.259  9.3950  7.4990  10.661 -999.25 -999.25 -999.25 -999.25 
 -999.25  9.3950  7.4990  10.661 -12.574 -999.25 -999.25 -999.25 -999.25 
 -999.25  6.0004  3917.0  48.178  327.55  232.32  395.89  9.3950  7.4990 
  10.661 -999.25 -999.25 -999.25 
  3945.500 
 -84.602  67.178  9.3780  7.5270  10.701 -999.25 -999.25 -999.25 -999.25 
 -999.25  9.3780  7.5270  10.701 -12.546 -999.25 -999.25 -999.25 -999.25 
 -999.25  6.0004  3917.5  48.326  327.59  232.36  395.94  9.3780  7.5270 
  10.701 -999.25 -999.25 -999.25 
  3946.000 
 -84.521  69.576  9.3100  7.5140  10.702 -999.25 -999.25 -999.25 -999.25 
 -999.25  9.3100  7.5140  10.702 -12.479 -999.25 -999.25 -999.25 -999.25 
 -999.25  6.0004  3918.0  48.473  327.62  232.40  395.99  9.3100  7.5140 
  10.702 -999.25 -999.25 -999.25 
  3946.500 
 -84.439  70.357  9.1920  7.4730  10.702 -999.25 -999.25 -999.25 -999.25 
 -999.25  9.1920  7.4730  10.702 -12.411 -999.25 -999.25 -999.25 -999.25 
 -999.25  6.0004  3918.5  48.621  327.66  232.44  396.04  9.1920  7.4730 
  10.702 -999.25 -999.25 -999.25 
