~Version Information
VERS.                     2.0: CWLS log ASCII Standard Version 2.00
WRAP.                     YES: Multiple lines per depth step
~Well Information Block
#MNEM.UNIT                               Data Type  Information
#---------                               ---------  -----------
STRT.FT                                   632.0000:
STOP.FT                                  6808.0000:
STEP.FT                                     0.5000:
NULL.                 -999.25                     :
COMP.                                             :COMPANY            
WELL.     SAN EMIDIO A 46X-19 REDRILL             :WELL               
FLD .                                             :FIELD              
CTRY.                                             :COUNTRY            
STAT.                                             :STATE              
LOC .                                             :LOCATION           
UWI .                                             :UNIQUE WELL ID     
SRVC.                                             :Service company    
DATE.                                             :LOG DATE           
~Curve Information
#MNEM.UNIT           API CODE  Curve Description
#---------           --------  -----------------
DEPT.FT                      :   1 DEPTH
SP  .MV                      :   2
GR  .GAPI                    :   3
SFLU.OHMM                    :   4
ILM .OHMM                    :   5
ILD .OHMM                    :   6
DGR .                        :   7
CALI.                        :   8
RHOB.                        :   9
NPOR.                        :  10
DRHO.                        :  11
RS  .OHMM                    :  12
RM  .OHMM                    :  13
RD  .OHMM                    :  14
SBL .MV                      :  15
ROBS.G/C3                    :  16
DROS.G/C3                    :  17
CALS.IN                      :  18
GRS .GAPI                    :  19
NPHS.PU-S                    :  20
DEVI.DEG                     :  21
TVD .FT                      :  22
AZIM.DEG                     :  23
NORT.FT                      :  24
EAST.FT                      :  25
OFFS.FT                      :  26
SFLU.OHMM                    :  27
ILMC.OHMM                    :  28
ILDC.OHMM                    :  29
ROBC.G/C3                    :  30
GRC .GAPI                    :  31
NPHC.PU-S                    :  32
~A
# ...
  1892.000 
 -125.50  82.624  3.7130  4.7490  6.2140 -999.25 -999.25 -999.25 -999.25 
 -999.25  3.7130  4.7490  6.2140 -7.9420 -999.25 -999.25 -999.25 -999.25 
 -999.25  8.5861  1886.5  29.758  92.217  43.923  96.265  3.7130  4.7490 
  6.2140 -999.25 -999.25 -999.25 
  1892.500 
 -125.58  78.970  3.7890  4.9090  6.3580 -999.25 -999.25 -999.25 -999.25 
 -999.25  3.7890  4.9090  6.3580 -8.0288 -999.25 -999.25 -999.25 -999.25 
 -999.25  8.5870  1887.0  29.766  92.282  43.960  96.337  3.7890  4.9090 
  6.3580 -999.25 -999.25 -999.25 
  1893.000 
 -126.02  78.314  3.9390  5.0190  6.5730 -999.25 -999.25 -999.25 -999.25 
 -999.25  3.9390  5.0190  6.5730 -8.4756 -999.25 -999.25 -999.25 -999.25 
 -999.25  8.5880  1887.5  29.774  92.347  43.997  96.409  3.9390  5.0190 
  6.5730 -999.25 -999.25 -999.25 
  1893.500 
 -126.65  78.979  4.1390  5.2160  6.7940 -999.25 -999.25 -999.25 -999.25 
 -999.25  4.1390  5.2160  6.7940 -9.1213 -999.25 -999.25 -999.25 -999.25 
 -999.25  8.5890  1888.0  29.783  92.411  44.034  96.481  4.1390  5.2160 
  6.7940 -999.25 -999.25 -999.25 
  1894.000 
 -127.29  79.462  4.4060  5.3230  7.2190 -999.25 -999.25 -999.25 -999.25 
 -999.25  4.4060  5.3230  7.2190 -9.7681 -999.25 -999.25 -999.25 -999.25 
 -999.25  8.5899  1888.5  29.791  92.476  44.071  96.554  4.4060  5.3230 
  7.2190 -999.25 -999.25 -999.25 
  1894.500 
 -127.73  80.366  4.6390  5.5020  7.4210 -999.25 -999.25 -999.25 -999.25 
 -999.25  4.6390  5.5020  7.4210 -10.215 -999.25 -999.25 -999.25 -999.25 
 -999.25  8.5909  1889.0  29.800  92.541  44.108  96.626  4.6390  5.5020 
  7.4210 -999.25 -999.25 -999.25 
  1895.000 
 -128.45  82.049  4.8310  5.6360  7.5460 -999.25 -999.25 -999.25 -999.25 
 -999.25  4.8310  5.6360  7.5460 -10.942 -999.25 -999.25 -999.25 -999.25 
 -999.25  8.5918  1889.5  29.808  92.606  44.145  96.698  4.8310  5.6360 
  7.5460 -999.25 -999.25 -999.25 
  1895.500 
 -129.09  84.332  5.0300  5.7300  7.6440 -999.25 -999.25 -999.25 -999.25 
 -999.25  5.0300  5.7300  7.6440 -11.588 -999.25 -999.25 -999.25 -999.25 
 -999.25  8.5928  1890.0  29.817  92.671  44.183  96.770  5.0300  5.7300 
  7.6440 -999.25 -999.25 -999.25 
  1896.000 
 -129.68  82.717  5.1710  5.7460  7.7290 -999.25 -999.25 -999.25 -999.25 
 -999.25  5.1710  5.7460  7.7290 -12.195 -999.25 -999.25 -999.25 -999.25 
 -999.25  8.5938  1890.5  29.825  92.735  44.220  96.842  5.1710  5.7460 
  7.7290 -999.25 -999.25 -999.25 
  1896.500 
 -130.52  77.864  5.3940  5.7620  7.8590 -999.25 -999.25 -999.25 -999.25 
 -999.25  5.3940  5.7620  7.8590 -13.041 -999.25 -999.25 -999.25 -999.25 
 -999.25  8.5947  1891.0  29.833  92.800  44.257  96.914  5.3940  5.7620 
  7.8590 -999.25 -999.25 -999.25 
  1897.000 
 -131.32  74.870  5.5760  5.8380  7.9760 -999.25 -999.25 -999.25 -999.25 
 -999.25  5.5760  5.8380  7.9760 -13.848 -999.25 -999.25 -999.25 -999.25 
 -999.25  8.5957  1891.5  29.842  92.865  44.294  96.986  5.5760  5.8380 
  7.9760 -999.25 -999.25 -999.25 
  1897.500 
 -132.20  75.294  5.6490  5.8710  8.0650 -999.25 -999.25 -999.25 -999.25 
 -999.25  5.6490  5.8710  8.0650 -14.733 -999.25 -999.25 -999.25 -999.25 
 -999.25  8.5966  1892.0  29.850  92.930  44.331  97.058  5.6490  5.8710 
  8.0650 -999.25 -999.25 -999.25 
  1898.000 
 -132.88  76.378  5.7330  5.8930  8.1400 -999.25 -999.25 -999.25 -999.25 
 -999.25  5.7330  5.8930  8.1400 -15.420 -999.25 -999.25 -999.25 -999.25 
 -999.25  8.5976  1892.4  29.859  92.995  44.368  97.130  5.7330  5.8930 
  8.1400 -999.25 -999.25 -999.25 
  1898.500 
 -133.19  77.521  5.8180  5.9150  8.2000 -999.25 -999.25 -999.25 -999.25 
 -999.25  5.8180  5.9150  8.2000 -15.747 -999.25 -999.25 -999.25 -999.25 
 -999.25  8.5985  1892.9  29.867  93.060  44.406  97.203  5.8180  5.9150 
  8.2000 -999.25 -999.25 -999.25 
  1899.000 
 -133.47  76.386  5.9260  5.9480  8.2160 -999.25 -999.25 -999.25 -999.25 
 -999.25  5.9260  5.9480  8.2160 -16.034 -999.25 -999.25 -999.25 -999.25 
 -999.25  8.5995  1893.4  29.875  93.124  44.443  97.275  5.9260  5.9480 
  8.2160 -999.25 -999.25 -999.25 
  1899.500 
 -133.67  74.172  6.0260  5.9920  8.2170 -999.25 -999.25 -999.25 -999.25 
 -999.25  6.0260  5.9920  8.2170 -16.241 -999.25 -999.25 -999.25 -999.25 
 -999.25  8.6005  1893.9  29.884  93.189  44.480  97.347  6.0260  5.9920 
  8.2170 -999.25 -999.25 -999.25 
  1900.000 
 -133.83  73.696  6.0700  6.0480  8.1130 -999.25 -999.25 -999.25 -999.25 
 -999.25  6.0700  6.0480  8.1130 -16.406 -999.25 -999.25 -999.25 -999.25 
 -999.25  8.6014  1894.4  29.892  93.254  44.517  97.419  6.0700  6.0480 
  8.1130 -999.25 -999.25 -999.25 
  1900.500 
 -133.98  74.541  6.1040  5.9610  8.0990 -999.25 -999.25 -999.25 -999.25 
 -999.25  6.1040  5.9610  8.0990 -16.573 -999.25 -999.25 -999.25 -999.25 
 -999.25  8.6024  1894.9  29.901  93.319  44.555  97.491  6.1040  5.9610 
  8.0990 -999.25 -999.25 -999.25 
  1901.000 
 -134.06  76.645  6.1500  5.9180  8.0700 -999.25 -999.25 -999.25 -999.25 
 -999.25  6.1500  5.9180  8.0700 -16.661 -999.25 -999.25 -999.25 -999.25 
 -999.25  8.6033  1895.4  29.909  93.384  44.592  97.564  6.1500  5.9180 
  8.0700 -999.25 -999.25 -999.25 
  1901.500 
 -134.18  81.508  6.1840  5.8960  8.0700 -999.25 -999.25 -999.25 -999.25 
 -999.25  6.1840  5.8960  8.0700 -16.787 -999.25 -999.25 -999.25 -999.25 
 -999.25  8.6043  1895.9  29.918  93.449  44.629  97.636  6.1840  5.8960 
  8.0700 -999.25 -999.25 -999.25 
  1902.000 
 -134.18  86.250  6.1960  5.8970  8.0930 -999.25 -999.25 -999.25 -999.25 
 -999.25  6.1960  5.8970  8.0930 -16.794 -999.25 -999.25 -999.25 -999.25 
 -999.25  8.6052  1896.4  29.926  93.513  44.667  97.708  6.1960  5.8970 
  8.0930 -999.25 -999.25 -999.25 
  1902.500 
 -134.18  88.954  6.1740  5.8970  8.1160 -999.25 -999.25 -999.25 -999.25 
 -999.25  6.1740  5.8970  8.1160 -16.801 -999.25 -999.25 -999.25 -999.25 
 -999.25  8.6062  1896.9  29.934  93.578  44.704  97.780  6.1740  5.8970 
  8.1160 -999.25 -999.25 -999.25 
  1903.000 
 -134.05  87.161  6.1640  5.9410  8.1690 -999.25 -999.25 -999.25 -999.25 
 -999.25  6.1640  5.9410  8.1690 -16.688 -999.25 -999.25 -999.25 -999.25 
 -999.25  8.6072  1897.4  29.943  93.643  44.741  97.853  6.1640  5.9410 
  8.1690 -999.25 -999.25 -999.25 
  1903.500 
 -134.01  86.387  6.1530  5.9970  8.2220 -999.25 -999.25 -999.25 -999.25 
 -999.25  6.1530  5.9970  8.2220 -16.655 -999.25 -999.25 -999.25 -999.25 
 -999.25  8.6081  1897.9  29.951  93.708  44.779  97.925  6.1530  5.9970 
  8.2220 -999.25 -999.25 -999.25 
  1904.000 
 -133.77  85.972  6.2100  6.0520  8.3300 -999.25 -999.25 -999.25 -999.25 
 -999.25  6.2100  6.0520  8.3300 -16.422 -999.25 -999.25 -999.25 -999.25 
 -999.25  8.6091  1898.4  29.960  93.773  44.816  97.997  6.2100  6.0520 
  8.3300 -999.25 -999.25 -999.25 
  1904.500 
 -133.37  87.776  6.4070  6.1770  8.3760 -999.25 -999.25 -999.25 -999.25 
 -999.25  6.4070  6.1770  8.3760 -16.029 -999.25 -999.25 -999.25 -999.25 
 -999.25  8.6100  1898.9  29.968  93.838  44.854  98.069  6.4070  6.1770 
  8.3760 -999.25 -999.25 -999.25 
  1905.000 
 -133.13  91.260  6.5870  6.3030  8.4850 -999.25 -999.25 -999.25 -999.25 
 -999.25  6.5870  6.3030  8.4850 -15.796 -999.25 -999.25 -999.25 -999.25 
 -999.25  8.6110  1899.4  29.977  93.902  44.891  98.142  6.5870  6.3030 
  8.4850 -999.25 -999.25 -999.25 
  1905.500 
 -133.01  95.343  6.8840  6.3850  8.5960 -999.25 -999.25 -999.25 -999.25 
 -999.25  6.8840  6.3850  8.5960 -15.684 -999.25 -999.25 -999.25 -999.25 
 -999.25  8.6119  1899.9  29.985  93.967  44.928  98.214  6.8840  6.3850 
  8.5960 -999.25 -999.25 -999.25 
  1906.000 
 -132.92  98.826  7.1680  6.5520  8.8200 -999.25 -999.25 -999.25 -999.25 
 -999.25  7.1680  6.5520  8.8200 -15.610 -999.25 -999.25 -999.25 -999.25 
 -999.25  8.6129  1900.4  29.993  94.032  44.966  98.286  7.1680  6.5520 
  8.8200 -999.25 -999.25 -999.25 
  1906.500 
 -133.20  102.07  7.2480  6.7850  8.9600 -999.25 -999.25 -999.25 -999.25 
 -999.25  7.2480  6.7850  8.9600 -15.896 -999.25 -999.25 -999.25 -999.25 
 -999.25  8.6139  1900.9  30.002  94.097  45.003  98.359  7.2480  6.7850 
  8.9600 -999.25 -999.25 -999.25 
