~Version Information
VERS.                     2.0: CWLS log ASCII Standard Version 2.00
WRAP.                     YES: Multiple lines per depth step
~Well Information Block
#MNEM.UNIT                               Data Type  Information
#---------                               ---------  -----------
STRT.FT                                   632.0000:
STOP.FT                                  6808.0000:
STEP.FT                                     0.5000:
NULL.                 -999.25                     :
COMP.                                             :COMPANY            
WELL.     SAN EMIDIO A 46X-19 REDRILL             :WELL               
FLD .                                             :FIELD              
CTRY.                                             :COUNTRY            
STAT.                                             :STATE              
LOC .                                             :LOCATION           
UWI .                                             :UNIQUE WELL ID     
SRVC.                                             :Service company    
DATE.                                             :LOG DATE           
~Curve Information
#MNEM.UNIT           API CODE  Curve Description
#---------           --------  -----------------
DEPT.FT                      :   1 DEPTH
SP  .MV                      :   2
GR  .GAPI                    :   3
SFLU.OHMM                    :   4
ILM .OHMM                    :   5
ILD .OHMM                    :   6
DGR .                        :   7
CALI.                        :   8
RHOB.                        :   9
NPOR.                        :  10
DRHO.                        :  11
RS  .OHMM                    :  12
RM  .OHMM                    :  13
RD  .OHMM                    :  14
SBL .MV                      :  15
ROBS.G/C3                    :  16
DROS.G/C3                    :  17
CALS.IN                      :  18
GRS .GAPI                    :  19
NPHS.PU-S                    :  20
DEVI.DEG                     :  21
TVD .FT                      :  22
AZIM.DEG                     :  23
NORT.FT                      :  24
EAST.FT                      :  25
OFFS.FT                      :  26
SFLU.OHMM                    :  27
ILMC.OHMM                    :  28
ILDC.OHMM                    :  29
ROBC.G/C3                    :  30
GRC .GAPI                    :  31
NPHC.PU-S                    :  32
~A
# ...
   662.000 
 -137.91  72.817  4.8810  0.7480  0.7250 -999.25 -999.25 -999.25 -999.25 
 -999.25  4.8810  0.7480  0.7250 -1.9120 -999.25 -999.25 -999.25 -999.25 
 -999.25  0.0084  662.00  0.0604  0.0001  0.0000  0.0001  4.8810  0.7480 
  0.7250 -999.25 -999.25 -999.25 
   662.500 
 -139.03  75.082  5.5180  1.3480  2.2820 -999.25 -999.25 -999.25 -999.25 
 -999.25  5.5180  1.3480  2.2820 -3.0330 -999.25 -999.25 -999.25 -999.25 
 -999.25  0.0126  662.50  0.0906  0.0002  0.0000  0.0002  5.5180  1.3480 
  2.2820 -999.25 -999.25 -999.25 
   663.000 
 -140.27  77.465  6.0470  1.6070  4.7810 -999.25 -999.25 -999.25 -999.25 
 -999.25  6.0470  1.6070  4.7810 -4.2750 -999.25 -999.25 -999.25 -999.25 
 -999.25  0.0168  663.00  0.1208  0.0004  0.0000  0.0003  6.0470  1.6070 
  4.7810 -999.25 -999.25 -999.25 
   663.500 
 -141.12  79.191  6.7250  2.1280  7.0410 -999.25 -999.25 -999.25 -999.25 
 -999.25  6.7250  2.1280  7.0410 -5.1180 -999.25 -999.25 -999.25 -999.25 
 -999.25  0.0210  663.50  0.1510  0.0005  0.0000  0.0004  6.7250  2.1280 
  7.0410 -999.25 -999.25 -999.25 
   664.000 
 -142.16  80.260  7.2220  2.4680  9.3720 -999.25 -999.25 -999.25 -999.25 
 -999.25  7.2220  2.4680  9.3720 -6.1600 -999.25 -999.25 -999.25 -999.25 
 -999.25  0.0252  664.00  0.1812  0.0008  0.0000  0.0005  7.2220  2.4680 
  9.3720 -999.25 -999.25 -999.25 
   664.500 
 -143.12  79.713  7.1020  2.5830  8.7220 -999.25 -999.25 -999.25 -999.25 
 -999.25  7.1020  2.5830  8.7220 -7.1230 -999.25 -999.25 -999.25 -999.25 
 -999.25  0.0294  664.50  0.2114  0.0010  0.0000  0.0007  7.1020  2.5830 
  8.7220 -999.25 -999.25 -999.25 
   665.000 
 -144.28  77.790  6.7940  2.7190  8.3900 -999.25 -999.25 -999.25 -999.25 
 -999.25  6.7940  2.7190  8.3900 -8.2840 -999.25 -999.25 -999.25 -999.25 
 -999.25  0.0336  665.00  0.2416  0.0013  0.0000  0.0009  6.7940  2.7190 
  8.3900 -999.25 -999.25 -999.25 
   665.500 
 -145.05  74.911  6.4640  2.9040  8.1450 -999.25 -999.25 -999.25 -999.25 
 -999.25  6.4640  2.9040  8.1450 -9.0480 -999.25 -999.25 -999.25 -999.25 
 -999.25  0.0377  665.50  0.2718  0.0016  0.0000  0.0012  6.4640  2.9040 
  8.1450 -999.25 -999.25 -999.25 
   666.000 
 -145.37  72.331  6.1050  3.2950  8.0690 -999.25 -999.25 -999.25 -999.25 
 -999.25  6.1050  3.2950  8.0690 -9.3720 -999.25 -999.25 -999.25 -999.25 
 -999.25  0.0419  666.00  0.3020  0.0020  0.0000  0.0014  6.1050  3.2950 
  8.0690 -999.25 -999.25 -999.25 
   666.500 
 -145.38  75.491  5.8620  4.6340  8.0220 -999.25 -999.25 -999.25 -999.25 
 -999.25  5.8620  4.6340  8.0220 -9.3780 -999.25 -999.25 -999.25 -999.25 
 -999.25  0.0461  666.50  0.3322  0.0024  0.0000  0.0017  5.8620  4.6340 
  8.0220 -999.25 -999.25 -999.25 
   667.000 
 -145.30  76.979  5.5660  5.2780  8.1390 -999.25 -999.25 -999.25 -999.25 
 -999.25  5.5660  5.2780  8.1390 -9.3040 -999.25 -999.25 -999.25 -999.25 
 -999.25  0.0503  667.00  0.3624  0.0029  0.0000  0.0020  5.5660  5.2780 
  8.1390 -999.25 -999.25 -999.25 
   667.500 
 -145.15  77.628  5.2670  5.2670  9.2700 -999.25 -999.25 -999.25 -999.25 
 -999.25  5.2670  5.2670  9.2700 -9.1500 -999.25 -999.25 -999.25 -999.25 
 -999.25  0.0545  667.50  0.3926  0.0033  0.0000  0.0024  5.2670  5.2670 
  9.2700 -999.25 -999.25 -999.25 
   668.000 
 -145.04  77.860  5.1130  5.2660  11.320 -999.25 -999.25 -999.25 -999.25 
 -999.25  5.1130  5.2660  11.320 -9.0360 -999.25 -999.25 -999.25 -999.25 
 -999.25  0.0587  668.00  0.4228  0.0038  0.0000  0.0027  5.1130  5.2660 
  11.320 -999.25 -999.25 -999.25 
   668.500 
 -145.28  78.091  5.0190  5.3910  11.317 -999.25 -999.25 -999.25 -999.25 
 -999.25  5.0190  5.3910  11.317 -9.2820 -999.25 -999.25 -999.25 -999.25 
 -999.25  0.0629  668.50  0.4530  0.0044  0.0000  0.0031  5.0190  5.3910 
  11.317 -999.25 -999.25 -999.25 
   669.000 
 -145.45  77.784  5.0180  5.5150  10.688 -999.25 -999.25 -999.25 -999.25 
 -999.25  5.0180  5.5150  10.688 -9.4470 -999.25 -999.25 -999.25 -999.25 
 -999.25  0.0671  669.00  0.4832  0.0050  0.0000  0.0035  5.0180  5.5150 
  10.688 -999.25 -999.25 -999.25 
   669.500 
 -145.61  77.116  5.1280  5.6420  9.7310 -999.25 -999.25 -999.25 -999.25 
 -999.25  5.1280  5.6420  9.7310 -9.6110 -999.25 -999.25 -999.25 -999.25 
 -999.25  0.0713  669.50  0.5134  0.0056  0.0000  0.0040  5.1280  5.6420 
  9.7310 -999.25 -999.25 -999.25 
   670.000 
 -145.66  76.452  5.2890  6.0470  8.6980 -999.25 -999.25 -999.25 -999.25 
 -999.25  5.2890  6.0470  8.6980 -9.6560 -999.25 -999.25 -999.25 -999.25 
 -999.25  0.0755  670.00  0.5436  0.0063  0.0000  0.0045  5.2890  6.0470 
  8.6980 -999.25 -999.25 -999.25 
   670.500 
 -145.78  76.563  5.5060  6.1920  9.0380 -999.25 -999.25 -999.25 -999.25 
 -999.25  5.5060  6.1920  9.0380 -9.7830 -999.25 -999.25 -999.25 -999.25 
 -999.25  0.0797  670.50  0.5738  0.0070  0.0000  0.0050  5.5060  6.1920 
  9.0380 -999.25 -999.25 -999.25 
   671.000 
 -145.83  76.674  5.8690  6.4100  9.4770 -999.25 -999.25 -999.25 -999.25 
 -999.25  5.8690  6.4100  9.4770 -9.8270 -999.25 -999.25 -999.25 -999.25 
 -999.25  0.0839  671.00  0.6040  0.0077  0.0001  0.0055  5.8690  6.4100 
  9.4770 -999.25 -999.25 -999.25 
   671.500 
 -145.92  76.364  6.1550  6.5870  9.9920 -999.25 -999.25 -999.25 -999.25 
 -999.25  6.1550  6.5870  9.9920 -9.9150 -999.25 -999.25 -999.25 -999.25 
 -999.25  0.0881  671.50  0.6342  0.0085  0.0001  0.0060  6.1550  6.5870 
  9.9920 -999.25 -999.25 -999.25 
   672.000 
 -146.08  75.580  6.5010  6.7390  10.250 -999.25 -999.25 -999.25 -999.25 
 -999.25  6.5010  6.7390  10.250 -10.080 -999.25 -999.25 -999.25 -999.25 
 -999.25  0.0923  672.00  0.6644  0.0093  0.0001  0.0066  6.5010  6.7390 
  10.250 -999.25 -999.25 -999.25 
   672.500 
 -146.32  73.894  6.8670  6.8940  10.515 -999.25 -999.25 -999.25 -999.25 
 -999.25  6.8670  6.8940  10.515 -10.324 -999.25 -999.25 -999.25 -999.25 
 -999.25  0.0965  672.50  0.6946  0.0101  0.0001  0.0072  6.8670  6.8940 
  10.515 -999.25 -999.25 -999.25 
   673.000 
 -146.61  72.991  7.2280  7.1620  11.146 -999.25 -999.25 -999.25 -999.25 
 -999.25  7.2280  7.1620  11.146 -10.607 -999.25 -999.25 -999.25 -999.25 
 -999.25  0.1007  673.00  0.7248  0.0110  0.0001  0.0078  7.2280  7.1620 
  11.146 -999.25 -999.25 -999.25 
   673.500 
 -147.01  72.444  7.6780  7.3190  11.351 -999.25 -999.25 -999.25 -999.25 
 -999.25  7.6780  7.3190  11.351 -11.012 -999.25 -999.25 -999.25 -999.25 
 -999.25  0.1049  673.50  0.7550  0.0119  0.0001  0.0085  7.6780  7.3190 
  11.351 -999.25 -999.25 -999.25 
   674.000 
 -147.62  71.478  8.1400  7.4400  11.706 -999.25 -999.25 -999.25 -999.25 
 -999.25  8.1400  7.4400  11.706 -11.616 -999.25 -999.25 -999.25 -999.25 
 -999.25  0.1091  674.00  0.7852  0.0128  0.0001  0.0092  8.1400  7.4400 
  11.706 -999.25 -999.25 -999.25 
   674.500 
 -148.14  69.615  8.3500  7.5620  11.943 -999.25 -999.25 -999.25 -999.25 
 -999.25  8.3500  7.5620  11.943 -12.139 -999.25 -999.25 -999.25 -999.25 
 -999.25  0.1133  674.50  0.8154  0.0138  0.0001  0.0099  8.3500  7.5620 
  11.943 -999.25 -999.25 -999.25 
   675.000 
 -149.22  67.634  8.5020  7.8710  12.173 -999.25 -999.25 -999.25 -999.25 
 -999.25  8.5020  7.8710  12.173 -13.222 -999.25 -999.25 -999.25 -999.25 
 -999.25  0.1174  675.00  0.8456  0.0149  0.0001  0.0106  8.5020  7.8710 
  12.173 -999.25 -999.25 -999.25 
   675.500 
 -150.18  64.636  8.6730  8.1040  12.407 -999.25 -999.25 -999.25 -999.25 
 -999.25  8.6730  8.1040  12.407 -14.185 -999.25 -999.25 -999.25 -999.25 
 -999.25  0.1216  675.50  0.8758  0.0159  0.0002  0.0114  8.6730  8.1040 
  12.407 -999.25 -999.25 -999.25 
   676.000 
 -150.67  60.798  8.8240  8.3580  12.702 -999.25 -999.25 -999.25 -999.25 
 -999.25  8.8240  8.3580  12.702 -14.669 -999.25 -999.25 -999.25 -999.25 
 -999.25  0.1258  676.00  0.9060  0.0170  0.0002  0.0122  8.8240  8.3580 
  12.702 -999.25 -999.25 -999.25 
   676.500 
 -150.64  56.782  8.9780  8.5110  13.004 -999.25 -999.25 -999.25 -999.25 
 -999.25  8.9780  8.5110  13.004 -14.635 -999.25 -999.25 -999.25 -999.25 
 -999.25  0.1300  676.50  0.9362  0.0181  0.0002  0.0130  8.9780  8.5110 
  13.004 -999.25 -999.25 -999.25 
