~Version Information
VERS.                     2.0: CWLS log ASCII Standard Version 2.00
WRAP.                     YES: Multiple lines per depth step
~Well Information Block
#MNEM.UNIT                               Data Type  Information
#---------                               ---------  -----------
STRT.FT                                   632.0000:
STOP.FT                                  6808.0000:
STEP.FT                                     0.5000:
NULL.                 -999.25                     :
COMP.                                             :COMPANY            
WELL.     SAN EMIDIO A 46X-19 REDRILL             :WELL               
FLD .                                             :FIELD              
CTRY.                                             :COUNTRY            
STAT.                                             :STATE              
LOC .                                             :LOCATION           
UWI .                                             :UNIQUE WELL ID     
SRVC.                                             :Service company    
DATE.                                             :LOG DATE           
~Curve Information
#MNEM.UNIT           API CODE  Curve Description
#---------           --------  -----------------
DEPT.FT                      :   1 DEPTH
SP  .MV                      :   2
GR  .GAPI                    :   3
SFLU.OHMM                    :   4
ILM .OHMM                    :   5
ILD .OHMM                    :   6
DGR .                        :   7
CALI.                        :   8
RHOB.                        :   9
NPOR.                        :  10
DRHO.                        :  11
RS  .OHMM                    :  12
RM  .OHMM                    :  13
RD  .OHMM                    :  14
SBL .MV                      :  15
ROBS.G/C3                    :  16
DROS.G/C3                    :  17
CALS.IN                      :  18
GRS .GAPI                    :  19
NPHS.PU-S                    :  20
DEVI.DEG                     :  21
TVD .FT                      :  22
AZIM.DEG                     :  23
NORT.FT                      :  24
EAST.FT                      :  25
OFFS.FT                      :  26
SFLU.OHMM                    :  27
ILMC.OHMM                    :  28
ILDC.OHMM                    :  29
ROBC.G/C3                    :  30
GRC .GAPI                    :  31
NPHC.PU-S                    :  32
~A
# ...
  4757.000 
 -58.877  90.019  5.6370  5.0120  7.1680 -999.25 -999.25 -999.25 -999.25 
 -999.25  5.6370  5.0120  7.1680 -16.526 -999.25 -999.25 -999.25 -999.25 
 -999.25  10.887  4723.6  205.00  269.03  242.86  361.96  5.6370  5.0120 
  7.1680 -999.25 -999.25 -999.25 
  4757.500 
 -58.439  88.520  5.2280  4.7350  6.8080 -999.25 -999.25 -999.25 -999.25 
 -999.25  5.2280  4.7350  6.8080 -16.123 -999.25 -999.25 -999.25 -999.25 
 -999.25  10.897  4724.1  205.00  268.94  242.82  361.87  5.2280  4.7350 
  6.8080 -999.25 -999.25 -999.25 
  4758.000 
 -57.481  88.938  4.6910  4.5560  6.5500 -999.25 -999.25 -999.25 -999.25 
 -999.25  4.6910  4.5560  6.5500 -15.200 -999.25 -999.25 -999.25 -999.25 
 -999.25  10.906  4724.6  205.00  268.86  242.78  361.78  4.6910  4.5560 
  6.5500 -999.25 -999.25 -999.25 
  4758.500 
 -55.965  89.536  4.2330  4.4320  6.2220 -999.25 -999.25 -999.25 -999.25 
 -999.25  4.2330  4.4320  6.2220 -13.719 -999.25 -999.25 -999.25 -999.25 
 -999.25  10.916  4725.1  205.00  268.77  242.74  361.69  4.2330  4.4320 
  6.2220 -999.25 -999.25 -999.25 
  4759.000 
 -54.847  90.493  3.8970  4.3110  5.8560 -999.25 -999.25 -999.25 -999.25 
 -999.25  3.8970  4.3110  5.8560 -12.636 -999.25 -999.25 -999.25 -999.25 
 -999.25  10.925  4725.6  205.00  268.68  242.70  361.60  3.8970  4.3110 
  5.8560 -999.25 -999.25 -999.25 
  4759.500 
 -54.129  91.091  3.6880  4.1940  5.6440 -999.25 -999.25 -999.25 -999.25 
 -999.25  3.6880  4.1940  5.6440 -11.954 -999.25 -999.25 -999.25 -999.25 
 -999.25  10.934  4726.1  205.00  268.60  242.66  361.51  3.6880  4.1940 
  5.6440 -999.25 -999.25 -999.25 
  4760.000 
 -53.850  91.869  3.6080  4.1020  5.4610 -999.25 -999.25 -999.25 -999.25 
 -999.25  3.6080  4.1020  5.4610 -11.710 -999.25 -999.25 -999.25 -999.25 
 -999.25  10.944  4726.6  205.00  268.51  242.62  361.42  3.6080  4.1020 
  5.4610 -999.25 -999.25 -999.25 
  4760.500 
 -53.731  92.048  3.5810  4.0720  5.3320 -999.25 -999.25 -999.25 -999.25 
 -999.25  3.5810  4.0720  5.3320 -11.626 -999.25 -999.25 -999.25 -999.25 
 -999.25  10.953  4727.1  205.00  268.43  242.58  361.34  3.5810  4.0720 
  5.3320 -999.25 -999.25 -999.25 
  4761.000 
 -53.972  92.226  3.6810  4.0710  5.3210 -999.25 -999.25 -999.25 -999.25 
 -999.25  3.6810  4.0710  5.3210 -11.902 -999.25 -999.25 -999.25 -999.25 
 -999.25  10.963  4727.6  205.00  268.34  242.54  361.25  3.6810  4.0710 
  5.3210 -999.25 -999.25 -999.25 
  4761.500 
 -54.532  93.722  3.8950  4.1840  5.3890 -999.25 -999.25 -999.25 -999.25 
 -999.25  3.8950  4.1840  5.3890 -12.497 -999.25 -999.25 -999.25 -999.25 
 -999.25  10.972  4728.0  205.00  268.25  242.50  361.16  3.8950  4.1840 
  5.3890 -999.25 -999.25 -999.25 
  4762.000 
 -55.211  95.339  4.3880  4.4130  5.5090 -999.25 -999.25 -999.25 -999.25 
 -999.25  4.3880  4.4130  5.5090 -13.211 -999.25 -999.25 -999.25 -999.25 
 -999.25  10.981  4728.5  205.00  268.17  242.46  361.07  4.3880  4.4130 
  5.5090 -999.25 -999.25 -999.25 
  4762.500 
 -56.011  93.840  4.9530  4.7390  5.6310 -999.25 -999.25 -999.25 -999.25 
 -999.25  4.9530  4.7390  5.6310 -14.046 -999.25 -999.25 -999.25 -999.25 
 -999.25  10.991  4729.0  205.00  268.08  242.42  360.98  4.9530  4.7390 
  5.6310 -999.25 -999.25 -999.25 
  4763.000 
 -56.850  89.825  5.3980  4.9700  5.8190 -999.25 -999.25 -999.25 -999.25 
 -999.25  5.3980  4.9700  5.8190 -14.920 -999.25 -999.25 -999.25 -999.25 
 -999.25  11.000  4729.5  205.00  267.99  242.38  360.89  5.3980  4.9700 
  5.8190 -999.25 -999.25 -999.25 
  4763.500 
 -57.929  85.630  5.8830  5.1080  5.9920 -999.25 -999.25 -999.25 -999.25 
 -999.25  5.8830  5.1080  5.9920 -16.034 -999.25 -999.25 -999.25 -999.25 
 -999.25  11.011  4730.0  205.00  267.91  242.34  360.80  5.8830  5.1080 
  5.9920 -999.25 -999.25 -999.25 
  4764.000 
 -59.128  81.496  6.0800  5.1580  6.2160 -999.25 -999.25 -999.25 -999.25 
 -999.25  6.0800  5.1580  6.2160 -17.268 -999.25 -999.25 -999.25 -999.25 
 -999.25  11.022  4730.5  205.00  267.82  242.30  360.71  6.0800  5.1580 
  6.2160 -999.25 -999.25 -999.25 
  4764.500 
 -59.728  77.540  6.2150  5.2080  6.4120 -999.25 -999.25 -999.25 -999.25 
 -999.25  6.2150  5.2080  6.4120 -17.903 -999.25 -999.25 -999.25 -999.25 
 -999.25  11.033  4731.0  205.00  267.73  242.26  360.62  6.2150  5.2080 
  6.4120 -999.25 -999.25 -999.25 
  4765.000 
 -60.487  74.963  6.3180  5.2590  6.4940 -999.25 -999.25 -999.25 -999.25 
 -999.25  6.3180  5.2590  6.4940 -18.698 -999.25 -999.25 -999.25 -999.25 
 -999.25  11.043  4731.5  205.00  267.65  242.22  360.53  6.3180  5.2590 
  6.4940 -999.25 -999.25 -999.25 
  4765.500 
 -60.928  72.806  6.3290  5.2490  6.5050 -999.25 -999.25 -999.25 -999.25 
 -999.25  6.3290  5.2490  6.5050 -19.174 -999.25 -999.25 -999.25 -999.25 
 -999.25  11.054  4732.0  205.00  267.56  242.18  360.44  6.3290  5.2490 
  6.5050 -999.25 -999.25 -999.25 
  4766.000 
 -60.849  71.307  6.1000  5.1530  6.4930 -999.25 -999.25 -999.25 -999.25 
 -999.25  6.1000  5.1530  6.4930 -19.130 -999.25 -999.25 -999.25 -999.25 
 -999.25  11.065  4732.5  205.00  267.47  242.14  360.35  6.1000  5.1530 
  6.4930 -999.25 -999.25 -999.25 
  4766.500 
 -60.250  74.900  5.7520  5.0590  6.3510 -999.25 -999.25 -999.25 -999.25 
 -999.25  5.7520  5.0590  6.3510 -18.566 -999.25 -999.25 -999.25 -999.25 
 -999.25  11.076  4733.0  205.00  267.39  242.09  360.26  5.7520  5.0590 
  6.3510 -999.25 -999.25 -999.25 
  4767.000 
 -59.013  79.032  5.2480  4.9580  6.1560 -999.25 -999.25 -999.25 -999.25 
 -999.25  5.2480  4.9580  6.1560 -17.364 -999.25 -999.25 -999.25 -999.25 
 -999.25  11.086  4733.4  205.00  267.30  242.05  360.17  5.2480  4.9580 
  6.1560 -999.25 -999.25 -999.25 
  4767.500 
 -57.816  82.625  4.9120  4.7180  5.8900 -999.25 -999.25 -999.25 -999.25 
 -999.25  4.9120  4.7180  5.8900 -16.202 -999.25 -999.25 -999.25 -999.25 
 -999.25  11.097  4733.9  205.00  267.21  242.01  360.08  4.9120  4.7180 
  5.8900 -999.25 -999.25 -999.25 
  4768.000 
 -56.897  84.182  4.5390  4.5640  5.7290 -999.25 -999.25 -999.25 -999.25 
 -999.25  4.5390  4.5640  5.7290 -15.318 -999.25 -999.25 -999.25 -999.25 
 -999.25  11.108  4734.4  205.00  267.12  241.97  359.99  4.5390  4.5640 
  5.7290 -999.25 -999.25 -999.25 
  4768.500 
 -55.820  85.498  4.1710  4.3590  5.5530 -999.25 -999.25 -999.25 -999.25 
 -999.25  4.1710  4.3590  5.5530 -14.276 -999.25 -999.25 -999.25 -999.25 
 -999.25  11.119  4734.9  205.00  267.04  241.93  359.90  4.1710  4.3590 
  5.5530 -999.25 -999.25 -999.25 
  4769.000 
 -54.743  86.455  3.8760  4.2790  5.4420 -999.25 -999.25 -999.25 -999.25 
 -999.25  3.8760  4.2790  5.4420 -13.234 -999.25 -999.25 -999.25 -999.25 
 -999.25  11.129  4735.4  205.00  266.95  241.89  359.81  3.8760  4.2790 
  5.4420 -999.25 -999.25 -999.25 
  4769.500 
 -53.905  88.490  3.7150  4.1940  5.3230 -999.25 -999.25 -999.25 -999.25 
 -999.25  3.7150  4.1940  5.3230 -12.431 -999.25 -999.25 -999.25 -999.25 
 -999.25  11.140  4735.9  205.00  266.86  241.85  359.71  3.7150  4.1940 
  5.3230 -999.25 -999.25 -999.25 
  4770.000 
 -53.387  89.688  3.6680  4.1700  5.3030 -999.25 -999.25 -999.25 -999.25 
 -999.25  3.6680  4.1700  5.3030 -11.948 -999.25 -999.25 -999.25 -999.25 
 -999.25  11.151  4736.4  205.00  266.77  241.81  359.62  3.6680  4.1700 
  5.3030 -999.25 -999.25 -999.25 
  4770.500 
 -53.547  90.406  3.7770  4.2390  5.3020 -999.25 -999.25 -999.25 -999.25 
 -999.25  3.7770  4.2390  5.3020 -12.143 -999.25 -999.25 -999.25 -999.25 
 -999.25  11.162  4736.9  205.00  266.69  241.77  359.53  3.7770  4.2390 
  5.3020 -999.25 -999.25 -999.25 
  4771.000 
 -53.907  89.026  4.1240  4.3730  5.3510 -999.25 -999.25 -999.25 -999.25 
 -999.25  4.1240  4.3730  5.3510 -12.539 -999.25 -999.25 -999.25 -999.25 
 -999.25  11.172  4737.4  205.00  266.60  241.73  359.44  4.1240  4.3730 
  5.3510 -999.25 -999.25 -999.25 
  4771.500 
 -54.787  87.827  4.5690  4.4950  5.4390 -999.25 -999.25 -999.25 -999.25 
 -999.25  4.5690  4.4950  5.4390 -13.454 -999.25 -999.25 -999.25 -999.25 
 -999.25  11.183  4737.9  205.00  266.51  241.69  359.35  4.5690  4.4950 
  5.4390 -999.25 -999.25 -999.25 
