~Version Information
VERS.                     2.0: CWLS log ASCII Standard Version 2.00
WRAP.                     YES: Multiple lines per depth step
~Well Information Block
#MNEM.UNIT                               Data Type  Information
#---------                               ---------  -----------
STRT.FT                                   632.0000:
STOP.FT                                  6808.0000:
STEP.FT                                     0.5000:
NULL.                 -999.25                     :
COMP.                                             :COMPANY            
WELL.     SAN EMIDIO A 46X-19 REDRILL             :WELL               
FLD .                                             :FIELD              
CTRY.                                             :COUNTRY            
STAT.                                             :STATE              
LOC .                                             :LOCATION           
UWI .                                             :UNIQUE WELL ID     
SRVC.                                             :Service company    
DATE.                                             :LOG DATE           
~Curve Information
#MNEM.UNIT           API CODE  Curve Description
#---------           --------  -----------------
DEPT.FT                      :   1 DEPTH
SP  .MV                      :   2
GR  .GAPI                    :   3
SFLU.OHMM                    :   4
ILM .OHMM                    :   5
ILD .OHMM                    :   6
DGR .                        :   7
CALI.                        :   8
RHOB.                        :   9
NPOR.                        :  10
DRHO.                        :  11
RS  .OHMM                    :  12
RM  .OHMM                    :  13
RD  .OHMM                    :  14
SBL .MV                      :  15
ROBS.G/C3                    :  16
DROS.G/C3                    :  17
CALS.IN                      :  18
GRS .GAPI                    :  19
NPHS.PU-S                    :  20
DEVI.DEG                     :  21
TVD .FT                      :  22
AZIM.DEG                     :  23
NORT.FT                      :  24
EAST.FT                      :  25
OFFS.FT                      :  26
SFLU.OHMM                    :  27
ILMC.OHMM                    :  28
ILDC.OHMM                    :  29
ROBC.G/C3                    :  30
GRC .GAPI                    :  31
NPHC.PU-S                    :  32
~A
# ...
  6392.000 
 -23.124  73.353  2.3270  2.5370  2.5560  68.006  8.8620  2.3420  0.3350 
  0.0320  2.3270  2.5370  2.5560 -4.9507  2.3457  0.0349  8.8598  65.899 
  0.3350  5.7942  6322.3  246.13  44.919  19.338  45.437  2.5022  2.5396 
  2.5544  2.3457  66.269  0.3093 
  6392.500 
 -22.875  74.264  2.3450  2.5150  2.5570  66.947  8.8590  2.3470  0.3350 
  0.0360  2.3450  2.5150  2.5570 -4.7150  2.3492  0.0426  8.8546  64.680 
  0.3330  5.7958  6322.8  246.10  44.899  19.292  45.389  2.5208  2.5175 
  2.5554  2.3492  65.030  0.3071 
  6393.000 
 -22.666  73.380  2.3630  2.5020  2.5390  65.890  8.8530  2.3500  0.3330 
  0.0450  2.3630  2.5020  2.5390 -4.5193  2.3500  0.0479  8.8537  63.018 
  0.3320  5.7974  6323.3  246.06  44.878  19.245  45.342  2.5396  2.5045 
  2.5374  2.3500  63.357  0.3060 
  6393.500 
 -22.620  72.076  2.4040  2.4980  2.5350  64.771  8.8540  2.3500  0.3320 
  0.0490  2.4040  2.4980  2.5350 -4.4867  2.3449  0.0490  8.8547  61.039 
  0.3320  5.7989  6323.8  246.03  44.858  19.199  45.295  2.5825  2.5005 
  2.5334  2.3449  61.370  0.3060 
  6394.000 
 -22.850  69.576  2.4180  2.4990  2.5260  63.114  8.8550  2.3430  0.3320 
  0.0490  2.4180  2.4990  2.5260 -4.7300  2.3379  0.0483  8.8535  59.619 
  0.3350  5.8005  6324.3  246.00  44.837  19.153  45.248  2.5971  2.5015 
  2.5244  2.3379  59.940  0.3093 
  6394.500 
 -23.200  68.989  2.4050  2.4860  2.5230  60.975  8.8530  2.3360  0.3350 
  0.0480  2.4050  2.4860  2.5230 -5.0933  2.3367  0.0466  8.8537  59.708 
  0.3400  5.7981  6324.8  245.97  44.817  19.107  45.201  2.5836  2.4885 
  2.5214  2.3367  60.029  0.3149 
  6395.000 
 -23.391  73.373  2.3530  2.4780  2.5100  59.254  8.8540  2.3370  0.3400 
  0.0460  2.3530  2.4780  2.5100 -5.2977  2.3413  0.0424  8.8554  61.465 
  0.3440  5.7957  6325.3  245.94  44.796  19.061  45.154  2.5292  2.4805 
  2.5085  2.3413  61.800  0.3226 
  6395.500 
 -23.622  74.645  2.3110  2.4780  2.4920  59.395  8.8560  2.3430  0.3440 
  0.0410  2.3110  2.4780  2.4920 -5.5420  2.3437  0.0374  8.8510  64.865 
  0.3470  5.7932  6325.8  245.90  44.776  19.015  45.107  2.4852  2.4805 
  2.4905  2.3437  65.208  0.3260 
  6396.000 
 -23.853  74.236  2.2620  2.4610  2.4880  60.917  8.8490  2.3440  0.3470 
  0.0360  2.2620  2.4610  2.4880 -5.7863  2.3433  0.0303  8.8411  67.781 
  0.3480  5.7908  6326.3  245.87  44.755  18.969  45.059  2.4336  2.4634 
  2.4865  2.3433  68.114  0.3271 
  6396.500 
 -24.003  74.251  2.1970  2.4710  2.4670  64.540  8.8380  2.3430  0.3480 
  0.0280  2.1970  2.4710  2.4670 -5.9497  2.3480  0.0230  8.8252  67.690 
  0.3480  5.7884  6326.8  245.84  44.734  18.923  45.012  2.3651  2.4733 
  2.4655  2.3480  67.983  0.3271 
  6397.000 
 -23.996  74.622  2.1660  2.4720  2.4630  68.763  8.8200  2.3500  0.3480 
  0.0210  2.1660  2.4720  2.4630 -5.9560  2.3550  0.0203  8.8094  66.765 
  0.3460  5.7860  6327.3  245.81  44.714  18.877  44.965  2.3321  2.4742 
  2.4615  2.3550  67.014  0.3248 
  6397.500 
 -23.989  74.698  2.1500  2.4770  2.4640  68.003  8.8050  2.3570  0.3460 
  0.0200  2.1500  2.4770  2.4640 -5.9623  2.3542  0.0207  8.8064  67.279 
  0.3430  5.7836  6327.8  245.78  44.693  18.831  44.918  2.3153  2.4792 
  2.4625  2.3542  67.523  0.3183 
  6398.000 
 -24.016  74.291  2.1750  2.4870  2.4550  66.226  8.8070  2.3530  0.3430 
  0.0210  2.1750  2.4870  2.4550 -6.0027  2.3467  0.0231  8.8161  68.300 
  0.3410  5.7811  6328.3  245.74  44.672  18.785  44.871  2.3418  2.4893 
  2.4535  2.3467  68.572  0.3160 
  6398.500 
 -24.006  73.645  2.1920  2.4880  2.4560  67.027  8.8200  2.3440  0.3410 
  0.0240  2.1920  2.4880  2.4560 -6.0060  2.3377  0.0282  8.8382  68.452 
  0.3410  5.7787  6328.8  245.71  44.652  18.739  44.824  2.3603  2.4904 
  2.4545  2.3377  68.781  0.3160 
  6399.000 
 -23.997  72.939  2.2010  2.5070  2.4660  68.491  8.8460  2.3350  0.3410 
  0.0300  2.2010  2.5070  2.4660 -6.0226  2.3294  0.0349  8.8578  67.008 
  0.3410  5.7763  6329.3  245.68  44.631  18.693  44.777  2.3703  2.5096 
  2.4645  2.3294  67.379  0.3161 
  6399.500 
 -23.951  72.115  2.1970  2.5170  2.4760  68.750  8.8630  2.3270  0.3410 
  0.0370  2.1970  2.5170  2.4760 -6.0023  2.3235  0.0405  8.8665  64.332 
  0.3400  5.7739  6329.8  245.65  44.610  18.647  44.730  2.3665  2.5196 
  2.4745  2.3235  64.708  0.3149 
  6400.000 
 -23.822  71.649  2.1820  2.5320  2.4810  67.874  8.8680  2.3220  0.3400 
  0.0420  2.1820  2.5320  2.4810 -5.8989  2.3192  0.0434  8.8611  61.933 
  0.3420  5.7715  6330.3  245.61  44.589  18.601  44.683  2.3506  2.5346 
  2.4795  2.3192  62.284  0.3172 
  6400.500 
 -23.693  71.600  2.1740  2.5610  2.5050  64.417  8.8580  2.3180  0.3420 
  0.0440  2.1740  2.5610  2.5050 -5.7956  2.3180  0.0447  8.8539  60.341 
  0.3430  5.7690  6330.8  245.58  44.569  18.556  44.636  2.3420  2.5636 
  2.5035  2.3180  60.666  0.3183 
  6401.000 
 -23.567  72.153  2.1830  2.5750  2.5330  62.154  8.8520  2.3180  0.3430 
  0.0450  2.1830  2.5750  2.5330 -5.6952  2.3207  0.0443  8.8472  59.817 
  0.3450  5.7666  6331.3  245.55  44.548  18.510  44.589  2.3512  2.5776 
  2.5314  2.3207  60.125  0.3237 
  6401.500 
 -23.398  72.882  2.2120  2.5900  2.5620  60.194  8.8450  2.3220  0.3450 
  0.0440  2.2120  2.5900  2.5620 -5.5518  2.3288  0.0467  8.8539  60.571 
  0.3450  5.7642  6331.8  245.52  44.527  18.464  44.542  2.3817  2.5927 
  2.5604  2.3288  60.897  0.3237 
  6402.000 
 -23.192  72.835  2.2700  2.6630  2.5960  59.616  8.8580  2.3320  0.3450 
  0.0480  2.2700  2.6630  2.5960 -5.3715  2.3415  0.0494  8.8729  62.430 
  0.3440  5.7618  6332.3  245.49  44.506  18.419  44.494  2.4431  2.6660 
  2.5944  2.3415  62.811  0.3226 
  6402.500 
 -22.743  69.913  2.3210  2.7180  2.6450  59.939  8.8800  2.3460  0.3440 
  0.0500  2.3210  2.7180  2.6450 -4.9481  2.3514  0.0514  8.8915  64.833 
  0.3430  5.7594  6332.8  245.45  44.485  18.373  44.447  2.4971  2.7212 
  2.6433  2.3514  65.273  0.3183 
  6403.000 
 -22.417  69.207  2.3870  2.7590  2.6800  62.000  8.8970  2.3540  0.3430 
  0.0520  2.3870  2.7590  2.6800 -4.6478  2.3560  0.0513  8.9091  67.274 
  0.3420  5.7569  6333.3  245.42  44.464  18.327  44.400  2.5669  2.7624 
  2.6783  2.3560  67.774  0.3172 
  6403.500 
 -21.929  72.033  2.4810  2.7860  2.7200  64.243  8.9150  2.3570  0.3420 
  0.0510  2.4810  2.7860  2.7200 -4.1854  2.3577  0.0503  8.9317  69.566 
  0.3420  5.7545  6333.8  245.39  44.444  18.282  44.353  2.6663  2.7897 
  2.7182  2.3577  70.141  0.3172 
  6404.000 
 -21.643  75.036  2.5230  2.8120  2.7560  66.968  8.9400  2.3580  0.3420 
  0.0500  2.5230  2.8120  2.7560 -3.9251  2.3600  0.0487  8.9593  71.617 
  0.3430  5.7521  6334.3  245.36  44.423  18.236  44.306  2.7115  2.8159 
  2.7542  2.3600  72.283  0.3184 
  6404.500 
 -21.554  77.982  2.5380  2.8340  2.8130  69.029  8.9690  2.3610  0.3430 
  0.0480  2.5380  2.8340  2.8130 -3.8617  2.3643  0.0473  8.9517  72.859 
  0.3450  5.7497  6334.8  245.32  44.402  18.191  44.260  2.7269  2.8379 
  2.8111  2.3643  73.515  0.3238 
  6405.000 
 -21.507  80.268  2.5480  2.8450  2.8390  71.388  8.9430  2.3660  0.3450 
  0.0470  2.5480  2.8450  2.8390 -3.8403  2.3693  0.0490  8.9146  73.140 
  0.3480  5.7473  6335.3  245.29  44.381  18.145  44.213  2.7357  2.8487 
  2.8371  2.3693  73.698  0.3272 
  6405.500 
 -21.580  82.256  2.5910  2.8500  2.8560  72.970  8.9000  2.3710  0.3480 
  0.0500  2.5910  2.8500  2.8560 -3.9390  2.3703  0.0572  8.8803  72.410 
  0.3500  5.7449  6335.8  245.26  44.360  18.100  44.166  2.7792  2.8535 
  2.8540  2.3703  72.872  0.3294 
  6406.000 
 -21.890  83.644  2.5870  2.8560  2.8590  73.291  8.8700  2.3700  0.3500 
  0.0610  2.5870  2.8560  2.8590 -4.2746  2.3648  0.0649  8.8602  71.331 
  0.3510  5.7424  6336.3  245.23  44.339  18.054  44.119  2.7741  2.8593 
  2.8570  2.3648  71.732  0.3306 
  6406.500 
 -22.082  84.015  2.5500  2.8600  2.8620  73.014  8.8550  2.3620  0.3510 
  0.0670  2.5500  2.8600  2.8620 -4.4923  2.3503  0.0703  8.8563  71.436 
  0.3500  5.7400  6336.8  245.19  44.318  18.009  44.072  2.7352  2.8633 
  2.8600  2.3503  71.828  0.3294 
