~Version Information
VERS.                     2.0: CWLS log ASCII Standard Version 2.00
WRAP.                     YES: Multiple lines per depth step
~Well Information Block
#MNEM.UNIT                               Data Type  Information
#---------                               ---------  -----------
STRT.FT                                   632.0000:
STOP.FT                                  6808.0000:
STEP.FT                                     0.5000:
NULL.                 -999.25                     :
COMP.                                             :COMPANY            
WELL.     SAN EMIDIO A 46X-19 REDRILL             :WELL               
FLD .                                             :FIELD              
CTRY.                                             :COUNTRY            
STAT.                                             :STATE              
LOC .                                             :LOCATION           
UWI .                                             :UNIQUE WELL ID     
SRVC.                                             :Service company    
DATE.                                             :LOG DATE           
~Curve Information
#MNEM.UNIT           API CODE  Curve Description
#---------           --------  -----------------
DEPT.FT                      :   1 DEPTH
SP  .MV                      :   2
GR  .GAPI                    :   3
SFLU.OHMM                    :   4
ILM .OHMM                    :   5
ILD .OHMM                    :   6
DGR .                        :   7
CALI.                        :   8
RHOB.                        :   9
NPOR.                        :  10
DRHO.                        :  11
RS  .OHMM                    :  12
RM  .OHMM                    :  13
RD  .OHMM                    :  14
SBL .MV                      :  15
ROBS.G/C3                    :  16
DROS.G/C3                    :  17
CALS.IN                      :  18
GRS .GAPI                    :  19
NPHS.PU-S                    :  20
DEVI.DEG                     :  21
TVD .FT                      :  22
AZIM.DEG                     :  23
NORT.FT                      :  24
EAST.FT                      :  25
OFFS.FT                      :  26
SFLU.OHMM                    :  27
ILMC.OHMM                    :  28
ILDC.OHMM                    :  29
ROBC.G/C3                    :  30
GRC .GAPI                    :  31
NPHC.PU-S                    :  32
~A
# ...
  2702.000 
 -105.73  82.776  4.0890  4.5070  6.2580 -999.25 -999.25 -999.25 -999.25 
 -999.25  4.0890  4.5070  6.2580 -8.2490 -999.25 -999.25 -999.25 -999.25 
 -999.25  8.9436  2686.1  38.708  196.84  120.21  224.19  4.0890  4.5070 
  6.2580 -999.25 -999.25 -999.25 
  2702.500 
 -105.21  84.039  4.0520  4.5070  6.2360 -999.25 -999.25 -999.25 -999.25 
 -999.25  4.0520  4.5070  6.2360 -7.7396 -999.25 -999.25 -999.25 -999.25 
 -999.25  8.9416  2686.5  38.705  196.90  120.26  224.26  4.0520  4.5070 
  6.2360 -999.25 -999.25 -999.25 
  2703.000 
 -104.93  85.002  4.0300  4.4580  6.2360 -999.25 -999.25 -999.25 -999.25 
 -999.25  4.0300  4.4580  6.2360 -7.4702 -999.25 -999.25 -999.25 -999.25 
 -999.25  8.9396  2687.0  38.702  196.96  120.30  224.34  4.0300  4.4580 
  6.2360 -999.25 -999.25 -999.25 
  2703.500 
 -104.88  83.211  4.0600  4.3930  6.2590 -999.25 -999.25 -999.25 -999.25 
 -999.25  4.0600  4.3930  6.2590 -7.4408 -999.25 -999.25 -999.25 -999.25 
 -999.25  8.9376  2687.5  38.699  197.02  120.35  224.42  4.0600  4.3930 
  6.2590 -999.25 -999.25 -999.25 
  2704.000 
 -104.84  82.678  4.1280  4.3370  6.2940 -999.25 -999.25 -999.25 -999.25 
 -999.25  4.1280  4.3370  6.2940 -7.4104 -999.25 -999.25 -999.25 -999.25 
 -999.25  8.9356  2688.0  38.695  197.08  120.40  224.50  4.1280  4.3370 
  6.2940 -999.25 -999.25 -999.25 
  2704.500 
 -104.72  82.983  4.0980  4.2350  6.3290 -999.25 -999.25 -999.25 -999.25 
 -999.25  4.0980  4.2350  6.3290 -7.3010 -999.25 -999.25 -999.25 -999.25 
 -999.25  8.9336  2688.5  38.692  197.14  120.45  224.57  4.0980  4.2350 
  6.3290 -999.25 -999.25 -999.25 
  2705.000 
 -104.51  84.725  4.0380  4.1890  6.4000 -999.25 -999.25 -999.25 -999.25 
 -999.25  4.0380  4.1890  6.4000 -7.1106 -999.25 -999.25 -999.25 -999.25 
 -999.25  8.9316  2689.0  38.689  197.20  120.50  224.65  4.0380  4.1890 
  6.4000 -999.25 -999.25 -999.25 
  2705.500 
 -104.23  88.981  3.9140  4.1590  6.4830 -999.25 -999.25 -999.25 -999.25 
 -999.25  3.9140  4.1590  6.4830 -6.8422 -999.25 -999.25 -999.25 -999.25 
 -999.25  8.9296  2689.5  38.686  197.27  120.55  224.73  3.9140  4.1590 
  6.4830 -999.25 -999.25 -999.25 
  2706.000 
 -103.63  93.299  3.8440  4.2280  6.5910 -999.25 -999.25 -999.25 -999.25 
 -999.25  3.8440  4.2280  6.5910 -6.2528 -999.25 -999.25 -999.25 -999.25 
 -999.25  8.9276  2690.0  38.683  197.33  120.60  224.80  3.8440  4.2280 
  6.5910 -999.25 -999.25 -999.25 
  2706.500 
 -103.26  95.640  3.8160  4.2950  6.6890 -999.25 -999.25 -999.25 -999.25 
 -999.25  3.8160  4.2950  6.6890 -5.9035 -999.25 -999.25 -999.25 -999.25 
 -999.25  8.9256  2690.5  38.680  197.39  120.64  224.88  3.8160  4.2950 
  6.6890 -999.25 -999.25 -999.25 
  2707.000 
 -103.14  97.620  3.8650  4.3620  6.8510 -999.25 -999.25 -999.25 -999.25 
 -999.25  3.8650  4.3620  6.8510 -5.7941 -999.25 -999.25 -999.25 -999.25 
 -999.25  8.9236  2691.0  38.676  197.45  120.69  224.96  3.8650  4.3620 
  6.8510 -999.25 -999.25 -999.25 
  2707.500 
 -102.98  95.051  3.9590  4.5090  6.9400 -999.25 -999.25 -999.25 -999.25 
 -999.25  3.9590  4.5090  6.9400 -5.6447 -999.25 -999.25 -999.25 -999.25 
 -999.25  8.9216  2691.5  38.673  197.51  120.74  225.04  3.9590  4.5090 
  6.9400 -999.25 -999.25 -999.25 
  2708.000 
 -102.82  91.284  4.0920  4.5600  7.0290 -999.25 -999.25 -999.25 -999.25 
 -999.25  4.0920  4.5600  7.0290 -5.4953 -999.25 -999.25 -999.25 -999.25 
 -999.25  8.9196  2692.0  38.670  197.57  120.79  225.11  4.0920  4.5600 
  7.0290 -999.25 -999.25 -999.25 
  2708.500 
 -102.65  89.792  4.2370  4.6100  7.0820 -999.25 -999.25 -999.25 -999.25 
 -999.25  4.2370  4.6100  7.0820 -5.3449 -999.25 -999.25 -999.25 -999.25 
 -999.25  8.9177  2692.5  38.667  197.63  120.84  225.19  4.2370  4.6100 
  7.0820 -999.25 -999.25 -999.25 
  2709.000 
 -102.57  89.020  4.3080  4.6530  7.0950 -999.25 -999.25 -999.25 -999.25 
 -999.25  4.3080  4.6530  7.0950 -5.2755 -999.25 -999.25 -999.25 -999.25 
 -999.25  8.9157  2693.0  38.664  197.69  120.89  225.27  4.3080  4.6530 
  7.0950 -999.25 -999.25 -999.25 
  2709.500 
 -102.48  88.486  4.3320  4.6700  7.1080 -999.25 -999.25 -999.25 -999.25 
 -999.25  4.3320  4.6700  7.1080 -5.2051 -999.25 -999.25 -999.25 -999.25 
 -999.25  8.9137  2693.5  38.660  197.75  120.93  225.34  4.3320  4.6700 
  7.1080 -999.25 -999.25 -999.25 
  2710.000 
 -102.44  87.593  4.3010  4.6880  7.1610 -999.25 -999.25 -999.25 -999.25 
 -999.25  4.3010  4.6880  7.1610 -5.1757 -999.25 -999.25 -999.25 -999.25 
 -999.25  8.9117  2694.0  38.657  197.81  120.98  225.42  4.3010  4.6880 
  7.1610 -999.25 -999.25 -999.25 
  2710.500 
 -102.44  86.521  4.2690  4.6880  7.1880 -999.25 -999.25 -999.25 -999.25 
 -999.25  4.2690  4.6880  7.1880 -5.1853 -999.25 -999.25 -999.25 -999.25 
 -999.25  8.9097  2694.5  38.654  197.87  121.03  225.50  4.2690  4.6880 
  7.1880 -999.25 -999.25 -999.25 
  2711.000 
 -102.55  85.568  4.2070  4.6800  7.1880 -999.25 -999.25 -999.25 -999.25 
 -999.25  4.2070  4.6800  7.1880 -5.3149 -999.25 -999.25 -999.25 -999.25 
 -999.25  8.9077  2694.9  38.651  197.93  121.08  225.57  4.2070  4.6800 
  7.1880 -999.25 -999.25 -999.25 
  2711.500 
 -102.59  86.112  4.1540  4.6540  7.0840 -999.25 -999.25 -999.25 -999.25 
 -999.25  4.1540  4.6540  7.0840 -5.3655 -999.25 -999.25 -999.25 -999.25 
 -999.25  8.9057  2695.4  38.648  197.99  121.13  225.65  4.1540  4.6540 
  7.0840 -999.25 -999.25 -999.25 
  2712.000 
 -102.67  86.776  4.1470  4.6290  7.0330 -999.25 -999.25 -999.25 -999.25 
 -999.25  4.1470  4.6290  7.0330 -5.4551 -999.25 -999.25 -999.25 -999.25 
 -999.25  8.9037  2695.9  38.644  198.05  121.18  225.73  4.1470  4.6290 
  7.0330 -999.25 -999.25 -999.25 
  2712.500 
 -102.66  89.776  4.1700  4.6210  6.9560 -999.25 -999.25 -999.25 -999.25 
 -999.25  4.1700  4.6210  6.9560 -5.4657 -999.25 -999.25 -999.25 -999.25 
 -999.25  8.9017  2696.4  38.641  198.11  121.22  225.81  4.1700  4.6210 
  6.9560 -999.25 -999.25 -999.25 
  2713.000 
 -102.70  93.134  4.2310  4.6130  6.9180 -999.25 -999.25 -999.25 -999.25 
 -999.25  4.2310  4.6130  6.9180 -5.5153 -999.25 -999.25 -999.25 -999.25 
 -999.25  8.8997  2696.9  38.638  198.17  121.27  225.88  4.2310  4.6130 
  6.9180 -999.25 -999.25 -999.25 
  2713.500 
 -102.74  92.241  4.2710  4.6130  6.8680 -999.25 -999.25 -999.25 -999.25 
 -999.25  4.2710  4.6130  6.8680 -5.5649 -999.25 -999.25 -999.25 -999.25 
 -999.25  8.8977  2697.4  38.635  198.23  121.32  225.96  4.2710  4.6130 
  6.8680 -999.25 -999.25 -999.25 
  2714.000 
 -102.77  90.630  4.2950  4.6220  6.8310 -999.25 -999.25 -999.25 -999.25 
 -999.25  4.2950  4.6220  6.8310 -5.6145 -999.25 -999.25 -999.25 -999.25 
 -999.25  8.8957  2697.9  38.632  198.29  121.37  226.04  4.2950  4.6220 
  6.8310 -999.25 -999.25 -999.25 
  2714.500 
 -102.85  86.204  4.3030  4.5880  6.7560 -999.25 -999.25 -999.25 -999.25 
 -999.25  4.3030  4.5880  6.7560 -5.7051 -999.25 -999.25 -999.25 -999.25 
 -999.25  8.8937  2698.4  38.628  198.35  121.42  226.11  4.3030  4.5880 
  6.7560 -999.25 -999.25 -999.25 
  2715.000 
 -102.84  79.623  4.3190  4.5710  6.6580 -999.25 -999.25 -999.25 -999.25 
 -999.25  4.3190  4.5710  6.6580 -5.7148 -999.25 -999.25 -999.25 -999.25 
 -999.25  8.8917  2698.9  38.625  198.41  121.47  226.19  4.3190  4.5710 
  6.6580 -999.25 -999.25 -999.25 
  2715.500 
 -102.76  79.509  4.3310  4.5470  6.5980 -999.25 -999.25 -999.25 -999.25 
 -999.25  4.3310  4.5470  6.5980 -5.6444 -999.25 -999.25 -999.25 -999.25 
 -999.25  8.8897  2699.4  38.622  198.47  121.51  226.27  4.3310  4.5470 
  6.5980 -999.25 -999.25 -999.25 
  2716.000 
 -102.72  80.412  4.3430  4.5390  6.5500 -999.25 -999.25 -999.25 -999.25 
 -999.25  4.3430  4.5390  6.5500 -5.6150 -999.25 -999.25 -999.25 -999.25 
 -999.25  8.8877  2699.9  38.619  198.53  121.56  226.34  4.3430  4.5390 
  6.5500 -999.25 -999.25 -999.25 
  2716.500 
 -102.59  80.238  4.4160  4.5390  6.4910 -999.25 -999.25 -999.25 -999.25 
 -999.25  4.4160  4.5390  6.4910 -5.5056 -999.25 -999.25 -999.25 -999.25 
 -999.25  8.8857  2700.4  38.616  198.60  121.61  226.42  4.4160  4.5390 
  6.4910 -999.25 -999.25 -999.25 
