~Version Information
VERS.                     2.0: CWLS log ASCII Standard Version 2.00
WRAP.                     YES: Multiple lines per depth step
~Well Information Block
#MNEM.UNIT                               Data Type  Information
#---------                               ---------  -----------
STRT.FT                                   632.0000:
STOP.FT                                  6808.0000:
STEP.FT                                     0.5000:
NULL.                 -999.25                     :
COMP.                                             :COMPANY            
WELL.     SAN EMIDIO A 46X-19 REDRILL             :WELL               
FLD .                                             :FIELD              
CTRY.                                             :COUNTRY            
STAT.                                             :STATE              
LOC .                                             :LOCATION           
UWI .                                             :UNIQUE WELL ID     
SRVC.                                             :Service company    
DATE.                                             :LOG DATE           
~Curve Information
#MNEM.UNIT           API CODE  Curve Description
#---------           --------  -----------------
DEPT.FT                      :   1 DEPTH
SP  .MV                      :   2
GR  .GAPI                    :   3
SFLU.OHMM                    :   4
ILM .OHMM                    :   5
ILD .OHMM                    :   6
DGR .                        :   7
CALI.                        :   8
RHOB.                        :   9
NPOR.                        :  10
DRHO.                        :  11
RS  .OHMM                    :  12
RM  .OHMM                    :  13
RD  .OHMM                    :  14
SBL .MV                      :  15
ROBS.G/C3                    :  16
DROS.G/C3                    :  17
CALS.IN                      :  18
GRS .GAPI                    :  19
NPHS.PU-S                    :  20
DEVI.DEG                     :  21
TVD .FT                      :  22
AZIM.DEG                     :  23
NORT.FT                      :  24
EAST.FT                      :  25
OFFS.FT                      :  26
SFLU.OHMM                    :  27
ILMC.OHMM                    :  28
ILDC.OHMM                    :  29
ROBC.G/C3                    :  30
GRC .GAPI                    :  31
NPHC.PU-S                    :  32
~A
# ...
  2297.000 
 -121.43  83.833  8.7940  8.4410  12.727 -999.25 -999.25 -999.25 -999.25 
 -999.25  8.7940  8.4410  12.727 -12.932 -999.25 -999.25 -999.25 -999.25 
 -999.25  9.3617  2286.6  36.580  145.04  78.516  158.08  8.7940  8.4410 
  12.727 -999.25 -999.25 -999.25 
  2297.500 
 -121.60  84.788  8.9600  8.3310  12.493 -999.25 -999.25 -999.25 -999.25 
 -999.25  8.9600  8.3310  12.493 -13.106 -999.25 -999.25 -999.25 -999.25 
 -999.25  9.3626  2287.0  36.588  145.10  78.564  158.16  8.9600  8.3310 
  12.493 -999.25 -999.25 -999.25 
  2298.000 
 -121.76  87.659  9.1300  8.1930  12.377 -999.25 -999.25 -999.25 -999.25 
 -999.25  9.1300  8.1930  12.377 -13.282 -999.25 -999.25 -999.25 -999.25 
 -999.25  9.3636  2287.5  36.597  145.17  78.613  158.24  9.1300  8.1930 
  12.377 -999.25 -999.25 -999.25 
  2298.500 
 -121.88  90.410  9.5560  8.1020  12.239 -999.25 -999.25 -999.25 -999.25 
 -999.25  9.5560  8.1020  12.239 -13.417 -999.25 -999.25 -999.25 -999.25 
 -999.25  9.3645  2288.0  36.605  145.23  78.661  158.32  9.5560  8.1020 
  12.239 -999.25 -999.25 -999.25 
  2299.000 
 -122.16  89.089  9.5710  7.9540  12.103 -999.25 -999.25 -999.25 -999.25 
 -999.25  9.5710  7.9540  12.103 -13.712 -999.25 -999.25 -999.25 -999.25 
 -999.25  9.3655  2288.5  36.614  145.30  78.710  158.40  9.5710  7.9540 
  12.103 -999.25 -999.25 -999.25 
  2299.500 
 -122.40  87.051  9.3780  7.9230  11.946 -999.25 -999.25 -999.25 -999.25 
 -999.25  9.3780  7.9230  11.946 -13.968 -999.25 -999.25 -999.25 -999.25 
 -999.25  9.3664  2289.0  36.622  145.36  78.758  158.48  9.3780  7.9230 
  11.946 -999.25 -999.25 -999.25 
  2300.000 
 -122.64  85.671  9.2060  7.9360  11.856 -999.25 -999.25 -999.25 -999.25 
 -999.25  9.2060  7.9360  11.856 -14.222 -999.25 -999.25 -999.25 -999.25 
 -999.25  9.3674  2289.5  36.631  145.43  78.807  158.56  9.2060  7.9360 
  11.856 -999.25 -999.25 -999.25 
  2300.500 
 -122.85  85.427  9.0550  7.9640  11.855 -999.25 -999.25 -999.25 -999.25 
 -999.25  9.0550  7.9640  11.855 -14.438 -999.25 -999.25 -999.25 -999.25 
 -999.25  9.3684  2290.0  36.639  145.49  78.855  158.64  9.0550  7.9640 
  11.855 -999.25 -999.25 -999.25 
  2301.000 
 -123.17  85.363  9.0050  8.0080  11.854 -999.25 -999.25 -999.25 -999.25 
 -999.25  9.0050  8.0080  11.854 -14.774 -999.25 -999.25 -999.25 -999.25 
 -999.25  9.3693  2290.5  36.647  145.56  78.904  158.72  9.0050  8.0080 
  11.854 -999.25 -999.25 -999.25 
  2301.500 
 -123.45  84.640  9.0040  8.0220  11.875 -999.25 -999.25 -999.25 -999.25 
 -999.25  9.0040  8.0220  11.875 -15.070 -999.25 -999.25 -999.25 -999.25 
 -999.25  9.3703  2291.0  36.656  145.62  78.952  158.80  9.0040  8.0220 
  11.875 -999.25 -999.25 -999.25 
  2302.000 
 -123.53  84.098  9.0200  8.0210  11.918 -999.25 -999.25 -999.25 -999.25 
 -999.25  9.0200  8.0210  11.918 -15.167 -999.25 -999.25 -999.25 -999.25 
 -999.25  9.3712  2291.5  36.664  145.69  79.001  158.88  9.0200  8.0210 
  11.918 -999.25 -999.25 -999.25 
  2302.500 
 -123.42  83.495  9.0190  8.0500  12.005 -999.25 -999.25 -999.25 -999.25 
 -999.25  9.0190  8.0500  12.005 -15.063 -999.25 -999.25 -999.25 -999.25 
 -999.25  9.3722  2292.0  36.673  145.75  79.050  158.96  9.0190  8.0500 
  12.005 -999.25 -999.25 -999.25 
  2303.000 
 -123.18  83.371  9.0020  8.0200  12.248 -999.25 -999.25 -999.25 -999.25 
 -999.25  9.0020  8.0200  12.248 -14.840 -999.25 -999.25 -999.25 -999.25 
 -999.25  9.3731  2292.5  36.681  145.82  79.098  159.04  9.0020  8.0200 
  12.248 -999.25 -999.25 -999.25 
  2303.500 
 -122.70  83.786  9.0010  8.0200  12.406 -999.25 -999.25 -999.25 -999.25 
 -999.25  9.0010  8.0200  12.406 -14.377 -999.25 -999.25 -999.25 -999.25 
 -999.25  9.3741  2293.0  36.690  145.89  79.147  159.12  9.0010  8.0200 
  12.406 -999.25 -999.25 -999.25 
  2304.000 
 -122.15  83.542  9.0670  8.0040  12.634 -999.25 -999.25 -999.25 -999.25 
 -999.25  9.0670  8.0040  12.634 -13.835 -999.25 -999.25 -999.25 -999.25 
 -999.25  9.3751  2293.5  36.698  145.95  79.196  159.20  9.0670  8.0040 
  12.634 -999.25 -999.25 -999.25 
  2304.500 
 -121.55  79.467  9.2000  7.9450  12.657 -999.25 -999.25 -999.25 -999.25 
 -999.25  9.2000  7.9450  12.657 -13.253 -999.25 -999.25 -999.25 -999.25 
 -999.25  9.3760  2294.0  36.706  146.02  79.244  159.28  9.2000  7.9450 
  12.657 -999.25 -999.25 -999.25 
  2305.000 
 -121.15  75.571  9.4210  7.8140  12.586 -999.25 -999.25 -999.25 -999.25 
 -999.25  9.4210  7.8140  12.586 -12.869 -999.25 -999.25 -999.25 -999.25 
 -999.25  9.3770  2294.4  36.715  146.08  79.293  159.36  9.4210  7.8140 
  12.586 -999.25 -999.25 -999.25 
  2305.500 
 -121.16  71.017  9.5250  7.7000  12.517 -999.25 -999.25 -999.25 -999.25 
 -999.25  9.5250  7.7000  12.517 -12.887 -999.25 -999.25 -999.25 -999.25 
 -999.25  9.3779  2294.9  36.723  146.15  79.342  159.44  9.5250  7.7000 
  12.517 -999.25 -999.25 -999.25 
  2306.000 
 -121.08  66.702  8.9160  7.5460  12.087 -999.25 -999.25 -999.25 -999.25 
 -999.25  8.9160  7.5460  12.087 -12.822 -999.25 -999.25 -999.25 -999.25 
 -999.25  9.3789  2295.4  36.732  146.21  79.390  159.52  8.9160  7.5460 
  12.087 -999.25 -999.25 -999.25 
  2306.500 
 -120.76  64.663  8.2850  7.2340  11.758 -999.25 -999.25 -999.25 -999.25 
 -999.25  8.2850  7.2340  11.758 -12.520 -999.25 -999.25 -999.25 -999.25 
 -999.25  9.3798  2295.9  36.740  146.28  79.439  159.61  8.2850  7.2340 
  11.758 -999.25 -999.25 -999.25 
  2307.000 
 -120.17  62.444  7.6840  6.9470  11.418 -999.25 -999.25 -999.25 -999.25 
 -999.25  7.6840  6.9470  11.418 -11.938 -999.25 -999.25 -999.25 -999.25 
 -999.25  9.3808  2296.4  36.749  146.34  79.488  159.69  7.6840  6.9470 
  11.418 -999.25 -999.25 -999.25 
  2307.500 
 -119.61  67.169  6.9850  6.7590  11.127 -999.25 -999.25 -999.25 -999.25 
 -999.25  6.9850  6.7590  11.127 -11.395 -999.25 -999.25 -999.25 -999.25 
 -999.25  9.3818  2296.9  36.757  146.41  79.537  159.77  6.9850  6.7590 
  11.127 -999.25 -999.25 -999.25 
  2308.000 
 -118.50  73.750  6.3730  6.6350  11.005 -999.25 -999.25 -999.25 -999.25 
 -999.25  6.3730  6.6350  11.005 -10.294 -999.25 -999.25 -999.25 -999.25 
 -999.25  9.3827  2297.4  36.765  146.47  79.586  159.85  6.3730  6.6350 
  11.005 -999.25 -999.25 -999.25 
  2308.500 
 -117.30  79.254  6.0980  6.6590  10.765 -999.25 -999.25 -999.25 -999.25 
 -999.25  6.0980  6.6590  10.765 -9.1125 -999.25 -999.25 -999.25 -999.25 
 -999.25  9.3837  2297.9  36.774  146.54  79.634  159.93  6.0980  6.6590 
  10.765 -999.25 -999.25 -999.25 
  2309.000 
 -115.51  83.920  5.9650  6.7200  10.627 -999.25 -999.25 -999.25 -999.25 
 -999.25  5.9650  6.7200  10.627 -7.3331 -999.25 -999.25 -999.25 -999.25 
 -999.25  9.3846  2298.4  36.782  146.60  79.683  160.01  5.9650  6.7200 
  10.627 -999.25 -999.25 -999.25 
  2309.500 
 -114.99  85.412  6.0970  6.5010  10.452 -999.25 -999.25 -999.25 -999.25 
 -999.25  6.0970  6.5010  10.452 -6.8307 -999.25 -999.25 -999.25 -999.25 
 -999.25  9.3856  2298.9  36.791  146.67  79.732  160.09  6.0970  6.5010 
  10.452 -999.25 -999.25 -999.25 
  2310.000 
 -114.92  85.827  6.2670  6.3830  10.356 -999.25 -999.25 -999.25 -999.25 
 -999.25  6.2670  6.3830  10.356 -6.7673 -999.25 -999.25 -999.25 -999.25 
 -999.25  9.3866  2299.4  36.799  146.73  79.781  160.17  6.2670  6.3830 
  10.356 -999.25 -999.25 -999.25 
  2310.500 
 -116.48  86.421  6.0410  6.2090  10.223 -999.25 -999.25 -999.25 -999.25 
 -999.25  6.0410  6.2090  10.223 -8.3399 -999.25 -999.25 -999.25 -999.25 
 -999.25  9.3875  2299.9  36.807  146.80  79.830  160.25  6.0410  6.2090 
  10.223 -999.25 -999.25 -999.25 
  2311.000 
 -117.92  87.734  5.8340  6.0960  10.166 -999.25 -999.25 -999.25 -999.25 
 -999.25  5.8340  6.0960  10.166 -9.7936 -999.25 -999.25 -999.25 -999.25 
 -999.25  9.3885  2300.4  36.816  146.86  79.879  160.33  5.8340  6.0960 
  10.166 -999.25 -999.25 -999.25 
  2311.500 
 -118.40  88.208  5.8760  6.0070  10.128 -999.25 -999.25 -999.25 -999.25 
 -999.25  5.8760  6.0070  10.128 -10.289 -999.25 -999.25 -999.25 -999.25 
 -999.25  9.3894  2300.9  36.824  146.93  79.927  160.41  5.8760  6.0070 
  10.128 -999.25 -999.25 -999.25 
