~Version Information
VERS.                     2.0: CWLS log ASCII Standard Version 2.00
WRAP.                     YES: Multiple lines per depth step
~Well Information Block
#MNEM.UNIT                               Data Type  Information
#---------                               ---------  -----------
STRT.FT                                   632.0000:
STOP.FT                                  6808.0000:
STEP.FT                                     0.5000:
NULL.                 -999.25                     :
COMP.                                             :COMPANY            
WELL.     SAN EMIDIO A 46X-19 REDRILL             :WELL               
FLD .                                             :FIELD              
CTRY.                                             :COUNTRY            
STAT.                                             :STATE              
LOC .                                             :LOCATION           
UWI .                                             :UNIQUE WELL ID     
SRVC.                                             :Service company    
DATE.                                             :LOG DATE           
~Curve Information
#MNEM.UNIT           API CODE  Curve Description
#---------           --------  -----------------
DEPT.FT                      :   1 DEPTH
SP  .MV                      :   2
GR  .GAPI                    :   3
SFLU.OHMM                    :   4
ILM .OHMM                    :   5
ILD .OHMM                    :   6
DGR .                        :   7
CALI.                        :   8
RHOB.                        :   9
NPOR.                        :  10
DRHO.                        :  11
RS  .OHMM                    :  12
RM  .OHMM                    :  13
RD  .OHMM                    :  14
SBL .MV                      :  15
ROBS.G/C3                    :  16
DROS.G/C3                    :  17
CALS.IN                      :  18
GRS .GAPI                    :  19
NPHS.PU-S                    :  20
DEVI.DEG                     :  21
TVD .FT                      :  22
AZIM.DEG                     :  23
NORT.FT                      :  24
EAST.FT                      :  25
OFFS.FT                      :  26
SFLU.OHMM                    :  27
ILMC.OHMM                    :  28
ILDC.OHMM                    :  29
ROBC.G/C3                    :  30
GRC .GAPI                    :  31
NPHC.PU-S                    :  32
~A
# ...
  5972.000 
 -36.684  79.231  1.6470  1.8770  1.9050 -999.25 -999.25 -999.25 -999.25 
 -999.25  1.6470  1.8770  1.9050 -9.7257 -999.25 -999.25 -999.25 -999.25 
 -999.25  8.9920  5905.7  238.82  66.329  67.029  94.299  1.6470  1.8770 
  1.9050 -999.25 -999.25 -999.25 
  5972.500 
 -36.794  80.381  1.6510  1.8780  1.9050 -999.25 -999.25 -999.25 -999.25 
 -999.25  1.6510  1.8780  1.9050 -9.8395 -999.25 -999.25 -999.25 -999.25 
 -999.25  8.9888  5906.2  238.82  66.288  66.963  94.223  1.6510  1.8780 
  1.9050 -999.25 -999.25 -999.25 
  5973.000 
 -37.025  82.611  1.6450  1.8780  1.9090 -999.25 -999.25 -999.25 -999.25 
 -999.25  1.6450  1.8780  1.9090 -10.074 -999.25 -999.25 -999.25 -999.25 
 -999.25  8.9856  5906.7  238.81  66.248  66.896  94.147  1.6450  1.8780 
  1.9090 -999.25 -999.25 -999.25 
  5973.500 
 -37.336  83.581  1.6310  1.8750  1.9130 -999.25 -999.25 -999.25 -999.25 
 -999.25  1.6310  1.8750  1.9130 -10.389 -999.25 -999.25 -999.25 -999.25 
 -999.25  8.9825  5907.2  238.81  66.208  66.829  94.071  1.6310  1.8750 
  1.9130 -999.25 -999.25 -999.25 
  5974.000 
 -37.647  82.995  1.6190  1.8740  1.9150 -999.25 -999.25 -999.25 -999.25 
 -999.25  1.6190  1.8740  1.9150 -10.704 -999.25 -999.25 -999.25 -999.25 
 -999.25  8.9793  5907.7  238.80  66.167  66.762  93.995  1.6190  1.8740 
  1.9150 -999.25 -999.25 -999.25 
  5974.500 
 -38.036  82.768  1.6170  1.8720  1.9170 -999.25 -999.25 -999.25 -999.25 
 -999.25  1.6170  1.8720  1.9170 -11.097 -999.25 -999.25 -999.25 -999.25 
 -999.25  8.9761  5908.2  238.79  66.127  66.696  93.920  1.6170  1.8720 
  1.9170 -999.25 -999.25 -999.25 
  5975.000 
 -38.308  82.542  1.6110  1.8630  1.9180 -999.25 -999.25 -999.25 -999.25 
 -999.25  1.6110  1.8630  1.9180 -11.372 -999.25 -999.25 -999.25 -999.25 
 -999.25  8.9729  5908.7  238.79  66.086  66.629  93.844  1.6110  1.8630 
  1.9180 -999.25 -999.25 -999.25 
  5975.500 
 -38.538  82.555  1.6060  1.8560  1.9120 -999.25 -999.25 -999.25 -999.25 
 -999.25  1.6060  1.8560  1.9120 -11.606 -999.25 -999.25 -999.25 -999.25 
 -999.25  8.9697  5909.2  238.78  66.046  66.562  93.768  1.6060  1.8560 
  1.9120 -999.25 -999.25 -999.25 
  5976.000 
 -38.530  84.125  1.6030  1.8470  1.9120 -999.25 -999.25 -999.25 -999.25 
 -999.25  1.6030  1.8470  1.9120 -11.602 -999.25 -999.25 -999.25 -999.25 
 -999.25  8.9665  5909.7  238.78  66.006  66.496  93.692  1.6030  1.8470 
  1.9120 -999.25 -999.25 -999.25 
  5976.500 
 -38.321  85.335  1.6010  1.8440  1.9060 -999.25 -999.25 -999.25 -999.25 
 -999.25  1.6010  1.8440  1.9060 -11.397 -999.25 -999.25 -999.25 -999.25 
 -999.25  8.9633  5910.2  238.77  65.965  66.429  93.617  1.6010  1.8440 
  1.9060 -999.25 -999.25 -999.25 
  5977.000 
 -38.313  82.655  1.6010  1.8410  1.9030 -999.25 -999.25 -999.25 -999.25 
 -999.25  1.6010  1.8410  1.9030 -11.393 -999.25 -999.25 -999.25 -999.25 
 -999.25  8.9601  5910.6  238.77  65.925  66.362  93.541  1.6010  1.8410 
  1.9030 -999.25 -999.25 -999.25 
  5977.500 
 -38.384  78.238  1.6020  1.8380  1.9030 -999.25 -999.25 -999.25 -999.25 
 -999.25  1.6020  1.8380  1.9030 -11.467 -999.25 -999.25 -999.25 -999.25 
 -999.25  8.9569  5911.1  238.76  65.884  66.296  93.465  1.6020  1.8380 
  1.9030 -999.25 -999.25 -999.25 
  5978.000 
 -38.534  78.373  1.5990  1.8390  1.9040 -999.25 -999.25 -999.25 -999.25 
 -999.25  1.5990  1.8390  1.9040 -11.621 -999.25 -999.25 -999.25 -999.25 
 -999.25  8.9537  5911.6  238.76  65.844  66.229  93.390  1.5990  1.8390 
  1.9040 -999.25 -999.25 -999.25 
  5978.500 
 -38.525  80.780  1.6000  1.8430  1.9040 -999.25 -999.25 -999.25 -999.25 
 -999.25  1.6000  1.8430  1.9040 -11.616 -999.25 -999.25 -999.25 -999.25 
 -999.25  8.9505  5912.1  238.75  65.804  66.163  93.314  1.6000  1.8430 
  1.9040 -999.25 -999.25 -999.25 
  5979.000 
 -38.517  83.904  1.6120  1.8500  1.9050 -999.25 -999.25 -999.25 -999.25 
 -999.25  1.6120  1.8500  1.9050 -11.612 -999.25 -999.25 -999.25 -999.25 
 -999.25  8.9473  5912.6  238.75  65.763  66.096  93.239  1.6120  1.8500 
  1.9050 -999.25 -999.25 -999.25 
  5979.500 
 -38.429  87.452  1.6120  1.8570  1.9050 -999.25 -999.25 -999.25 -999.25 
 -999.25  1.6120  1.8570  1.9050 -11.527 -999.25 -999.25 -999.25 -999.25 
 -999.25  8.9441  5913.1  238.74  65.723  66.030  93.163  1.6120  1.8570 
  1.9050 -999.25 -999.25 -999.25 
  5980.000 
 -38.140  87.881  1.6160  1.8610  1.9060 -999.25 -999.25 -999.25 -999.25 
 -999.25  1.6160  1.8610  1.9060 -11.242 -999.25 -999.25 -999.25 -999.25 
 -999.25  8.9410  5913.6  238.74  65.683  65.963  93.088  1.6160  1.8610 
  1.9060 -999.25 -999.25 -999.25 
  5980.500 
 -37.772  85.500  1.6160  1.8650  1.9060 -999.25 -999.25 -999.25 -999.25 
 -999.25  1.6160  1.8650  1.9060 -10.878 -999.25 -999.25 -999.25 -999.25 
 -999.25  8.9378  5914.1  238.73  65.642  65.897  93.012  1.6160  1.8650 
  1.9060 -999.25 -999.25 -999.25 
  5981.000 
 -37.364  81.204  1.6170  1.8650  1.9070 -999.25 -999.25 -999.25 -999.25 
 -999.25  1.6170  1.8650  1.9070 -10.474 -999.25 -999.25 -999.25 -999.25 
 -999.25  8.9346  5914.6  238.73  65.602  65.831  92.937  1.6170  1.8650 
  1.9070 -999.25 -999.25 -999.25 
  5981.500 
 -37.116  78.285  1.6140  1.8660  1.9070 -999.25 -999.25 -999.25 -999.25 
 -999.25  1.6140  1.8660  1.9070 -10.230 -999.25 -999.25 -999.25 -999.25 
 -999.25  8.9314  5915.1  238.72  65.562  65.764  92.862  1.6140  1.8660 
  1.9070 -999.25 -999.25 -999.25 
  5982.000 
 -36.948  76.262  1.6110  1.8600  1.9080 -999.25 -999.25 -999.25 -999.25 
 -999.25  1.6110  1.8600  1.9080 -10.065 -999.25 -999.25 -999.25 -999.25 
 -999.25  8.9282  5915.6  238.72  65.521  65.698  92.786  1.6110  1.8600 
  1.9080 -999.25 -999.25 -999.25 
  5982.500 
 -36.938  75.199  1.6090  1.8530  1.9090 -999.25 -999.25 -999.25 -999.25 
 -999.25  1.6090  1.8530  1.9090 -10.059 -999.25 -999.25 -999.25 -999.25 
 -999.25  8.9250  5916.1  238.71  65.481  65.632  92.711  1.6090  1.8530 
  1.9090 -999.25 -999.25 -999.25 
  5983.000 
 -37.248  76.888  1.6040  1.8540  1.9090 -999.25 -999.25 -999.25 -999.25 
 -999.25  1.6040  1.8540  1.9090 -10.373 -999.25 -999.25 -999.25 -999.25 
 -999.25  8.9218  5916.6  238.70  65.441  65.565  92.635  1.6040  1.8540 
  1.9090 -999.25 -999.25 -999.25 
  5983.500 
 -37.560  77.798  1.6010  1.8510  1.9100 -999.25 -999.25 -999.25 -999.25 
 -999.25  1.6010  1.8510  1.9100 -10.689 -999.25 -999.25 -999.25 -999.25 
 -999.25  8.9186  5917.1  238.70  65.401  65.499  92.560  1.6010  1.8510 
  1.9100 -999.25 -999.25 -999.25 
  5984.000 
 -37.947  76.734  1.5930  1.8510  1.9140 -999.25 -999.25 -999.25 -999.25 
 -999.25  1.5930  1.8510  1.9140 -11.080 -999.25 -999.25 -999.25 -999.25 
 -999.25  8.9154  5917.6  238.69  65.360  65.433  92.485  1.5930  1.8510 
  1.9140 -999.25 -999.25 -999.25 
  5984.500 
 -38.022  75.131  1.5870  1.8520  1.9140 -999.25 -999.25 -999.25 -999.25 
 -999.25  1.5870  1.8520  1.9140 -11.158 -999.25 -999.25 -999.25 -999.25 
 -999.25  8.9122  5918.1  238.69  65.320  65.367  92.410  1.5870  1.8520 
  1.9140 -999.25 -999.25 -999.25 
  5985.000 
 -38.250  73.050  1.5850  1.8590  1.9220 -999.25 -999.25 -999.25 -999.25 
 -999.25  1.5850  1.8590  1.9220 -11.390 -999.25 -999.25 -999.25 -999.25 
 -999.25  8.9090  5918.5  238.68  65.280  65.301  92.334  1.5850  1.8590 
  1.9220 -999.25 -999.25 -999.25 
  5985.500 
 -38.322  72.226  1.5820  1.8700  1.9260 -999.25 -999.25 -999.25 -999.25 
 -999.25  1.5820  1.8700  1.9260 -11.466 -999.25 -999.25 -999.25 -999.25 
 -999.25  8.9058  5919.0  238.68  65.240  65.234  92.259  1.5820  1.8700 
  1.9260 -999.25 -999.25 -999.25 
  5986.000 
 -38.354  72.417  1.6150  1.8770  1.9260 -999.25 -999.25 -999.25 -999.25 
 -999.25  1.6150  1.8770  1.9260 -11.502 -999.25 -999.25 -999.25 -999.25 
 -999.25  8.9027  5919.5  238.67  65.199  65.168  92.184  1.6150  1.8770 
  1.9260 -999.25 -999.25 -999.25 
  5986.500 
 -38.306  73.208  1.6460  1.8810  1.9340 -999.25 -999.25 -999.25 -999.25 
 -999.25  1.6460  1.8810  1.9340 -11.458 -999.25 -999.25 -999.25 -999.25 
 -999.25  8.8995  5920.0  238.67  65.159  65.102  92.109  1.6460  1.8810 
  1.9340 -999.25 -999.25 -999.25 
