~V
VERS. 2.00: Ver 2.00
WRAP.   NO:        
~W
 STRT.FT 100:
 STOP.FT 3000:
 STEP.FT 0.5:
 NULL. -999.250000:
 COMP. TENNECO OIL COMPANY:Company
 WELL. 51X-30:Well
 FLD. LOS LOBOS:Field
 LOC. SEC. 30 TWP 11N RGE 22W:Location
 STAT. CA:State
 SRVC. :Service Company
 SON. :Service Order #
 DATE. :Log Date
 UWI. :Unique Well ID
~C
 DEPT.FT :
 CALS.IN :
 GRC.GAPI :
 NPHC.PU-S :
 PHES. :
 PHIE. :
 PHIT. :
 PHTS. :
 PHZC. :
 RD.OHMM :
 ROBC.G/C3 :
 RS.OHMM :
 SBL.MV :
 VCLW. :
 VCWS. :
 VSHL. :
 VSHS. :
~P
~A
# ...
   1460.0000   -999.2500   -999.2500   -999.2500      0.0000   -999.2500   -999.2500      0.2285      0.2815      2.3280   -999.2500      2.1480     -8.2628   -999.2500      0.4394   -999.2500      1.4648
   1460.5000   -999.2500   -999.2500   -999.2500      0.0000   -999.2500   -999.2500      0.2264      0.2819      2.3400   -999.2500      2.2230     -8.3546   -999.2500      0.4353   -999.2500      1.4510
   1461.0000   -999.2500   -999.2500   -999.2500      0.0000   -999.2500   -999.2500      0.2280      0.2815      2.3340   -999.2500      2.2750     -8.2904   -999.2500      0.4384   -999.2500      1.4614
   1461.5000   -999.2500   -999.2500   -999.2500      0.0000   -999.2500   -999.2500      0.2306      0.2810      2.3460   -999.2500      2.2780     -8.1842   -999.2500      0.4435   -999.2500      1.4784
   1462.0000   -999.2500   -999.2500   -999.2500      0.0000   -999.2500   -999.2500      0.2386      0.2795      2.3620   -999.2500      2.2560     -7.7600   -999.2500      0.4589   -999.2500      1.5298
   1462.5000   -999.2500   -999.2500   -999.2500      0.0000   -999.2500   -999.2500      0.2539      0.2765      2.3610   -999.2500      2.2100     -6.8188   -999.2500      0.4883   -999.2500      1.6275
   1463.0000   -999.2500   -999.2500   -999.2500      0.0000   -999.2500   -999.2500      0.2627      0.2749      2.3640   -999.2500      2.1850     -6.2766   -999.2500      0.5052   -999.2500      1.6839
   1463.5000   -999.2500   -999.2500   -999.2500      0.0000   -999.2500   -999.2500      0.2689      0.2736      2.3840   -999.2500      2.1520     -5.8924   -999.2500      0.5172   -999.2500      1.7238
   1464.0000   -999.2500   -999.2500   -999.2500      0.0000   -999.2500   -999.2500      0.2707      0.2733      2.3610   -999.2500      2.1240     -5.7862   -999.2500      0.5205   -999.2500      1.7350
   1464.5000   -999.2500   -999.2500   -999.2500      0.0000   -999.2500   -999.2500      0.2678      0.2738      2.3340   -999.2500      2.1070     -5.9630   -999.2500      0.5151   -999.2500      1.7170
   1465.0000   -999.2500   -999.2500   -999.2500      0.0000   -999.2500   -999.2500      0.2664      0.2741      2.3250   -999.2500      2.0910     -6.0538   -999.2500      0.5123   -999.2500      1.7078
   1465.5000   -999.2500   -999.2500   -999.2500      0.0000   -999.2500   -999.2500      0.2662      0.2741      2.3230   -999.2500      2.0860     -6.0676   -999.2500      0.5120   -999.2500      1.7066
   1466.0000   -999.2500   -999.2500   -999.2500      0.0000   -999.2500   -999.2500      0.2628      0.2748      2.3140   -999.2500      2.0920     -6.2814   -999.2500      0.5054   -999.2500      1.6848
   1466.5000   -999.2500   -999.2500   -999.2500      0.0000   -999.2500   -999.2500      0.2607      0.2752      2.3040   -999.2500      2.0990     -6.4162   -999.2500      0.5013   -999.2500      1.6711
   1467.0000   -999.2500   -999.2500   -999.2500      0.0000   -999.2500   -999.2500      0.2579      0.2757      2.2980   -999.2500      2.0980     -6.5890   -999.2500      0.4960   -999.2500      1.6535
   1467.5000   -999.2500   -999.2500   -999.2500      0.0000   -999.2500   -999.2500      0.2558      0.2761      2.2970   -999.2500      2.1080     -6.7258   -999.2500      0.4919   -999.2500      1.6396
   1468.0000   -999.2500   -999.2500   -999.2500      0.0000   -999.2500   -999.2500      0.2549      0.2763      2.3130   -999.2500      2.1420     -6.7816   -999.2500      0.4902   -999.2500      1.6341
   1468.5000   -999.2500   -999.2500   -999.2500      0.0000   -999.2500   -999.2500      0.2567      0.2760      2.3200   -999.2500      2.1610     -6.6744   -999.2500      0.4936   -999.2500      1.6454
   1469.0000   -999.2500   -999.2500   -999.2500      0.0000   -999.2500   -999.2500      0.2591      0.2755      2.3360   -999.2500      2.1830     -6.5282   -999.2500      0.4982   -999.2500      1.6607
   1469.5000   -999.2500   -999.2500   -999.2500      0.0000   -999.2500   -999.2500      0.2646      0.2744      2.3820   -999.2500      2.2020     -6.1870   -999.2500      0.5088   -999.2500      1.6961
   1470.0000   -999.2500   -999.2500   -999.2500      0.0000   -999.2500   -999.2500      0.2689      0.2736      2.3940   -999.2500      2.2290     -5.9198   -999.2500      0.5172   -999.2500      1.7238
   1470.5000   -999.2500   -999.2500   -999.2500      0.0000   -999.2500   -999.2500      0.2725      0.2729      2.3840   -999.2500      2.2570     -5.6966   -999.2500      0.5241   -999.2500      1.7470
   1471.0000   -999.2500   -999.2500   -999.2500      0.0000   -999.2500   -999.2500      0.2743      0.2725      2.3700   -999.2500      2.2310     -5.5904   -999.2500      0.5274   -999.2500      1.7582
   1471.5000   -999.2500   -999.2500   -999.2500      0.0000   -999.2500   -999.2500      0.2747      0.2725      2.3860   -999.2500      2.1850     -5.5651   -999.2500      0.5283   -999.2500      1.7610
   1472.0000   -999.2500   -999.2500   -999.2500      0.0000   -999.2500   -999.2500      0.2726      0.2729      2.3620   -999.2500      2.1410     -5.6979   -999.2500      0.5243   -999.2500      1.7475
   1472.5000   -999.2500   -999.2500   -999.2500      0.0000   -999.2500   -999.2500      0.2660      0.2741      2.3400   -999.2500      2.1280     -6.1117   -999.2500      0.5116   -999.2500      1.7052
   1473.0000   -999.2500   -999.2500   -999.2500      0.0000   -999.2500   -999.2500      0.2607      0.2751      2.3820   -999.2500      2.1270     -6.4465   -999.2500      0.5013   -999.2500      1.6710
   1473.5000   -999.2500   -999.2500   -999.2500      0.0000   -999.2500   -999.2500      0.2586      0.2755      2.4200   -999.2500      2.1410     -6.5783   -999.2500      0.4973   -999.2500      1.6577
   1474.0000   -999.2500   -999.2500   -999.2500      0.0000   -999.2500   -999.2500      0.2552      0.2762      2.4460   -999.2500      2.1840     -6.7951   -999.2500      0.4907   -999.2500      1.6357
   1474.5000   -999.2500   -999.2500   -999.2500      0.0000   -999.2500   -999.2500      0.2525      0.2767      2.4710   -999.2500      2.2550     -6.9659   -999.2500      0.4855   -999.2500      1.6184
   1475.0000   -999.2500   -999.2500   -999.2500      0.0000   -999.2500   -999.2500      0.2478      0.2776      2.4740   -999.2500      2.3380     -7.2607   -999.2500      0.4765   -999.2500      1.5884
   1475.5000   -999.2500   -999.2500   -999.2500      0.0000   -999.2500   -999.2500      0.2425      0.2786      2.4780   -999.2500      2.3970     -7.5955   -999.2500      0.4663   -999.2500      1.5543
   1476.0000   -999.2500   -999.2500   -999.2500      0.0000   -999.2500   -999.2500      0.2398      0.2791      2.4810   -999.2500      2.4450     -7.7683   -999.2500      0.4611   -999.2500      1.5369
   1476.5000   -999.2500   -999.2500   -999.2500      0.0000   -999.2500   -999.2500      0.2376      0.2795      2.4840   -999.2500      2.4750     -7.9031   -999.2500      0.4570   -999.2500      1.5234
   1477.0000   -999.2500   -999.2500   -999.2500      0.0000   -999.2500   -999.2500      0.2349      0.2801      2.5010   -999.2500      2.5100     -8.0769   -999.2500      0.4518   -999.2500      1.5059
   1477.5000   -999.2500   -999.2500   -999.2500      0.0000   -999.2500   -999.2500      0.2341      0.2802      2.5090   -999.2500      2.5220     -8.1297   -999.2500      0.4502   -999.2500      1.5007
   1478.0000   -999.2500   -999.2500   -999.2500      0.0000   -999.2500   -999.2500      0.2346      0.2801      2.4980   -999.2500      2.5160     -8.1045   -999.2500      0.4511   -999.2500      1.5036
   1478.5000   -999.2500   -999.2500   -999.2500      0.0000   -999.2500   -999.2500      0.2350      0.2800      2.4830   -999.2500      2.4790     -8.0803   -999.2500      0.4519   -999.2500      1.5064
   1479.0000   -999.2500   -999.2500   -999.2500      0.0000   -999.2500   -999.2500      0.2361      0.2798      2.4730   -999.2500      2.4500     -8.0161   -999.2500      0.4540   -999.2500      1.5132
   1479.5000   -999.2500   -999.2500   -999.2500      0.0000   -999.2500   -999.2500      0.2366      0.2797      2.4540   -999.2500      2.4090     -7.9879   -999.2500      0.4549   -999.2500      1.5164
