~V
VERS. 2.00: Ver 2.00
WRAP.   NO:        
~W
 STRT.FT 100:
 STOP.FT 3000:
 STEP.FT 0.5:
 NULL. -999.250000:
 COMP. TENNECO OIL COMPANY:Company
 WELL. 51X-30:Well
 FLD. LOS LOBOS:Field
 LOC. SEC. 30 TWP 11N RGE 22W:Location
 STAT. CA:State
 SRVC. :Service Company
 SON. :Service Order #
 DATE. :Log Date
 UWI. :Unique Well ID
~C
 DEPT.FT :
 CALS.IN :
 GRC.GAPI :
 NPHC.PU-S :
 PHES. :
 PHIE. :
 PHIT. :
 PHTS. :
 PHZC. :
 RD.OHMM :
 ROBC.G/C3 :
 RS.OHMM :
 SBL.MV :
 VCLW. :
 VCWS. :
 VSHL. :
 VSHS. :
~P
~A
# ...
   1200.0000   -999.2500   -999.2500   -999.2500      0.0000   -999.2500   -999.2500      0.2458      0.2807      2.3970   -999.2500      2.0970     -7.4541   -999.2500      0.4726   -999.2500      1.5755
   1200.5000   -999.2500   -999.2500   -999.2500      0.0000   -999.2500   -999.2500      0.2422      0.2814      2.4660   -999.2500      2.1380     -7.6765   -999.2500      0.4657   -999.2500      1.5525
   1201.0000   -999.2500   -999.2500   -999.2500      0.0000   -999.2500   -999.2500      0.2399      0.2819      2.4910   -999.2500      2.1720     -7.8180   -999.2500      0.4613   -999.2500      1.5377
   1201.5000   -999.2500   -999.2500   -999.2500      0.0000   -999.2500   -999.2500      0.2395      0.2819      2.5220   -999.2500      2.2350     -7.8395   -999.2500      0.4605   -999.2500      1.5351
   1202.0000   -999.2500   -999.2500   -999.2500      0.0000   -999.2500   -999.2500      0.2390      0.2820      2.5570   -999.2500      2.4110     -7.8629   -999.2500      0.4597   -999.2500      1.5323
   1202.5000   -999.2500   -999.2500   -999.2500      0.0000   -999.2500   -999.2500      0.2443      0.2810      2.5550   -999.2500      2.5320     -7.5264   -999.2500      0.4699   -999.2500      1.5662
   1203.0000   -999.2500   -999.2500   -999.2500      0.0000   -999.2500   -999.2500      0.2502      0.2798      2.5530   -999.2500      2.7470     -7.1518   -999.2500      0.4812   -999.2500      1.6040
   1203.5000   -999.2500   -999.2500   -999.2500      0.0000   -999.2500   -999.2500      0.2530      0.2793      2.5370   -999.2500      2.7000     -6.9743   -999.2500      0.4865   -999.2500      1.6218
   1204.0000   -999.2500   -999.2500   -999.2500      0.0000   -999.2500   -999.2500      0.2583      0.2783      2.5400   -999.2500      2.4220     -6.6377   -999.2500      0.4967   -999.2500      1.6558
   1204.5000   -999.2500   -999.2500   -999.2500      0.0000   -999.2500   -999.2500      0.2611      0.2777      2.5330   -999.2500      2.2420     -6.4612   -999.2500      0.5021   -999.2500      1.6735
   1205.0000   -999.2500   -999.2500   -999.2500      0.0000   -999.2500   -999.2500      0.2626      0.2775      2.5180   -999.2500      2.2600     -6.3636   -999.2500      0.5049   -999.2500      1.6831
   1205.5000   -999.2500   -999.2500   -999.2500      0.0000   -999.2500   -999.2500      0.2666      0.2767      2.4930   -999.2500      2.3300     -6.1081   -999.2500      0.5127   -999.2500      1.7089
   1206.0000   -999.2500   -999.2500   -999.2500      0.0000   -999.2500   -999.2500      0.2726      0.2755      2.4780   -999.2500      2.3840     -5.7315   -999.2500      0.5241   -999.2500      1.7472
   1206.5000   -999.2500   -999.2500   -999.2500      0.0000   -999.2500   -999.2500      0.2792      0.2743      2.4760   -999.2500      2.3870     -5.3150   -999.2500      0.5368   -999.2500      1.7895
   1207.0000   -999.2500   -999.2500   -999.2500      0.0000   -999.2500   -999.2500      0.2832      0.2735      2.4780   -999.2500      2.3720     -5.0584   -999.2500      0.5446   -999.2500      1.8155
   1207.5000   -999.2500   -999.2500   -999.2500      0.0000   -999.2500   -999.2500      0.2809      0.2739      2.4670   -999.2500      2.3150     -5.1999   -999.2500      0.5402   -999.2500      1.8007
   1208.0000   -999.2500   -999.2500   -999.2500      0.0000   -999.2500   -999.2500      0.2760      0.2748      2.4570   -999.2500      2.2100     -5.5023   -999.2500      0.5308   -999.2500      1.7695
   1208.5000   -999.2500   -999.2500   -999.2500      0.0000   -999.2500   -999.2500      0.2705      0.2759      2.4690   -999.2500      2.1440     -5.8428   -999.2500      0.5203   -999.2500      1.7343
   1209.0000   -999.2500   -999.2500   -999.2500      0.0000   -999.2500   -999.2500      0.2650      0.2769      2.4710   -999.2500      2.1080     -6.1852   -999.2500      0.5097   -999.2500      1.6989
   1209.5000   -999.2500   -999.2500   -999.2500      0.0000   -999.2500   -999.2500      0.2589      0.2781      2.4650   -999.2500      2.0990     -6.5667   -999.2500      0.4978   -999.2500      1.6594
   1210.0000   -999.2500   -999.2500   -999.2500      0.0000   -999.2500   -999.2500      0.2527      0.2793      2.4630   -999.2500      2.1050     -6.9471   -999.2500      0.4860   -999.2500      1.6200
   1210.5000   -999.2500   -999.2500   -999.2500      0.0000   -999.2500   -999.2500      0.2497      0.2799      2.4520   -999.2500      2.2500     -7.1296   -999.2500      0.4803   -999.2500      1.6009
   1211.0000   -999.2500   -999.2500   -999.2500      0.0000   -999.2500   -999.2500      0.2519      0.2795      2.4460   -999.2500      2.3030     -6.9940   -999.2500      0.4843   -999.2500      1.6145
   1211.5000   -999.2500   -999.2500   -999.2500      0.0000   -999.2500   -999.2500      0.2540      0.2790      2.4400   -999.2500      2.2920     -6.8545   -999.2500      0.4885   -999.2500      1.6285
   1212.0000   -999.2500   -999.2500   -999.2500      0.0000   -999.2500   -999.2500      0.2568      0.2785      2.4290   -999.2500      2.2700     -6.6789   -999.2500      0.4939   -999.2500      1.6462
   1212.5000   -999.2500   -999.2500   -999.2500      0.0000   -999.2500   -999.2500      0.2602      0.2778      2.4230   -999.2500      2.2230     -6.4624   -999.2500      0.5004   -999.2500      1.6681
   1213.0000   -999.2500   -999.2500   -999.2500      0.0000   -999.2500   -999.2500      0.2630      0.2773      2.4170   -999.2500      2.1740     -6.2858   -999.2500      0.5058   -999.2500      1.6860
   1213.5000   -999.2500   -999.2500   -999.2500      0.0000   -999.2500   -999.2500      0.2652      0.2769      2.4150   -999.2500      2.1370     -6.1473   -999.2500      0.5100   -999.2500      1.6999
   1214.0000   -999.2500   -999.2500   -999.2500      0.0000   -999.2500   -999.2500      0.2667      0.2766      2.4040   -999.2500      2.1080     -6.0497   -999.2500      0.5129   -999.2500      1.7097
   1214.5000   -999.2500   -999.2500   -999.2500      0.0000   -999.2500   -999.2500      0.2656      0.2768      2.3940   -999.2500      2.0950     -6.1132   -999.2500      0.5108   -999.2500      1.7028
   1215.0000   -999.2500   -999.2500   -999.2500      0.0000   -999.2500   -999.2500      0.2665      0.2766      2.4010   -999.2500      2.0970     -6.0566   -999.2500      0.5125   -999.2500      1.7084
   1215.5000   -999.2500   -999.2500   -999.2500      0.0000   -999.2500   -999.2500      0.2706      0.2758      2.4300   -999.2500      2.0990     -5.7991   -999.2500      0.5204   -999.2500      1.7346
   1216.0000   -999.2500   -999.2500   -999.2500      0.0000   -999.2500   -999.2500      0.2798      0.2740      2.4410   -999.2500      2.1020     -5.2235   -999.2500      0.5381   -999.2500      1.7938
   1216.5000   -999.2500   -999.2500   -999.2500      0.0000   -999.2500   -999.2500      0.2929      0.2715      2.4400   -999.2500      2.1310     -4.4110   -999.2500      0.5632   -999.2500      1.8775
   1217.0000   -999.2500   -999.2500   -999.2500      0.0000   -999.2500   -999.2500      0.2893      0.2722      2.4250   -999.2500      2.1490     -4.6315   -999.2500      0.5563   -999.2500      1.8545
   1217.5000   -999.2500   -999.2500   -999.2500      0.0000   -999.2500   -999.2500      0.2863      0.2728      2.4100   -999.2500      2.1440     -4.8129   -999.2500      0.5506   -999.2500      1.8355
   1218.0000   -999.2500   -999.2500   -999.2500      0.0000   -999.2500   -999.2500      0.2801      0.2739      2.3990   -999.2500      2.1380     -5.1934   -999.2500      0.5387   -999.2500      1.7958
   1218.5000   -999.2500   -999.2500   -999.2500      0.0000   -999.2500   -999.2500      0.2746      0.2750      2.3840   -999.2500      2.1450     -5.5358   -999.2500      0.5280   -999.2500      1.7601
   1219.0000   -999.2500   -999.2500   -999.2500      0.0000   -999.2500   -999.2500      0.2651      0.2768      2.3610   -999.2500      2.1430     -6.1173   -999.2500      0.5099   -999.2500      1.6996
   1219.5000   -999.2500   -999.2500   -999.2500      0.0000   -999.2500   -999.2500      0.2596      0.2779      2.3460   -999.2500      2.1180     -6.4567   -999.2500      0.4992   -999.2500      1.6641
