~V
VERS. 2.00: Ver 2.00
WRAP.   NO:        
~W
 STRT.FT 100:
 STOP.FT 3000:
 STEP.FT 0.5:
 NULL. -999.250000:
 COMP. TENNECO OIL COMPANY:Company
 WELL. 51X-30:Well
 FLD. LOS LOBOS:Field
 LOC. SEC. 30 TWP 11N RGE 22W:Location
 STAT. CA:State
 SRVC. :Service Company
 SON. :Service Order #
 DATE. :Log Date
 UWI. :Unique Well ID
~C
 DEPT.FT :
 CALS.IN :
 GRC.GAPI :
 NPHC.PU-S :
 PHES. :
 PHIE. :
 PHIT. :
 PHTS. :
 PHZC. :
 RD.OHMM :
 ROBC.G/C3 :
 RS.OHMM :
 SBL.MV :
 VCLW. :
 VCWS. :
 VSHL. :
 VSHS. :
~P
~A
# ...
   1740.0000      7.3240     36.3544      0.4790      0.4067      0.4372      0.4881      0.4796      0.4767      8.6090      1.7788      7.2330    -20.3670      0.1018      0.1216      0.4448      0.3041
   1740.5000      7.3240     34.7892      0.4945      0.4007      0.4397      0.4991      0.4779      0.4748      8.7510      1.7689      7.0760    -20.6880      0.1187      0.1286      0.5488      0.3216
   1741.0000      7.3240     33.7438      0.4929      0.3992      0.4443      0.4978      0.4775      0.4743      9.0080      1.7607      6.8600    -20.6110      0.1070      0.1304      0.5263      0.3261
   1741.5000      7.3240     32.6247      0.4868      0.3991      0.4412      0.4928      0.4774      0.4743      9.0560      1.7673      6.6500    -20.7330      0.1032      0.1306      0.4838      0.3265
   1742.0000      7.3250     31.0607      0.5005      0.3981      0.4276      0.5022      0.4771      0.4740      8.9390      1.7871      6.9220    -20.7350      0.1492      0.1317      0.5724      0.3293
   1742.5000      7.3250     29.5701      0.5085      0.3947      0.4206      0.5067      0.4762      0.4729      8.6960      1.7953      6.9720    -20.3790      0.1724      0.1357      0.5794      0.3393
   1743.0000      7.3250     29.7119      0.5173      0.3908      0.4425      0.5169      0.4750      0.4717      8.1710      1.7590      6.9720    -19.9430      0.1488      0.1403      0.5575      0.3508
   1743.5000      7.3250     30.8180      0.4982      0.3873      0.4506      0.5025      0.4740      0.4705      8.1700      1.7491      6.9850    -19.5470      0.1039      0.1445      0.5494      0.3613
   1744.0000      7.3250     31.4798      0.4773      0.3851      0.4436      0.4854      0.4733      0.4698      8.4720      1.7392      6.9970    -19.3500      0.0835      0.1471      0.4308      0.3677
   1744.5000      7.3250     32.1406      0.4686      0.3851      0.4377      0.4786      0.4733      0.4698      8.4550      1.7491      6.9840    -19.4720      0.0817      0.1471      0.3777      0.3678
   1745.0000      7.3250     31.9857      0.4648      0.3850      0.4346      0.4762      0.4733      0.4698      8.4540      1.7590      6.9580    -19.5940      0.0832      0.1472      0.3484      0.3679
   1745.5000      7.3260     32.0542      0.4724      0.3837      0.4248      0.4832      0.4729      0.4694      8.5920      1.8036      6.9580    -19.5170      0.1168      0.1488      0.3968      0.3719
   1746.0000      7.3260     33.6065      0.4929      0.3829      0.4020      0.4894      0.4727      0.4691      9.3270      1.8233      6.9200    -19.5190      0.1748      0.1497      0.5980      0.3743
   1746.5000      7.3260     35.9746      0.5243      0.3836      0.3951      0.5087      0.4729      0.4693     11.7160      1.8217      6.9070    -19.7600      0.2272      0.1488      0.6049      0.3721
   1747.0000      7.3260     37.8975      0.5612      0.3836      0.4379      0.5509      0.4729      0.4693     11.8220      1.7590      6.8940    -19.8820      0.2261      0.1489      0.5621      0.3721
   1747.5000      7.3610     38.5392      0.5996      0.3833      0.5263      0.6000      0.4728      0.4692     10.8080      1.6221      6.8810    -19.9640      0.1475      0.1492      0.4737      0.3730
   1748.0000      7.3810     39.7537      0.6090      0.3824      0.5027      0.6000      0.4725      0.4689     10.4391      1.6501      6.8560    -19.9670      0.1946      0.1503      0.4973      0.3757
   1748.5000      7.4200     43.6840      0.5961      0.3823      0.4432      0.5780      0.4725      0.4689     10.0958      1.7607      6.8430    -20.0890      0.2697      0.1503      0.5568      0.3758
   1749.0000      7.4440     53.1142      0.5904      0.3810      0.3775      0.5431      0.4722      0.4685      9.7525      1.8382      6.8560    -20.1310      0.3312      0.1518      0.6225      0.3796
   1749.5000      7.4950     60.0888      0.5947      0.3735      0.2894      0.5002      0.4700      0.4661      9.4092      1.9570      6.8430    -19.7740      0.4216      0.1607      0.7106      0.4018
   1750.0000      7.5780     66.6519      0.6023      0.3612      0.4603      0.6000      0.4664      0.4622      9.0659      1.6848      6.8430    -19.0990      0.2794      0.1753      0.5397      0.4382
   1750.5000      7.7410     68.8442      0.6209      0.3693      0.4618      0.6000      0.4687      0.4647      8.7226      1.6468      8.7226    -19.7404      0.2765      0.1657      0.5382      0.4143
   1751.0000      8.0380     69.1990      0.6126      0.3649      0.4822      0.6000      0.4674      0.4633      8.3793      1.6221      8.3793    -19.5709      0.2356      0.1710      0.5178      0.4274
   1751.5000      8.5390     69.9922      0.6168      0.3602      0.4651      0.6000      0.4661      0.4619      8.0360      1.6451      8.0360    -19.3855      0.2699      0.1764      0.5349      0.4410
   1752.0000      9.2940     71.5326      0.6767      0.3554      0.4298      0.6000      0.4647      0.4603      7.6927      1.6425      7.6927    -19.1818      0.3403      0.1821      0.5702      0.4553
   1752.5000      9.6270     72.2723      0.7065      0.3503      0.4176      0.6000      0.4632      0.4587      7.3494      1.6317      7.3494    -18.9574      0.3648      0.1881      0.5824      0.4703
   1753.0000     10.1120     73.0261      0.7169      0.3449      0.4165      0.6000      0.4616      0.4570      7.0061      1.6154      7.0061    -18.7091      0.3670      0.1945      0.5835      0.4863
   1753.5000     10.3220     72.5916      0.6993      0.3392      0.4277      0.6000      0.4600      0.4551      6.6628      1.6086      6.6628    -18.4334      0.3447      0.2013      0.5723      0.5032
   1754.0000     10.5680     71.3734      0.6862      0.3331      0.4296      0.6000      0.4582      0.4532      6.3195      1.6284      6.3195    -18.1258      0.3409      0.2085      0.5704      0.5213
   1754.5000     10.6910     71.8082      0.6830      0.3264      0.4250      0.6000      0.4563      0.4511      5.9762      1.6473      5.9762    -17.7806      0.3501      0.2163      0.5750      0.5409
   1755.0000     10.4680     72.3112      0.6764      0.3193      0.4237      0.6000      0.4542      0.4488      5.6329      1.6607      5.6329    -17.3912      0.3526      0.2248      0.5763      0.5621
   1755.5000      9.9510     74.9163      0.6577      0.3114      0.4296      0.6000      0.4519      0.4462      5.2896      1.6621      5.2896    -16.9488      0.3408      0.2341      0.5704      0.5854
   1756.0000      9.2860     75.9790      0.6298      0.3027      0.4406      0.6000      0.4493      0.4435      4.9463      1.6672      4.9463    -16.4424      0.3189      0.2444      0.5594      0.6111
   1756.5000      8.0460     72.1445      0.6182      0.2929      0.4428      0.6000      0.4465      0.4404      4.6030      1.6930      4.6030    -15.8577      0.3143      0.2559      0.5572      0.6399
   1757.0000      7.1630     64.0338      0.5700      0.2847      0.4143      0.5535      0.4441      0.4377      4.3490      1.7425      4.3490    -15.3686      0.2783      0.2657      0.5857      0.6643
   1757.5000      6.9870     60.7253      0.4949      0.2884      0.4152      0.4934      0.4452      0.4389      4.5110      1.7607      4.5110    -15.7174      0.1565      0.2613      0.4801      0.6533
   1758.0000      6.9790     60.4742      0.4582      0.2892      0.4017      0.4709      0.4454      0.4392      4.5780      1.7937      4.5780    -15.8656      0.1383      0.2603      0.4238      0.6507
   1758.5000      7.0460     64.7983      0.4182      0.2942      0.3788      0.4441      0.4468      0.4407      4.8090      1.8168      4.8090    -16.3038      0.1306      0.2545      0.4002      0.6362
   1759.0000      7.1890     69.5232      0.3763      0.2973      0.3613      0.4059      0.4478      0.4417      4.9880      1.7573      4.9880    -16.6208      0.0891      0.2507      0.2732      0.6268
   1759.5000      7.2520     72.0991      0.4193      0.3036      0.3781      0.4271      0.4496      0.4437      5.3370      1.6947      5.3370    -17.1636      0.0982      0.2433      0.3009      0.6083
