~V
VERS. 2.00: Ver 2.00
WRAP.   NO:        
~W
 STRT.FT 100:
 STOP.FT 3000:
 STEP.FT 0.5:
 NULL. -999.250000:
 COMP. TENNECO OIL COMPANY:Company
 WELL. 51X-30:Well
 FLD. LOS LOBOS:Field
 LOC. SEC. 30 TWP 11N RGE 22W:Location
 STAT. CA:State
 SRVC. :Service Company
 SON. :Service Order #
 DATE. :Log Date
 UWI. :Unique Well ID
~C
 DEPT.FT :
 CALS.IN :
 GRC.GAPI :
 NPHC.PU-S :
 PHES. :
 PHIE. :
 PHIT. :
 PHTS. :
 PHZC. :
 RD.OHMM :
 ROBC.G/C3 :
 RS.OHMM :
 SBL.MV :
 VCLW. :
 VCWS. :
 VSHL. :
 VSHS. :
~P
~A
# ...
   2840.0000      7.7965    102.8973      0.4335      0.2524      0.3201      0.4388      0.4301      0.4230      1.6550      1.7868      1.6550    -14.0924      0.2375      0.2962      0.6799      0.7406
   2840.5000      7.8236    102.7815      0.4452      0.2501      0.3225      0.4440      0.4294      0.4223      1.6440      1.7821      1.6440    -13.9287      0.2430      0.2989      0.6775      0.7472
   2841.0000      7.8823    104.4506      0.4663      0.2447      0.3250      0.4566      0.4279      0.4205      1.6180      1.7826      1.6180    -13.5358      0.2632      0.3053      0.6750      0.7553
   2841.5000      7.9882    108.0685      0.4586      0.2347      0.3168      0.4530      0.4250      0.4174      1.5720      1.7860      1.5720    -12.8105      0.2724      0.3170      0.6832      0.7653
   2842.0000      8.0947    112.0610      0.4466      0.2242      0.3076      0.4481      0.4219      0.4140      1.5260      1.7920      1.5260    -12.0415      0.2810      0.3295      0.6924      0.7758
   2842.5000      8.0376    111.7860      0.4333      0.2150      0.3046      0.4397      0.4192      0.4110      1.4880      1.7894      1.4880    -11.3702      0.2702      0.3404      0.6954      0.7850
   2843.0000      7.9042    108.0219      0.4925      0.2063      0.3168      0.4712      0.4167      0.4083      1.4540      1.7796      1.4540    -10.7397      0.3089      0.3507      0.6832      0.7937
   2843.5000      7.7481    107.1943      0.5174      0.2023      0.3137      0.4854      0.4155      0.4070      1.4390      1.7730      1.4390    -10.4510      0.3434      0.3553      0.6863      0.7977
   2844.0000      7.5627    107.2998      0.5423      0.2096      0.3048      0.5018      0.4176      0.4093      1.4670      1.7783      1.4670    -10.9796      0.3940      0.3468      0.6952      0.7904
   2844.5000      7.4280    107.5377      0.5550      0.2200      0.3018      0.5116      0.4207      0.4126      1.5090      1.7906      1.5090    -11.7366      0.4195      0.3345      0.6982      0.7800
   2845.0000      7.3509    105.7769      0.5567      0.2287      0.2996      0.5112      0.4232      0.4154      1.5460      1.8050      1.5460    -12.3691      0.4233      0.3242      0.7004      0.7713
   2845.5000      7.3150    102.7530      0.5477      0.2398      0.2969      0.5024      0.4264      0.4189      1.5960      1.8174      1.5960    -13.1777      0.4110      0.3111      0.7031      0.7602
   2846.0000      7.3141     99.7383      0.5070      0.2518      0.2984      0.4760      0.4299      0.4228      1.6540      1.8257      1.6540    -14.0547      0.3552      0.2968      0.7016      0.7421
   2846.5000      7.3178     96.6272      0.4720      0.2575      0.3164      0.4579      0.4316      0.4246      1.6830      1.8268      1.6830    -14.4695      0.2828      0.2901      0.6836      0.7253
   2847.0000      7.3598     93.5704      0.4599      0.2630      0.3353      0.4552      0.4332      0.4263      1.7120      1.8171      1.7120    -14.8701      0.2398      0.2836      0.6647      0.7090
   2847.5000      7.4334     90.1601      0.4336      0.2630      0.3465      0.4447      0.4331      0.4263      1.7120      1.7975      1.7120    -14.8682      0.1964      0.2836      0.6018      0.7091
   2848.0000      7.4634     86.1388      0.4155      0.2609      0.3466      0.4292      0.4325      0.4257      1.7010      1.7857      1.7010    -14.7152      0.1652      0.2861      0.5063      0.7153
   2848.5000      7.4365     82.1215      0.4102      0.2576      0.3490      0.4234      0.4316      0.4246      1.6840      1.7798      1.6840    -14.4759      0.1488      0.2900      0.4561      0.7250
   2849.0000      7.3470     79.6460      0.4063      0.2560      0.3499      0.4197      0.4311      0.4241      1.6760      1.7768      1.6760    -14.3606      0.1395      0.2919      0.4275      0.7297
   2849.5000      7.3195     80.3165      0.4020      0.2561      0.3476      0.4165      0.4312      0.4242      1.6770      1.7758      1.6770    -14.3729      0.1377      0.2917      0.4220      0.7292
   2850.0000      7.3318     81.6148      0.4049      0.2571      0.3474      0.4189      0.4314      0.4245      1.6820      1.7772      1.6820    -14.4419      0.1431      0.2906      0.4386      0.7264
   2850.5000      7.3748     81.2285      0.4177      0.2567      0.3515      0.4267      0.4313      0.4243      1.6800      1.7763      1.6800    -14.4116      0.1504      0.2910      0.4609      0.7276
   2851.0000      7.4645     77.7623      0.4366      0.2545      0.3606      0.4372      0.4307      0.4236      1.6690      1.7711      1.6690    -14.2528      0.1532      0.2936      0.4695      0.7341
   2851.5000      7.5140     75.5211      0.4374      0.2523      0.3627      0.4359      0.4300      0.4229      1.6580      1.7653      1.6580    -14.0919      0.1464      0.2962      0.4486      0.7406
   2852.0000      7.4622     73.9503      0.4317      0.2512      0.3625      0.4319      0.4297      0.4226      1.6530      1.7645      1.6530    -14.0170      0.1388      0.2975      0.4254      0.7436
   2852.5000      7.3336     75.5320      0.4317      0.2471      0.3607      0.4326      0.4285      0.4213      1.6330      1.7678      1.6330    -13.7187      0.1436      0.3023      0.4401      0.7529
   2853.0000      7.2422     78.5567      0.4422      0.2429      0.3608      0.4400      0.4273      0.4199      1.6130      1.7703      1.6130    -13.4130      0.1584      0.3073      0.4854      0.7571
   2853.5000      7.1928     83.2613      0.4629      0.2389      0.3617      0.4525      0.4261      0.4186      1.5940      1.7677      1.5940    -13.1155      0.1816      0.3121      0.5564      0.7611
   2854.0000      7.1614     87.5345      0.4789      0.2309      0.3600      0.4612      0.4238      0.4161      1.5580      1.7609      1.5580    -12.5337      0.2024      0.3215      0.6204      0.7691
   2854.5000      7.1591     88.7492      0.4825      0.2246      0.3584      0.4634      0.4220      0.4141      1.5310      1.7630      1.5310    -12.0791      0.2100      0.3289      0.6416      0.7754
   2855.0000      7.1665     86.1625      0.4694      0.2196      0.3584      0.4554      0.4205      0.4125      1.5100      1.7677      1.5100    -11.7138      0.1939      0.3348      0.5943      0.7804
   2855.5000      7.1704     84.6547      0.4568      0.2176      0.3568      0.4478      0.4199      0.4118      1.5020      1.7712      1.5020    -11.5708      0.1820      0.3372      0.5577      0.7824
   2856.0000      7.1730     85.1319      0.4499      0.2298      0.3553      0.4457      0.4235      0.4157      1.5540      1.7767      1.5540    -12.4600      0.1809      0.3227      0.5543      0.7702
   2856.5000      7.1779     86.8038      0.4408      0.2459      0.3518      0.4442      0.4281      0.4208      1.6280      1.7869      1.6280    -13.6281      0.1849      0.3038      0.5666      0.7541
   2857.0000      7.2293     87.8846      0.4282      0.2633      0.3497      0.4428      0.4332      0.4264      1.7170      1.8009      1.7170    -14.8997      0.1860      0.2831      0.5701      0.7078
   2857.5000      7.3532     90.4987      0.4229      0.2779      0.3340      0.4344      0.4374      0.4311      1.7990      1.8229      1.7990    -15.9597      0.2007      0.2659      0.6152      0.6648
   2858.0000      7.4810     92.7799      0.4341      0.2949      0.3204      0.4338      0.4424      0.4365      1.9050      1.8487      1.9050    -17.1949      0.2268      0.2459      0.6796      0.6147
   2858.5000      7.5068     91.8030      0.4453      0.3069      0.3150      0.4388      0.4459      0.4403      1.9880      1.8541      1.9880    -18.0697      0.2475      0.2317      0.6850      0.5792
   2859.0000      7.4784     89.5692      0.4406      0.3147      0.3271      0.4390      0.4481      0.4428      2.0460      1.8474      2.0460    -18.6381      0.2238      0.2224      0.6729      0.5561
   2859.5000      7.4019     86.1955      0.4242      0.3215      0.3364      0.4329      0.4501      0.4450      2.1000      1.8397      2.1000    -19.1389      0.1930      0.2143      0.5916      0.5358
