~V
VERS. 2.00: Ver 2.00
WRAP.   NO:        
~W
 STRT.FT 100:
 STOP.FT 3000:
 STEP.FT 0.5:
 NULL. -999.250000:
 COMP. TENNECO OIL COMPANY:Company
 WELL. 51X-30:Well
 FLD. LOS LOBOS:Field
 LOC. SEC. 30 TWP 11N RGE 22W:Location
 STAT. CA:State
 SRVC. :Service Company
 SON. :Service Order #
 DATE. :Log Date
 UWI. :Unique Well ID
~C
 DEPT.FT :
 CALS.IN :
 GRC.GAPI :
 NPHC.PU-S :
 PHES. :
 PHIE. :
 PHIT. :
 PHTS. :
 PHZC. :
 RD.OHMM :
 ROBC.G/C3 :
 RS.OHMM :
 SBL.MV :
 VCLW. :
 VCWS. :
 VSHL. :
 VSHS. :
~P
~A
# ...
   1060.0000   -999.2500   -999.2500   -999.2500      0.1687   -999.2500   -999.2500      0.3136      0.3015      1.9800   -999.2500      1.9840    -13.5806   -999.2500      0.2786   -999.2500      0.8313
   1060.5000   -999.2500   -999.2500   -999.2500      0.1683   -999.2500   -999.2500      0.3135      0.3015      1.9790   -999.2500      1.9720    -13.5591   -999.2500      0.2793   -999.2500      0.8317
   1061.0000   -999.2500   -999.2500   -999.2500      0.1680   -999.2500   -999.2500      0.3135      0.3014      1.9780   -999.2500      1.9740    -13.5405   -999.2500      0.2798   -999.2500      0.8320
   1061.5000   -999.2500   -999.2500   -999.2500      0.1695   -999.2500   -999.2500      0.3136      0.3017      1.9910   -999.2500      1.9950    -13.6010   -999.2500      0.2771   -999.2500      0.8305
   1062.0000   -999.2500   -999.2500   -999.2500      0.1701   -999.2500   -999.2500      0.3137      0.3018      2.0040   -999.2500      1.9930    -13.6185   -999.2500      0.2762   -999.2500      0.8299
   1062.5000   -999.2500   -999.2500   -999.2500      0.1706   -999.2500   -999.2500      0.3137      0.3019      2.0140   -999.2500      1.9880    -13.6359   -999.2500      0.2752   -999.2500      0.8294
   1063.0000   -999.2500   -999.2500   -999.2500      0.1722   -999.2500   -999.2500      0.3139      0.3021      1.9730   -999.2500      1.9730    -13.6974   -999.2500      0.2725   -999.2500      0.8278
   1063.5000   -999.2500   -999.2500   -999.2500      0.1718   -999.2500   -999.2500      0.3138      0.3020      1.9390   -999.2500      1.9640    -13.6748   -999.2500      0.2732   -999.2500      0.8282
   1064.0000   -999.2500   -999.2500   -999.2500      0.1706   -999.2500   -999.2500      0.3137      0.3018      1.9670   -999.2500      1.9600    -13.6173   -999.2500      0.2753   -999.2500      0.8294
   1064.5000   -999.2500   -999.2500   -999.2500      0.1693   -999.2500   -999.2500      0.3136      0.3016      1.9760   -999.2500      1.9480    -13.5547   -999.2500      0.2776   -999.2500      0.8307
   1065.0000   -999.2500   -999.2500   -999.2500      0.1671   -999.2500   -999.2500      0.3134      0.3012      1.9570   -999.2500      1.9360    -13.4552   -999.2500      0.2814   -999.2500      0.8329
   1065.5000   -999.2500   -999.2500   -999.2500      0.1686   -999.2500   -999.2500      0.3135      0.3015      1.9100   -999.2500      1.9170    -13.5136   -999.2500      0.2788   -999.2500      0.8314
   1066.0000   -999.2500   -999.2500   -999.2500      0.1738   -999.2500   -999.2500      0.3140      0.3024      1.8880   -999.2500      1.9050    -13.7341   -999.2500      0.2696   -999.2500      0.8262
   1066.5000   -999.2500   -999.2500   -999.2500      0.1772   -999.2500   -999.2500      0.3144      0.3030      1.8830   -999.2500      1.9040    -13.8735   -999.2500      0.2637   -999.2500      0.8228
   1067.0000   -999.2500   -999.2500   -999.2500      0.1825   -999.2500   -999.2500      0.3149      0.3039      1.8930   -999.2500      1.9000    -14.0950   -999.2500      0.2545   -999.2500      0.8175
   1067.5000   -999.2500   -999.2500   -999.2500      0.1877   -999.2500   -999.2500      0.3154      0.3048      1.9050   -999.2500      1.8950    -14.3114   -999.2500      0.2455   -999.2500      0.8123
   1068.0000   -999.2500   -999.2500   -999.2500      0.1976   -999.2500   -999.2500      0.3164      0.3065      1.9180   -999.2500      1.8900    -14.7299   -999.2500      0.2283   -999.2500      0.7610
   1068.5000   -999.2500   -999.2500   -999.2500      0.2029   -999.2500   -999.2500      0.3169      0.3074      1.9240   -999.2500      1.8990    -14.9483   -999.2500      0.2192   -999.2500      0.7306
   1069.0000   -999.2500   -999.2500   -999.2500      0.2053   -999.2500   -999.2500      0.3171      0.3078      1.9260   -999.2500      1.9010    -15.0468   -999.2500      0.2149   -999.2500      0.7164
   1069.5000   -999.2500   -999.2500   -999.2500      0.2050   -999.2500   -999.2500      0.3171      0.3078      1.9360   -999.2500      1.9080    -15.0262   -999.2500      0.2155   -999.2500      0.7183
   1070.0000   -999.2500   -999.2500   -999.2500      0.2019   -999.2500   -999.2500      0.3168      0.3072      1.9310   -999.2500      1.9170    -14.8857   -999.2500      0.2209   -999.2500      0.7365
   1070.5000   -999.2500   -999.2500   -999.2500      0.1941   -999.2500   -999.2500      0.3160      0.3059      1.9510   -999.2500      1.9260    -14.5471   -999.2500      0.2344   -999.2500      0.7814
   1071.0000   -999.2500   -999.2500   -999.2500      0.1872   -999.2500   -999.2500      0.3153      0.3047      1.9500   -999.2500      1.9430    -14.2466   -999.2500      0.2464   -999.2500      0.8128
   1071.5000   -999.2500   -999.2500   -999.2500      0.1729   -999.2500   -999.2500      0.3139      0.3022      1.9240   -999.2500      1.9340    -13.6300   -999.2500      0.2712   -999.2500      0.8271
   1072.0000   -999.2500   -999.2500   -999.2500      0.1623   -999.2500   -999.2500      0.3128      0.3003      1.9090   -999.2500      1.9330    -13.1725   -999.2500      0.2895   -999.2500      0.8377
   1072.5000   -999.2500   -999.2500   -999.2500      0.1572   -999.2500   -999.2500      0.3123      0.2994      1.9110   -999.2500      1.9180    -12.9499   -999.2500      0.2983   -999.2500      0.8428
   1073.0000   -999.2500   -999.2500   -999.2500      0.1521   -999.2500   -999.2500      0.3118      0.2986      1.9240   -999.2500      1.9060    -12.7294   -999.2500      0.3071   -999.2500      0.8479
   1073.5000   -999.2500   -999.2500   -999.2500      0.1462   -999.2500   -999.2500      0.3112      0.2975      1.9440   -999.2500      1.9080    -12.4708   -999.2500      0.3174   -999.2500      0.8538
   1074.0000   -999.2500   -999.2500   -999.2500      0.1394   -999.2500   -999.2500      0.3106      0.2963      1.9460   -999.2500      1.9210    -12.1743   -999.2500      0.3292   -999.2500      0.8606
   1074.5000   -999.2500   -999.2500   -999.2500      0.1343   -999.2500   -999.2500      0.3101      0.2955      1.9340   -999.2500      1.9130    -11.9547   -999.2500      0.3380   -999.2500      0.8657
   1075.0000   -999.2500   -999.2500   -999.2500      0.0000   -999.2500   -999.2500      0.1829      0.2941      1.9330   -999.2500      1.9150    -11.6122   -999.2500      0.3517   -999.2500      1.1724
   1075.5000   -999.2500   -999.2500   -999.2500      0.0000   -999.2500   -999.2500      0.1917      0.2924      1.9140   -999.2500      1.9250    -11.1936   -999.2500      0.3686   -999.2500      1.2286
   1076.0000   -999.2500   -999.2500   -999.2500      0.0000   -999.2500   -999.2500      0.1911      0.2925      1.9020   -999.2500      1.9170    -11.2131   -999.2500      0.3676   -999.2500      1.2253
   1076.5000   -999.2500   -999.2500   -999.2500      0.0000   -999.2500   -999.2500      0.1855      0.2936      1.8980   -999.2500      1.9080    -11.4735   -999.2500      0.3568   -999.2500      1.1892
   1077.0000   -999.2500   -999.2500   -999.2500      0.1306   -999.2500   -999.2500      0.3097      0.2948      1.8900   -999.2500      1.9140    -11.7740   -999.2500      0.3443   -999.2500      0.8694
   1077.5000   -999.2500   -999.2500   -999.2500      0.1349   -999.2500   -999.2500      0.3101      0.2955      1.9020   -999.2500      1.9340    -11.9485   -999.2500      0.3369   -999.2500      0.8651
   1078.0000   -999.2500   -999.2500   -999.2500      0.1411   -999.2500   -999.2500      0.3107      0.2966      1.9260   -999.2500      1.9470    -12.2089   -999.2500      0.3261   -999.2500      0.8589
   1078.5000   -999.2500   -999.2500   -999.2500      0.1464   -999.2500   -999.2500      0.3112      0.2975      1.9460   -999.2500      1.9670    -12.4274   -999.2500      0.3169   -999.2500      0.8536
   1079.0000   -999.2500   -999.2500   -999.2500      0.1518   -999.2500   -999.2500      0.3117      0.2984      1.9620   -999.2500      1.9800    -12.6498   -999.2500      0.3076   -999.2500      0.8482
   1079.5000   -999.2500   -999.2500   -999.2500      0.1542   -999.2500   -999.2500      0.3120      0.2989      1.9830   -999.2500      2.0010    -12.7453   -999.2500      0.3035   -999.2500      0.8458
