~V
VERS. 2.00: Ver 2.00
WRAP.   NO:        
~W
 STRT.FT 100:
 STOP.FT 3000:
 STEP.FT 0.5:
 NULL. -999.250000:
 COMP. TENNECO OIL COMPANY:Company
 WELL. 51X-30:Well
 FLD. LOS LOBOS:Field
 LOC. SEC. 30 TWP 11N RGE 22W:Location
 STAT. CA:State
 SRVC. :Service Company
 SON. :Service Order #
 DATE. :Log Date
 UWI. :Unique Well ID
~C
 DEPT.FT :
 CALS.IN :
 GRC.GAPI :
 NPHC.PU-S :
 PHES. :
 PHIE. :
 PHIT. :
 PHTS. :
 PHZC. :
 RD.OHMM :
 ROBC.G/C3 :
 RS.OHMM :
 SBL.MV :
 VCLW. :
 VCWS. :
 VSHL. :
 VSHS. :
~P
~A
# ...
   1340.0000   -999.2500   -999.2500   -999.2500      0.0000   -999.2500   -999.2500      0.2889      0.2710      2.5250   -999.2500      2.3170     -4.2425   -999.2500      0.5556   -999.2500      1.8521
   1340.5000   -999.2500   -999.2500   -999.2500      0.0000   -999.2500   -999.2500      0.2866      0.2715      2.5280   -999.2500      2.3120     -4.3753   -999.2500      0.5512   -999.2500      1.8373
   1341.0000   -999.2500   -999.2500   -999.2500      0.0000   -999.2500   -999.2500      0.2899      0.2708      2.5320   -999.2500      2.3190     -4.1901   -999.2500      0.5575   -999.2500      1.8584
   1341.5000   -999.2500   -999.2500   -999.2500      0.0000   -999.2500   -999.2500      0.2944      0.2699      2.5360   -999.2500      2.3270     -3.9259   -999.2500      0.5663   -999.2500      1.8886
   1342.0000   -999.2500   -999.2500   -999.2500      0.0000   -999.2500   -999.2500      0.2940      0.2692      2.5340   -999.2500      2.3170     -3.7027   -999.2500      0.5696   -999.2500      1.9140
   1342.5000   -999.2500   -999.2500   -999.2500      0.0000   -999.2500   -999.2500      0.2937      0.2688      2.5410   -999.2500      2.3070     -3.5975   -999.2500      0.5711   -999.2500      1.9261
   1343.0000   -999.2500   -999.2500   -999.2500      0.0000   -999.2500   -999.2500      0.2939      0.2691      2.5500   -999.2500      2.3190     -3.6883   -999.2500      0.5698   -999.2500      1.9160
   1343.5000   -999.2500   -999.2500   -999.2500      0.0000   -999.2500   -999.2500      0.2936      0.2686      2.5600   -999.2500      2.3300     -3.5411   -999.2500      0.5719   -999.2500      1.9328
   1344.0000   -999.2500   -999.2500   -999.2500      0.0000   -999.2500   -999.2500      0.2933      0.2681      2.5710   -999.2500      2.3290     -3.3929   -999.2500      0.5741   -999.2500      1.9497
   1344.5000   -999.2500   -999.2500   -999.2500      0.0000   -999.2500   -999.2500      0.2930      0.2675      2.5880   -999.2500      2.3360     -3.2147   -999.2500      0.5767   -999.2500      1.9700
   1345.0000   -999.2500   -999.2500   -999.2500      0.0000   -999.2500   -999.2500      0.2931      0.2678      2.5920   -999.2500      2.3480     -3.3075   -999.2500      0.5753   -999.2500      1.9596
   1345.5000   -999.2500   -999.2500   -999.2500      0.0000   -999.2500   -999.2500      0.2933      0.2681      2.5950   -999.2500      2.3420     -3.4023   -999.2500      0.5740   -999.2500      1.9491
   1346.0000   -999.2500   -999.2500   -999.2500      0.0000   -999.2500   -999.2500      0.2936      0.2686      2.5930   -999.2500      2.3460     -3.5750   -999.2500      0.5715   -999.2500      1.9297
   1346.5000   -999.2500   -999.2500   -999.2500      0.0000   -999.2500   -999.2500      0.2939      0.2691      2.6020   -999.2500      2.3960     -3.7088   -999.2500      0.5696   -999.2500      1.9148
   1347.0000   -999.2500   -999.2500   -999.2500      0.0000   -999.2500   -999.2500      0.2941      0.2694      2.6150   -999.2500      2.4350     -3.8016   -999.2500      0.5683   -999.2500      1.9045
   1347.5000   -999.2500   -999.2500   -999.2500      0.0000   -999.2500   -999.2500      0.2941      0.2694      2.6230   -999.2500      2.4510     -3.8164   -999.2500      0.5681   -999.2500      1.9030
   1348.0000   -999.2500   -999.2500   -999.2500      0.0000   -999.2500   -999.2500      0.2938      0.2689      2.6260   -999.2500      2.4550     -3.6742   -999.2500      0.5702   -999.2500      1.9192
   1348.5000   -999.2500   -999.2500   -999.2500      0.0000   -999.2500   -999.2500      0.2936      0.2686      2.6200   -999.2500      2.4490     -3.5640   -999.2500      0.5718   -999.2500      1.9318
   1349.0000   -999.2500   -999.2500   -999.2500      0.0000   -999.2500   -999.2500      0.2927      0.2670      2.6140   -999.2500      2.4390     -3.0998   -999.2500      0.5784   -999.2500      1.9842
   1349.5000   -999.2500   -999.2500   -999.2500      0.0000   -999.2500   -999.2500      0.2931      0.2677      2.6220   -999.2500      2.4420     -3.3136   -999.2500      0.5754   -999.2500      1.9603
   1350.0000   -999.2500   -999.2500   -999.2500      0.0000   -999.2500   -999.2500      0.2942      0.2696      2.6260   -999.2500      2.4490     -3.8874   -999.2500      0.5672   -999.2500      1.8958
   1350.5000   -999.2500   -999.2500   -999.2500      0.0000   -999.2500   -999.2500      0.2864      0.2714      2.6480   -999.2500      2.4440     -4.4192   -999.2500      0.5509   -999.2500      1.8362
   1351.0000   -999.2500   -999.2500   -999.2500      0.0000   -999.2500   -999.2500      0.2715      0.2743      2.6610   -999.2500      2.4560     -5.2720   -999.2500      0.5221   -999.2500      1.7405
   1351.5000   -999.2500   -999.2500   -999.2500      0.0000   -999.2500   -999.2500      0.2559      0.2773      2.6650   -999.2500      2.4860     -6.1638   -999.2500      0.4921   -999.2500      1.6404
   1352.0000   -999.2500   -999.2500   -999.2500      0.0000   -999.2500   -999.2500      0.2403      0.2803      2.6680   -999.2500      2.5440     -7.0576   -999.2500      0.4621   -999.2500      1.5403
   1352.5000   -999.2500   -999.2500   -999.2500      0.0000   -999.2500   -999.2500      0.2190      0.2844      2.6760   -999.2500      2.5660     -7.9884   -999.2500      0.4212   -999.2500      1.4040
   1353.0000   -999.2500   -999.2500   -999.2500      0.0000   -999.2500   -999.2500      0.1935      0.2893      2.6800   -999.2500      2.5830     -8.9622   -999.2500      0.3722   -999.2500      1.2405
   1353.5000   -999.2500   -999.2500   -999.2500      0.1354   -999.2500   -999.2500      0.3076      0.2933      2.6780   -999.2500      2.6050     -9.7740   -999.2500      0.3313   -999.2500      0.8646
   1354.0000   -999.2500   -999.2500   -999.2500      0.1461   -999.2500   -999.2500      0.3087      0.2952      2.6660   -999.2500      2.6230    -10.1478   -999.2500      0.3127   -999.2500      0.8539
   1354.5000   -999.2500   -999.2500   -999.2500      0.1500   -999.2500   -999.2500      0.3091      0.2959      2.6650   -999.2500      2.6170    -10.2846   -999.2500      0.3059   -999.2500      0.8500
   1355.0000   -999.2500   -999.2500   -999.2500      0.1468   -999.2500   -999.2500      0.3088      0.2953      2.6780   -999.2500      2.6200    -10.1794   -999.2500      0.3115   -999.2500      0.8532
   1355.5000   -999.2500   -999.2500   -999.2500      0.1344   -999.2500   -999.2500      0.3075      0.2931      2.6860   -999.2500      2.6330     -9.7562   -999.2500      0.3330   -999.2500      0.8656
   1356.0000   -999.2500   -999.2500   -999.2500      0.0000   -999.2500   -999.2500      0.1979      0.2884      2.6950   -999.2500      2.6510     -8.8150   -999.2500      0.3806   -999.2500      1.2688
   1356.5000   -999.2500   -999.2500   -999.2500      0.0000   -999.2500   -999.2500      0.2184      0.2844      2.7180   -999.2500      2.6390     -8.0358   -999.2500      0.4201   -999.2500      1.4002
   1357.0000   -999.2500   -999.2500   -999.2500      0.0000   -999.2500   -999.2500      0.2286      0.2825      2.7310   -999.2500      2.6570     -7.6526   -999.2500      0.4395   -999.2500      1.4651
   1357.5000   -999.2500   -999.2500   -999.2500      0.0000   -999.2500   -999.2500      0.2350      0.2812      2.7490   -999.2500      2.6700     -7.3894   -999.2500      0.4520   -999.2500      1.5065
   1358.0000   -999.2500   -999.2500   -999.2500      0.0000   -999.2500   -999.2500      0.2376      0.2807      2.7430   -999.2500      2.6640     -7.2462   -999.2500      0.4569   -999.2500      1.5228
   1358.5000   -999.2500   -999.2500   -999.2500      0.0000   -999.2500   -999.2500      0.2402      0.2802      2.7310   -999.2500      2.6330     -7.1000   -999.2500      0.4619   -999.2500      1.5395
   1359.0000   -999.2500   -999.2500   -999.2500      0.0000   -999.2500   -999.2500      0.2462      0.2791      2.7250   -999.2500      2.6130     -6.7578   -999.2500      0.4734   -999.2500      1.5781
   1359.5000   -999.2500   -999.2500   -999.2500      0.0000   -999.2500   -999.2500      0.2522      0.2779      2.7180   -999.2500      2.5550     -6.4146   -999.2500      0.4850   -999.2500      1.6167
