~V
VERS. 2.00: Ver 2.00
WRAP.   NO:        
~W
 STRT.FT 100:
 STOP.FT 3000:
 STEP.FT 0.5:
 NULL. -999.250000:
 COMP. TENNECO OIL COMPANY:Company
 WELL. 51X-30:Well
 FLD. LOS LOBOS:Field
 LOC. SEC. 30 TWP 11N RGE 22W:Location
 STAT. CA:State
 SRVC. :Service Company
 SON. :Service Order #
 DATE. :Log Date
 UWI. :Unique Well ID
~C
 DEPT.FT :
 CALS.IN :
 GRC.GAPI :
 NPHC.PU-S :
 PHES. :
 PHIE. :
 PHIT. :
 PHTS. :
 PHZC. :
 RD.OHMM :
 ROBC.G/C3 :
 RS.OHMM :
 SBL.MV :
 VCLW. :
 VCWS. :
 VSHL. :
 VSHS. :
~P
~A
# ...
   2160.0000      6.7963     87.6175      0.4158      0.3577      0.3518      0.4406      0.4636      0.4594      2.7870      1.8029      2.7870    -21.4661      0.1776      0.1765      0.5443      0.4413
   2160.5000      6.8180     89.0485      0.4139      0.3338      0.3458      0.4372      0.4567      0.4518      2.4840      1.8062      2.4840    -19.7280      0.1828      0.2047      0.5602      0.5119
   2161.0000      6.8650     91.1858      0.4336      0.3097      0.3476      0.4479      0.4496      0.4441      2.2380      1.7986      2.2380    -17.9705      0.2005      0.2333      0.6145      0.5832
   2161.5000      6.9348     95.8934      0.4464      0.2950      0.3398      0.4510      0.4454      0.4394      2.1100      1.7901      2.1100    -16.8989      0.2224      0.2507      0.6602      0.6267
   2162.0000      6.9880    101.5323      0.4557      0.2820      0.3301      0.4531      0.4416      0.4352      2.0090      1.7833      2.0090    -15.9584      0.2460      0.2659      0.6699      0.6648
   2162.5000      7.0162    108.1180      0.4756      0.2630      0.3219      0.4621      0.4361      0.4291      1.8770      1.7775      1.8770    -14.5709      0.2805      0.2885      0.6781      0.7212
   2163.0000      7.0341    116.0511      0.5002      0.2346      0.3017      0.4752      0.4278      0.4201      1.7100      1.7755      1.7100    -12.5023      0.3470      0.3220      0.6983      0.7654
   2163.5000      7.0416    123.0566      0.5575      0.2196      0.2789      0.5134      0.4234      0.4153      1.6330      1.7830      1.6330    -11.4119      0.4689      0.3397      0.7211      0.7804
   2164.0000      7.0430    127.7917      0.5377      0.2130      0.2585      0.4969      0.4215      0.4132      1.6010      1.8107      1.6010    -10.9349      0.4768      0.3475      0.7415      0.7870
   2164.5000      7.0287    128.9112      0.5541      0.2028      0.2435      0.4983      0.4186      0.4099      1.5540      1.8347      1.5540    -10.1919      0.5096      0.3595      0.7565      0.7972
   2165.0000      7.0059    124.5900      0.5704      0.1946      0.2508      0.5080      0.4162      0.4073      1.5180      1.8325      1.5180     -9.5941      0.5145      0.3693      0.7492      0.8054
   2165.5000      6.9876    118.6965      0.5821      0.1900      0.2785      0.5248      0.4148      0.4058      1.4980      1.8018      1.4980     -9.2549      0.4925      0.3748      0.7215      0.8100
   2166.0000      6.9711    111.5672      0.5892      0.1894      0.3017      0.5323      0.4146      0.4056      1.4950      1.7803      1.4950     -9.2139      0.4612      0.3754      0.6983      0.8106
   2166.5000      6.9387    102.4822      0.5964      0.1942      0.3221      0.5383      0.4160      0.4072      1.5140      1.7744      1.5140     -9.5623      0.4324      0.3698      0.6779      0.8058
   2167.0000      6.8774     96.5921      0.6031      0.2002      0.3354      0.5437      0.4178      0.4091      1.5390      1.7724      1.5390    -10.0041      0.4167      0.3626      0.6646      0.7998
   2167.5000      6.8303     93.7158   -999.2500      0.2043      0.3616      0.4928      0.4190      0.4104      1.5560      1.7707      1.5560    -10.3006      0.2623      0.3578      0.6384      0.7957
   2168.0000      6.8074     92.3703      0.5947      0.2083      0.3427      0.5384      0.4201      0.4117      1.5730      1.7690      1.5730    -10.5911      0.3913      0.3531      0.6573      0.7917
   2168.5000      6.8098     94.9860      0.5765      0.2146      0.3354      0.5258      0.4220      0.4137      1.6010      1.7657      1.6010    -11.0484      0.3809      0.3456      0.6646      0.7854
   2169.0000      6.8496    100.0079      0.5583      0.2229      0.3233      0.5132      0.4244      0.4163      1.6400      1.7640      1.6400    -11.6552      0.3799      0.3358      0.6767      0.7771
   2169.5000      6.9029    102.2045      0.5402      0.2265      0.3204      0.4998      0.4254      0.4175      1.6570      1.7660      1.6570    -11.9180      0.3587      0.3315      0.6796      0.7735
   2170.0000      6.9422    109.1225      0.5213      0.2285      0.3042      0.4888      0.4260      0.4181      1.6660      1.7842      1.6660    -12.0610      0.3693      0.3292      0.6958      0.7715
   2170.5000      6.9434    113.3506      0.5176      0.2280      0.2946      0.4875      0.4259      0.4180      1.6630      1.7917      1.6630    -12.0303      0.3859      0.3297      0.7054      0.7720
   2171.0000      6.9114    112.6007      0.5381      0.2252      0.2925      0.5000      0.4250      0.4170      1.6480      1.7872      1.6480    -11.8240      0.4150      0.3331      0.7075      0.7748
   2171.5000      6.8865    104.3182      0.5240      0.2202      0.3165      0.4895      0.4236      0.4155      1.6230      1.7741      1.6230    -11.4627      0.3460      0.3389      0.6835      0.7798
   2172.0000      6.9112     92.4608      0.4852      0.2130      0.3513      0.4640      0.4215      0.4131      1.5880      1.7639      1.5880    -10.9321      0.2254      0.3475      0.6487      0.7870
   2172.5000      6.9384     90.8700      0.4659      0.2028      0.3481      0.4493      0.4185      0.4099      1.5420      1.7526      1.5420    -10.1933      0.2023      0.3595      0.6200      0.7972
   2173.0000      6.9755     91.3020      0.4723      0.1918      0.3497      0.4512      0.4153      0.4064      1.4950      1.7397      1.4950     -9.3904      0.2029      0.3726      0.6218      0.8082
   2173.5000      7.0126     92.9140      0.4954      0.1739      0.3554      0.4668      0.4101      0.4007      1.4250      1.7363      1.4250     -8.0887      0.2227      0.3937      0.6446      0.8261
   2174.0000      7.0462     95.8812      0.5064      0.1612      0.3510      0.4748      0.4064      0.3966      1.3790      1.7400      1.3790     -7.1650      0.2476      0.4087      0.6490      0.8388
   2174.5000      7.0722    100.2913      0.5068      0.1516      0.3405      0.4757      0.4036      0.3935      1.3460      1.7458      1.3460     -6.4664      0.2704      0.4200      0.6595      0.8484
   2175.0000      7.0953    103.8814      0.5199      0.1466      0.3322      0.4845      0.4022      0.3919      1.3290      1.7440      1.3290     -6.0989      0.3047      0.4260      0.6678      0.8534
   2175.5000      7.1077    107.4459      0.5486      0.1458      0.3225      0.5040      0.4019      0.3917      1.3260      1.7389      1.3260     -6.0434      0.3630      0.4269      0.6775      0.8542
   2176.0000      7.1154    110.3037      0.5772      0.1469      0.3148      0.5240      0.4023      0.3920      1.3290      1.7359      1.3290     -6.1241      0.4185      0.4256      0.6852      0.8531
   2176.5000      7.1142    110.2631      0.5922      0.1477      0.3169      0.5346      0.4025      0.3923      1.3310      1.7396      1.3310     -6.1820      0.4353      0.4246      0.6831      0.8523
   2177.0000      7.0985    109.2706      0.5948      0.1485      0.3147      0.5356      0.4027      0.3925      1.3330      1.7521      1.3330     -6.2397      0.4417      0.4237      0.6853      0.8515
   2177.5000      7.0840    106.9493      0.5743      0.1523      0.3117      0.5209      0.4038      0.3938      1.3450      1.7607      1.3450     -6.5200      0.4184      0.4192      0.6883      0.8477
   2178.0000      7.0780    104.0595      0.5422      0.1558      0.3191      0.5002      0.4048      0.3949      1.3560      1.7598      1.3560     -6.7739      0.3621      0.4150      0.6809      0.8442
   2178.5000      7.0546    101.2886      0.5172      0.1592      0.3327      0.4835      0.4058      0.3960      1.3670      1.7543      1.3670     -7.0238      0.3016      0.4110      0.6673      0.8408
   2179.0000      7.0150     99.4624      0.5178      0.1708      0.3420      0.4828      0.4092      0.3997      1.4070      1.7408      1.4070     -7.8683      0.2815      0.3973      0.6580      0.8292
   2179.5000      6.9878     99.4854      0.5330      0.1836      0.3442      0.4928      0.4129      0.4037      1.4540      1.7301      1.4540     -8.7999      0.2972      0.3821      0.6558      0.8164
