~V
VERS. 2.00: Ver 2.00
WRAP.   NO:        
~W
 STRT.FT 100:
 STOP.FT 3000:
 STEP.FT 0.5:
 NULL. -999.250000:
 COMP. TENNECO OIL COMPANY:Company
 WELL. 51X-30:Well
 FLD. LOS LOBOS:Field
 LOC. SEC. 30 TWP 11N RGE 22W:Location
 STAT. CA:State
 SRVC. :Service Company
 SON. :Service Order #
 DATE. :Log Date
 UWI. :Unique Well ID
~C
 DEPT.FT :
 CALS.IN :
 GRC.GAPI :
 NPHC.PU-S :
 PHES. :
 PHIE. :
 PHIT. :
 PHTS. :
 PHZC. :
 RD.OHMM :
 ROBC.G/C3 :
 RS.OHMM :
 SBL.MV :
 VCLW. :
 VCWS. :
 VSHL. :
 VSHS. :
~P
~A
# ...
   2976.5000      6.5100     51.9640      0.5003      0.0000      0.0000      0.4201      0.6000 270000019174388625000000000000.0000   -999.2500      2.0213   -999.2500   -999.2500      0.3491      0.7000      1.0000      1.0000
   2977.0000      6.5100     51.9570      0.4944      0.0000      0.0000      0.4203      0.6000 270000019174388625000000000000.0000   -999.2500      2.0131   -999.2500   -999.2500      0.3384      0.7000      1.0000      1.0000
   2977.5000      6.5100     51.9500      0.4881      0.0000      0.0000      0.4167      0.6000 270000019174388625000000000000.0000   -999.2500      2.0148   -999.2500   -999.2500      0.3332      0.7000      1.0000      1.0000
   2978.0000      6.5100     51.9420      0.4878      0.0000      0.0000      0.4154      0.6000 270000019174388625000000000000.0000   -999.2500      2.0181   -999.2500   -999.2500      0.3348      0.7000      1.0000      1.0000
   2978.5000      6.5100     51.9350      0.4970      0.0000      0.0000      0.4209      0.6000 270000019174388625000000000000.0000   -999.2500      2.0148   -999.2500   -999.2500      0.3419      0.7000      1.0000      1.0000
   2979.0000      6.5100     51.9280      0.5039      0.0000      0.0000      0.4241      0.6000 270000019174388625000000000000.0000   -999.2500      2.0148   -999.2500   -999.2500      0.3487      0.7000      1.0000      1.0000
   2979.5000      6.5100     51.9200      0.5058      0.0000      0.0000      0.4245      0.6000 270000019174388625000000000000.0000   -999.2500      2.0164   -999.2500   -999.2500      0.3515      0.7000      1.0000      1.0000
   2980.0000      6.5100     51.9130      0.5060      0.0000      0.0000      0.4251      0.6000 270000019174388625000000000000.0000   -999.2500      2.0148   -999.2500   -999.2500      0.3507      0.7000      1.0000      1.0000
   2980.5000      6.5100     51.9060      0.5052      0.0000      0.0000      0.4259      0.6000 270000019174388625000000000000.0000   -999.2500      2.0114   -999.2500   -999.2500      0.3479      0.7000      1.0000      1.0000
   2981.0000      6.5100     51.8980      0.5058      0.0000      0.0000      0.4291      0.6000 270000019174388625000000000000.0000   -999.2500      2.0032   -999.2500   -999.2500      0.3436      0.7000      1.0000      1.0000
   2981.5000      6.5100     51.8910      0.5060      0.0000      0.0000      0.4286      0.6000 270000019174388625000000000000.0000   -999.2500      2.0048   -999.2500   -999.2500      0.3447      0.7000      1.0000      1.0000
   2982.0000      6.5100     51.8840      0.5068      0.0000      0.0000      0.4267      0.6000 270000019174388625000000000000.0000   -999.2500      2.0114   -999.2500   -999.2500      0.3494      0.7000      1.0000      1.0000
   2982.5000      6.5100     51.8760      0.5070      0.0000      0.0000      0.4221      0.6000 270000019174388625000000000000.0000   -999.2500      2.0247   -999.2500   -999.2500      0.3575      0.7000      1.0000      1.0000
   2983.0000      6.5100     51.8690      0.5070      0.0000      0.0000      0.4143      0.6000 270000019174388625000000000000.0000   -999.2500      2.0461   -999.2500   -999.2500      0.3702      0.7000      1.0000      1.0000
   2983.5000      6.5100     51.8620      0.5070      0.0000      0.0000      0.4179      0.6000 270000019174388625000000000000.0000   -999.2500      2.0362   -999.2500   -999.2500      0.3643      0.7000      1.0000      1.0000
   2984.0000      6.5100     51.8540      0.5070      0.0000      0.0000      0.4238      0.6000 270000019174388625000000000000.0000   -999.2500      2.0197   -999.2500   -999.2500      0.3545      0.7000      1.0000      1.0000
   2984.5000      6.5100     51.8470      0.5070      0.0000      0.0000      0.4250      0.6000 270000019174388625000000000000.0000   -999.2500      2.0164   -999.2500   -999.2500      0.3525      0.7000      1.0000      1.0000
   2985.0000      6.5100     51.8400      0.5070      0.0000      0.0000      0.4256      0.6000 270000019174388625000000000000.0000   -999.2500      2.0148   -999.2500   -999.2500      0.3515      0.7000      1.0000      1.0000
   2985.5000      6.5100     51.8330      0.5070      0.0000      0.0000      0.4244      0.6000 270000019174388625000000000000.0000   -999.2500      2.0181   -999.2500   -999.2500      0.3534      0.7000      1.0000      1.0000
   2986.0000      6.5100     51.8250      0.5078      0.0000      0.0000      0.4248      0.6000 270000019174388625000000000000.0000   -999.2500      2.0181   -999.2500   -999.2500      0.3542      0.7000      1.0000      1.0000
   2986.5000      6.5100     51.8180      0.5080      0.0000      0.0000      0.4284      0.6000 270000019174388625000000000000.0000   -999.2500      2.0082   -999.2500   -999.2500      0.3485      0.7000      1.0000      1.0000
   2987.0000      6.5100     51.8110      0.5072      0.0000      0.0000      0.4315      0.6000 270000019174388625000000000000.0000   -999.2500      1.9983   -999.2500   -999.2500      0.3418      0.7000      1.0000      1.0000
   2987.5000      6.5100     51.8030      0.5070      0.0000      0.0000      0.4297      0.6000 270000019174388625000000000000.0000   -999.2500      2.0032   -999.2500   -999.2500      0.3445      0.7000      1.0000      1.0000
   2988.0000      6.5100     51.7960      0.5070      0.0000      0.0000      0.4262      0.6000 270000019174388625000000000000.0000   -999.2500      2.0131   -999.2500   -999.2500      0.3504      0.7000      1.0000      1.0000
   2988.5000      6.5100     51.7890      0.5070      0.0000      0.0000      0.4226      0.6000 270000019174388625000000000000.0000   -999.2500      2.0230   -999.2500   -999.2500      0.3563      0.7000      1.0000      1.0000
   2989.0000      6.5100     51.7810      0.5062      0.0000      0.0000      0.4217      0.6000 270000019174388625000000000000.0000   -999.2500      2.0247   -999.2500   -999.2500      0.3564      0.7000      1.0000      1.0000
   2989.5000      6.5100     51.7740      0.5060      0.0000      0.0000      0.4192      0.6000 270000019174388625000000000000.0000   -999.2500      2.0312   -999.2500   -999.2500      0.3602      0.7000      1.0000      1.0000
   2990.0000      6.5100     51.7670      0.5068      0.0000      0.0000      0.4160      0.6000 270000019174388625000000000000.0000   -999.2500      2.0412   -999.2500   -999.2500      0.3669      0.7000      1.0000      1.0000
   2990.5000      6.5100     51.7590      0.5070   -999.2500      0.0000      0.4378   -999.2500   -999.2500   -999.2500      2.0461   -999.2500   -999.2500      0.0000   -999.2500      0.0000   -999.2500
   2991.0000   -999.2500   -999.2500      0.5070   -999.2500      0.0000      0.8000   -999.2500   -999.2500   -999.2500   -999.2500   -999.2500   -999.2500      0.0000   -999.2500      0.0000   -999.2500
   2991.5000   -999.2500   -999.2500      0.5070   -999.2500      0.0000      0.8000   -999.2500   -999.2500   -999.2500   -999.2500   -999.2500   -999.2500      0.0000   -999.2500      0.0000   -999.2500
   2992.0000   -999.2500   -999.2500   -999.2500   -999.2500      0.0000      0.8000   -999.2500   -999.2500   -999.2500   -999.2500   -999.2500   -999.2500      0.0000   -999.2500      0.0000   -999.2500
   2992.5000   -999.2500   -999.2500   -999.2500   -999.2500      0.0000      0.8000   -999.2500   -999.2500   -999.2500   -999.2500   -999.2500   -999.2500      0.0000   -999.2500      0.0000   -999.2500
   2993.0000   -999.2500   -999.2500   -999.2500   -999.2500      0.0000      0.8000   -999.2500   -999.2500   -999.2500   -999.2500   -999.2500   -999.2500      0.0000   -999.2500      0.0000   -999.2500
   2993.5000   -999.2500   -999.2500   -999.2500   -999.2500      0.0000      0.8000   -999.2500   -999.2500   -999.2500   -999.2500   -999.2500   -999.2500      0.0000   -999.2500      0.0000   -999.2500
   2994.0000   -999.2500   -999.2500   -999.2500   -999.2500      0.0000      0.8000   -999.2500   -999.2500   -999.2500   -999.2500   -999.2500   -999.2500      0.0000   -999.2500      0.0000   -999.2500
