~V
VERS. 2.00: Ver 2.00
WRAP.   NO:        
~W
 STRT.FT 100:
 STOP.FT 3000:
 STEP.FT 0.5:
 NULL. -999.250000:
 COMP. TENNECO OIL COMPANY:Company
 WELL. 51X-30:Well
 FLD. LOS LOBOS:Field
 LOC. SEC. 30 TWP 11N RGE 22W:Location
 STAT. CA:State
 SRVC. :Service Company
 SON. :Service Order #
 DATE. :Log Date
 UWI. :Unique Well ID
~C
 DEPT.FT :
 CALS.IN :
 GRC.GAPI :
 NPHC.PU-S :
 PHES. :
 PHIE. :
 PHIT. :
 PHTS. :
 PHZC. :
 RD.OHMM :
 ROBC.G/C3 :
 RS.OHMM :
 SBL.MV :
 VCLW. :
 VCWS. :
 VSHL. :
 VSHS. :
~P
~A
# ...
   1880.0000      6.9875     70.6410      0.4725      0.2676      0.3816      0.4734      0.4386      0.4318      2.8630      1.8023      2.8630    -14.7853      0.1836      0.2850      0.5627      0.7124
   1880.5000      6.9902     60.3398      0.3968      0.2797      0.3720      0.4262      0.4421      0.4356      3.0520      1.8217      3.0520    -15.6631      0.1084      0.2707      0.3322      0.6768
   1881.0000      6.9807     55.1648      0.3233      0.2959      0.3460      0.3773      0.4468      0.4408      3.3500      1.8579      3.3500    -16.8415      0.0625      0.2516      0.1915      0.6290
   1881.5000      6.9590     43.3378      0.2842      0.3109      0.3168      0.3384      0.4512      0.4456      3.6830      1.9395      3.6830    -17.9337      0.0431      0.2339      0.1322      0.5847
   1882.0000      6.9625     40.9268      0.2604      0.3248      0.2880      0.3120      0.4552      0.4500      4.0570      2.0045      4.0570    -18.9476      0.0481      0.2174      0.1475      0.5435
   1882.5000      7.0035     39.4291      0.2412      0.3383      0.2461      0.2814      0.4592      0.4543      4.5020      2.0968      4.5020    -19.9347      0.0707      0.2014      0.2166      0.5035
   1883.0000      7.0249     37.5762      0.2359      0.3545      0.2285      0.2698      0.4639      0.4595      5.1820      2.1352      5.1820    -21.1133      0.0826      0.1823      0.2530      0.4556
   1883.5000      7.0687     36.0614      0.2388      0.3677      0.2172      0.2645      0.4677      0.4637      5.9100      2.1605      5.9100    -22.0767      0.0947      0.1666      0.2903      0.4165
   1884.0000      7.1159     33.8939      0.2633      0.3820      0.1791      0.2635      0.4719      0.4683      6.9910      2.1967      6.9910    -23.1359      0.1689      0.1498      0.5177      0.3744
   1884.5000      7.1764     31.2108      0.2848      0.3861      0.1602      0.2687      0.4730      0.4696      8.0170      2.2057      8.0170    -23.8807      0.2170      0.1449      0.6650      0.3623
   1885.0000      7.2608     27.8407      0.3031      0.3858      0.1630      0.2789      0.4730      0.4695      7.9290      2.1943      7.9290    -23.8380      0.2318      0.1452      0.7104      0.3630
   1885.5000      7.4071     24.7960      0.3199      0.3840      0.1659      0.2876      0.4724      0.4689      7.4240      2.1861      7.4240    -23.5074      0.2435      0.1474      0.7461      0.3684
   1886.0000      7.5669     21.7506      0.3321      0.3824      0.1705      0.2953      0.4720      0.4684      7.0150      2.1763      7.0150    -23.2059      0.2495      0.1493      0.7647      0.3733
   1886.5000      7.6228     24.4865      0.3343      0.3823      0.1774      0.2999      0.4719      0.4684      6.9890      2.1649      6.9890    -23.1973      0.2450      0.1494      0.7508      0.3734
   1887.0000      7.7131     32.4484      0.2654      0.3834      0.2033      0.2733      0.4722      0.4687      7.2220      2.1666      7.2220    -23.3945      0.1400      0.1481      0.4290      0.3702
   1887.5000      7.8391     38.7782      0.2092      0.3844      0.1934      0.2408      0.4725      0.4690      7.4490      2.2091      7.4490    -23.5759      0.0947      0.1469      0.2901      0.3673
   1888.0000      7.9030     49.9055      0.2100      0.3847      0.0742      0.2011      0.4726      0.4691      7.5170      2.3476      7.5170    -23.6371      0.2536      0.1465      0.7773      0.3663
   1888.5000      7.6096     53.3679      0.2282      0.3832      0.0741      0.1976      0.4722      0.4686      7.1290      2.3725      7.1290    -23.3601      0.2471      0.1483      0.7571      0.3708
   1889.0000      7.2576     53.7564      0.2894      0.3803      0.0589      0.2258      0.4713      0.4677      6.6750      2.3369      6.6750    -22.9911      0.3338      0.1518      0.9411      0.3794
   1889.5000      7.1641     53.0865      0.3749      0.3745      0.2574      0.3623      0.4697      0.4659      6.2270      2.0235      6.2270    -22.5726      0.2099      0.1586      0.6432      0.3964
   1890.0000      7.1676     52.6809      0.4019      0.3692      0.3464      0.4115      0.4681      0.4642      5.8630      1.9062      5.8630    -22.1864      0.1302      0.1648      0.3990      0.4121
   1890.5000      7.1588     53.0553      0.4088      0.3669      0.3756      0.4313      0.4674      0.4634      5.7140      1.8494      5.7140    -22.0211      0.1114      0.1675      0.3414      0.4188
   1891.0000      7.1367     53.6712      0.3815      0.3669      0.3701      0.4167      0.4674      0.4634      5.7040      1.8459      5.7040    -22.0214      0.0932      0.1675      0.2855      0.4188
   1891.5000      7.0943     53.9566      0.3053      0.3687      0.3457      0.3702      0.4679      0.4640      5.7980      1.8605      5.7980    -22.1477      0.0489      0.1655      0.1498      0.4136
   1892.0000      7.0729     52.5054      0.2999      0.3731      0.3423      0.3652      0.4692      0.4654      6.0680      1.8700      6.0680    -22.4673      0.0459      0.1603      0.1407      0.4007
   1892.5000      7.0410     48.9132      0.2989      0.3774      0.3443      0.3639      0.4705      0.4668      6.3630      1.8745      6.3630    -22.7855      0.0391      0.1551      0.1197      0.3878
   1893.0000      7.0090     48.7066      0.2981      0.3804      0.3445      0.3636      0.4713      0.4677      6.5750      1.8745      6.5750    -23.0008      0.0381      0.1516      0.1167      0.3790
   1893.5000      7.0110     50.3147      0.3097      0.3831      0.3457      0.3703      0.4721      0.4686      6.9580      1.8741      6.9580    -23.3483      0.0492      0.1484      0.1507      0.3710
   1894.0000      7.0299     51.7602      0.3157      0.3845      0.3475      0.3748      0.4725      0.4690      7.2690      1.8697      7.2690    -23.6069      0.0547      0.1467      0.1676      0.3668
   1894.5000      7.0838     50.5716      0.3127      0.3851      0.3526      0.3755      0.4727      0.4692      7.3890      1.8597      7.3890    -23.7089      0.0460      0.1460      0.1408      0.3651
   1895.0000      7.2290     47.4435      0.2883      0.3845      0.3549      0.3642      0.4725      0.4690      7.2420      1.8494      7.2420    -23.6116      0.0186      0.1467      0.0570      0.3667
   1895.5000      7.5028     45.1632      0.2697      0.3831      0.3507      0.3565      0.4721      0.4686      6.9060      1.8365      6.9060    -23.3555      0.0115      0.1483      0.0352      0.3709
   1896.0000      7.9055     45.3302      0.2681      0.3798      0.3532      0.3591      0.4712      0.4675      6.4540      1.8181      6.4540    -22.9624      0.0118      0.1522      0.0363      0.3806
   1896.5000      8.2400     46.4302      0.3037      0.3772      0.3758      0.3829      0.4704      0.4667      6.2450      1.8001      6.2450    -22.7676      0.0143      0.1554      0.0438      0.3885
   1897.0000      8.1933     47.8061      0.3329      0.3754      0.3785      0.3901      0.4699      0.4661      6.1090      1.7852      6.1090    -22.6377      0.0232      0.1575      0.0712      0.3938
   1897.5000      7.9729     48.6277      0.3369      0.3737      0.3770      0.3897      0.4694      0.4656      5.9880      1.7796      5.9880    -22.5180      0.0254      0.1594      0.0778      0.3986
   1898.0000      7.7732     49.0721      0.3257      0.3729      0.3735      0.3836      0.4691      0.4653      5.9220      1.7825      5.9220    -22.4561      0.0202      0.1605      0.0618      0.4011
   1898.5000      7.7559     49.5780      0.3176      0.3699      0.3698      0.3804      0.4683      0.4644      5.7300      1.7859      5.7300    -22.2424      0.0213      0.1639      0.0652      0.4098
   1899.0000      7.8343     50.3821      0.3428      0.3678      0.3808      0.4000      0.4677      0.4637      5.5950      1.7920      5.5950    -22.0866      0.0383      0.1665      0.1173      0.4161
   1899.5000      7.8563     51.4006      0.3991      0.3656      0.3964      0.4356      0.4670      0.4630      5.4640      1.7925      5.4640    -21.9278      0.0783      0.1690      0.2399      0.4226
