~V
VERS. 2.00: Ver 2.00
WRAP.   NO:        
~W
 STRT.FT 100:
 STOP.FT 3000:
 STEP.FT 0.5:
 NULL. -999.250000:
 COMP. TENNECO OIL COMPANY:Company
 WELL. 51X-30:Well
 FLD. LOS LOBOS:Field
 LOC. SEC. 30 TWP 11N RGE 22W:Location
 STAT. CA:State
 SRVC. :Service Company
 SON. :Service Order #
 DATE. :Log Date
 UWI. :Unique Well ID
~C
 DEPT.FT :
 CALS.IN :
 GRC.GAPI :
 NPHC.PU-S :
 PHES. :
 PHIE. :
 PHIT. :
 PHTS. :
 PHZC. :
 RD.OHMM :
 ROBC.G/C3 :
 RS.OHMM :
 SBL.MV :
 VCLW. :
 VCWS. :
 VSHL. :
 VSHS. :
~P
~A
# ...
   2560.0000      6.9250     85.0500      0.3950      0.4031      0.3342      0.4202      0.4751      0.4722      3.4400      1.8465      3.4400    -27.7106      0.1722      0.1201      0.5277      0.3002
   2560.5000      6.9763     81.6881      0.3585      0.4063      0.3312      0.4011      0.4760      0.4732      3.6230      1.8448      3.6230    -28.2960      0.1397      0.1163      0.4280      0.2906
   2561.0000      7.0331     74.8800      0.3374      0.4088      0.3376      0.3915      0.4768      0.4741      3.7820      1.8381      3.7820    -28.7582      0.1078      0.1133      0.3303      0.2831
   2561.5000      7.2277     73.7156      0.3196      0.4100      0.3394      0.3840      0.4771      0.4744      3.8620      1.8281      3.8620    -28.9754      0.0892      0.1118      0.2734      0.2796
   2562.0000      7.3413     76.9490      0.3076      0.4080      0.3364      0.3789      0.4765      0.4738      3.7340      1.8198      3.7340    -28.6184      0.0851      0.1142      0.2608      0.2854
   2562.5000      7.3648     83.0848      0.3169      0.4051      0.3335      0.3850      0.4757      0.4729      3.5570      1.8149      3.5570    -28.0834      0.1029      0.1176      0.3154      0.2941
   2563.0000      7.2670     87.5818      0.3340      0.4031      0.3318      0.3950      0.4751      0.4722      3.4450      1.8114      3.4450    -27.7159      0.1264      0.1200      0.3873      0.3001
   2563.5000      7.2592     85.5520      0.3569      0.4015      0.3427      0.4089      0.4746      0.4717      3.3610      1.8065      3.3610    -27.4238      0.1324      0.1219      0.4058      0.3048
   2564.0000      7.2774     80.4253      0.4161      0.3987      0.3642      0.4434      0.4738      0.4708      3.2260      1.8030      3.2260    -26.9238      0.1583      0.1252      0.4853      0.3129
   2564.5000      7.1076     73.9911      0.4124      0.3941      0.3709      0.4407      0.4725      0.4694      3.0230      1.7979      3.0230    -26.0893      0.1395      0.1306      0.4276      0.3265
   2565.0000      7.0262     71.9934      0.3998      0.3909      0.3683      0.4306      0.4716      0.4683      2.8960      1.7929      2.8960    -25.5071      0.1246      0.1344      0.3819      0.3359
   2565.5000      7.0261     72.5163      0.4061      0.3879      0.3679      0.4319      0.4707      0.4673      2.7840      1.7881      2.7840    -24.9495      0.1281      0.1380      0.3925      0.3450
   2566.0000      7.0892     75.9325      0.4270      0.3854      0.3692      0.4433      0.4699      0.4666      2.7010      1.7848      2.7010    -24.5061      0.1483      0.1409      0.4543      0.3522
   2566.5000      7.1465     79.6075      0.4269      0.3829      0.3642      0.4418      0.4692      0.4658      2.6210      1.7821      2.6210    -24.0521      0.1553      0.1438      0.4760      0.3595
   2567.0000      7.1258     83.2316      0.4117      0.3797      0.3552      0.4323      0.4683      0.4647      2.5240      1.7843      2.5240    -23.4637      0.1541      0.1476      0.4723      0.3691
   2567.5000      7.0846     87.7164      0.3908      0.3743      0.3436      0.4220      0.4667      0.4630      2.4310      1.7916      2.4310    -22.8555      0.1567      0.1540      0.4803      0.3849
   2568.0000      7.0327     92.4267      0.3752      0.3683      0.3275      0.4074      0.4650      0.4611      2.3680      1.7830      2.3680    -22.4158      0.1597      0.1611      0.4893      0.4028
   2568.5000      7.0512     92.9109      0.3674      0.3603      0.3158      0.3885      0.4626      0.4585      2.2890      1.7563      2.2890    -21.8309      0.1454      0.1706      0.4456      0.4265
   2569.0000      7.1221     90.1180      0.4218      0.3436      0.3385      0.4201      0.4578      0.4532      2.1410      1.7354      2.1410    -20.6210      0.1633      0.1902      0.5004      0.4756
   2569.5000      7.1575     89.3585      0.4398      0.3309      0.3465      0.4303      0.4541      0.4492      2.0400      1.7232      2.0400    -19.6941      0.1676      0.2053      0.5137      0.5132
   2570.0000      7.1613     90.2482      0.4955      0.3266      0.3707      0.4752      0.4528      0.4478      2.0080      1.7260      2.0080    -19.3797      0.2091      0.2104      0.6293      0.5260
   2570.5000      7.1676     91.5262      0.5024      0.3156      0.3694      0.4801      0.4496      0.4443      1.9310      1.7340      1.9310    -18.5834      0.2215      0.2233      0.6306      0.5583
   2571.0000      7.1984     93.7398      0.5023      0.3090      0.3605      0.4798      0.4477      0.4422      1.8870      1.7456      1.8870    -18.0985      0.2387      0.2312      0.6395      0.5780
   2571.5000      7.2190     95.7760      0.4648      0.3066      0.3430      0.4529      0.4470      0.4414      1.8720      1.7546      1.8720    -17.9267      0.2199      0.2340      0.6570      0.5850
   2572.0000      7.2111     97.4289      0.4149      0.3078      0.3224      0.4207      0.4474      0.4418      1.8800      1.7647      1.8800    -18.0157      0.1967      0.2325      0.6027      0.5813
   2572.5000      7.1920     96.4795      0.3986      0.3139      0.3209      0.4139      0.4491      0.4437      1.9200      1.7734      1.9200    -18.4571      0.1859      0.2254      0.5696      0.5634
   2573.0000      7.1666     94.3527      0.4307      0.3203      0.3360      0.4363      0.4510      0.4457      1.9640      1.7757      1.9640    -18.9219      0.2006      0.2178      0.6147      0.5446
   2573.5000      7.1587     93.9922      0.4356      0.3261      0.3376      0.4370      0.4527      0.4476      2.0060      1.7662      2.0060    -19.3464      0.1987      0.2109      0.6090      0.5273
   2574.0000      7.1741     94.6406      0.4366      0.3302      0.3361      0.4345      0.4539      0.4489      2.0370      1.7542      2.0370    -19.6479      0.1968      0.2060      0.6032      0.5151
   2574.5000      7.2076     95.4905      0.4377      0.3354      0.3348      0.4329      0.4554      0.4506      2.0770      1.7433      2.0770    -20.0241      0.1963      0.1999      0.6014      0.4998
   2575.0000      7.2290     97.0310      0.4379      0.3422      0.3322      0.4308      0.4573      0.4527      2.1320      1.7316      2.1320    -20.5190      0.1971      0.1919      0.6042      0.4797
   2575.5000      7.2290     99.9832      0.4349      0.3489      0.3258      0.4275      0.4593      0.4549      2.1890      1.7259      2.1890    -21.0057      0.2034      0.1840      0.6233      0.4600
   2576.0000      7.2262    101.7026      0.4355      0.3524      0.3231      0.4275      0.4603      0.4560      2.2200      1.7234      2.2200    -21.2589      0.2089      0.1799      0.6402      0.4497
   2576.5000      7.2102    103.0097      0.4494      0.3529      0.3272      0.4387      0.4604      0.4561      2.2250      1.7237      2.2250    -21.2975      0.2230      0.1793      0.6728      0.4482
   2577.0000      7.1929    106.0836      0.4958      0.3508      0.3443      0.4779      0.4598      0.4555      2.2070      1.7293      2.2070    -21.1489      0.2672      0.1817      0.6557      0.4542
   2577.5000      7.1684    110.2504      0.5013      0.3488      0.3357      0.4810      0.4592      0.4548      2.1890      1.7407      2.1890    -20.9980      0.2905      0.1841      0.6643      0.4603
   2578.0000      7.1080    112.1752      0.5011      0.3439      0.3245      0.4809      0.4578      0.4533      2.1480      1.7552      2.1480    -20.6473      0.3128      0.1898      0.6755      0.4745
   2578.5000      7.0462    110.6024      0.4665      0.3408      0.3185      0.4582      0.4569      0.4523      2.1220      1.7682      2.1220    -20.4172      0.2795      0.1936      0.6815      0.4839
   2579.0000      7.0013    108.1197      0.4437      0.3367      0.3155      0.4446      0.4557      0.4510      2.0890      1.7755      2.0890    -20.1175      0.2584      0.1984      0.6845      0.4960
   2579.5000      6.9715    105.8442      0.4441      0.3306      0.3190      0.4434      0.4539      0.4490      2.0420      1.7715      2.0420    -19.6748      0.2489      0.2056      0.6810      0.5140
