~V
VERS. 2.00: Ver 2.00
WRAP.   NO:        
~W
 STRT.FT 100:
 STOP.FT 3000:
 STEP.FT 0.5:
 NULL. -999.250000:
 COMP. TENNECO OIL COMPANY:Company
 WELL. 51X-30:Well
 FLD. LOS LOBOS:Field
 LOC. SEC. 30 TWP 11N RGE 22W:Location
 STAT. CA:State
 SRVC. :Service Company
 SON. :Service Order #
 DATE. :Log Date
 UWI. :Unique Well ID
~C
 DEPT.FT :
 CALS.IN :
 GRC.GAPI :
 NPHC.PU-S :
 PHES. :
 PHIE. :
 PHIT. :
 PHTS. :
 PHZC. :
 RD.OHMM :
 ROBC.G/C3 :
 RS.OHMM :
 SBL.MV :
 VCLW. :
 VCWS. :
 VSHL. :
 VSHS. :
~P
~A
# ...
   2440.0000      7.3908    123.2294      0.5241      0.3500      0.3022      0.4973      0.4602      0.4558      2.1310      1.7560      2.1310    -21.0295      0.3901      0.1836      0.6978      0.4590
   2440.5000      7.3965    128.3891      0.5628      0.3478      0.2951      0.5307      0.4595      0.4551      2.1130      1.7576      2.1130    -20.8676      0.4711      0.1862      0.7049      0.4656
   2441.0000      7.4165    132.4634      0.5901      0.3465      0.2991      0.5530      0.4592      0.4547      2.1030      1.7586      2.1030    -20.7757      0.5079      0.1877      0.7009      0.4693
   2441.5000      7.4772    133.5183      0.5967      0.3458      0.3018      0.5592      0.4589      0.4544      2.0970      1.7553      2.0970    -20.7194      0.5148      0.1886      0.6982      0.4716
   2442.0000      7.6308    134.1906      0.5672      0.3401      0.2922      0.5345      0.4573      0.4526      2.0530      1.7508      2.0530    -20.3086      0.4847      0.1953      0.7078      0.4883
   2442.5000      7.8902    136.2077      0.5279      0.3334      0.2884      0.4988      0.4553      0.4505      2.0030      1.7508      2.0030    -19.8203      0.4209      0.2032      0.7116      0.5081
   2443.0000      8.0574    138.5311      0.5130      0.3321      0.2846      0.4870      0.4550      0.4501      1.9940      1.7555      1.9940    -19.7283      0.4048      0.2047      0.7154      0.5118
   2443.5000      7.8231    140.1900      0.5328      0.3362      0.2799      0.5036      0.4562      0.4514      2.0240      1.7587      2.0240    -20.0237      0.4475      0.1999      0.7201      0.4999
   2444.0000      7.6067    144.3552      0.5708      0.3441      0.2772      0.5367      0.4585      0.4539      2.0850      1.7634      2.0850    -20.6000      0.5190      0.1906      0.7228      0.4765
   2444.5000      7.6283    155.2865      0.5805      0.3482      0.2627      0.5430      0.4596      0.4552      2.1180      1.7751      2.1180    -20.8969      0.5606      0.1858      0.7373      0.4644
   2445.0000      7.6023    169.1868      0.5753      0.3577      0.2169      0.5258      0.4624      0.4582      2.1990      1.8264      2.1990    -21.5907      0.6178      0.1745      0.7831      0.4363
   2445.5000      7.5426    188.0432      0.5503      0.3601      0.1682      0.4979      0.4631      0.4590      2.2210      1.8648      2.2210    -21.7689      0.6594      0.1716      0.8318      0.4290
   2446.0000      7.3508    189.7130      0.5183      0.3594      0.1312      0.4617      0.4629      0.4588      2.2150      1.9137      2.2150    -21.7182      0.6609      0.1724      0.8688      0.4311
   2446.5000      7.1106    183.9623      0.5219      0.3550      0.1122      0.4495      0.4616      0.4573      2.1760      1.9528      2.1760    -21.3927      0.6746      0.1777      0.8878      0.4443
   2447.0000      7.0164    172.9525      0.5334      0.3486      0.1590      0.4736      0.4598      0.4553      2.1230      1.9003      2.1230    -20.9318      0.6293      0.1852      0.8410      0.4630
   2447.5000      7.0037    156.4215      0.5336      0.3421      0.2152      0.4930      0.4579      0.4532      2.0710      1.8400      2.0710    -20.4568      0.5557      0.1929      0.7848      0.4823
   2448.0000      6.9930    144.6177      0.5256      0.3363      0.2621      0.4994      0.4562      0.4514      2.0270      1.7865      2.0270    -20.0356      0.4747      0.1997      0.7379      0.4994
   2448.5000      6.9795    139.0784      0.5144      0.3285      0.2836      0.4878      0.4539      0.4489      1.9700      1.7555      1.9700    -19.4627      0.4084      0.2090      0.7164      0.5226
   2449.0000      6.9636    134.1101      0.4906      0.3183      0.2896      0.4662      0.4509      0.4456      1.9010      1.7475      1.9010    -18.7238      0.3531      0.2210      0.7104      0.5526
   2449.5000      6.9613    129.3406      0.4778      0.3089      0.2897      0.4549      0.4482      0.4426      1.8410      1.7395      1.8410    -18.0361      0.3304      0.2322      0.7103      0.5805
   2450.0000      6.9733    127.6830      0.4905      0.3008      0.2965      0.4633      0.4458      0.4400      1.7930      1.7359      1.7930    -17.4526      0.3336      0.2417      0.7035      0.6042
   2450.5000      6.9825    129.9670      0.5060      0.2931      0.2978      0.4745      0.4436      0.4376      1.7490      1.7378      1.7490    -16.8894      0.3535      0.2508      0.7022      0.6271
   2451.0000      6.9737    134.2442      0.5202      0.2887      0.2902      0.4868      0.4423      0.4362      1.7250      1.7420      1.7250    -16.5693      0.3931      0.2560      0.7098      0.6400
   2451.5000      6.9135    137.4821      0.5299      0.2855      0.2844      0.4951      0.4414      0.4351      1.7080      1.7451      1.7080    -16.3366      0.4213      0.2598      0.7156      0.6495
   2452.0000      6.8449    138.1840      0.5205      0.2834      0.2823      0.4873      0.4408      0.4345      1.6970      1.7487      1.6970    -16.1828      0.4099      0.2623      0.7177      0.6557
   2452.5000      6.8354    136.9077      0.5089      0.2824      0.2825      0.4783      0.4405      0.4342      1.6920      1.7535      1.6920    -16.1113      0.3916      0.2635      0.7175      0.6586
   2453.0000      6.8232    132.8693      0.5037      0.2839      0.2866      0.4748      0.4409      0.4346      1.7000      1.7567      1.7000    -16.2206      0.3765      0.2617      0.7134      0.6542
   2453.5000      6.8223    128.3859      0.5015      0.2882      0.2939      0.4729      0.4422      0.4360      1.7230      1.7529      1.7230    -16.5328      0.3581      0.2566      0.7061      0.6415
   2454.0000      6.8112    123.3501      0.4989      0.2915      0.3035      0.4703      0.4431      0.4370      1.7410      1.7451      1.7410    -16.7709      0.3335      0.2527      0.6965      0.6319
   2454.5000      6.8032    119.7480      0.4953      0.2968      0.3080      0.4678      0.4446      0.4387      1.7710      1.7391      1.7710    -17.1581      0.3196      0.2465      0.6920      0.6161
   2455.0000      6.7918    117.4891      0.4943      0.3038      0.3129      0.4680      0.4467      0.4410      1.8120      1.7377      1.8120    -17.6673      0.3103      0.2382      0.6871      0.5955
   2455.5000      6.7841    116.9584      0.4863      0.3106      0.3107      0.4632      0.4487      0.4431      1.8540      1.7424      1.8540    -18.1654      0.3050      0.2301      0.6893      0.5753
   2456.0000      6.7764    117.8850      0.4723      0.3162      0.3033      0.4559      0.4503      0.4449      1.8900      1.7582      1.8900    -18.5744      0.3053      0.2235      0.6967      0.5587
   2456.5000      6.7660    123.2035      0.4626      0.3201      0.2920      0.4496      0.4514      0.4462      1.9160      1.7620      1.9160    -18.8597      0.3153      0.2188      0.7080      0.5471
   2457.0000      6.7580    128.7112      0.4635      0.3198      0.2854      0.4495      0.4513      0.4461      1.9140      1.7609      1.9140    -18.8360      0.3281      0.2192      0.7146      0.5481
   2457.5000      6.7503    135.3649      0.4800      0.3173      0.2834      0.4602      0.4506      0.4453      1.8980      1.7593      1.8980    -18.6579      0.3536      0.2221      0.7166      0.5553
   2458.0000      6.7458    141.8076      0.4953      0.3150      0.2831      0.4702      0.4499      0.4445      1.8830      1.7485      1.8830    -18.4881      0.3743      0.2249      0.7169      0.5622
   2458.5000      6.7510    144.2054      0.4984      0.3098      0.2816      0.4715      0.4484      0.4429      1.8500      1.7433      1.8500    -18.1072      0.3797      0.2311      0.7184      0.5776
   2459.0000      6.7194    145.2103      0.5004      0.3057      0.2811      0.4724      0.4472      0.4416      1.8250      1.7413      1.8250    -17.8091      0.3825      0.2359      0.7189      0.5897
   2459.5000      6.7189    147.8790      0.5017      0.3005      0.2771      0.4733      0.4457      0.4399      1.7940      1.7431      1.7940    -17.4285      0.3925      0.2421      0.7229      0.6052
