~V
VERS. 2.00: Ver 2.00
WRAP.   NO:        
~W
 STRT.FT 100:
 STOP.FT 3000:
 STEP.FT 0.5:
 NULL. -999.250000:
 COMP. TENNECO OIL COMPANY:Company
 WELL. 51X-30:Well
 FLD. LOS LOBOS:Field
 LOC. SEC. 30 TWP 11N RGE 22W:Location
 STAT. CA:State
 SRVC. :Service Company
 SON. :Service Order #
 DATE. :Log Date
 UWI. :Unique Well ID
~C
 DEPT.FT :
 CALS.IN :
 GRC.GAPI :
 NPHC.PU-S :
 PHES. :
 PHIE. :
 PHIT. :
 PHTS. :
 PHZC. :
 RD.OHMM :
 ROBC.G/C3 :
 RS.OHMM :
 SBL.MV :
 VCLW. :
 VCWS. :
 VSHL. :
 VSHS. :
~P
~A
# ...
   2300.0000      7.0495    125.2761      0.5503      0.2093      0.3047      0.5051      0.4199      0.4115      1.4270      1.7183      1.4270    -10.7253      0.4008      0.3509      0.6953      0.7907
   2300.5000      7.0868    131.4132      0.5498      0.1848      0.2973      0.5047      0.4127      0.4036      1.3410      1.7193      1.3410     -8.9348      0.4150      0.3800      0.7027      0.8152
   2301.0000      7.1237    136.0242      0.5022      0.1830      0.2918      0.4709      0.4122      0.4030      1.3350      1.7302      1.3350     -8.8078      0.3582      0.3820      0.7082      0.8170
   2301.5000      7.1491    135.7914      0.5022      0.1828      0.2878      0.4727      0.4122      0.4030      1.3340      1.7468      1.3340     -8.7924      0.3698      0.3823      0.7122      0.8172
   2302.0000      7.1382    134.0153      0.5020      0.1847      0.2835      0.4745      0.4127      0.4036      1.3400      1.7621      1.3400     -8.9337      0.3820      0.3800      0.7165      0.8153
   2302.5000      7.1024    129.6409      0.5018      0.1888      0.2891      0.4741      0.4139      0.4049      1.3530      1.7606      1.3530     -9.2276      0.3700      0.3752      0.7109      0.8112
   2303.0000      7.0411    123.9022      0.5016      0.1942      0.2967      0.4737      0.4155      0.4066      1.3710      1.7584      1.3710     -9.6228      0.3541      0.3688      0.7033      0.8058
   2303.5000      6.9823    118.1686      0.5014      0.2048      0.3120      0.4715      0.4185      0.4100      1.4080      1.7405      1.4080    -10.3966      0.3188      0.3562      0.6880      0.7952
   2304.0000      6.8841    111.9870      0.4998      0.2122      0.3232      0.4697      0.4207      0.4124      1.4350      1.7344      1.4350    -10.9382      0.2930      0.3474      0.6768      0.7878
   2304.5000      6.7970    109.5707      0.4899      0.2176      0.3234      0.4634      0.4223      0.4141      1.4550      1.7396      1.4550    -11.3284      0.2799      0.3411      0.6766      0.7824
   2305.0000      6.8018    111.5748      0.4712      0.2233      0.3130      0.4570      0.4239      0.4159      1.4770      1.7727      1.4770    -11.7449      0.2880      0.3343      0.6870      0.7767
   2305.5000      6.8368    116.3754      0.4641      0.2332      0.3034      0.4566      0.4268      0.4191      1.5170      1.7876      1.5170    -12.4661      0.3064      0.3226      0.6966      0.7668
   2306.0000      6.8555    119.9656      0.4821      0.2380      0.2953      0.4673      0.4282      0.4206      1.5370      1.7898      1.5370    -12.8163      0.3441      0.3169      0.7047      0.7620
   2306.5000      6.8482    118.2489      0.5048      0.2423      0.2929      0.4793      0.4294      0.4219      1.5550      1.7843      1.5550    -13.1246      0.3727      0.3119      0.7071      0.7577
   2307.0000      6.8496    112.9320      0.5036      0.2555      0.3080      0.4767      0.4333      0.4262      1.6150      1.7712      1.6150    -14.0873      0.3373      0.2963      0.6920      0.7408
   2307.5000      6.8823    110.6240      0.4941      0.2487      0.3187      0.4692      0.4313      0.4240      1.5830      1.7610      1.5830    -13.5937      0.3011      0.3043      0.6813      0.7513
   2308.0000      6.9464    111.6555      0.4673      0.2396      0.3115      0.4508      0.4286      0.4211      1.5420      1.7555      1.5420    -12.9289      0.2787      0.3151      0.6885      0.7604
   2308.5000      6.9968    115.5239      0.4610      0.2232      0.3024      0.4449      0.4239      0.4159      1.4740      1.7472      1.4740    -11.7393      0.2849      0.3344      0.6976      0.7768
   2309.0000      7.0422    119.3524      0.5077      0.2047      0.3097      0.4756      0.4185      0.4100      1.4040      1.7381      1.4040    -10.3934      0.3317      0.3563      0.6903      0.7953
   2309.5000      7.0709    122.6586      0.5509      0.1928      0.2979      0.5056      0.4150      0.4061      1.3620      1.7365      1.3620     -9.5219      0.4155      0.3704      0.7021      0.8072
   2310.0000      7.0905    124.3566      0.5645      0.1902      0.2913      0.5151      0.4143      0.4053      1.3530      1.7400      1.3530     -9.3336      0.4475      0.3735      0.7087      0.8098
   2310.5000      7.0801    125.3145      0.5673      0.1965      0.2858      0.5168      0.4161      0.4073      1.3740      1.7468      1.3740     -9.7925      0.4620      0.3660      0.7142      0.8035
   2311.0000      7.0102    126.9031      0.5391      0.2084      0.2845      0.4980      0.4196      0.4111      1.4160      1.7578      1.4160    -10.6631      0.4271      0.3519      0.7155      0.7916
   2311.5000      6.8937    127.9569      0.4874      0.2215      0.2869      0.4687      0.4234      0.4153      1.4650      1.7821      1.4650    -11.6150      0.3636      0.3364      0.7131      0.7785
   2312.0000      6.8236    124.5203      0.4639      0.2399      0.2853      0.4575      0.4287      0.4211      1.5400      1.8105      1.5400    -12.9518      0.3444      0.3147      0.7147      0.7601
   2312.5000      6.7990    117.9277      0.4847      0.2580      0.2760      0.4649      0.4340      0.4269      1.6220      1.8234      1.6220    -14.2719      0.3777      0.2933      0.7240      0.7333
   2313.0000      6.7828    107.3866      0.4962      0.2680      0.3096      0.4772      0.4369      0.4301      1.6710      1.7999      1.6710    -15.0022      0.3353      0.2815      0.6904      0.7036
   2313.5000      6.7752    100.5358      0.4482      0.2720      0.3261      0.4424      0.4380      0.4314      1.6910      1.7708      1.6910    -15.2924      0.2324      0.2767      0.6739      0.6919
   2314.0000      6.7858    103.5352      0.4167      0.2694      0.3101      0.4190      0.4373      0.4306      1.6770      1.7599      1.6770    -15.1019      0.2177      0.2798      0.6671      0.6996
   2314.5000      6.8193    109.1379      0.4244      0.2619      0.3010      0.4194      0.4351      0.4282      1.6390      1.7448      1.6390    -14.5560      0.2367      0.2887      0.6990      0.7218
   2315.0000      6.8574    118.5820      0.4769      0.2534      0.3029      0.4537      0.4326      0.4254      1.5980      1.7355      1.5980    -13.9369      0.3017      0.2988      0.6971      0.7466
   2315.5000      6.8762    128.8857      0.5286      0.2489      0.2899      0.4906      0.4313      0.4240      1.5770      1.7471      1.5770    -13.6106      0.4013      0.3040      0.7101      0.7511
   2316.0000      6.8790    129.1090      0.5486      0.2568      0.2734      0.5079      0.4336      0.4265      1.6130      1.7762      1.6130    -14.1838      0.4691      0.2947      0.7266      0.7369
   2316.5000      6.8825    125.4257      0.5348      0.2539      0.2749      0.4982      0.4328      0.4256      1.5990      1.7859      1.5990    -13.9738      0.4465      0.2982      0.7251      0.7454
   2317.0000      6.8955    123.9005      0.5041      0.2460      0.2894      0.4774      0.4305      0.4231      1.5630      1.7747      1.5630    -13.4047      0.3761      0.3074      0.7106      0.7540
   2317.5000      6.9239    125.4061      0.4689      0.2371      0.2909      0.4534      0.4279      0.4203      1.5240      1.7632      1.5240    -12.7568      0.3250      0.3179      0.7091      0.7629
   2318.0000      6.9589    132.3518      0.4682      0.2382      0.2828      0.4530      0.4282      0.4206      1.5280      1.7632      1.5280    -12.8326      0.3405      0.3167      0.7172      0.7618
   2318.5000      6.9988    143.3845      0.4830      0.2438      0.2732      0.4645      0.4298      0.4224      1.5520      1.7744      1.5520    -13.2445      0.3827      0.3100      0.7268      0.7562
   2319.0000      7.0234    152.1110      0.5046      0.2537      0.2501      0.4804      0.4327      0.4255      1.5960      1.7920      1.5960    -13.9621      0.4605      0.2983      0.7499      0.7459
   2319.5000      7.0143    152.3732      0.5264      0.2646      0.2323      0.4923      0.4359      0.4290      1.6480      1.8106      1.6480    -14.7600      0.5201      0.2854      0.7677      0.7135
