~V
VERS. 2.00: Ver 2.00
WRAP.   NO:        
~W
 STRT.FT 100:
 STOP.FT 3000:
 STEP.FT 0.5:
 NULL. -999.250000:
 COMP. TENNECO OIL COMPANY:Company
 WELL. 51X-30:Well
 FLD. LOS LOBOS:Field
 LOC. SEC. 30 TWP 11N RGE 22W:Location
 STAT. CA:State
 SRVC. :Service Company
 SON. :Service Order #
 DATE. :Log Date
 UWI. :Unique Well ID
~C
 DEPT.FT :
 CALS.IN :
 GRC.GAPI :
 NPHC.PU-S :
 PHES. :
 PHIE. :
 PHIT. :
 PHTS. :
 PHZC. :
 RD.OHMM :
 ROBC.G/C3 :
 RS.OHMM :
 SBL.MV :
 VCLW. :
 VCWS. :
 VSHL. :
 VSHS. :
~P
~A
# ...
   1600.0000      7.1290     35.5455      0.6768      0.0000      0.0000      0.2181      0.2225      0.2812      1.9640      1.7821      1.6810     -9.3640      0.4194      0.4278      1.0486      1.4260
   1600.5000      7.1290     33.9186      0.7144      0.0000      0.0000      0.2161      0.2205      0.2816      1.9660      1.7986      1.6620     -9.4548      0.4156      0.4241      1.0389      1.4136
   1601.0000      7.1290     33.1760      0.7188      0.0000      0.0000      0.2113      0.2159      0.2825      1.9610      1.8118      1.6460     -9.6676      0.4064      0.4152      1.0161      1.3842
   1601.5000      7.1290     32.8751      0.7065      0.0000      0.0000      0.1994      0.2043      0.2847      1.9640      1.8233      1.6600    -10.2014      0.3834      0.3928      0.9585      1.3094
   1602.0000      7.1290     33.9732      0.6717      0.0000      0.0000      0.1973      0.2023      0.2851      1.9700      1.8300      1.6780    -10.2962      0.3794      0.3890      0.9485      1.2967
   1602.5000      7.1290     35.7335      0.6390      0.0000      0.0000      0.1925      0.1976      0.2860      1.9730      1.8365      1.6920    -10.5120      0.3701      0.3801      0.9253      1.2670
   1603.0000      7.1290     36.8307      0.6231      0.0000      0.0000      0.1886      0.1940      0.2867      1.9720      1.8432      1.7190    -10.6838      0.3628      0.3730      0.9070      1.2434
   1603.5000      7.1290     36.8243      0.6285      0.0000      0.3188      0.5000      0.1867      0.2881      1.9740      1.8382      1.7470    -11.0186      0.3484      0.3591      0.6812      1.1970
   1604.0000      7.1290     35.7140      0.6388      0.1268      0.3280      0.5000      0.3045      0.2898      1.9870      1.7689      1.8340    -11.4304      0.3307      0.3419      0.6720      0.8732
   1604.5000      7.1290     33.7927      0.6430      0.1396      0.3400      0.5000      0.3058      0.2920      1.9930      1.7392      1.9720    -11.9632      0.3077      0.3196      0.6600      0.8604
   1605.0000      7.1290     32.4612      0.6361      0.1583      0.3573      0.5000      0.3076      0.2952      2.0000      1.7441      2.0220    -12.7370      0.2744      0.2872      0.6427      0.8417
   1605.5000      7.1290     32.4547      0.6319      0.1730      0.3710      0.5000      0.3091      0.2978      2.0060      1.7524      2.0100    -13.3460      0.2482      0.2617      0.6204      0.8270
   1606.0000      7.1290     34.2149      0.6314      0.1770      0.3747      0.5000      0.3095      0.2985      2.0160      1.7590      1.9690    -13.5160      0.2409      0.2548      0.6023      0.8230
   1606.5000      7.1290     35.6076      0.6264      0.1694      0.3678      0.5000      0.3087      0.2971      2.0290      1.8069      1.9250    -13.2120      0.2542      0.2679      0.6322      0.8306
   1607.0000      7.1290     35.7483      0.6090      0.1627      0.3617      0.5000      0.3081      0.2960      2.0440      1.8382      1.8210    -12.9430      0.2659      0.2795      0.6383      0.8373
   1607.5000      7.1290     35.0788      0.5971      0.1590      0.3584      0.5000      0.3077      0.2953      2.0680      1.8563      1.7970    -12.7980      0.2723      0.2859      0.6416      0.8410
   1608.0000      7.1290     35.8085      0.6113      0.1630      0.3622      0.5000      0.3081      0.2960      2.0790      1.8365      1.8000    -12.9670      0.2651      0.2790      0.6378      0.8370
   1608.5000      7.1290     37.1270      0.6376      0.1699      0.3687      0.5000      0.3088      0.2972      2.0830      1.8168      1.8050    -13.2590      0.2526      0.2670      0.6313      0.8301
   1609.0000      7.1290     36.0900      0.6554      0.1739      0.3725      0.5000      0.3091      0.2979      2.0880      1.8069      1.8200    -13.4310      0.2453      0.2600      0.6131      0.8261
   1609.5000      7.1290     36.3039      0.6516      0.1750      0.3735      0.5000      0.3092      0.2981      2.0910      1.8069      1.8360    -13.4810      0.2432      0.2582      0.6080      0.8250
   1610.0000      7.1290     37.4021      0.6268      0.1732      0.3720      0.5000      0.3091      0.2978      2.0820      1.8052      1.8420    -13.4150      0.2462      0.2612      0.6154      0.8268
   1610.5000      7.1290     37.9104      0.5878      0.1733      0.3722      0.5000      0.3091      0.2978      2.0810      1.8052      1.8510    -13.4260      0.2458      0.2610      0.6145      0.8267
   1611.0000      7.1290     36.6530      0.5614      0.1822      0.3805      0.5000      0.3099      0.2993      2.0870      1.8085      1.8710    -13.7990      0.2298      0.2456      0.5745      0.8178
   1611.5000      7.1290     35.7622      0.5618      0.1882      0.3861      0.5000      0.3105      0.3004      2.0820      1.8283      1.8970    -14.0510      0.2191      0.2353      0.5477      0.7844
   1612.0000      7.1290     36.1242      0.5729      0.1901      0.3880      0.5000      0.3107      0.3007      2.0730      1.8630      1.9130    -14.1400      0.2153      0.2319      0.5383      0.7728
   1612.5000      7.1290     37.2956      0.6239      0.1912      0.3891      0.5000      0.3108      0.3009      2.0530      1.8778      1.9370    -14.1920      0.2132      0.2300      0.5330      0.7665
   1613.0000      7.1290     36.9946      0.6237      0.1904      0.3885      0.5000      0.3107      0.3007      2.0370      1.8745      1.9860    -14.1650      0.2145      0.2314      0.5362      0.7712
   1613.5000      7.1290     35.9576      0.5983      0.1886      0.3869      0.5000      0.3105      0.3004      2.0360      1.8580      2.0070    -14.0970      0.2175      0.2345      0.5438      0.7816
   1614.0000      7.1290     36.0242      0.5783      0.1849      0.3835      0.5000      0.3102      0.2998      2.0340      1.8448      1.9950    -13.9490      0.2240      0.2410      0.5601      0.8032
   1614.5000      7.1290     38.2262      0.5829      0.1793      0.3784      0.5000      0.3096      0.2988      2.0310      1.8316      1.9900    -13.7230      0.2339      0.2507      0.5847      0.8207
   1615.0000      7.1290     40.5753      0.6264      0.1736      0.3732      0.5000      0.3091      0.2978      2.0330      1.8233      2.0000    -13.4950      0.2438      0.2605      0.6095      0.8264
   1615.5000      7.1290     41.3790      0.6460      0.1709      0.3708      0.5000      0.3088      0.2973      2.0170      1.8283      2.0060    -13.3900      0.2484      0.2651      0.6211      0.8291
   1616.0000      7.1290     39.3845      0.6257      0.1690      0.3692      0.5000      0.3086      0.2970      1.9580      1.8448      1.9870    -13.3190      0.2516      0.2684      0.6290      0.8310
   1616.5000      7.1290     36.7280      0.6007      0.1673      0.3676      0.5000      0.3084      0.2967      1.9460      1.8597      1.9570    -13.2530      0.2546      0.2714      0.6324      0.8327
   1617.0000      7.1290     35.3224      0.5989      0.1656      0.3661      0.5000      0.3082      0.2964      1.9340      1.8630      1.9030    -13.1870      0.2575      0.2744      0.6339      0.8344
   1617.5000      7.1300     35.7590      0.6276      0.1628      0.3636      0.5000      0.3080      0.2959      1.9300      1.8530      1.8300    -13.0770      0.2623      0.2793      0.6364      0.8372
   1618.0000      7.1300     36.5619      0.6559      0.1609      0.3620      0.5000      0.3078      0.2956      1.9390      1.8415      1.7760    -13.0080      0.2654      0.2824      0.6380      0.8391
   1618.5000      7.1300     35.5247      0.6789      0.1649      0.3658      0.5000      0.3082      0.2963      1.9460      1.8201      1.7660    -13.1800      0.2581      0.2755      0.6342      0.8351
   1619.0000      7.1300     34.7090      0.6680      0.1651      0.3660      0.5000      0.3082      0.2963      1.9260      1.8003      1.7940    -13.1940      0.2576      0.2751      0.6340      0.8349
   1619.5000      7.1300     34.4080      0.6541      0.1661      0.3671      0.5000      0.3083      0.2965      1.9260      1.8003      1.8500    -13.2420      0.2557      0.2734      0.6329      0.8339
