~V
VERS. 2.00: Ver 2.00
WRAP.   NO:        
~W
 STRT.FT 100:
 STOP.FT 3000:
 STEP.FT 0.5:
 NULL. -999.250000:
 COMP. TENNECO OIL COMPANY:Company
 WELL. 51X-30:Well
 FLD. LOS LOBOS:Field
 LOC. SEC. 30 TWP 11N RGE 22W:Location
 STAT. CA:State
 SRVC. :Service Company
 SON. :Service Order #
 DATE. :Log Date
 UWI. :Unique Well ID
~C
 DEPT.FT :
 CALS.IN :
 GRC.GAPI :
 NPHC.PU-S :
 PHES. :
 PHIE. :
 PHIT. :
 PHTS. :
 PHZC. :
 RD.OHMM :
 ROBC.G/C3 :
 RS.OHMM :
 SBL.MV :
 VCLW. :
 VCWS. :
 VSHL. :
 VSHS. :
~P
~A
# ...
    920.0000   -999.2500   -999.2500   -999.2500      0.0000   -999.2500   -999.2500      0.2535      0.2828      2.2800   -999.2500      2.3090     -8.8765   -999.2500      0.4876   -999.2500      1.6252
    920.5000   -999.2500   -999.2500   -999.2500      0.0000   -999.2500   -999.2500      0.2591      0.2818      2.3550   -999.2500      2.3980     -8.4256   -999.2500      0.4983   -999.2500      1.6609
    921.0000   -999.2500   -999.2500   -999.2500      0.0000   -999.2500   -999.2500      0.2662      0.2804      2.4580   -999.2500      2.4850     -7.8568   -999.2500      0.5118   -999.2500      1.7061
    921.5000   -999.2500   -999.2500   -999.2500      0.0000   -999.2500   -999.2500      0.2668      0.2803      2.5430   -999.2500      2.5570     -7.8040   -999.2500      0.5130   -999.2500      1.7101
    922.0000   -999.2500   -999.2500   -999.2500      0.0000   -999.2500   -999.2500      0.2644      0.2807      2.5600   -999.2500      2.5510     -7.9922   -999.2500      0.5084   -999.2500      1.6948
    922.5000   -999.2500   -999.2500   -999.2500      0.0000   -999.2500   -999.2500      0.2600      0.2815      2.5350   -999.2500      2.4850     -8.3394   -999.2500      0.5000   -999.2500      1.6668
    923.0000   -999.2500   -999.2500   -999.2500      0.0000   -999.2500   -999.2500      0.2551      0.2825      2.4510   -999.2500      2.4110     -8.7286   -999.2500      0.4906   -999.2500      1.6354
    923.5000   -999.2500   -999.2500   -999.2500      0.0000   -999.2500   -999.2500      0.2528      0.2829      2.3620   -999.2500      2.3150     -8.9148   -999.2500      0.4861   -999.2500      1.6203
    924.0000   -999.2500   -999.2500   -999.2500      0.0000   -999.2500   -999.2500      0.2503      0.2834      2.2920   -999.2500      2.2300     -9.1060   -999.2500      0.4814   -999.2500      1.6047
    924.5000   -999.2500   -999.2500   -999.2500      0.0000   -999.2500   -999.2500      0.2510      0.2832      2.2240   -999.2500      2.1600     -9.0511   -999.2500      0.4826   -999.2500      1.6088
    925.0000   -999.2500   -999.2500   -999.2500      0.0000   -999.2500   -999.2500      0.2546      0.2825      2.1950   -999.2500      2.1040     -8.7593   -999.2500      0.4896   -999.2500      1.6319
    925.5000   -999.2500   -999.2500   -999.2500      0.0000   -999.2500   -999.2500      0.2582      0.2818      2.1690   -999.2500      2.0720     -8.4685   -999.2500      0.4965   -999.2500      1.6549
    926.0000   -999.2500   -999.2500   -999.2500      0.0000   -999.2500   -999.2500      0.2593      0.2816      2.1440   -999.2500      2.0410     -8.3777   -999.2500      0.4986   -999.2500      1.6619
    926.5000   -999.2500   -999.2500   -999.2500      0.0000   -999.2500   -999.2500      0.2549      0.2825      2.0960   -999.2500      2.0060     -8.7259   -999.2500      0.4901   -999.2500      1.6338
    927.0000   -999.2500   -999.2500   -999.2500      0.0000   -999.2500   -999.2500      0.2530      0.2828      2.0530   -999.2500      1.9900     -8.8721   -999.2500      0.4865   -999.2500      1.6218
    927.5000   -999.2500   -999.2500   -999.2500      0.0000   -999.2500   -999.2500      0.2511      0.2832      2.0180   -999.2500      1.9820     -9.0203   -999.2500      0.4829   -999.2500      1.6096
    928.0000   -999.2500   -999.2500   -999.2500      0.0000   -999.2500   -999.2500      0.2487      0.2836      1.9730   -999.2500      1.9620     -9.2094   -999.2500      0.4782   -999.2500      1.5941
    928.5000   -999.2500   -999.2500   -999.2500      0.0000   -999.2500   -999.2500      0.2508      0.2832      1.9390   -999.2500      1.9360     -9.0396   -999.2500      0.4822   -999.2500      1.6075
    929.0000   -999.2500   -999.2500   -999.2500      0.0000   -999.2500   -999.2500      0.2534      0.2827      1.9240   -999.2500      1.9380     -8.8258   -999.2500      0.4873   -999.2500      1.6244
    929.5000   -999.2500   -999.2500   -999.2500      0.0000   -999.2500   -999.2500      0.2590      0.2816      1.9220   -999.2500      1.9440     -8.3790   -999.2500      0.4980   -999.2500      1.6600
    930.0000   -999.2500   -999.2500   -999.2500      0.0000   -999.2500   -999.2500      0.2611      0.2812      1.9250   -999.2500      1.9560     -8.2052   -999.2500      0.5021   -999.2500      1.6737
    930.5000   -999.2500   -999.2500   -999.2500      0.0000   -999.2500   -999.2500      0.2627      0.2809      1.9550   -999.2500      1.9590     -8.0734   -999.2500      0.5052   -999.2500      1.6841
    931.0000   -999.2500   -999.2500   -999.2500      0.0000   -999.2500   -999.2500      0.2713      0.2792      1.9640   -999.2500      1.9610     -7.3826   -999.2500      0.5218   -999.2500      1.7394
    931.5000   -999.2500   -999.2500   -999.2500      0.0000   -999.2500   -999.2500      0.2779      0.2779      1.9880   -999.2500      1.9740     -6.8548   -999.2500      0.5345   -999.2500      1.7816
    932.0000   -999.2500   -999.2500   -999.2500      0.0000   -999.2500   -999.2500      0.2761      0.2783      2.0120   -999.2500      1.9800     -7.0019   -999.2500      0.5309   -999.2500      1.7696
    932.5000   -999.2500   -999.2500   -999.2500      0.0000   -999.2500   -999.2500      0.2741      0.2786      2.0260   -999.2500      1.9750     -7.1511   -999.2500      0.5272   -999.2500      1.7573
    933.0000   -999.2500   -999.2500   -999.2500      0.0000   -999.2500   -999.2500      0.2727      0.2789      2.0320   -999.2500      1.9690     -7.2603   -999.2500      0.5245   -999.2500      1.7483
    933.5000   -999.2500   -999.2500   -999.2500      0.0000   -999.2500   -999.2500      0.2688      0.2796      2.0380   -999.2500      1.9720     -7.5675   -999.2500      0.5170   -999.2500      1.7233
    934.0000   -999.2500   -999.2500   -999.2500      0.0000   -999.2500   -999.2500      0.2644      0.2805      2.0400   -999.2500      1.9780     -7.9147   -999.2500      0.5085   -999.2500      1.6951
    934.5000   -999.2500   -999.2500   -999.2500      0.0000   -999.2500   -999.2500      0.2575      0.2818      2.0390   -999.2500      1.9910     -8.4609   -999.2500      0.4952   -999.2500      1.6508
    935.0000   -999.2500   -999.2500   -999.2500      0.0000   -999.2500   -999.2500      0.2531      0.2826      2.0370   -999.2500      2.0000     -8.8051   -999.2500      0.4868   -999.2500      1.6227
    935.5000   -999.2500   -999.2500   -999.2500      0.0000   -999.2500   -999.2500      0.2467      0.2838      2.0170   -999.2500      1.9800     -9.3133   -999.2500      0.4744   -999.2500      1.5814
    936.0000   -999.2500   -999.2500   -999.2500      0.0000   -999.2500   -999.2500      0.2403      0.2851      1.9830   -999.2500      1.9580     -9.8194   -999.2500      0.4621   -999.2500      1.5403
    936.5000   -999.2500   -999.2500   -999.2500      0.0000   -999.2500   -999.2500      0.2299      0.2871      1.9810   -999.2500      1.9420    -10.5286   -999.2500      0.4422   -999.2500      1.4740
    937.0000   -999.2500   -999.2500   -999.2500      0.0000   -999.2500   -999.2500      0.2234      0.2883      1.9830   -999.2500      1.9510    -10.8728   -999.2500      0.4295   -999.2500      1.4317
    937.5000   -999.2500   -999.2500   -999.2500      0.0000   -999.2500   -999.2500      0.2159      0.2897      1.9930   -999.2500      1.9680    -11.2650   -999.2500      0.4151   -999.2500      1.3837
    938.0000   -999.2500   -999.2500   -999.2500      0.0000   -999.2500   -999.2500      0.2147      0.2900      2.0100   -999.2500      1.9950    -11.3225   -999.2500      0.4128   -999.2500      1.3762
    938.5000   -999.2500   -999.2500   -999.2500      0.0000   -999.2500   -999.2500      0.2082      0.2912      2.0420   -999.2500      2.0160    -11.6619   -999.2500      0.4003   -999.2500      1.3344
    939.0000   -999.2500   -999.2500   -999.2500      0.0000   -999.2500   -999.2500      0.1925      0.2942      2.0810   -999.2500      2.0400    -12.4834   -999.2500      0.3702   -999.2500      1.2341
    939.5000   -999.2500   -999.2500   -999.2500      0.0000   -999.2500   -999.2500      0.1845      0.2957      2.1070   -999.2500      2.0920    -12.9018   -999.2500      0.3548   -999.2500      1.1827
