~V
VERS. 2.00: Ver 2.00
WRAP.   NO:        
~W
 STRT.FT 100:
 STOP.FT 3000:
 STEP.FT 0.5:
 NULL. -999.250000:
 COMP. TENNECO OIL COMPANY:Company
 WELL. 51X-30:Well
 FLD. LOS LOBOS:Field
 LOC. SEC. 30 TWP 11N RGE 22W:Location
 STAT. CA:State
 SRVC. :Service Company
 SON. :Service Order #
 DATE. :Log Date
 UWI. :Unique Well ID
~C
 DEPT.FT :
 CALS.IN :
 GRC.GAPI :
 NPHC.PU-S :
 PHES. :
 PHIE. :
 PHIT. :
 PHTS. :
 PHZC. :
 RD.OHMM :
 ROBC.G/C3 :
 RS.OHMM :
 SBL.MV :
 VCLW. :
 VCWS. :
 VSHL. :
 VSHS. :
~P
~A
# ...
   2020.0000      6.9520     76.7424      0.4571      0.3428      0.3594      0.4588      0.4599      0.4552      3.3420      1.8292      3.3420    -20.3186      0.1988      0.1952      0.6093      0.4879
   2020.5000      6.9937     71.6342      0.4141      0.3565      0.3530      0.4307      0.4639      0.4596      3.6420      1.8472      3.6420    -21.3172      0.1553      0.1789      0.4761      0.4474
   2021.0000      7.0455     66.8615      0.4033      0.3639      0.3487      0.4207      0.4660      0.4619      3.8260      1.8634      3.8260    -21.8580      0.1441      0.1702      0.4415      0.4254
   2021.5000      7.0803     64.2677      0.3880      0.3675      0.3439      0.4100      0.4671      0.4631      3.9190      1.8732      3.9190    -22.1187      0.1320      0.1659      0.4046      0.4148
   2022.0000      7.0498     63.7327      0.3691      0.3674      0.3388      0.3987      0.4670      0.4630      3.9120      1.8770      3.9120    -22.1130      0.1198      0.1660      0.3671      0.4151
   2022.5000      6.9769     64.8996      0.3506      0.3648      0.3351      0.3895      0.4663      0.4622      3.8350      1.8738      3.8350    -21.9203      0.1088      0.1692      0.3333      0.4229
   2023.0000      6.9095     68.4963      0.3444      0.3612      0.3343      0.3885      0.4652      0.4611      3.7380      1.8635      3.7380    -21.6623      0.1085      0.1733      0.3325      0.4333
   2023.5000      6.8679     76.1449      0.3596      0.3584      0.3335      0.3991      0.4644      0.4602      3.6640      1.8529      3.6640    -21.4588      0.1313      0.1766      0.4024      0.4416
   2024.0000      6.8657     83.3227      0.4343      0.3528      0.3441      0.4414      0.4628      0.4584      3.5270      1.8468      3.5270    -21.0473      0.1946      0.1833      0.5964      0.4583
   2024.5000      6.8759     83.9688      0.4645      0.3483      0.3361      0.4583      0.4615      0.4569      3.4260      1.8442      3.4260    -20.7256      0.2443      0.1885      0.6639      0.4714
   2025.0000      6.8784     81.6286      0.4921      0.3428      0.3299      0.4739      0.4599      0.4552      3.3090      1.8437      3.3090    -20.3254      0.2878      0.1950      0.6701      0.4876
   2025.5000      6.8788     77.7395      0.4968      0.3384      0.3282      0.4742      0.4586      0.4538      3.2200      1.8477      3.2200    -20.0039      0.2920      0.2003      0.6718      0.5007
   2026.0000      6.9064     72.9846      0.4747      0.3336      0.3331      0.4590      0.4572      0.4522      3.1280      1.8568      3.1280    -19.6511      0.2519      0.2060      0.6669      0.5150
   2026.5000      6.9531     73.5638      0.4391      0.3285      0.3428      0.4389      0.4557      0.4506      3.0380      1.8592      3.0380    -19.2849      0.1921      0.2119      0.5888      0.5298
   2027.0000      6.9773     76.9351      0.4328      0.3241      0.3508      0.4398      0.4544      0.4492      2.9620      1.8433      2.9620    -18.9597      0.1780      0.2172      0.5454      0.5430
   2027.5000      6.9569     81.3726      0.4538      0.3163      0.3541      0.4552      0.4521      0.4467      2.8400      1.8281      2.8400    -18.3922      0.2021      0.2264      0.6194      0.5661
   2028.0000      6.9295     86.1708      0.4893      0.3111      0.3438      0.4772      0.4506      0.4451      2.7640      1.8180      2.7640    -18.0175      0.2668      0.2325      0.6562      0.5813
   2028.5000      6.9275     91.5783      0.5105      0.3058      0.3284      0.4889      0.4491      0.4434      2.6900      1.8153      2.6900    -17.6320      0.3210      0.2388      0.6716      0.5969
   2029.0000      6.9427     99.3144      0.5381      0.3015      0.3096      0.5042      0.4478      0.4420      2.6320      1.8171      2.6320    -17.3169      0.3892      0.2439      0.6904      0.6097
   2029.5000      6.9541    103.1387      0.5643      0.2986      0.3040      0.5197      0.4470      0.4411      2.5940      1.8218      2.5940    -17.1069      0.4314      0.2473      0.6960      0.6182
   2030.0000      6.9580    104.0168      0.5915      0.2969      0.3029      0.5349      0.4465      0.4405      2.5710      1.8266      2.5710    -16.9816      0.4641      0.2493      0.6971      0.6233
   2030.5000      6.9513    104.3487      0.6097      0.2975      0.3028      0.5453      0.4467      0.4407      2.5760      1.8298      2.5760    -17.0244      0.4850      0.2486      0.6972      0.6216
   2031.0000      6.9584    107.3548      0.5921      0.2996      0.2923      0.5329      0.4473      0.4414      2.6000      1.8346      2.6000    -17.1803      0.4814      0.2461      0.7077      0.6152
   2031.5000      6.9698    111.6813      0.5656      0.3032      0.2805      0.5164      0.4483      0.4425      2.6430      1.8364      2.6430    -17.4432      0.4719      0.2418      0.7195      0.6046
   2032.0000      6.9503    113.1376      0.5539      0.3068      0.2758      0.5091      0.4494      0.4437      2.6870      1.8380      2.6870    -17.7037      0.4665      0.2376      0.7242      0.5940
   2032.5000      6.9503    112.0820      0.5620      0.3098      0.2796      0.5147      0.4502      0.4446      2.7250      1.8368      2.7250    -17.9239      0.4700      0.2340      0.7204      0.5851
   2033.0000      6.9638    110.4846      0.5653      0.3128      0.2850      0.5179      0.4511      0.4456      2.7630      1.8339      2.7630    -18.1384      0.4658      0.2305      0.7150      0.5764
   2033.5000      6.9555    107.9960      0.5088      0.3187      0.2852      0.4831      0.4528      0.4474      2.8450      1.8333      2.8450    -18.5682      0.3960      0.2236      0.7148      0.5589
   2034.0000      6.9197    104.6469      0.5014      0.3261      0.2958      0.4799      0.4550      0.4498      2.9560      1.8308      2.9560    -19.1088      0.3682      0.2148      0.7042      0.5370
   2034.5000      6.8968    101.7605      0.4801      0.3394      0.3148      0.4712      0.4588      0.4540      3.1810      1.8242      3.1810    -20.0786      0.3127      0.1990      0.6852      0.4976
   2035.0000      6.8633     99.3938      0.4944      0.3512      0.3241      0.4841      0.4622      0.4578      3.4100      1.8151      3.4100    -20.9356      0.3200      0.1851      0.6759      0.4628
   2035.5000      6.8312     96.6335      0.5026      0.3605      0.3321      0.4916      0.4650      0.4608      3.6160      1.8097      3.6160    -21.6165      0.3189      0.1741      0.6679      0.4352
   2036.0000      6.8186     91.7674      0.5038      0.3696      0.3400      0.4928      0.4676      0.4637      3.8410      1.8115      3.8410    -22.2771      0.3056      0.1634      0.6600      0.4084
   2036.5000      6.8261     86.5834      0.4889      0.3762      0.3482      0.4826      0.4695      0.4658      4.0210      1.8191      4.0210    -22.7559      0.2686      0.1556      0.6518      0.3890
   2037.0000      6.8351     82.4404      0.4520      0.3728      0.3567      0.4581      0.4685      0.4647      3.9200      1.8295      3.9200    -22.5122      0.2027      0.1595      0.6213      0.3989
   2037.5000      6.8355     78.8976      0.4088      0.3853      0.3491      0.4318      0.4721      0.4687      4.5290      1.8407      4.5290    -23.8969      0.1653      0.1448      0.5066      0.3621
   2038.0000      6.8396     75.7452      0.3898      0.3874      0.3441      0.4187      0.4728      0.4694      4.7320      1.8496      4.7320    -24.2884      0.1492      0.1423      0.4573      0.3557
   2038.5000      6.8460     73.9087      0.3738      0.3891      0.3399      0.4084      0.4733      0.4699      4.9000      1.8559      4.9000    -24.5908      0.1371      0.1403      0.4200      0.3508
   2039.0000      6.8460     74.4861      0.3405      0.3891      0.3267      0.3871      0.4733      0.4699      4.9010      1.8677      4.9010    -24.6051      0.1209      0.1402      0.3704      0.3506
   2039.5000      6.8773     78.0836      0.3128      0.3904      0.3086      0.3677      0.4736      0.4703      5.0370      1.8868      5.0370    -24.8381      0.1182      0.1387      0.3621      0.3468
