~V
VERS. 2.00: Ver 2.00
WRAP.   NO:        
~W
 STRT.FT 100:
 STOP.FT 3000:
 STEP.FT 0.5:
 NULL. -999.250000:
 COMP. TENNECO OIL COMPANY:Company
 WELL. 51X-30:Well
 FLD. LOS LOBOS:Field
 LOC. SEC. 30 TWP 11N RGE 22W:Location
 STAT. CA:State
 SRVC. :Service Company
 SON. :Service Order #
 DATE. :Log Date
 UWI. :Unique Well ID
~C
 DEPT.FT :
 CALS.IN :
 GRC.GAPI :
 NPHC.PU-S :
 PHES. :
 PHIE. :
 PHIT. :
 PHTS. :
 PHZC. :
 RD.OHMM :
 ROBC.G/C3 :
 RS.OHMM :
 SBL.MV :
 VCLW. :
 VCWS. :
 VSHL. :
 VSHS. :
~P
~A
# ...
   2700.0000      7.2245    106.1464      0.4921      0.1502      0.3243      0.4692      0.4010      0.3910      1.2420      1.7687      1.2420     -6.5939      0.2898      0.4180      0.6757      0.8498
   2700.5000      7.2226    106.3976      0.4856      0.1470      0.3247      0.4655      0.4000      0.3899      1.2330      1.7711      1.2330     -6.3569      0.2817      0.4218      0.6753      0.8530
   2701.0000      7.0973    109.9368      0.4724      0.1418      0.3164      0.4590      0.3985      0.3883      1.2190      1.7786      1.2190     -5.9824      0.2852      0.4279      0.6836      0.8582
   2701.5000      7.0151    112.3873      0.4622      0.1395      0.3095      0.4535      0.3979      0.3875      1.2130      1.7805      1.2130     -5.8181      0.2880      0.4305      0.6905      0.8605
   2702.0000      7.0010    112.0358      0.4626      0.1406      0.3101      0.4531      0.3982      0.3879      1.2160      1.7779      1.2160     -5.8976      0.2860      0.4293      0.6899      0.8594
   2702.5000      7.0040    109.4080      0.4687      0.1428      0.3165      0.4574      0.3988      0.3886      1.2220      1.7809      1.2220     -6.0572      0.2818      0.4267      0.6835      0.8572
   2703.0000      7.0200    105.7162      0.4793      0.1472      0.3244      0.4637      0.4001      0.3900      1.2340      1.7809      1.2340     -6.3736      0.2785      0.4215      0.6756      0.8528
   2703.5000      7.0428    103.8296      0.4864      0.1514      0.3262      0.4676      0.4013      0.3913      1.2460      1.7792      1.2460     -6.6838      0.2827      0.4165      0.6738      0.8486
   2704.0000      7.0689    104.2618      0.4860      0.1597      0.3257      0.4672      0.4037      0.3940      1.2700      1.7788      1.2700     -7.2886      0.2830      0.4067      0.6743      0.8403
   2704.5000      7.0848    105.2721      0.4777      0.1680      0.3252      0.4631      0.4062      0.3966      1.2950      1.7824      1.2950     -7.8947      0.2757      0.3968      0.6748      0.8320
   2705.0000      7.0909    106.2581      0.4694      0.1722      0.3229      0.4602      0.4074      0.3980      1.3080      1.7898      1.3080     -8.1997      0.2746      0.3919      0.6771      0.8278
   2705.5000      7.0949    107.5555      0.4622      0.1785      0.3137      0.4567      0.4092      0.4000      1.3280      1.8099      1.3280     -8.6584      0.2860      0.3844      0.6863      0.8215
   2706.0000      7.0989    109.6129      0.4597      0.1834      0.2683      0.4414      0.4106      0.4015      1.3440      1.8629      1.3440     -9.0150      0.3462      0.3787      0.7317      0.8166
   2706.5000      7.0972    111.6265      0.4742      0.1909      0.2412      0.4426      0.4128      0.4039      1.3690      1.8846      1.3690     -9.5566      0.4028      0.3699      0.7588      0.8091
   2707.0000      7.0960    110.9727      0.4948      0.2019      0.2378      0.4524      0.4160      0.4074      1.4080      1.8860      1.4080    -10.3640      0.4293      0.3568      0.7622      0.7981
   2707.5000      7.0932    107.6018      0.4992      0.2137      0.2520      0.4587      0.4194      0.4112      1.4520      1.8722      1.4520    -11.2229      0.4134      0.3428      0.7480      0.7863
   2708.0000      7.0920    104.9343      0.4973      0.2248      0.2678      0.4624      0.4226      0.4147      1.4960      1.8559      1.4960    -12.0313      0.3892      0.3297      0.7322      0.7752
   2708.5000      7.0892    105.1078      0.4808      0.2428      0.2831      0.4571      0.4279      0.4205      1.5730      1.8446      1.5730    -13.3382      0.3480      0.3085      0.7169      0.7572
   2709.0000      7.0853    107.6386      0.4464      0.2646      0.2951      0.4406      0.4342      0.4274      1.6780      1.8404      1.6780    -14.9275      0.2910      0.2827      0.7049      0.7067
   2709.5000      7.0867    110.4114      0.4378      0.2777      0.2884      0.4346      0.4380      0.4316      1.7480      1.8466      1.7480    -15.8802      0.2922      0.2672      0.7116      0.6680
   2710.0000      7.0934    114.5222      0.4363      0.2842      0.2648      0.4283      0.4399      0.4337      1.7850      1.8675      1.7850    -16.3526      0.3270      0.2595      0.7352      0.6488
   2710.5000      7.0987    120.1340      0.4370      0.2862      0.2423      0.4246      0.4405      0.4343      1.7970      1.8828      1.7970    -16.5003      0.3647      0.2571      0.7577      0.6428
   2711.0000      7.1053    124.1747      0.4351      0.2853      0.2304      0.4211      0.4402      0.4340      1.7920      1.8926      1.7920    -16.4363      0.3812      0.2582      0.7696      0.6454
   2711.5000      7.1106    124.8363      0.4359      0.2872      0.2258      0.4202      0.4408      0.4346      1.8030      1.8970      1.8030    -16.5705      0.3889      0.2560      0.7742      0.6400
   2712.0000      7.1146    122.7179      0.4428      0.2901      0.2303      0.4252      0.4416      0.4356      1.8210      1.8911      1.8210    -16.7879      0.3899      0.2525      0.7697      0.6312
   2712.5000      7.1160    120.2541      0.4572      0.2931      0.2380      0.4360      0.4425      0.4365      1.8390      1.8781      1.8390    -17.0010      0.3958      0.2490      0.7620      0.6225
   2713.0000      7.1160    117.4691      0.4744      0.2954      0.2516      0.4499      0.4432      0.4373      1.8540      1.8591      1.8540    -17.1750      0.3965      0.2462      0.7484      0.6155
   2713.5000      7.1287    113.9608      0.4811      0.2935      0.2707      0.4588      0.4426      0.4366      1.8420      1.8409      1.8420    -17.0326      0.3762      0.2485      0.7293      0.6212
   2714.0000      7.1385    109.9339      0.4754      0.2899      0.2853      0.4573      0.4415      0.4355      1.8200      1.8339      1.8200    -16.7681      0.3440      0.2528      0.7147      0.6320
   2714.5000      7.1525    105.5552      0.4603      0.2907      0.2909      0.4469      0.4418      0.4357      1.8250      1.8436      1.8250    -16.8264      0.3119      0.2518      0.7091      0.6296
   2715.0000      7.1792    102.3362      0.4373      0.2979      0.2948      0.4317      0.4439      0.4380      1.8700      1.8569      1.8700    -17.3519      0.2737      0.2433      0.7052      0.6083
   2715.5000      7.2058    100.5478      0.4179      0.3086      0.2976      0.4216      0.4470      0.4414      1.9410      1.8593      1.9410    -18.1325      0.2480      0.2306      0.7024      0.5766
   2716.0000      7.2126     98.3679      0.4191      0.3185      0.3055      0.4247      0.4499      0.4446      2.0120      1.8530      2.0120    -18.8577      0.2384      0.2189      0.6945      0.5472
   2716.5000      7.1874     98.5672      0.4227      0.3156      0.3097      0.4289      0.4490      0.4437      1.9910      1.8448      1.9910    -18.6461      0.2383      0.2223      0.6903      0.5558
   2717.0000      7.1432    102.4212      0.4163      0.3041      0.3060      0.4276      0.4456      0.4400      1.9110      1.8336      1.9110    -17.8032      0.2432      0.2360      0.6940      0.5900
   2717.5000      7.1288    113.0213      0.4057      0.2892      0.2876      0.4231      0.4413      0.4352      1.8170      1.8263      1.8170    -16.7184      0.2711      0.2536      0.7124      0.6340
   2718.0000      7.1532    126.0347      0.4045      0.2770      0.2660      0.4214      0.4378      0.4313      1.7470      1.8308      1.7470    -15.8344      0.3109      0.2679      0.7340      0.6699
   2718.5000      7.1861    133.3547      0.4532      0.2577      0.2541      0.4438      0.4322      0.4252      1.6460      1.8416      1.6460    -14.4275      0.3794      0.2908      0.7459      0.7270
   2719.0000      7.2152    131.5307      0.5040      0.2493      0.2337      0.4687      0.4297      0.4225      1.6060      1.8455      1.6060    -13.8203      0.4700      0.3006      0.7663      0.7507
   2719.5000      7.2608    125.3256      0.5135      0.2406      0.2428      0.4752      0.4272      0.4197      1.5660      1.8401      1.5660    -13.1822      0.4648      0.3110      0.7572      0.7594
