~Version Information
VERS.                     2.0: CWLS log ASCII Standard Version 2.00
WRAP.                      NO: One line per depth step
~Well Information Block
#MNEM.UNIT                               Data Type  Information
#---------                               ---------  -----------
STRT.FT                                   350.0000:
STOP.FT                                  6780.0000:
STEP.FT                                     0.5000:
NULL.                 -999.25                     :
COMP.                                             :COMPANY            
WELL.     CCMO 58-20 REDRILL                      :WELL               
FLD .                                             :FIELD              
CTRY.                                             :COUNTRY            
STAT.                                             :STATE              
LOC .                                             :LOCATION           
UWI .                                             :UNIQUE WELL ID     
SRVC.                                             :Service company    
DATE.                                             :LOG DATE           
~Curve Information
#MNEM.UNIT           API CODE  Curve Description
#---------           --------  -----------------
DEPT.FT                      :   1 DEPTH
SP  .MV                      :   2
AM16.OHMM                    :   3
AO10.OHMM                    :   4
AO19.OHMM                    :   5
SBL .MV                      :   6
RS  .OHMM                    :   7
RM  .OHMM                    :   8
RD  .OHMM                    :   9
DEVI.DEG                     :  10
TVD .FT                      :  11
AZIM.DEG                     :  12
NORT.FT                      :  13
EAST.FT                      :  14
OFFS.FT                      :  15
~A
# ...
  2917.500 -8.8330  3.8790  5.5080  5.3860 -2.5759  3.8790  5.5080  5.3860  0.0000  2917.5  0.0000  0.0000  0.0000  0.0000 
  2918.000 -9.4460  3.8640  5.5220  5.2500 -3.1863  3.8640  5.5220  5.2500  0.0000  2918.0  0.0000  0.0000  0.0000  0.0000 
  2918.500 -10.060  3.8860  5.5650  5.1490 -3.7977  3.8860  5.5650  5.1490  0.0000  2918.5  0.0000  0.0000  0.0000  0.0000 
  2919.000 -10.529  3.9430  5.6010  5.0410 -4.2641  3.9430  5.6010  5.0410  0.0000  2919.0  0.0000  0.0000  0.0000  0.0000 
  2919.500 -10.818  4.0720  5.6440  4.9690 -4.5505  4.0720  5.6440  4.9690  0.0000  2919.5  0.0000  0.0000  0.0000  0.0000 
  2920.000 -10.675  4.3010  5.7660  4.9330 -4.4049  4.3010  5.7660  4.9330  0.0000  2920.0  0.0000  0.0000  0.0000  0.0000 
  2920.500 -10.460  4.5960  5.8880  4.9620 -4.1873  4.5960  5.8880  4.9620  0.0000  2920.5  0.0000  0.0000  0.0000  0.0000 
  2921.000 -10.352  4.9970  5.9340  5.0330 -4.0767  4.9970  5.9340  5.0330  0.0000  2921.0  0.0000  0.0000  0.0000  0.0000 
  2921.500 -10.317  5.3420  5.9810  5.1340 -4.0391  5.3420  5.9810  5.1340  0.0000  2921.5  0.0000  0.0000  0.0000  0.0000 
  2922.000 -11.544  5.6580  6.1750  5.2630 -5.2635  5.6580  6.1750  5.2630  0.0000  2922.0  0.0000  0.0000  0.0000  0.0000 
  2922.500 -12.842  6.0090  6.3610  5.3350 -6.5589  6.0090  6.3610  5.3350  0.0000  2922.5  0.0000  0.0000  0.0000  0.0000 
  2923.000 -14.681  6.3900  6.6910  5.6860 -8.3953  6.3900  6.6910  5.6860  0.0000  2923.0  0.0000  0.0000  0.0000  0.0000 
  2923.500 -17.313  6.7770  7.0000  5.9870 -11.025  6.7770  7.0000  5.9870  0.0000  2923.5  0.0000  0.0000  0.0000  0.0000 
  2924.000 -21.062  7.1500  7.2940  6.3960 -14.771  7.1500  7.2940  6.3960  0.0000  2924.0  0.0000  0.0000  0.0000  0.0000 
  2924.500 -26.325  7.6170  7.5090  6.7550 -20.031  7.6170  7.5090  6.7550  0.0000  2924.5  0.0000  0.0000  0.0000  0.0000 
  2925.000 -29.318  8.1410  7.5880  7.1570 -23.022  8.1410  7.5880  7.1570  0.0000  2925.0  0.0000  0.0000  0.0000  0.0000 
  2925.500 -32.094  8.4210  7.6380  7.6310 -25.795  8.4210  7.6380  7.6310  0.0000  2925.5  0.0000  0.0000  0.0000  0.0000 
  2926.000 -33.681  8.8150  7.6880  7.9030 -27.380  8.8150  7.6880  7.9030  0.0000  2926.0  0.0000  0.0000  0.0000  0.0000 
  2926.500 -34.619  9.1670  7.7020  8.1400 -28.315  9.1670  7.7020  8.1400  0.0000  2926.5  0.0000  0.0000  0.0000  0.0000 
  2927.000 -35.377  9.4540  7.7310  8.2260 -29.071  9.4540  7.7310  8.2260  0.0000  2927.0  0.0000  0.0000  0.0000  0.0000 
  2927.500 -36.243  9.6910  7.7340  8.5780 -29.934  9.6910  7.7340  8.5780  0.0000  2927.5  0.0000  0.0000  0.0000  0.0000 
  2928.000 -37.361  9.9420  7.7380  8.7070 -31.049  9.9420  7.7380  8.7070  0.0000  2928.0  0.0000  0.0000  0.0000  0.0000 
  2928.500 -38.191  10.085  7.7520  8.9510 -31.877  10.085  7.7520  8.9510  0.0000  2928.5  0.0000  0.0000  0.0000  0.0000 
  2929.000 -39.453  10.178  7.7450  9.1370 -33.136  10.178  7.7450  9.1370  0.0000  2929.0  0.0000  0.0000  0.0000  0.0000 
  2929.500 -40.319  10.221  7.7450  9.3170 -34.000  10.221  7.7450  9.3170  0.0000  2929.5  0.0000  0.0000  0.0000  0.0000 
  2930.000 -40.860  10.257  7.7510  9.4310 -34.538  10.257  7.7510  9.4310  0.0000  2930.0  0.0000  0.0000  0.0000  0.0000 
  2930.500 -41.114  10.314  7.7590  9.5680 -34.789  10.314  7.7590  9.5680  0.0000  2930.5  0.0000  0.0000  0.0000  0.0000 
  2931.000 -41.114  10.372  7.7730  9.7110 -34.787  10.372  7.7730  9.7110  0.0000  2931.0  0.0000  0.0000  0.0000  0.0000 
  2931.500 -41.115  10.450  7.7800  9.7040 -34.785  10.450  7.7800  9.7040  0.0000  2931.5  0.0000  0.0000  0.0000  0.0000 
  2932.000 -41.224  10.536  7.7650  9.6250 -34.892  10.536  7.7650  9.6250  0.0000  2932.0  0.0000  0.0000  0.0000  0.0000 
  2932.500 -40.900  10.583  7.7870  9.5240 -34.565  10.583  7.7870  9.5240  0.0000  2932.5  0.0000  0.0000  0.0000  0.0000 
  2933.000 -40.000  10.630  8.1100  9.4450 -33.662  10.630  8.1100  9.4450  0.0000  2933.0  0.0000  0.0000  0.0000  0.0000 
  2933.500 -38.956  10.809  8.3180  9.3950 -32.616  10.809  8.3180  9.3950  0.0000  2933.5  0.0000  0.0000  0.0000  0.0000 
  2934.000 -37.551  10.959  8.5620  9.4230 -31.208  10.959  8.5620  9.4230  0.0000  2934.0  0.0000  0.0000  0.0000  0.0000 
  2934.500 -36.182  11.196  8.9490  9.4880 -29.837  11.196  8.9490  9.4880  0.0000  2934.5  0.0000  0.0000  0.0000  0.0000 
  2935.000 -35.066  11.332  9.3010  9.5300 -28.718  11.332  9.3010  9.5300  0.0000  2935.0  0.0000  0.0000  0.0000  0.0000 
  2935.500 -34.382  11.490  9.6740  9.5230 -28.031  11.490  9.6740  9.5230  0.0000  2935.5  0.0000  0.0000  0.0000  0.0000 
  2936.000 -33.698  11.669  9.9970  9.4730 -27.345  11.669  9.9970  9.4730  0.0000  2936.0  0.0000  0.0000  0.0000  0.0000 
  2936.500 -34.528  11.813  10.284  9.4220 -28.172  11.813  10.284  9.4220  0.0000  2936.5  0.0000  0.0000  0.0000  0.0000 
  2937.000 -37.700  12.007  10.671  9.3720 -31.342  12.007  10.671  9.3720  0.0000  2937.0  0.0000  0.0000  0.0000  0.0000 
  2937.500 -39.323  12.143  10.980  9.3500 -32.962  12.143  10.980  9.3500  0.0000  2937.5  0.0000  0.0000  0.0000  0.0000 
  2938.000 -40.009  12.265  11.453  9.3210 -33.645  12.265  11.453  9.3210  0.0000  2938.0  0.0000  0.0000  0.0000  0.0000 
  2938.500 -40.514  12.365  11.762  9.3070 -34.148  12.365  11.762  9.3070  0.0000  2938.5  0.0000  0.0000  0.0000  0.0000 
  2939.000 -40.984  12.394  12.106  9.2780 -34.615  12.394  12.106  9.2780  0.0000  2939.0  0.0000  0.0000  0.0000  0.0000 
  2939.500 -41.273  12.408  12.444  9.2560 -34.902  12.408  12.444  9.2560  0.0000  2939.5  0.0000  0.0000  0.0000  0.0000 
  2940.000 -41.706  12.472  12.788  9.2350 -35.332  12.472  12.788  9.2350  0.0000  2940.0  0.0000  0.0000  0.0000  0.0000 
  2940.500 -41.022  12.573  13.133  9.1840 -34.645  12.573  13.133  9.1840  0.0000  2940.5  0.0000  0.0000  0.0000  0.0000 
  2941.000 -40.194  12.644  13.420  9.1550 -33.815  12.644  13.420  9.1550  0.0000  2941.0  0.0000  0.0000  0.0000  0.0000 
  2941.500 -39.798  12.730  13.778  9.1340 -33.416  12.730  13.778  9.1340  0.0000  2941.5  0.0000  0.0000  0.0000  0.0000 
  2942.000 -39.475  12.845  13.951  9.1120 -33.091  12.845  13.951  9.1120  0.0000  2942.0  0.0000  0.0000  0.0000  0.0000 
  2942.500 -39.584  12.996  14.230  9.0830 -33.197  12.996  14.230  9.0830  0.0000  2942.5  0.0000  0.0000  0.0000  0.0000 
  2943.000 -39.838  13.096  14.453  9.0110 -33.448  13.096  14.453  9.0110  0.0000  2943.0  0.0000  0.0000  0.0000  0.0000 
  2943.500 -40.162  13.204  14.754  8.9250 -33.770  13.204  14.754  8.9250  0.0000  2943.5  0.0000  0.0000  0.0000  0.0000 
  2944.000 -40.704  13.246  15.077  8.9970 -34.309  13.246  15.077  8.9970  0.0000  2944.0  0.0000  0.0000  0.0000  0.0000 
  2944.500 -41.461  13.232  15.450  9.5350 -35.064  13.232  15.450  9.5350  0.0000  2944.5  0.0000  0.0000  0.0000  0.0000 
  2945.000 -42.111  13.196  15.766  9.8940 -35.711  13.196  15.766  9.8940  0.0000  2945.0  0.0000  0.0000  0.0000  0.0000 
  2945.500 -42.761  13.160  16.067  10.159 -36.358  13.160  16.067  10.159  0.0000  2945.5  0.0000  0.0000  0.0000  0.0000 
  2946.000 -43.375  13.002  16.311  10.446 -36.970  13.002  16.311  10.446  0.0000  2946.0  0.0000  0.0000  0.0000  0.0000 
  2946.500 -43.844  12.880  16.383  10.640 -37.436  12.880  16.383  10.640  0.0000  2946.5  0.0000  0.0000  0.0000  0.0000 
  2947.000 -43.989  12.686  16.332  10.869 -37.579  12.686  16.332  10.869  0.0000  2947.0  0.0000  0.0000  0.0000  0.0000 
  2947.500 -44.026  12.535  16.311  11.056 -37.613  12.535  16.311  11.056  0.0000  2947.5  0.0000  0.0000  0.0000  0.0000 
  2948.000 -43.846  12.391  16.318  11.242 -37.430  12.391  16.318  11.242  0.0000  2948.0  0.0000  0.0000  0.0000  0.0000 
  2948.500 -43.235  12.154  16.641  11.364 -36.817  12.154  16.641  11.364  0.0000  2948.5  0.0000  0.0000  0.0000  0.0000 
  2949.000 -42.731  11.730  16.992  11.536 -36.310  11.730  16.992  11.536  0.0000  2949.0  0.0000  0.0000  0.0000  0.0000 
  2949.500 -42.299  11.544  17.251  11.644 -35.876  11.544  17.251  11.644  0.0000  2949.5  0.0000  0.0000  0.0000  0.0000 
