~Version Information
VERS.                     2.0: CWLS log ASCII Standard Version 2.00
WRAP.                      NO: One line per depth step
~Well Information Block
#MNEM.UNIT                               Data Type  Information
#---------                               ---------  -----------
STRT.FT                                   350.0000:
STOP.FT                                  6780.0000:
STEP.FT                                     0.5000:
NULL.                 -999.25                     :
COMP.                                             :COMPANY            
WELL.     CCMO 58-20 REDRILL                      :WELL               
FLD .                                             :FIELD              
CTRY.                                             :COUNTRY            
STAT.                                             :STATE              
LOC .                                             :LOCATION           
UWI .                                             :UNIQUE WELL ID     
SRVC.                                             :Service company    
DATE.                                             :LOG DATE           
~Curve Information
#MNEM.UNIT           API CODE  Curve Description
#---------           --------  -----------------
DEPT.FT                      :   1 DEPTH
SP  .MV                      :   2
AM16.OHMM                    :   3
AO10.OHMM                    :   4
AO19.OHMM                    :   5
SBL .MV                      :   6
RS  .OHMM                    :   7
RM  .OHMM                    :   8
RD  .OHMM                    :   9
DEVI.DEG                     :  10
TVD .FT                      :  11
AZIM.DEG                     :  12
NORT.FT                      :  13
EAST.FT                      :  14
OFFS.FT                      :  15
~A
# ...
  4185.000 -10.235  7.9550  15.583  9.0440 -13.150  7.9550  15.583  9.0440  0.0000  4185.0  0.0000  0.0000  0.0000  0.0000 
  4185.500 -9.8050  8.1410  14.030  8.1230 -12.749  8.1410  14.030  8.1230  0.0000  4185.5  0.0000  0.0000  0.0000  0.0000 
  4186.000 -11.172  8.4430  12.822  7.7280 -14.146  8.4430  12.822  7.7280  0.0000  4186.0  0.0000  0.0000  0.0000  0.0000 
  4186.500 -13.474  8.8100  12.275  7.7490 -16.477  8.8100  12.275  7.7490  0.0000  4186.5  0.0000  0.0000  0.0000  0.0000 
  4187.000 -16.064  9.2260  12.002  7.8640 -19.096  9.2260  12.002  7.8640  0.0000  4187.0  0.0000  0.0000  0.0000  0.0000 
  4187.500 -19.301  9.4850  12.462  8.3530 -22.362  9.4850  12.462  8.3530  0.0000  4187.5  0.0000  0.0000  0.0000  0.0000 
  4188.000 -21.423  10.038  13.374  9.8410 -24.513  10.038  13.374  9.8410  0.0000  4188.0  0.0000  0.0000  0.0000  0.0000 
  4188.500 -23.438  10.527  14.539  11.005 -26.557  10.527  14.539  11.005  0.0000  4188.5  0.0000  0.0000  0.0000  0.0000 
  4189.000 -25.165  10.771  16.164  11.724 -28.313  10.771  16.164  11.724  0.0000  4189.0  0.0000  0.0000  0.0000  0.0000 
  4189.500 -26.208  11.203  16.595  12.335 -29.385  11.203  16.595  12.335  0.0000  4189.5  0.0000  0.0000  0.0000  0.0000 
  4190.000 -27.037  11.447  16.343  12.464 -30.243  11.447  16.343  12.464  0.0000  4190.0  0.0000  0.0000  0.0000  0.0000 
  4190.500 -27.685  11.447  15.422  12.112 -30.920  11.447  15.422  12.112  0.0000  4190.5  0.0000  0.0000  0.0000  0.0000 
  4191.000 -28.118  11.382  14.437  11.558 -31.383  11.382  14.437  11.558  0.0000  4191.0  0.0000  0.0000  0.0000  0.0000 
  4191.500 -28.335  11.317  13.510  10.824 -31.629  11.317  13.510  10.824  0.0000  4191.5  0.0000  0.0000  0.0000  0.0000 
  4192.000 -28.660  11.266  13.042  10.429 -31.983  11.266  13.042  10.429  0.0000  4192.0  0.0000  0.0000  0.0000  0.0000 
  4192.500 -28.732  11.216  12.668  10.126 -32.084  11.216  12.668  10.126  0.0000  4192.5  0.0000  0.0000  0.0000  0.0000 
  4193.000 -28.805  11.251  12.323  10.011 -32.186  11.251  12.323  10.011  0.0000  4193.0  0.0000  0.0000  0.0000  0.0000 
  4193.500 -28.987  11.309  12.099  10.076 -32.397  11.309  12.099  10.076  0.0000  4193.5  0.0000  0.0000  0.0000  0.0000 
  4194.000 -29.061  11.366  11.862  10.341 -32.500  11.366  11.862  10.341  0.0000  4194.0  0.0000  0.0000  0.0000  0.0000 
  4194.500 -29.061  11.502  11.596  10.758 -32.529  11.502  11.596  10.758  0.0000  4194.5  0.0000  0.0000  0.0000  0.0000 
  4195.000 -28.667  11.581  11.423  11.089 -32.164  11.581  11.423  11.089  0.0000  4195.0  0.0000  0.0000  0.0000  0.0000 
  4195.500 -28.129  11.667  11.243  11.369 -31.655  11.667  11.243  11.369  0.0000  4195.5  0.0000  0.0000  0.0000  0.0000 
  4196.000 -27.232  11.689  11.113  11.671 -30.788  11.689  11.113  11.671  0.0000  4196.0  0.0000  0.0000  0.0000  0.0000 
  4196.500 -26.227  11.638  11.020  11.900 -29.812  11.638  11.020  11.900  0.0000  4196.5  0.0000  0.0000  0.0000  0.0000 
  4197.000 -25.365  11.544  11.005  12.073 -28.979  11.544  11.005  12.073  0.0000  4197.0  0.0000  0.0000  0.0000  0.0000 
  4197.500 -24.935  11.364  11.199  12.195 -28.578  11.364  11.199  12.195  0.0000  4197.5  0.0000  0.0000  0.0000  0.0000 
  4198.000 -24.002  11.149  11.522  12.245 -27.674  11.149  11.522  12.245  0.0000  4198.0  0.0000  0.0000  0.0000  0.0000 
  4198.500 -22.816  10.961  11.860  12.259 -26.517  10.961  11.860  12.259  0.0000  4198.5  0.0000  0.0000  0.0000  0.0000 
  4199.000 -21.560  10.789  12.636  11.928 -25.290  10.789  12.636  11.928  0.0000  4199.0  0.0000  0.0000  0.0000  0.0000 
  4199.500 -20.554  10.645  13.671  11.734 -24.313  10.645  13.671  11.734  0.0000  4199.5  0.0000  0.0000  0.0000  0.0000 
  4200.000 -20.304  10.551  13.686  11.539 -24.092  10.551  13.686  11.539  0.0000  4200.0  0.0000  0.0000  0.0000  0.0000 
  4200.500 -21.169  10.565  13.664  11.323 -24.986  10.565  13.664  11.323  0.0000  4200.5  0.0000  0.0000  0.0000  0.0000 
  4201.000 -23.005  10.694  13.613  11.071 -26.852  10.694  13.613  11.071  0.0000  4201.0  0.0000  0.0000  0.0000  0.0000 
  4201.500 -24.912  10.916  13.512  11.136 -28.788  10.916  13.512  11.136  0.0000  4201.5  0.0000  0.0000  0.0000  0.0000 
  4202.000 -26.389  11.074  13.403  11.459 -30.294  11.074  13.403  11.459  0.0000  4202.0  0.0000  0.0000  0.0000  0.0000 
  4202.500 -27.469  11.189  13.353  11.659 -31.403  11.189  13.353  11.659  0.0000  4202.5  0.0000  0.0000  0.0000  0.0000 
  4203.000 -28.946  11.224  13.287  11.702 -32.909  11.224  13.287  11.702  0.0000  4203.0  0.0000  0.0000  0.0000  0.0000 
  4203.500 -30.170  11.267  13.266  11.716 -34.162  11.267  13.266  11.716  0.0000  4203.5  0.0000  0.0000  0.0000  0.0000 
  4204.000 -30.927  11.310  13.265  11.601 -34.948  11.310  13.265  11.601  0.0000  4204.0  0.0000  0.0000  0.0000  0.0000 
  4204.500 -31.613  11.438  13.279  11.385 -35.663  11.438  13.279  11.385  0.0000  4204.5  0.0000  0.0000  0.0000  0.0000 
  4205.000 -31.723  11.467  13.282  11.147 -35.802  11.467  13.282  11.147  0.0000  4205.0  0.0000  0.0000  0.0000  0.0000 
  4205.500 -31.402  11.524  13.286  10.931 -35.510  11.524  13.286  10.931  0.0000  4205.5  0.0000  0.0000  0.0000  0.0000 
  4206.000 -31.260  11.581  13.299  10.837 -35.398  11.581  13.299  10.837  0.0000  4206.0  0.0000  0.0000  0.0000  0.0000 
  4206.500 -31.226  11.652  13.313  10.930 -35.393  11.652  13.313  10.930  0.0000  4206.5  0.0000  0.0000  0.0000  0.0000 
  4207.000 -31.372  11.731  13.349  11.095 -35.568  11.731  13.349  11.095  0.0000  4207.0  0.0000  0.0000  0.0000  0.0000 
  4207.500 -31.698  11.795  13.377  11.346 -35.923  11.795  13.377  11.346  0.0000  4207.5  0.0000  0.0000  0.0000  0.0000 
  4208.000 -32.024  11.867  13.398  11.684 -36.278  11.867  13.398  11.684  0.0000  4208.0  0.0000  0.0000  0.0000  0.0000 
  4208.500 -32.314  11.917  13.419  12.208 -36.597  11.917  13.419  12.208  0.0000  4208.5  0.0000  0.0000  0.0000  0.0000 
  4209.000 -32.460  11.974  13.469  12.567 -36.772  11.974  13.469  12.567  0.0000  4209.0  0.0000  0.0000  0.0000  0.0000 
  4209.500 -32.498  11.988  13.505  12.897 -36.839  11.988  13.505  12.897  0.0000  4209.5  0.0000  0.0000  0.0000  0.0000 
  4210.000 -32.536  11.995  13.569  13.156 -36.906  11.995  13.569  13.156  0.0000  4210.0  0.0000  0.0000  0.0000  0.0000 
  4210.500 -32.503  11.980  13.669  13.407 -36.902  11.980  13.669  13.407  0.0000  4210.5  0.0000  0.0000  0.0000  0.0000 
  4211.000 -32.289  11.943  13.892  13.629 -36.718  11.943  13.892  13.629  0.0000  4211.0  0.0000  0.0000  0.0000  0.0000 
  4211.500 -31.753  11.849  14.308  13.888 -36.211  11.849  14.308  13.888  0.0000  4211.5  0.0000  0.0000  0.0000  0.0000 
  4212.000 -31.323  11.712  14.696  14.261 -35.810  11.712  14.696  14.261  0.0000  4212.0  0.0000  0.0000  0.0000  0.0000 
  4212.500 -30.211  11.338  14.983  14.527 -34.727  11.338  14.983  14.527  0.0000  4212.5  0.0000  0.0000  0.0000  0.0000 
  4213.000 -28.416  10.950  15.256  14.756 -32.961  10.950  15.256  14.756  0.0000  4213.0  0.0000  0.0000  0.0000  0.0000 
  4213.500 -26.441  10.403  15.536  15.015 -31.015  10.403  15.536  15.015  0.0000  4213.5  0.0000  0.0000  0.0000  0.0000 
  4214.000 -25.221  9.8920  15.608  15.180 -29.824  9.8920  15.608  15.180  0.0000  4214.0  0.0000  0.0000  0.0000  0.0000 
  4214.500 -24.252  9.3660  15.485  14.964 -28.884  9.3660  15.485  14.964  0.0000  4214.5  0.0000  0.0000  0.0000  0.0000 
  4215.000 -22.565  8.7690  14.780  14.474 -27.226  8.7690  14.780  14.474  0.0000  4215.0  0.0000  0.0000  0.0000  0.0000 
  4215.500 -21.021  8.3660  14.053  14.114 -25.711  8.3660  14.053  14.114  0.0000  4215.5  0.0000  0.0000  0.0000  0.0000 
  4216.000 -20.197  8.1720  13.075  13.488 -24.917  8.1720  13.075  13.488  0.0000  4216.0  0.0000  0.0000  0.0000  0.0000 
  4216.500 -21.673  8.2360  12.090  12.891 -26.422  8.2360  12.090  12.891  0.0000  4216.5  0.0000  0.0000  0.0000  0.0000 
  4217.000 -22.790  8.8830  11.507  11.848 -27.568  8.8830  11.507  11.848  0.0000  4217.0  0.0000  0.0000  0.0000  0.0000 
