~Version Information
VERS.                     2.0: CWLS log ASCII Standard Version 2.00
WRAP.                      NO: One line per depth step
~Well Information Block
#MNEM.UNIT                               Data Type  Information
#---------                               ---------  -----------
STRT.FT                                   350.0000:
STOP.FT                                  6780.0000:
STEP.FT                                     0.5000:
NULL.                 -999.25                     :
COMP.                                             :COMPANY            
WELL.     CCMO 58-20 REDRILL                      :WELL               
FLD .                                             :FIELD              
CTRY.                                             :COUNTRY            
STAT.                                             :STATE              
LOC .                                             :LOCATION           
UWI .                                             :UNIQUE WELL ID     
SRVC.                                             :Service company    
DATE.                                             :LOG DATE           
~Curve Information
#MNEM.UNIT           API CODE  Curve Description
#---------           --------  -----------------
DEPT.FT                      :   1 DEPTH
SP  .MV                      :   2
AM16.OHMM                    :   3
AO10.OHMM                    :   4
AO19.OHMM                    :   5
SBL .MV                      :   6
RS  .OHMM                    :   7
RM  .OHMM                    :   8
RD  .OHMM                    :   9
DEVI.DEG                     :  10
TVD .FT                      :  11
AZIM.DEG                     :  12
NORT.FT                      :  13
EAST.FT                      :  14
OFFS.FT                      :  15
~A
# ...
  1617.500 -30.936  16.278  26.760  29.130 -25.502  16.278  26.760  29.130  0.0000  1617.5  0.0000  0.0000  0.0000  0.0000 
  1618.000 -32.198  16.594  26.830  29.380 -26.808  16.594  26.830  29.380  0.0000  1618.0  0.0000  0.0000  0.0000  0.0000 
  1618.500 -32.992  16.874  26.899  30.094 -27.646  16.874  26.899  30.094  0.0000  1618.5  0.0000  0.0000  0.0000  0.0000 
  1619.000 -32.741  17.089  27.041  30.523 -27.439  17.089  27.041  30.523  0.0000  1619.0  0.0000  0.0000  0.0000  0.0000 
  1619.500 -32.238  17.254  27.185  30.810 -26.980  17.254  27.185  30.810  0.0000  1619.5  0.0000  0.0000  0.0000  0.0000 
  1620.000 -32.094  17.354  27.364  31.097 -26.880  17.354  27.364  31.097  0.0000  1620.0  0.0000  0.0000  0.0000  0.0000 
  1620.500 -32.708  17.419  27.542  31.598 -27.538  17.419  27.542  31.598  0.0000  1620.5  0.0000  0.0000  0.0000  0.0000 
  1621.000 -33.104  17.426  27.792  32.098 -27.978  17.426  27.792  32.098  0.0000  1621.0  0.0000  0.0000  0.0000  0.0000 
  1621.500 -33.538  17.404  28.042  32.885 -28.456  17.404  28.042  32.885  0.0000  1621.5  0.0000  0.0000  0.0000  0.0000 
  1622.000 -33.395  17.383  28.292  33.458 -28.357  17.383  28.292  33.458  0.0000  1622.0  0.0000  0.0000  0.0000  0.0000 
  1622.500 -33.071  17.296  28.541  34.030 -28.077  17.296  28.541  34.030  0.0000  1622.5  0.0000  0.0000  0.0000  0.0000 
  1623.000 -32.639  17.088  28.719  34.460 -27.689  17.088  28.719  34.460  0.0000  1623.0  0.0000  0.0000  0.0000  0.0000 
  1623.500 -32.532  16.880  28.896  34.960 -27.626  16.880  28.896  34.960  0.0000  1623.5  0.0000  0.0000  0.0000  0.0000 
  1624.000 -32.786  16.614  29.111  35.390 -27.924  16.614  29.111  35.390  0.0000  1624.0  0.0000  0.0000  0.0000  0.0000 
  1624.500 -32.930  16.377  29.325  35.748 -28.112  16.377  29.325  35.748  0.0000  1624.5  0.0000  0.0000  0.0000  0.0000 
  1625.000 -32.931  16.082  29.752  36.176 -28.157  16.082  29.752  36.176  0.0000  1625.0  0.0000  0.0000  0.0000  0.0000 
  1625.500 -32.572  15.968  29.967  36.247 -27.842  15.968  29.967  36.247  0.0000  1625.5  0.0000  0.0000  0.0000  0.0000 
  1626.000 -32.356  15.752  30.252  35.744 -27.670  15.752  30.252  35.744  0.0000  1626.0  0.0000  0.0000  0.0000  0.0000 
  1626.500 -32.898  15.565  30.538  35.240 -28.256  15.565  30.538  35.240  0.0000  1626.5  0.0000  0.0000  0.0000  0.0000 
  1627.000 -33.403  15.299  30.717  34.664 -28.806  15.299  30.717  34.664  0.0000  1627.0  0.0000  0.0000  0.0000  0.0000 
  1627.500 -34.016  15.070  30.896  34.412 -29.463  15.070  30.896  34.412  0.0000  1627.5  0.0000  0.0000  0.0000  0.0000 
  1628.000 -33.729  14.833  31.179  34.161 -29.220  14.833  31.179  34.161  0.0000  1628.0  0.0000  0.0000  0.0000  0.0000 
  1628.500 -32.793  14.596  31.393  34.052 -28.328  14.596  31.393  34.052  0.0000  1628.5  0.0000  0.0000  0.0000  0.0000 
  1629.000 -31.028  14.380  31.536  33.943 -26.607  14.380  31.536  33.943  0.0000  1629.0  0.0000  0.0000  0.0000  0.0000 
  1629.500 -29.624  14.028  31.680  33.939 -25.247  14.028  31.680  33.939  0.0000  1629.5  0.0000  0.0000  0.0000  0.0000 
  1630.000 -30.453  13.712  31.786  33.937 -26.120  13.712  31.786  33.937  0.0000  1630.0  0.0000  0.0000  0.0000  0.0000 
  1630.500 -31.066  13.231  31.892  33.936 -26.777  13.231  31.892  33.936  0.0000  1630.5  0.0000  0.0000  0.0000  0.0000 
  1631.000 -31.537  12.097  32.033  33.073 -27.292  12.097  32.033  33.073  0.0000  1631.0  0.0000  0.0000  0.0000  0.0000 
  1631.500 -31.356  11.221  31.888  29.554 -27.155  11.221  31.888  29.554  0.0000  1631.5  0.0000  0.0000  0.0000  0.0000 
  1632.000 -29.303  10.991  30.235  26.898 -25.146  10.991  30.235  26.898  0.0000  1632.0  0.0000  0.0000  0.0000  0.0000 
  1632.500 -26.493  10.769  28.368  24.599 -22.380  10.769  28.368  24.599  0.0000  1632.5  0.0000  0.0000  0.0000  0.0000 
  1633.000 -23.107  10.689  25.423  23.521 -19.038  10.689  25.423  23.521  0.0000  1633.0  0.0000  0.0000  0.0000  0.0000 
  1633.500 -21.198  10.696  23.771  19.680 -17.173  10.696  23.771  19.680  0.0000  1633.5  0.0000  0.0000  0.0000  0.0000 
  1634.000 -20.586  10.732  22.476  18.459 -16.605  10.732  22.476  18.459  0.0000  1634.0  0.0000  0.0000  0.0000  0.0000 
  1634.500 -21.019  10.804  19.827  18.230 -17.082  10.804  19.827  18.230  0.0000  1634.5  0.0000  0.0000  0.0000  0.0000 
  1635.000 -21.452  10.926  19.288  18.445 -17.559  10.926  19.288  18.445  0.0000  1635.0  0.0000  0.0000  0.0000  0.0000 
  1635.500 -22.030  11.033  19.288  18.689 -18.181  11.033  19.288  18.689  0.0000  1635.5  0.0000  0.0000  0.0000  0.0000 
  1636.000 -22.752  11.134  19.345  18.868 -18.947  11.134  19.345  18.868  0.0000  1636.0  0.0000  0.0000  0.0000  0.0000 
  1636.500 -23.329  11.220  19.446  19.134 -19.568  11.220  19.446  19.134  0.0000  1636.5  0.0000  0.0000  0.0000  0.0000 
  1637.000 -23.906  11.284  19.639  19.327 -20.189  11.284  19.639  19.327  0.0000  1637.0  0.0000  0.0000  0.0000  0.0000 
  1637.500 -24.772  11.334  19.776  19.643 -21.099  11.334  19.776  19.643  0.0000  1637.5  0.0000  0.0000  0.0000  0.0000 
  1638.000 -25.277  11.348  22.394  19.966 -21.648  11.348  22.394  19.966  0.0000  1638.0  0.0000  0.0000  0.0000  0.0000 
  1638.500 -25.602  11.370  22.680  23.433 -22.017  11.370  22.680  23.433  0.0000  1638.5  0.0000  0.0000  0.0000  0.0000 
  1639.000 -26.036  11.377  22.893  23.933 -22.495  11.377  22.893  23.933  0.0000  1639.0  0.0000  0.0000  0.0000  0.0000 
  1639.500 -26.145  11.370  23.036  24.291 -22.648  11.370  23.036  24.291  0.0000  1639.5  0.0000  0.0000  0.0000  0.0000 
  1640.000 -25.929  11.326  23.105  24.576 -22.476  11.326  23.105  24.576  0.0000  1640.0  0.0000  0.0000  0.0000  0.0000 
  1640.500 -25.534  11.254  23.104  24.934 -22.125  11.254  23.104  24.934  0.0000  1640.5  0.0000  0.0000  0.0000  0.0000 
  1641.000 -25.463  11.103  23.174  25.077 -22.098  11.103  23.174  25.077  0.0000  1641.0  0.0000  0.0000  0.0000  0.0000 
  1641.500 -25.968  10.637  23.173  25.361 -22.647  10.637  23.173  25.361  0.0000  1641.5  0.0000  0.0000  0.0000  0.0000 
  1642.000 -26.473  10.213  23.243  25.577 -23.196  10.213  23.243  25.577  0.0000  1642.0  0.0000  0.0000  0.0000  0.0000 
  1642.500 -27.051  9.6390  23.170  25.934 -23.818  9.6390  23.170  25.934  0.0000  1642.5  0.0000  0.0000  0.0000  0.0000 
  1643.000 -27.052  9.1000  23.098  26.219 -23.863  9.1000  23.098  26.219  0.0000  1643.0  0.0000  0.0000  0.0000  0.0000 
  1643.500 -26.368  8.4400  19.932  26.290 -23.223  8.4400  19.932  26.290  0.0000  1643.5  0.0000  0.0000  0.0000  0.0000 
  1644.000 -24.963  7.9660  18.920  19.986 -21.862  7.9660  18.920  19.986  0.0000  1644.0  0.0000  0.0000  0.0000  0.0000 
  1644.500 -22.838  7.3480  17.778  18.930 -19.781  7.3480  17.778  18.930  0.0000  1644.5  0.0000  0.0000  0.0000  0.0000 
  1645.000 -17.830  6.7310  16.134  17.990 -14.817  6.7310  16.134  17.990  0.0000  1645.0  0.0000  0.0000  0.0000  0.0000 
  1645.500 -14.695  6.3650  14.849  16.913 -11.726  6.3650  14.849  16.913  0.0000  1645.5  0.0000  0.0000  0.0000  0.0000 
  1646.000 -14.228  6.0990  13.514  15.793 -11.303  6.0990  13.514  15.793  0.0000  1646.0  0.0000  0.0000  0.0000  0.0000 
  1646.500 -14.048  5.9260  12.581  15.061 -11.167  5.9260  12.581  15.061  0.0000  1646.5  0.0000  0.0000  0.0000  0.0000 
  1647.000 -13.689  5.7400  11.690  13.489 -10.853  5.7400  11.690  13.489  0.0000  1647.0  0.0000  0.0000  0.0000  0.0000 
  1647.500 -12.464  5.5240  11.066  12.921 -9.6715  5.5240  11.066  12.921  0.0000  1647.5  0.0000  0.0000  0.0000  0.0000 
  1648.000 -10.664  5.3730  10.527  12.447 -7.9156  5.3730  10.527  12.447  0.0000  1648.0  0.0000  0.0000  0.0000  0.0000 
  1648.500 -9.1870  5.2220  9.7230  11.959 -6.4826  5.2220  9.7230  11.959  0.0000  1648.5  0.0000  0.0000  0.0000  0.0000 
  1649.000 -8.4670  5.0860  9.5150  11.586 -5.8066  5.0860  9.5150  11.586  0.0000  1649.0  0.0000  0.0000  0.0000  0.0000 
  1649.500 -7.5310  5.0280  9.6010  11.334 -4.9146  5.0280  9.6010  11.334  0.0000  1649.5  0.0000  0.0000  0.0000  0.0000 
