~Version Information
VERS.                     2.0: CWLS log ASCII Standard Version 2.00
WRAP.                      NO: One line per depth step
~Well Information Block
#MNEM.UNIT                               Data Type  Information
#---------                               ---------  -----------
STRT.FT                                   350.0000:
STOP.FT                                  6780.0000:
STEP.FT                                     0.5000:
NULL.                 -999.25                     :
COMP.                                             :COMPANY            
WELL.     CCMO 58-20 REDRILL                      :WELL               
FLD .                                             :FIELD              
CTRY.                                             :COUNTRY            
STAT.                                             :STATE              
LOC .                                             :LOCATION           
UWI .                                             :UNIQUE WELL ID     
SRVC.                                             :Service company    
DATE.                                             :LOG DATE           
~Curve Information
#MNEM.UNIT           API CODE  Curve Description
#---------           --------  -----------------
DEPT.FT                      :   1 DEPTH
SP  .MV                      :   2
AM16.OHMM                    :   3
AO10.OHMM                    :   4
AO19.OHMM                    :   5
SBL .MV                      :   6
RS  .OHMM                    :   7
RM  .OHMM                    :   8
RD  .OHMM                    :   9
DEVI.DEG                     :  10
TVD .FT                      :  11
AZIM.DEG                     :  12
NORT.FT                      :  13
EAST.FT                      :  14
OFFS.FT                      :  15
~A
   350.000 -999.25  0.0570 -999.25 -999.25 -999.25  0.0570 -999.25 -999.25  0.0000  350.00  0.0000  0.0000  0.0000  0.0000 
   350.500 -999.25  0.0570  0.0220  0.1220 -999.25  0.0570  0.0220  0.1220  0.0000  350.50  0.0000  0.0000  0.0000  0.0000 
   351.000 -999.25  0.0570  0.0250  0.1500 -999.25  0.0570  0.0250  0.1500  0.0000  351.00  0.0000  0.0000  0.0000  0.0000 
   351.500 -999.25  0.0570  0.0280  0.1540 -999.25  0.0570  0.0280  0.1540  0.0000  351.50  0.0000  0.0000  0.0000  0.0000 
   352.000 -999.25  0.0630  0.0490  0.1570 -999.25  0.0630  0.0490  0.1570  0.0000  352.00  0.0000  0.0000  0.0000  0.0000 
   352.500 -999.25  0.0630  0.0770  0.1710 -999.25  0.0630  0.0770  0.1710  0.0000  352.50  0.0000  0.0000  0.0000  0.0000 
   353.000 -999.25  0.0630  0.1270  0.1780 -999.25  0.0630  0.1270  0.1780  0.0000  353.00  0.0000  0.0000  0.0000  0.0000 
   353.500 -999.25  0.0450  0.1630  0.1770 -999.25  0.0450  0.1630  0.1770  0.0000  353.50  0.0000  0.0000  0.0000  0.0000 
   354.000 -999.25  0.0260  0.3930  0.1700 -999.25  0.0260  0.3930  0.1700  0.0000  354.00  0.0000  0.0000  0.0000  0.0000 
   354.500 -999.25  0.0050  0.6010  0.1620 -999.25  0.0050  0.6010  0.1620  0.0000  354.50  0.0000  0.0000  0.0000  0.0000 
   355.000 -999.25 -0.0170  0.8010  0.1620 -999.25 -0.0170  0.8010  0.1620  0.0000  355.00  0.0000  0.0000  0.0000  0.0000 
   355.500 -999.25 -0.0250  0.9300  0.1620 -999.25 -0.0250  0.9300  0.1620  0.0000  355.50  0.0000  0.0000  0.0000  0.0000 
   356.000 -999.25 -0.0320  0.4420  0.1540 -999.25 -0.0320  0.4420  0.1540  0.0000  356.00  0.0000  0.0000  0.0000  0.0000 
   356.500 -999.25 -0.0330  0.2980  0.1470 -999.25 -0.0330  0.2980  0.1470  0.0000  356.50  0.0000  0.0000  0.0000  0.0000 
   357.000 -999.25 -0.0330  0.2830  0.1400 -999.25 -0.0330  0.2830  0.1400  0.0000  357.00  0.0000  0.0000  0.0000  0.0000 
   357.500 -999.25 -0.0330  0.2690  0.1390 -999.25 -0.0330  0.2690  0.1390  0.0000  357.50  0.0000  0.0000  0.0000  0.0000 
   358.000 -999.25 -0.0220  0.2760  0.1390 -999.25 -0.0220  0.2760  0.1390  0.0000  358.00  0.0000  0.0000  0.0000  0.0000 
   358.500 -999.25 -0.0120  0.2830  0.1320 -999.25 -0.0120  0.2830  0.1320  0.0000  358.50  0.0000  0.0000  0.0000  0.0000 
   359.000 -999.25 -0.0050  0.2680  0.1240 -999.25 -0.0050  0.2680  0.1240  0.0000  359.00  0.0000  0.0000  0.0000  0.0000 
   359.500 -5.4550  0.0020  0.2960  0.1090  10.545  0.0020  0.2960  0.1090  0.0000  359.50  0.0000  0.0000  0.0000  0.0000 
   360.000 -6.2120  0.0200  0.3030  0.1020  9.7880  0.0200  0.3030  0.1020  0.0000  360.00  0.0000  0.0000  0.0000  0.0000 
   360.500 -6.6080  0.0370  0.3100  0.0940  9.3920  0.0370  0.3100  0.0940  0.0000  360.50  0.0000  0.0000  0.0000  0.0000 
   361.000 -7.2560  0.0650  0.3100  0.0910  8.7440  0.0650  0.3100  0.0910  0.0000  361.00  0.0000  0.0000  0.0000  0.0000 
   361.500 -7.9050  0.0580  0.3060  0.0870  8.0950  0.0580  0.3060  0.0870  0.0000  361.50  0.0000  0.0000  0.0000  0.0000 
   362.000 -9.0200  0.0510  0.3020  0.0870  6.9800  0.0510  0.3020  0.0870  0.0000  362.00  0.0000  0.0000  0.0000  0.0000 
   362.500 -10.280  0.0500  0.2870  0.0860  5.7200  0.0500  0.2870  0.0860  0.0000  362.50  0.0000  0.0000  0.0000  0.0000 
   363.000 -11.144  0.0280  0.2800  0.0860  4.8560  0.0280  0.2800  0.0860  0.0000  363.00  0.0000  0.0000  0.0000  0.0000 
   363.500 -11.936  0.0280  0.2720  0.0850  4.0640  0.0280  0.2720  0.0850  0.0000  363.50  0.0000  0.0000  0.0000  0.0000 
   364.000 -12.549  0.0280  0.2720  0.0850  3.4510  0.0280  0.2720  0.0850  0.0000  364.00  0.0000  0.0000  0.0000  0.0000 
   364.500 -13.125  0.0280  0.2720  0.0920  2.8750  0.0280  0.2720  0.0920  0.0000  364.50  0.0000  0.0000  0.0000  0.0000 
   365.000 -13.414  0.0420  0.2790  0.0990  2.5860  0.0420  0.2790  0.0990  0.0000  365.00  0.0000  0.0000  0.0000  0.0000 
   365.500 -13.739  0.0410  0.2710  0.1060  2.2610  0.0410  0.2710  0.1060  0.0000  365.50  0.0000  0.0000  0.0000  0.0000 
   366.000 -14.063  0.0410  0.2640  0.1130  1.9370  0.0410  0.2640  0.1130  0.0000  366.00  0.0000  0.0000  0.0000  0.0000 
   366.500 -10.075  0.0410  0.2490  0.1160  5.9250  0.0410  0.2490  0.1160  0.0000  366.50  0.0000  0.0000  0.0000  0.0000 
   367.000 -7.7410  0.0550  0.2350  0.1200  8.2590  0.0550  0.2350  0.1200  0.0000  367.00  0.0000  0.0000  0.0000  0.0000 
   367.500 -5.9450  0.0550  0.2120  0.1190  10.055  0.0550  0.2120  0.1190  0.0000  367.50  0.0000  0.0000  0.0000  0.0000 
   368.000 -4.6880  0.0970  0.2120  0.1190  11.312  0.0970  0.2120  0.1190  0.0000  368.00  0.0000  0.0000  0.0000  0.0000 
   368.500 -4.0070  0.3120  0.2190  0.1120  11.993  0.3120  0.2190  0.1120  0.0000  368.50  0.0000  0.0000  0.0000  0.0000 
   369.000 -4.5110  1.3110  0.2190  0.1040  11.489  1.3110  0.2190  0.1040  0.0000  369.00  0.0000  0.0000  0.0000  0.0000 
   369.500 -7.0290  3.2350  0.2260  0.1110  8.9710  3.2350  0.2260  0.1110  0.0000  369.50  0.0000  0.0000  0.0000  0.0000 
   370.000 -20.509  4.4050  0.2430  0.1110 -4.5090  4.4050  0.2430  0.1110  0.0000  370.00  0.0000  0.0000  0.0000  0.0000 
   370.500 -23.134  5.0150  0.2610  0.1110 -7.1340  5.0150  0.2610  0.1110  0.0000  370.50  0.0000  0.0000  0.0000  0.0000 
   371.000 -25.616  5.3310  0.2720  0.1140 -9.6160  5.3310  0.2720  0.1140  0.0000  371.00  0.0000  0.0000  0.0000  0.0000 
   371.500 -27.666  5.7330  0.2820  0.1170 -11.666  5.7330  0.2820  0.1170  0.0000  371.50  0.0000  0.0000  0.0000  0.0000 
   372.000 -30.435  6.0490  0.2820  0.1170 -14.435  6.0490  0.2820  0.1170  0.0000  372.00  0.0000  0.0000  0.0000  0.0000 
   372.500 -32.485  6.3570  0.2670  0.1130 -16.485  6.3570  0.2670  0.1130  0.0000  372.50  0.0000  0.0000  0.0000  0.0000 
   373.000 -34.104  6.5940  0.2450  0.1090 -18.104  6.5940  0.2450  0.1090  0.0000  373.00  0.0000  0.0000  0.0000  0.0000 
   373.500 -35.184  6.7950  0.2450  0.1090 -19.184  6.7950  0.2450  0.1090  0.0000  373.50  0.0000  0.0000  0.0000  0.0000 
   374.000 -36.084  6.8740  0.2450  0.1090 -20.084  6.8740  0.2450  0.1090  0.0000  374.00  0.0000  0.0000  0.0000  0.0000 
   374.500 -36.660  6.7870  0.2450  0.1050 -20.660  6.7870  0.2450  0.1050  0.0000  374.50  0.0000  0.0000  0.0000  0.0000 
   375.000 -37.452  6.6000  0.2510  0.1010 -21.452  6.6000  0.2510  0.1010  0.0000  375.00  0.0000  0.0000  0.0000  0.0000 
   375.500 -38.028  6.4420  0.2370  0.0930 -22.028  6.4420  0.2370  0.0930  0.0000  375.50  0.0000  0.0000  0.0000  0.0000 
   376.000 -38.138  6.2410  0.2220  0.0860 -22.138  6.2410  0.2220  0.0860  0.0000  376.00  0.0000  0.0000  0.0000  0.0000 
   376.500 -37.960  6.0250  0.2000  0.0860 -21.960  6.0250  0.2000  0.0860  0.0000  376.50  0.0000  0.0000  0.0000  0.0000 
   377.000 -37.745  5.8380  0.1570  0.0850 -21.745  5.8380  0.1570  0.0850  0.0000  377.00  0.0000  0.0000  0.0000  0.0000 
   377.500 -37.495  5.6720  0.1350  0.0850 -21.495  5.6720  0.1350  0.0850  0.0000  377.50  0.0000  0.0000  0.0000  0.0000 
   378.000 -35.915  5.6220  0.1710  0.0740 -19.915  5.6220  0.1710  0.0740  0.0000  378.00  0.0000  0.0000  0.0000  0.0000 
   378.500 -35.234  5.5850  0.1990  0.0630 -19.234  5.5850  0.1990  0.0630  0.0000  378.50  0.0000  0.0000  0.0000  0.0000 
   379.000 -34.840  5.5850  0.2630  0.0550 -18.840  5.5850  0.2630  0.0550  0.0000  379.00  0.0000  0.0000  0.0000  0.0000 
   379.500 -34.590  5.5990  0.6510  0.0550 -18.590  5.5990  0.6510  0.0550  0.0000  379.50  0.0000  0.0000  0.0000  0.0000 
   380.000 -34.304  5.6490  1.4690  0.0690 -18.304  5.6490  1.4690  0.0690  0.0000  380.00  0.0000  0.0000  0.0000  0.0000 
   380.500 -34.161  5.6850  2.8620  0.0830 -18.161  5.6850  2.8620  0.0830  0.0000  380.50  0.0000  0.0000  0.0000  0.0000 
   381.000 -34.019  5.7420  3.5950  0.0900 -18.019  5.7420  3.5950  0.0900  0.0000  381.00  0.0000  0.0000  0.0000  0.0000 
   381.500 -34.416  5.9640  4.1120  0.0970 -18.416  5.9640  4.1120  0.0970  0.0000  381.50  0.0000  0.0000  0.0000  0.0000 
   382.000 -36.106  6.1290  4.5280  0.1040 -20.106  6.1290  4.5280  0.1040  0.0000  382.00  0.0000  0.0000  0.0000  0.0000 
