~Version Information
VERS.                     2.0: CWLS log ASCII Standard Version 2.00
WRAP.                      NO: One line per depth step
~Well Information Block
#MNEM.UNIT                               Data Type  Information
#---------                               ---------  -----------
STRT.FT                                   350.0000:
STOP.FT                                  6780.0000:
STEP.FT                                     0.5000:
NULL.                 -999.25                     :
COMP.                                             :COMPANY            
WELL.     CCMO 58-20 REDRILL                      :WELL               
FLD .                                             :FIELD              
CTRY.                                             :COUNTRY            
STAT.                                             :STATE              
LOC .                                             :LOCATION           
UWI .                                             :UNIQUE WELL ID     
SRVC.                                             :Service company    
DATE.                                             :LOG DATE           
~Curve Information
#MNEM.UNIT           API CODE  Curve Description
#---------           --------  -----------------
DEPT.FT                      :   1 DEPTH
SP  .MV                      :   2
AM16.OHMM                    :   3
AO10.OHMM                    :   4
AO19.OHMM                    :   5
SBL .MV                      :   6
RS  .OHMM                    :   7
RM  .OHMM                    :   8
RD  .OHMM                    :   9
DEVI.DEG                     :  10
TVD .FT                      :  11
AZIM.DEG                     :  12
NORT.FT                      :  13
EAST.FT                      :  14
OFFS.FT                      :  15
~A
# ...
  2072.500 -48.310  13.525  22.975  14.796 -32.766  13.525  22.975  14.796  0.0000  2072.5  0.0000  0.0000  0.0000  0.0000 
  2073.000 -48.097  13.395  23.470  14.817 -32.576  13.395  23.470  14.817  0.0000  2073.0  0.0000  0.0000  0.0000  0.0000 
  2073.500 -48.641  13.272  23.749  14.837 -33.144  13.272  23.749  14.837  0.0000  2073.5  0.0000  0.0000  0.0000  0.0000 
  2074.000 -49.835  13.135  23.813  14.944 -34.362  13.135  23.813  14.944  0.0000  2074.0  0.0000  0.0000  0.0000  0.0000 
  2074.500 -50.199  13.098  23.661  15.008 -34.749  13.098  23.661  15.008  0.0000  2074.5  0.0000  0.0000  0.0000  0.0000 
  2075.000 -50.095  13.047  23.366  15.129 -34.669  13.047  23.366  15.129  0.0000  2075.0  0.0000  0.0000  0.0000  0.0000 
  2075.500 -49.918  13.018  19.924  15.229 -34.515  13.018  19.924  15.229  0.0000  2075.5  0.0000  0.0000  0.0000  0.0000 
  2076.000 -49.687  12.981  19.751  15.386 -34.308  12.981  19.751  15.386  0.0000  2076.0  0.0000  0.0000  0.0000  0.0000 
  2076.500 -49.456  12.959  19.664  15.579 -34.100  12.959  19.664  15.579  0.0000  2076.5  0.0000  0.0000  0.0000  0.0000 
  2077.000 -48.992  12.951  19.570  15.808 -33.660  12.951  19.570  15.808  0.0000  2077.0  0.0000  0.0000  0.0000  0.0000 
  2077.500 -48.744  12.950  19.490  16.051 -33.436  12.950  19.490  16.051  0.0000  2077.5  0.0000  0.0000  0.0000  0.0000 
  2078.000 -49.468  12.942  19.518  16.374 -34.183  12.942  19.518  16.374  0.0000  2078.0  0.0000  0.0000  0.0000  0.0000 
  2078.500 -50.265  12.941  19.589  16.667 -35.004  12.941  19.589  16.667  0.0000  2078.5  0.0000  0.0000  0.0000  0.0000 
  2079.000 -51.062  12.926  19.768  17.047 -35.824  12.926  19.768  17.047  0.0000  2079.0  0.0000  0.0000  0.0000  0.0000 
  2079.500 -51.642  12.904  19.918  17.261 -36.428  12.904  19.918  17.261  0.0000  2079.5  0.0000  0.0000  0.0000  0.0000 
  2080.000 -51.790  12.874  23.215  17.627 -36.599  12.874  23.215  17.627  0.0000  2080.0  0.0000  0.0000  0.0000  0.0000 
  2080.500 -51.650  12.838  23.280  17.884 -36.483  12.838  23.280  17.884  0.0000  2080.5  0.0000  0.0000  0.0000  0.0000 
  2081.000 -51.563  12.808  23.558  18.171 -36.420  12.808  23.558  18.171  0.0000  2081.0  0.0000  0.0000  0.0000  0.0000 
  2081.500 -51.476  12.714  23.622  18.342 -36.356  12.714  23.622  18.342  0.0000  2081.5  0.0000  0.0000  0.0000  0.0000 
  2082.000 -51.264  12.649  23.543  18.392 -36.168  12.649  23.543  18.392  0.0000  2082.0  0.0000  0.0000  0.0000  0.0000 
  2082.500 -51.160  12.447  23.463  18.412 -36.087  12.447  23.463  18.412  0.0000  2082.5  0.0000  0.0000  0.0000  0.0000 
  2083.000 -50.876  12.238  19.697  18.404 -35.827  12.238  19.697  18.404  0.0000  2083.0  0.0000  0.0000  0.0000  0.0000 
  2083.500 -50.447  11.928  19.423  18.375 -35.421  11.928  19.423  18.375  0.0000  2083.5  0.0000  0.0000  0.0000  0.0000 
  2084.000 -49.946  11.504  19.322  18.345 -34.944  11.504  19.322  18.345  0.0000  2084.0  0.0000  0.0000  0.0000  0.0000 
  2084.500 -49.301  10.807  19.199  18.302 -34.323  10.807  19.199  18.302  0.0000  2084.5  0.0000  0.0000  0.0000  0.0000 
  2085.000 -48.836  10.311  18.932  18.243 -33.881  10.311  18.932  18.243  0.0000  2085.0  0.0000  0.0000  0.0000  0.0000 
  2085.500 -48.047  9.8360  18.680  18.034 -33.116  9.8360  18.680  18.034  0.0000  2085.5  0.0000  0.0000  0.0000  0.0000 
  2086.000 -46.681  9.4120  18.364  17.868 -31.773  9.4120  18.364  17.868  0.0000  2086.0  0.0000  0.0000  0.0000  0.0000 
  2086.500 -44.558  8.9660  17.846  17.595 -29.674  8.9660  17.846  17.595  0.0000  2086.5  0.0000  0.0000  0.0000  0.0000 
  2087.000 -41.102  8.6570  17.250  17.092 -26.241  8.6570  17.250  17.092  0.0000  2087.0  0.0000  0.0000  0.0000  0.0000 
  2087.500 -37.970  8.3040  16.725  16.725 -23.133  8.3040  16.725  16.725  0.0000  2087.5  0.0000  0.0000  0.0000  0.0000 
  2088.000 -37.217  8.1810  16.207  16.193 -22.404  8.1810  16.207  16.193  0.0000  2088.0  0.0000  0.0000  0.0000  0.0000 
  2088.500 -36.860  8.2310  15.646  15.618 -22.070  8.2310  15.646  15.618  0.0000  2088.5  0.0000  0.0000  0.0000  0.0000 
  2089.000 -37.116  8.3450  15.265  15.387 -22.350  8.3450  15.265  15.387  0.0000  2089.0  0.0000  0.0000  0.0000  0.0000 
  2089.500 -38.886  8.4160  15.494  15.824 -24.143  8.4160  15.494  15.824  0.0000  2089.5  0.0000  0.0000  0.0000  0.0000 
  2090.000 -43.539  8.4940  15.716  16.096 -28.820  8.4940  15.716  16.096  0.0000  2090.0  0.0000  0.0000  0.0000  0.0000 
  2090.500 -44.877  8.6150  15.808  16.131 -30.182  8.6150  15.808  16.131  0.0000  2090.5  0.0000  0.0000  0.0000  0.0000 
  2091.000 -44.268  8.7150  15.793  15.714 -29.596  8.7150  15.793  15.714  0.0000  2091.0  0.0000  0.0000  0.0000  0.0000 
  2091.500 -43.551  8.8360  15.419  15.390 -28.903  8.8360  15.419  15.390  0.0000  2091.5  0.0000  0.0000  0.0000  0.0000 
  2092.000 -43.158  8.9070  15.074  15.081 -28.533  8.9070  15.074  15.081  0.0000  2092.0  0.0000  0.0000  0.0000  0.0000 
  2092.500 -42.801  9.0280  14.556  14.728 -28.200  9.0280  14.556  14.728  0.0000  2092.5  0.0000  0.0000  0.0000  0.0000 
  2093.000 -43.310  9.0780  14.132  14.828 -28.732  9.0780  14.132  14.828  0.0000  2093.0  0.0000  0.0000  0.0000  0.0000 
  2093.500 -44.214  9.1490  14.131  15.179 -29.660  9.1490  14.131  15.179  0.0000  2093.5  0.0000  0.0000  0.0000  0.0000 
  2094.000 -45.300  9.1980  14.582  15.501 -30.770  9.1980  14.582  15.501  0.0000  2094.0  0.0000  0.0000  0.0000  0.0000 
  2094.500 -46.024  9.1470  14.783  15.845 -31.517  9.1470  14.783  15.845  0.0000  2094.5  0.0000  0.0000  0.0000  0.0000 
  2095.000 -45.775  8.6370  14.911  16.124 -31.292  8.6370  14.911  16.124  0.0000  2095.0  0.0000  0.0000  0.0000  0.0000 
  2095.500 -44.085  7.8100  14.802  16.138 -29.625  7.8100  14.802  16.138  0.0000  2095.5  0.0000  0.0000  0.0000  0.0000 
  2096.000 -42.503  6.9120  14.486  15.563 -28.067  6.9120  14.486  15.563  0.0000  2096.0  0.0000  0.0000  0.0000  0.0000 
  2096.500 -39.443  6.1720  14.162  14.672 -25.030  6.1720  14.162  14.672  0.0000  2096.5  0.0000  0.0000  0.0000  0.0000 
  2097.000 -37.320  5.6110  13.616  13.723 -22.931  5.6110  13.616  13.723  0.0000  2097.0  0.0000  0.0000  0.0000  0.0000 
  2097.500 -34.585  5.2730  12.883  12.847 -20.220  5.2730  12.883  12.847  0.0000  2097.5  0.0000  0.0000  0.0000  0.0000 
  2098.000 -30.660  4.9920  10.219  11.762 -16.318  4.9920  10.219  11.762  0.0000  2098.0  0.0000  0.0000  0.0000  0.0000 
  2098.500 -25.437  4.7760  9.6290  10.598 -11.119  4.7760  9.6290  10.598  0.0000  2098.5  0.0000  0.0000  0.0000  0.0000 
  2099.000 -23.134  4.5530  8.8890  9.6570 -8.8393  4.5530  8.8890  9.6570  0.0000  2099.0  0.0000  0.0000  0.0000  0.0000 
  2099.500 -23.066  4.4370  8.1200  9.1680 -8.7949  4.4370  8.1200  9.1680  0.0000  2099.5  0.0000  0.0000  0.0000  0.0000 
  2100.000 -22.962  4.3500  7.0210  8.8080 -8.7145  4.3500  7.0210  8.8080  0.0000  2100.0  0.0000  0.0000  0.0000  0.0000 
  2100.500 -23.287  4.4860  6.7120  8.3770 -9.0630  4.4860  6.7120  8.3770  0.0000  2100.5  0.0000  0.0000  0.0000  0.0000 
  2101.000 -24.623  4.6370  6.6250  8.0760 -10.423  4.6370  6.6250  8.0760  0.0000  2101.0  0.0000  0.0000  0.0000  0.0000 
  2101.500 -25.922  4.7590  6.8840  8.4920 -11.745  4.7590  6.8840  8.4920  0.0000  2101.5  0.0000  0.0000  0.0000  0.0000 
  2102.000 -27.401  4.8950  7.5010  8.8570 -13.248  4.8950  7.5010  8.8570  0.0000  2102.0  0.0000  0.0000  0.0000  0.0000 
  2102.500 -28.988  5.0160  7.9020  9.2160 -14.858  5.0160  7.9020  9.2160  0.0000  2102.5  0.0000  0.0000  0.0000  0.0000 
  2103.000 -30.540  5.0810  8.3540  9.5530 -16.434  5.0810  8.3540  9.5530  0.0000  2103.0  0.0000  0.0000  0.0000  0.0000 
  2103.500 -32.523  5.1160  8.5840  9.7680 -18.440  5.1160  8.5840  9.7680  0.0000  2103.5  0.0000  0.0000  0.0000  0.0000 
  2104.000 -33.750  4.9940  8.6840  9.9620 -19.691  4.9940  8.6840  9.9620  0.0000  2104.0  0.0000  0.0000  0.0000  0.0000 
  2104.500 -32.526  4.7930  8.6620  10.055 -18.491  4.7930  8.6620  10.055  0.0000  2104.5  0.0000  0.0000  0.0000  0.0000 
