~Version Information
VERS.                     2.0: CWLS log ASCII Standard Version 2.00
WRAP.                      NO: One line per depth step
~Well Information Block
#MNEM.UNIT                               Data Type  Information
#---------                               ---------  -----------
STRT.FT                                   350.0000:
STOP.FT                                  6780.0000:
STEP.FT                                     0.5000:
NULL.                 -999.25                     :
COMP.                                             :COMPANY            
WELL.     CCMO 58-20 REDRILL                      :WELL               
FLD .                                             :FIELD              
CTRY.                                             :COUNTRY            
STAT.                                             :STATE              
LOC .                                             :LOCATION           
UWI .                                             :UNIQUE WELL ID     
SRVC.                                             :Service company    
DATE.                                             :LOG DATE           
~Curve Information
#MNEM.UNIT           API CODE  Curve Description
#---------           --------  -----------------
DEPT.FT                      :   1 DEPTH
SP  .MV                      :   2
AM16.OHMM                    :   3
AO10.OHMM                    :   4
AO19.OHMM                    :   5
SBL .MV                      :   6
RS  .OHMM                    :   7
RM  .OHMM                    :   8
RD  .OHMM                    :   9
DEVI.DEG                     :  10
TVD .FT                      :  11
AZIM.DEG                     :  12
NORT.FT                      :  13
EAST.FT                      :  14
OFFS.FT                      :  15
~A
# ...
  5030.000 -10.001  1.7610  2.0850  2.0200 -5.3792  1.7610  2.0850  2.0200  0.0000  5030.0  0.0000  0.0000  0.0000  0.0000 
  5030.500 -9.8190  1.7620  2.0780  1.9990 -5.1946  1.7620  2.0780  1.9990  0.0000  5030.5  0.0000  0.0000  0.0000  0.0000 
  5031.000 -9.6360  1.7630  2.0790  1.9780 -5.0090  1.7630  2.0790  1.9780  0.0000  5031.0  0.0000  0.0000  0.0000  0.0000 
  5031.500 -9.3820  1.7560  2.0800  1.9210 -4.7524  1.7560  2.0800  1.9210  0.0000  5031.5  0.0000  0.0000  0.0000  0.0000 
  5032.000 -9.1990  1.7570  2.0800  1.8140 -4.5668  1.7570  2.0800  1.8140  0.0000  5032.0  0.0000  0.0000  0.0000  0.0000 
  5032.500 -9.0880  1.7580  2.0740  1.9160 -4.4532  1.7580  2.0740  1.9160  0.0000  5032.5  0.0000  0.0000  0.0000  0.0000 
  5033.000 -8.7620  1.7480  2.0670  2.0100 -4.1246  1.7480  2.0670  2.0100  0.0000  5033.0  0.0000  0.0000  0.0000  0.0000 
  5033.500 -8.5800  1.7370  2.0720  2.0610 -3.9400  1.7370  2.0720  2.0610  0.0000  5033.5  0.0000  0.0000  0.0000  0.0000 
  5034.000 -8.3610  1.7240  2.0760  2.0690 -3.7184  1.7240  2.0760  2.0690  0.0000  5034.0  0.0000  0.0000  0.0000  0.0000 
  5034.500 -7.8910  1.7250  2.1050  2.0770 -3.2458  1.7250  2.1050  2.0770  0.0000  5034.5  0.0000  0.0000  0.0000  0.0000 
  5035.000 -8.6060  1.7250  2.1350  2.0630 -3.9582  1.7250  2.1350  2.0630  0.0000  5035.0  0.0000  0.0000  0.0000  0.0000 
  5035.500 -8.9260  1.7260  2.1390  2.0490 -4.2756  1.7260  2.1390  2.0490  0.0000  5035.5  0.0000  0.0000  0.0000  0.0000 
  5036.000 -9.2460  1.7190  2.1440  2.0290 -4.5930  1.7190  2.1440  2.0290  0.0000  5036.0  0.0000  0.0000  0.0000  0.0000 
  5036.500 -9.4760  1.7200  2.1440  1.9930 -4.8204  1.7200  2.1440  1.9930  0.0000  5036.5  0.0000  0.0000  0.0000  0.0000 
  5037.000 -9.7060  1.7170  2.1380  1.9720 -5.0478  1.7170  2.1380  1.9720  0.0000  5037.0  0.0000  0.0000  0.0000  0.0000 
  5037.500 -10.007  1.7140  2.1310  1.9370 -5.3462  1.7140  2.1310  1.9370  0.0000  5037.5  0.0000  0.0000  0.0000  0.0000 
  5038.000 -10.309  1.7010  2.1180  1.9240 -5.6456  1.7010  2.1180  1.9240  0.0000  5038.0  0.0000  0.0000  0.0000  0.0000 
  5038.500 -10.988  1.6870  2.1040  1.9670 -6.3220  1.6870  2.1040  1.9670  0.0000  5038.5  0.0000  0.0000  0.0000  0.0000 
  5039.000 -11.164  1.6770  2.0540  1.9970 -6.4954  1.6770  2.0540  1.9970  0.0000  5039.0  0.0000  0.0000  0.0000  0.0000 
  5039.500 -11.269  1.6670  2.0190  2.0260 -6.5978  1.6670  2.0190  2.0260  0.0000  5039.5  0.0000  0.0000  0.0000  0.0000 
  5040.000 -10.692  1.6430  1.9840  2.0410 -6.0182  1.6430  1.9840  2.0410  0.0000  5040.0  0.0000  0.0000  0.0000  0.0000 
  5040.500 -9.8630  1.6180  1.9270  2.0130 -5.1866  1.6180  1.9270  2.0130  0.0000  5040.5  0.0000  0.0000  0.0000  0.0000 
  5041.000 -9.5370  1.5970  1.8990  1.9570 -4.8580  1.5970  1.8990  1.9570  0.0000  5041.0  0.0000  0.0000  0.0000  0.0000 
  5041.500 -9.4980  1.5840  1.8780  1.8780 -4.8164  1.5840  1.8780  1.8780  0.0000  5041.5  0.0000  0.0000  0.0000  0.0000 
  5042.000 -9.5310  1.5770  1.8650  1.7930 -4.8468  1.5770  1.8650  1.7930  0.0000  5042.0  0.0000  0.0000  0.0000  0.0000 
  5042.500 -9.6710  1.5780  1.8650  1.7650 -4.9842  1.5780  1.8650  1.7650  0.0000  5042.5  0.0000  0.0000  0.0000  0.0000 
  5043.000 -9.9550  1.5710  1.8840  1.7800 -5.2656  1.5710  1.8840  1.7800  0.0000  5043.0  0.0000  0.0000  0.0000  0.0000 
  5043.500 -10.167  1.5720  1.9030  1.8170 -5.4750  1.5720  1.9030  1.8170  0.0000  5043.5  0.0000  0.0000  0.0000  0.0000 
  5044.000 -10.307  1.5730  1.9500  1.8460 -5.6124  1.5730  1.9500  1.8460  0.0000  5044.0  0.0000  0.0000  0.0000  0.0000 
  5044.500 -10.448  1.5770  1.9980  1.8680 -5.7508  1.5770  1.9980  1.8680  0.0000  5044.5  0.0000  0.0000  0.0000  0.0000 
  5045.000 -10.588  1.5810  2.0310  1.8910 -5.8882  1.5810  2.0310  1.8910  0.0000  5045.0  0.0000  0.0000  0.0000  0.0000 
  5045.500 -10.693  1.5800  2.0640  1.8980 -5.9906  1.5800  2.0640  1.8980  0.0000  5045.5  0.0000  0.0000  0.0000  0.0000 
  5046.000 -10.654  1.5780  2.0930  1.9060 -5.9490  1.5780  2.0930  1.9060  0.0000  5046.0  0.0000  0.0000  0.0000  0.0000 
  5046.500 -10.614  1.5760  2.1120  1.9000 -5.9064  1.5760  2.1120  1.9000  0.0000  5046.5  0.0000  0.0000  0.0000  0.0000 
  5047.000 -10.575  1.5740  2.1310  1.8720 -5.8648  1.5740  2.1310  1.8720  0.0000  5047.0  0.0000  0.0000  0.0000  0.0000 
  5047.500 -10.321  1.5710  2.1490  1.8510 -5.6082  1.5710  2.1490  1.8510  0.0000  5047.5  0.0000  0.0000  0.0000  0.0000 
  5048.000 -10.246  1.5710  2.1680  1.8230 -5.5306  1.5710  2.1680  1.8230  0.0000  5048.0  0.0000  0.0000  0.0000  0.0000 
  5048.500 -9.9920  1.5690  2.1830  1.8090 -5.2740  1.5690  2.1830  1.8090  0.0000  5048.5  0.0000  0.0000  0.0000  0.0000 
  5049.000 -9.8450  1.5660  2.1980  1.8390 -5.1244  1.5660  2.1980  1.8390  0.0000  5049.0  0.0000  0.0000  0.0000  0.0000 
  5049.500 -9.7700  1.5520  2.2060  1.9190 -5.0467  1.5520  2.2060  1.9190  0.0000  5049.5  0.0000  0.0000  0.0000  0.0000 
  5050.000 -9.6950  1.5490  2.2000  1.9620 -4.9691  1.5490  2.2000  1.9620  0.0000  5050.0  0.0000  0.0000  0.0000  0.0000 
  5050.500 -9.6240  1.5450  2.1960  1.9980 -4.8955  1.5450  2.1960  1.9980  0.0000  5050.5  0.0000  0.0000  0.0000  0.0000 
  5051.000 -9.6420  1.5450  2.1920  2.0230 -4.9109  1.5450  2.1920  2.0230  0.0000  5051.0  0.0000  0.0000  0.0000  0.0000 
  5051.500 -9.6600  1.5450  2.1850  2.0490 -4.9263  1.5450  2.1850  2.0490  0.0000  5051.5  0.0000  0.0000  0.0000  0.0000 
  5052.000 -9.7680  1.5450  2.1780  2.0630 -5.0317  1.5450  2.1780  2.0630  0.0000  5052.0  0.0000  0.0000  0.0000  0.0000 
  5052.500 -9.8760  1.5380  2.1560  2.0560 -5.1371  1.5380  2.1560  2.0560  0.0000  5052.5  0.0000  0.0000  0.0000  0.0000 
  5053.000 -10.002  1.5310  2.1200  2.0480 -5.2605  1.5310  2.1200  2.0480  0.0000  5053.0  0.0000  0.0000  0.0000  0.0000 
  5053.500 -10.128  1.5160  2.0910  2.0340 -5.3839  1.5160  2.0910  2.0340  0.0000  5053.5  0.0000  0.0000  0.0000  0.0000 
  5054.000 -10.452  1.5230  2.0410  2.0190 -5.7053  1.5230  2.0410  2.0190  0.0000  5054.0  0.0000  0.0000  0.0000  0.0000 
  5054.500 -10.596  1.5200  1.9690  1.9980 -5.8467  1.5200  1.9690  1.9980  0.0000  5054.5  0.0000  0.0000  0.0000  0.0000 
  5055.000 -10.740  1.5160  1.9550  1.9760 -5.9881  1.5160  1.9550  1.9760  0.0000  5055.0  0.0000  0.0000  0.0000  0.0000 
  5055.500 -10.883  1.5160  1.9400  1.9470 -6.1285  1.5160  1.9400  1.9470  0.0000  5055.5  0.0000  0.0000  0.0000  0.0000 
  5056.000 -11.207  1.5230  1.9330  1.9180 -6.4499  1.5230  1.9330  1.9180  0.0000  5056.0  0.0000  0.0000  0.0000  0.0000 
  5056.500 -11.351  1.5230  1.9260  1.8680 -6.5913  1.5230  1.9260  1.8680  0.0000  5056.5  0.0000  0.0000  0.0000  0.0000 
  5057.000 -11.495  1.5230  1.9430  1.8610 -6.7327  1.5230  1.9430  1.8610  0.0000  5057.0  0.0000  0.0000  0.0000  0.0000 
  5057.500 -11.639  1.5230  1.9610  1.8680 -6.8741  1.5230  1.9610  1.8680  0.0000  5057.5  0.0000  0.0000  0.0000  0.0000 
  5058.000 -12.034  1.5260  1.9760  1.8750 -7.2665  1.5260  1.9760  1.8750  0.0000  5058.0  0.0000  0.0000  0.0000  0.0000 
  5058.500 -12.214  1.5300  1.9900  1.8960 -7.4439  1.5300  1.9900  1.8960  0.0000  5058.5  0.0000  0.0000  0.0000  0.0000 
  5059.000 -12.394  1.5370  2.0040  1.8960 -7.6213  1.5370  2.0040  1.8960  0.0000  5059.0  0.0000  0.0000  0.0000  0.0000 
  5059.500 -12.502  1.5440  2.0190  1.9000 -7.7267  1.5440  2.0190  1.9000  0.0000  5059.5  0.0000  0.0000  0.0000  0.0000 
  5060.000 -12.609  1.5370  2.0360  1.9040 -7.8311  1.5370  2.0360  1.9040  0.0000  5060.0  0.0000  0.0000  0.0000  0.0000 
  5060.500 -12.646  1.5300  2.0540  1.9180 -7.8655  1.5300  2.0540  1.9180  0.0000  5060.5  0.0000  0.0000  0.0000  0.0000 
  5061.000 -12.575  1.5330  2.0970  1.9180 -7.7919  1.5330  2.0970  1.9180  0.0000  5061.0  0.0000  0.0000  0.0000  0.0000 
  5061.500 -12.467  1.5370  2.1190  1.9250 -7.6813  1.5370  2.1190  1.9250  0.0000  5061.5  0.0000  0.0000  0.0000  0.0000 
  5062.000 -12.396  1.5370  2.1400  1.9250 -7.6077  1.5370  2.1400  1.9250  0.0000  5062.0  0.0000  0.0000  0.0000  0.0000 
