~Version Information
VERS.                     2.0: CWLS log ASCII Standard Version 2.00
WRAP.                      NO: One line per depth step
~Well Information Block
#MNEM.UNIT                               Data Type  Information
#---------                               ---------  -----------
STRT.FT                                   350.0000:
STOP.FT                                  6780.0000:
STEP.FT                                     0.5000:
NULL.                 -999.25                     :
COMP.                                             :COMPANY            
WELL.     CCMO 58-20 REDRILL                      :WELL               
FLD .                                             :FIELD              
CTRY.                                             :COUNTRY            
STAT.                                             :STATE              
LOC .                                             :LOCATION           
UWI .                                             :UNIQUE WELL ID     
SRVC.                                             :Service company    
DATE.                                             :LOG DATE           
~Curve Information
#MNEM.UNIT           API CODE  Curve Description
#---------           --------  -----------------
DEPT.FT                      :   1 DEPTH
SP  .MV                      :   2
AM16.OHMM                    :   3
AO10.OHMM                    :   4
AO19.OHMM                    :   5
SBL .MV                      :   6
RS  .OHMM                    :   7
RM  .OHMM                    :   8
RD  .OHMM                    :   9
DEVI.DEG                     :  10
TVD .FT                      :  11
AZIM.DEG                     :  12
NORT.FT                      :  13
EAST.FT                      :  14
OFFS.FT                      :  15
~A
# ...
  5907.500 -28.051  1.8910  1.7400  1.7900 -24.051  1.8910  1.7400  1.7900  14.994  5902.4  302.68  23.380 -53.901 -21.581 
  5908.000 -27.764  1.8940  1.7220  1.7830 -23.764  1.8940  1.7220  1.7830  15.034  5902.9  302.91  23.451 -54.009 -21.608 
  5908.500 -27.477  1.8980  1.7040  1.7760 -23.477  1.8980  1.7040  1.7760  15.074  5903.4  303.14  23.522 -54.118 -21.635 
  5909.000 -27.047  1.8980  1.6750  1.7710 -23.047  1.8980  1.6750  1.7710  15.114  5903.9  303.36  23.594 -54.227 -21.661 
  5909.500 -26.903  1.8980  1.6710  1.7660 -22.903  1.8980  1.6710  1.7660  15.153  5904.4  303.59  23.666 -54.336 -21.687 
  5910.000 -28.088  1.8980  1.6680  1.7610 -24.088  1.8980  1.6680  1.7610  15.193  5904.8  303.82  23.739 -54.445 -21.712 
  5910.500 -27.944  1.8980  1.6610  1.7540 -23.944  1.8980  1.6610  1.7540  15.233  5905.3  304.05  23.813 -54.554 -21.737 
  5911.000 -27.585  1.8910  1.6530  1.7500 -23.585  1.8910  1.6530  1.7500  15.273  5905.8  304.27  23.887 -54.663 -21.762 
  5911.500 -27.334  1.8830  1.6530  1.7470 -23.334  1.8830  1.6530  1.7470  15.313  5906.3  304.50  23.961 -54.771 -21.786 
  5912.000 -26.975  1.8800  1.6530  1.7430 -22.975  1.8800  1.6530  1.7430  15.352  5906.8  304.73  24.037 -54.880 -21.810 
  5912.500 -28.303  1.8760  1.6460  1.7400 -24.303  1.8760  1.6460  1.7400  15.392  5907.3  304.95  24.113 -54.989 -21.833 
  5913.000 -29.775  1.8730  1.6460  1.7400 -25.775  1.8730  1.6460  1.7400  15.432  5907.7  305.18  24.190 -55.098 -21.855 
  5913.500 -29.559  1.8690  1.6460  1.7360 -25.559  1.8690  1.6460  1.7360  15.472  5908.2  305.41  24.267 -55.207 -21.878 
  5914.000 -29.165  1.8690  1.6460  1.7320 -25.165  1.8690  1.6460  1.7320  15.511  5908.7  305.64  24.345 -55.315 -21.899 
  5914.500 -28.842  1.8690  1.6500  1.7250 -24.842  1.8690  1.6500  1.7250  15.551  5909.2  305.86  24.423 -55.424 -21.921 
  5915.000 -29.021  1.8690  1.6530  1.7250 -25.021  1.8690  1.6530  1.7250  15.591  5909.7  306.09  24.502 -55.532 -21.941 
  5915.500 -30.026  1.8690  1.6610  1.7250 -26.026  1.8690  1.6610  1.7250  15.631  5910.1  306.32  24.582 -55.641 -21.962 
  5916.000 -30.600  1.8760  1.6610  1.7180 -26.600  1.8760  1.6610  1.7180  15.671  5910.6  306.55  24.663 -55.749 -21.982 
  5916.500 -31.139  1.8760  1.6750  1.7110 -27.139  1.8760  1.6750  1.7110  15.710  5911.1  306.77  24.744 -55.858 -22.001 
  5917.000 -31.641  1.8760  1.6820  1.7110 -27.641  1.8760  1.6820  1.7110  15.750  5911.6  307.00  24.825 -55.966 -22.020 
  5917.500 -31.892  1.8760  1.6890  1.7180 -27.892  1.8760  1.6890  1.7180  15.750  5912.1  307.05  24.907 -56.075 -22.039 
  5918.000 -31.641  1.8760  1.7000  1.7180 -27.641  1.8760  1.7000  1.7180  15.750  5912.5  307.09  24.989 -56.183 -22.057 
  5918.500 -31.175  1.8760  1.7110  1.7180 -27.175  1.8760  1.7110  1.7180  15.750  5913.0  307.14  25.071 -56.291 -22.076 
  5919.000 -30.996  1.8830  1.7320  1.7180 -26.996  1.8830  1.7320  1.7180  15.750  5913.5  307.19  25.153 -56.399 -22.094 
  5919.500 -31.283  1.9050  1.7540  1.7320 -27.283  1.9050  1.7540  1.7320  15.750  5914.0  307.23  25.235 -56.507 -22.113 
  5920.000 -31.964  1.9340  1.7760  1.7400 -27.964  1.9340  1.7760  1.7400  15.750  5914.5  307.28  25.317 -56.615 -22.131 
  5920.500 -32.216  1.9550  1.8190  1.7610 -28.216  1.9550  1.8190  1.7610  15.750  5915.0  307.33  25.400 -56.723 -22.149 
  5921.000 -32.198  1.9840  1.8760  1.7900 -28.198  1.9840  1.8760  1.7900  15.750  5915.4  307.37  25.482 -56.831 -22.167 
  5921.500 -32.180  2.0270  1.8980  1.8400 -28.180  2.0270  1.8980  1.8400  15.750  5915.9  307.42  25.564 -56.939 -22.185 
  5922.000 -31.929  2.0770  1.9410  1.8980 -27.929  2.0770  1.9410  1.8980  15.750  5916.4  307.47  25.647 -57.047 -22.203 
  5922.500 -31.642  2.1060  1.9620  1.9410 -27.642  2.1060  1.9620  1.9410  15.750  5916.9  307.52  25.730 -57.154 -22.220 
  5923.000 -30.817  2.1570  1.9840  1.9770 -26.817  2.1570  1.9840  1.9770  15.750  5917.4  307.56  25.812 -57.262 -22.238 
  5923.500 -30.888  2.1920  1.9840  1.9770 -26.888  2.1920  1.9840  1.9770  15.750  5917.8  307.61  25.895 -57.369 -22.256 
  5924.000 -31.391  2.2210  1.9480  1.9730 -27.391  2.2210  1.9480  1.9730  15.750  5918.3  307.66  25.978 -57.477 -22.273 
  5924.500 -32.001  2.2000  1.9050  1.9700 -28.001  2.2000  1.9050  1.9700  15.750  5918.8  307.70  26.061 -57.584 -22.290 
  5925.000 -31.929  2.1780  1.8550  1.9550 -27.929  2.1780  1.8550  1.9550  15.750  5919.3  307.75  26.144 -57.691 -22.307 
  5925.500 -31.857  2.1570  1.8290  1.9440 -27.857  2.1570  1.8290  1.9440  15.750  5919.8  307.80  26.227 -57.799 -22.324 
  5926.000 -31.750  2.1350  1.8040  1.9340 -27.750  2.1350  1.8040  1.9340  15.750  5920.2  307.84  26.311 -57.906 -22.341 
  5926.500 -31.463  2.0920  1.7320  1.8830 -27.463  2.0920  1.7320  1.8830  15.750  5920.7  307.89  26.394 -58.013 -22.358 
  5927.000 -31.104  2.0560  1.7180  1.8330 -27.104  2.0560  1.7180  1.8330  15.750  5921.2  307.94  26.478 -58.120 -22.375 
  5927.500 -30.853  2.0270  1.7110  1.8040 -26.853  2.0270  1.7110  1.8040  15.750  5921.7  307.98  26.561 -58.227 -22.391 
  5928.000 -30.817  2.0060  1.7040  1.7900 -26.817  2.0060  1.7040  1.7900  15.750  5922.2  308.03  26.645 -58.334 -22.408 
  5928.500 -31.033  1.9980  1.7140  1.7760 -27.033  1.9980  1.7140  1.7760  15.750  5922.7  308.08  26.728 -58.441 -22.424 
  5929.000 -31.212  1.9770  1.7250  1.7500 -27.212  1.9770  1.7250  1.7500  15.750  5923.1  308.12  26.812 -58.547 -22.440 
  5929.500 -31.427  1.9700  1.7360  1.7250 -27.427  1.9700  1.7360  1.7250  15.750  5923.6  308.17  26.896 -58.654 -22.456 
  5930.000 -31.212  1.9660  1.7470  1.7110 -27.212  1.9660  1.7470  1.7110  15.750  5924.1  308.22  26.980 -58.761 -22.472 
  5930.500 -30.997  1.9620  1.7680  1.7040 -26.997  1.9620  1.7680  1.7040  15.750  5924.6  308.27  27.064 -58.867 -22.488 
  5931.000 -30.387  1.9620  1.7900  1.7000 -26.387  1.9620  1.7900  1.7000  15.750  5925.1  308.31  27.148 -58.974 -22.504 
  5931.500 -30.100  1.9620  1.8190  1.6960 -26.100  1.9620  1.8190  1.6960  15.750  5925.5  308.36  27.232 -59.080 -22.520 
  5932.000 -29.741  1.9700  1.8260  1.6930 -25.741  1.9700  1.8260  1.6930  15.750  5926.0  308.41  27.317 -59.187 -22.535 
  5932.500 -29.454  1.9700  1.8260  1.6890 -25.454  1.9700  1.8260  1.6890  15.750  5926.5  308.45  27.401 -59.293 -22.551 
  5933.000 -29.346  1.9700  1.8220  1.6890 -25.346  1.9700  1.8220  1.6890  15.750  5927.0  308.50  27.486 -59.399 -22.566 
  5933.500 -29.885  1.9700  1.8190  1.6930 -25.885  1.9700  1.8190  1.6930  15.750  5927.5  308.55  27.570 -59.505 -22.582 
  5934.000 -30.172  1.9700  1.8120  1.6960 -26.172  1.9700  1.8120  1.6960  15.750  5927.9  308.59  27.655 -59.611 -22.597 
  5934.500 -29.957  1.9700  1.8040  1.6960 -25.957  1.9700  1.8040  1.6960  15.750  5928.4  308.64  27.740 -59.717 -22.612 
  5935.000 -29.706  1.9700  1.7900  1.6960 -25.706  1.9700  1.7900  1.6960  15.750  5928.9  308.69  27.824 -59.823 -22.627 
  5935.500 -29.347  1.9700  1.7900  1.6960 -25.347  1.9700  1.7900  1.6960  15.750  5929.4  308.73  27.909 -59.929 -22.641 
  5936.000 -29.096  1.9620  1.7860  1.6960 -25.096  1.9620  1.7860  1.6960  15.750  5929.9  308.78  27.994 -60.035 -22.656 
  5936.500 -28.916  1.9550  1.7830  1.6930 -24.916  1.9550  1.7830  1.6930  15.750  5930.4  308.83  28.079 -60.141 -22.671 
  5937.000 -29.060  1.9550  1.7780  1.6890 -25.060  1.9550  1.7780  1.6890  15.750  5930.8  308.87  28.165 -60.246 -22.685 
  5937.500 -29.204  1.9590  1.7730  1.6820 -25.204  1.9590  1.7730  1.6820  15.750  5931.3  308.92  28.250 -60.352 -22.700 
  5938.000 -29.275  1.9620  1.7680  1.6820 -25.275  1.9620  1.7680  1.6820  15.750  5931.8  308.97  28.335 -60.458 -22.714 
  5938.500 -29.347  1.9660  1.7650  1.6820 -25.347  1.9660  1.7650  1.6820  15.750  5932.3  309.02  28.421 -60.563 -22.728 
  5939.000 -29.419  1.9700  1.7610  1.6820 -25.419  1.9700  1.7610  1.6820  15.750  5932.8  309.06  28.506 -60.668 -22.742 
  5939.500 -29.778  1.9660  1.7610  1.6820 -25.778  1.9660  1.7610  1.6820  15.750  5933.2  309.11  28.592 -60.774 -22.756 
