~Version Information
VERS.                     2.0: CWLS log ASCII Standard Version 2.00
WRAP.                      NO: One line per depth step
~Well Information Block
#MNEM.UNIT                               Data Type  Information
#---------                               ---------  -----------
STRT.FT                                   350.0000:
STOP.FT                                  6780.0000:
STEP.FT                                     0.5000:
NULL.                 -999.25                     :
COMP.                                             :COMPANY            
WELL.     CCMO 58-20 REDRILL                      :WELL               
FLD .                                             :FIELD              
CTRY.                                             :COUNTRY            
STAT.                                             :STATE              
LOC .                                             :LOCATION           
UWI .                                             :UNIQUE WELL ID     
SRVC.                                             :Service company    
DATE.                                             :LOG DATE           
~Curve Information
#MNEM.UNIT           API CODE  Curve Description
#---------           --------  -----------------
DEPT.FT                      :   1 DEPTH
SP  .MV                      :   2
AM16.OHMM                    :   3
AO10.OHMM                    :   4
AO19.OHMM                    :   5
SBL .MV                      :   6
RS  .OHMM                    :   7
RM  .OHMM                    :   8
RD  .OHMM                    :   9
DEVI.DEG                     :  10
TVD .FT                      :  11
AZIM.DEG                     :  12
NORT.FT                      :  13
EAST.FT                      :  14
OFFS.FT                      :  15
~A
# ...
  2495.000 -30.771  8.6220  9.1170  8.1050 -23.597  8.6220  9.1170  8.1050  0.0000  2495.0  0.0000  0.0000  0.0000  0.0000 
  2495.500 -30.881  8.7720  9.4830  8.2120 -23.709  8.7720  9.4830  8.2120  0.0000  2495.5  0.0000  0.0000  0.0000  0.0000 
  2496.000 -30.880  8.8370  9.7490  8.3270 -23.709  8.8370  9.7490  8.3270  0.0000  2496.0  0.0000  0.0000  0.0000  0.0000 
  2496.500 -30.664  8.7870  9.8850  8.3990 -23.495  8.7870  9.8850  8.3990  0.0000  2496.5  0.0000  0.0000  0.0000  0.0000 
  2497.000 -29.980  8.4920  9.9930  8.4920 -22.812  8.4920  9.9930  8.4920  0.0000  2497.0  0.0000  0.0000  0.0000  0.0000 
  2497.500 -29.078  8.2630  10.007  8.5570 -21.912  8.2630  10.007  8.5570  0.0000  2497.5  0.0000  0.0000  0.0000  0.0000 
  2498.000 -27.673  8.0400  9.6630  8.5640 -20.509  8.0400  9.6630  8.5640  0.0000  2498.0  0.0000  0.0000  0.0000  0.0000 
  2498.500 -25.799  7.7670  9.2820  8.4710 -18.636  7.7670  9.2820  8.4710  0.0000  2498.5  0.0000  0.0000  0.0000  0.0000 
  2499.000 -23.925  7.4300  8.9880  8.2410 -16.764  7.4300  8.9880  8.2410  0.0000  2499.0  0.0000  0.0000  0.0000  0.0000 
  2499.500 -22.123  7.0710  8.7290  8.0040 -14.963  7.0710  8.7290  8.0040  0.0000  2499.5  0.0000  0.0000  0.0000  0.0000 
  2500.000 -21.979  6.7770  8.5570  7.7170 -14.821  6.7770  8.5570  7.7170  0.0000  2500.0  0.0000  0.0000  0.0000  0.0000 
  2500.500 -22.415  6.5100  8.3770  7.5590 -15.258  6.5100  8.3770  7.5590  0.0000  2500.5  0.0000  0.0000  0.0000  0.0000 
  2501.000 -23.030  6.2660  8.0820  7.4860 -15.875  6.2660  8.0820  7.4860  0.0000  2501.0  0.0000  0.0000  0.0000  0.0000 
  2501.500 -22.493  6.1220  7.8160  7.3850 -15.340  6.1220  7.8160  7.3850  0.0000  2501.5  0.0000  0.0000  0.0000  0.0000 
  2502.000 -21.523  5.8770  7.6070  7.3050 -14.371  5.8770  7.6070  7.3050  0.0000  2502.0  0.0000  0.0000  0.0000  0.0000 
  2502.500 -18.102  5.6180  7.3550  7.1040 -10.952  5.6180  7.3550  7.1040  0.0000  2502.5  0.0000  0.0000  0.0000  0.0000 
  2503.000 -15.330  5.5450  7.1750  7.0240 -8.1813  5.5450  7.1750  7.0240  0.0000  2503.0  0.0000  0.0000  0.0000  0.0000 
  2503.500 -14.504  5.5010  7.0950  6.8220 -7.3569  5.5010  7.0950  6.8220  0.0000  2503.5  0.0000  0.0000  0.0000  0.0000 
  2504.000 -14.327  5.5010  7.1230  6.6850 -7.1814  5.5010  7.1230  6.6850  0.0000  2504.0  0.0000  0.0000  0.0000  0.0000 
  2504.500 -14.799  5.5720  7.2270  6.6920 -7.6550  5.5720  7.2270  6.6920  0.0000  2504.5  0.0000  0.0000  0.0000  0.0000 
  2505.000 -15.847  5.6220  7.3300  6.7560 -8.7046  5.6220  7.3300  6.7560  0.0000  2505.0  0.0000  0.0000  0.0000  0.0000 
  2505.500 -17.400  5.7140  7.6960  6.9200 -10.259  5.7140  7.6960  6.9200  0.0000  2505.5  0.0000  0.0000  0.0000  0.0000 
  2506.000 -21.908  5.8070  7.9250  7.2710 -14.769  5.8070  7.9250  7.2710  0.0000  2506.0  0.0000  0.0000  0.0000  0.0000 
  2506.500 -24.038  5.8710  8.2970  7.6150 -16.900  5.8710  8.2970  7.6150  0.0000  2506.5  0.0000  0.0000  0.0000  0.0000 
  2507.000 -25.843  5.9130  8.6630  7.8660 -18.707  5.9130  8.6630  7.8660  0.0000  2507.0  0.0000  0.0000  0.0000  0.0000 
  2507.500 -25.991  5.8550  8.8990  8.0160 -18.856  5.8550  8.8990  8.0160  0.0000  2507.5  0.0000  0.0000  0.0000  0.0000 
  2508.000 -25.741  5.7250  9.0490  8.1810 -18.608  5.7250  9.0490  8.1810  0.0000  2508.0  0.0000  0.0000  0.0000  0.0000 
  2508.500 -23.293  5.5960  9.0990  8.2950 -16.162  5.5960  9.0990  8.2950  0.0000  2508.5  0.0000  0.0000  0.0000  0.0000 
  2509.000 -18.286  5.3650  9.0980  8.3660 -11.156  5.3650  9.0980  8.3660  0.0000  2509.0  0.0000  0.0000  0.0000  0.0000 
  2509.500 -15.190  5.0840  8.3580  8.1790 -8.0618  5.0840  8.3580  8.1790  0.0000  2509.5  0.0000  0.0000  0.0000  0.0000 
  2510.000 -13.066  4.9120  7.9200  7.7900 -5.9393  4.9120  7.9200  7.7900  0.0000  2510.0  0.0000  0.0000  0.0000  0.0000 
  2510.500 -11.916  4.7960  7.6250  7.3300 -4.7909  4.7960  7.6250  7.3300  0.0000  2510.5  0.0000  0.0000  0.0000  0.0000 
  2511.000 -11.342  4.6660  7.3580  7.0280 -4.2185  4.6660  7.3580  7.0280  0.0000  2511.0  0.0000  0.0000  0.0000  0.0000 
  2511.500 -11.922  4.5720  7.1130  6.6470 -4.8000  4.5720  7.1130  6.6470  0.0000  2511.5  0.0000  0.0000  0.0000  0.0000 
  2512.000 -12.214  4.5430  7.0120  6.4450 -5.0936  4.5430  7.0120  6.4450  0.0000  2512.0  0.0000  0.0000  0.0000  0.0000 
  2512.500 -11.677  4.5280  6.8540  6.4520 -4.5582  4.5280  6.8540  6.4520  0.0000  2512.5  0.0000  0.0000  0.0000  0.0000 
  2513.000 -11.247  4.5340  6.7600  6.5660 -4.1298  4.5340  6.7600  6.5660  0.0000  2513.0  0.0000  0.0000  0.0000  0.0000 
  2513.500 -10.962  4.5340  6.6800  6.6800 -3.8463  4.5340  6.6800  6.6800  0.0000  2513.5  0.0000  0.0000  0.0000  0.0000 
  2514.000 -10.929  4.5550  6.5860  6.7300 -3.8149  4.5550  6.5860  6.7300  0.0000  2514.0  0.0000  0.0000  0.0000  0.0000 
  2514.500 -10.824  4.5680  6.4710  6.7220 -3.7115  4.5680  6.4710  6.7220  0.0000  2514.5  0.0000  0.0000  0.0000  0.0000 
  2515.000 -10.719  4.5820  6.4270  6.7290 -3.6081  4.5820  6.4270  6.7290  0.0000  2515.0  0.0000  0.0000  0.0000  0.0000 
  2515.500 -10.506  4.6320  6.4340  6.8070 -3.3966  4.6320  6.4340  6.8070  0.0000  2515.5  0.0000  0.0000  0.0000  0.0000 
  2516.000 -10.401  4.6670  6.4650  6.8780 -3.2932  4.6670  6.4650  6.8780  0.0000  2516.0  0.0000  0.0000  0.0000  0.0000 
  2516.500 -10.656  4.7170  6.4970  7.0210 -3.5498  4.7170  6.4970  7.0210  0.0000  2516.5  0.0000  0.0000  0.0000  0.0000 
  2517.000 -11.236  4.7590  6.6040  7.0850 -4.1314  4.7590  6.6040  7.0850  0.0000  2517.0  0.0000  0.0000  0.0000  0.0000 
  2517.500 -11.888  4.7870  6.6390  7.1780 -4.7849  4.7870  6.6390  7.1780  0.0000  2517.5  0.0000  0.0000  0.0000  0.0000 
  2518.000 -12.396  4.7580  6.6670  7.1910 -5.2945  4.7580  6.6670  7.1910  0.0000  2518.0  0.0000  0.0000  0.0000  0.0000 
  2518.500 -13.155  4.6920  6.7460  7.1760 -6.0551  4.6920  6.7460  7.1760  0.0000  2518.5  0.0000  0.0000  0.0000  0.0000 
  2519.000 -13.879  4.6060  6.7990  7.3190 -6.7807  4.6060  6.7990  7.3190  0.0000  2519.0  0.0000  0.0000  0.0000  0.0000 
  2519.500 -14.387  4.4970  6.8520  7.4190 -7.2902  4.4970  6.8520  7.4190  0.0000  2519.5  0.0000  0.0000  0.0000  0.0000 
  2520.000 -13.273  4.4250  6.9450  7.5120 -6.1778  4.4250  6.9450  7.5120  0.0000  2520.0  0.0000  0.0000  0.0000  0.0000 
  2520.500 -11.979  4.3450  6.9870  7.5830 -4.8854  4.3450  6.9870  7.5830  0.0000  2520.5  0.0000  0.0000  0.0000  0.0000 
  2521.000 -11.333  4.2440  6.9360  7.5460 -4.2409  4.2440  6.9360  7.5460  0.0000  2521.0  0.0000  0.0000  0.0000  0.0000 
  2521.500 -11.264  4.1220  6.5550  7.3880 -4.1735  4.1220  6.5550  7.3880  0.0000  2521.5  0.0000  0.0000  0.0000  0.0000 
  2522.000 -11.483  4.0850  6.1950  7.2010 -4.3941  4.0850  6.1950  7.2010  0.0000  2522.0  0.0000  0.0000  0.0000  0.0000 
  2522.500 -11.630  4.1200  5.9440  6.9630 -4.5427  4.1200  5.9440  6.9630  0.0000  2522.5  0.0000  0.0000  0.0000  0.0000 
  2523.000 -11.886  4.1560  5.7350  6.7690 -4.8002  4.1560  5.7350  6.7690  0.0000  2523.0  0.0000  0.0000  0.0000  0.0000 
  2523.500 -11.997  4.2410  5.6480  6.5740 -4.9128  4.2410  5.6480  6.5740  0.0000  2523.5  0.0000  0.0000  0.0000  0.0000 
  2524.000 -12.107  4.3050  5.6330  6.3870 -5.0244  4.3050  5.6330  6.3870  0.0000  2524.0  0.0000  0.0000  0.0000  0.0000 
  2524.500 -14.454  4.3470  5.7040  6.4440 -7.3730  4.3470  5.7040  6.4440  0.0000  2524.5  0.0000  0.0000  0.0000  0.0000 
  2525.000 -15.467  4.3970  5.7750  6.5790 -8.3875  4.3970  5.7750  6.5790  0.0000  2525.0  0.0000  0.0000  0.0000  0.0000 
  2525.500 -15.830  4.4320  5.8250  6.6860 -8.7521  4.4320  5.8250  6.6860  0.0000  2525.5  0.0000  0.0000  0.0000  0.0000 
  2526.000 -15.509  4.4600  5.8740  6.8150 -8.4327  4.4600  5.8740  6.8150  0.0000  2526.0  0.0000  0.0000  0.0000  0.0000 
  2526.500 -13.818  4.4020  5.8670  6.9430 -6.7433  4.4020  5.8670  6.9430  0.0000  2526.5  0.0000  0.0000  0.0000  0.0000 
  2527.000 -12.776  4.3440  5.7010  7.0430 -5.7028  4.3440  5.7010  7.0430  0.0000  2527.0  0.0000  0.0000  0.0000  0.0000 
