~Version Information
VERS.                     2.0: CWLS log ASCII Standard Version 2.00
WRAP.                      NO: One line per depth step
~Well Information Block
#MNEM.UNIT                               Data Type  Information
#---------                               ---------  -----------
STRT.FT                                   350.0000:
STOP.FT                                  6780.0000:
STEP.FT                                     0.5000:
NULL.                 -999.25                     :
COMP.                                             :COMPANY            
WELL.     CCMO 58-20 REDRILL                      :WELL               
FLD .                                             :FIELD              
CTRY.                                             :COUNTRY            
STAT.                                             :STATE              
LOC .                                             :LOCATION           
UWI .                                             :UNIQUE WELL ID     
SRVC.                                             :Service company    
DATE.                                             :LOG DATE           
~Curve Information
#MNEM.UNIT           API CODE  Curve Description
#---------           --------  -----------------
DEPT.FT                      :   1 DEPTH
SP  .MV                      :   2
AM16.OHMM                    :   3
AO10.OHMM                    :   4
AO19.OHMM                    :   5
SBL .MV                      :   6
RS  .OHMM                    :   7
RM  .OHMM                    :   8
RD  .OHMM                    :   9
DEVI.DEG                     :  10
TVD .FT                      :  11
AZIM.DEG                     :  12
NORT.FT                      :  13
EAST.FT                      :  14
OFFS.FT                      :  15
~A
# ...
  5485.000 -12.688  1.4780  1.6580  1.6290 -8.6880  1.4780  1.6580  1.6290  2.3100  5485.0  285.12  0.4629 -0.9403 -0.3376 
  5485.500 -12.724  1.4990  1.6610  1.6220 -8.7240  1.4990  1.6610  1.6220  2.3200  5485.5  285.14  0.4682 -0.9599 -0.3477 
  5486.000 -12.797  1.5140  1.6650  1.6210 -8.7970  1.5140  1.6650  1.6210  2.3300  5486.0  285.16  0.4735 -0.9795 -0.3578 
  5486.500 -12.816  1.5420  1.6690  1.6210 -8.8160  1.5420  1.6690  1.6210  2.3400  5486.5  285.18  0.4789 -0.9992 -0.3679 
  5487.000 -12.834  1.5710  1.6740  1.6210 -8.8340  1.5710  1.6740  1.6210  2.3500  5487.0  285.20  0.4843 -1.0190 -0.3781 
  5487.500 -13.050  1.6100  1.6790  1.6210 -9.0500  1.6100  1.6790  1.6210  2.3600  5487.5  285.22  0.4897 -1.0389 -0.3883 
  5488.000 -13.123  1.6500  1.7000  1.6210 -9.1230  1.6500  1.7000  1.6210  2.3700  5488.0  285.24  0.4951 -1.0588 -0.3986 
  5488.500 -13.195  1.6930  1.7110  1.6210 -9.1950  1.6930  1.7110  1.6210  2.3800  5488.5  285.26  0.5006 -1.0788 -0.4089 
  5489.000 -13.250  1.7100  1.7210  1.6240 -9.2500  1.7100  1.7210  1.6240  2.3900  5489.0  285.28  0.5061 -1.0989 -0.4192 
  5489.500 -13.304  1.7280  1.7430  1.6280 -9.3040  1.7280  1.7430  1.6280  2.4000  5489.5  285.30  0.5116 -1.1191 -0.4296 
  5490.000 -13.269  1.7570  1.7570  1.6270 -9.2690  1.7570  1.7570  1.6270  2.4100  5490.0  285.32  0.5171 -1.1394 -0.4400 
  5490.500 -13.234  1.7780  1.7710  1.6340 -9.2340  1.7780  1.7710  1.6340  2.4200  5490.5  285.34  0.5227 -1.1598 -0.4505 
  5491.000 -13.217  1.7960  1.8000  1.6340 -9.2170  1.7960  1.8000  1.6340  2.4300  5491.0  285.36  0.5283 -1.1802 -0.4610 
  5491.500 -13.199  1.8140  1.8100  1.6340 -9.1990  1.8140  1.8100  1.6340  2.4400  5491.5  285.38  0.5340 -1.2007 -0.4715 
  5492.000 -13.146  1.8280  1.8210  1.6450 -9.1460  1.8280  1.8210  1.6450  2.4500  5492.0  285.40  0.5397 -1.2214 -0.4820 
  5492.500 -13.093  1.8280  1.8320  1.6560 -9.0930  1.8280  1.8320  1.6560  2.4600  5492.5  285.42  0.5454 -1.2420 -0.4926 
  5493.000 -13.022  1.8240  1.8420  1.6770 -9.0220  1.8240  1.8420  1.6770  2.4700  5493.0  285.44  0.5511 -1.2628 -0.5033 
  5493.500 -12.951  1.8210  1.8600  1.6980 -8.9510  1.8210  1.8600  1.6980  2.4800  5493.5  285.46  0.5569 -1.2837 -0.5139 
  5494.000 -12.892  1.8060  1.8780  1.7200 -8.8920  1.8060  1.8780  1.7200  2.4900  5494.0  285.48  0.5627 -1.3046 -0.5246 
  5494.500 -12.833  1.7990  1.8920  1.7410 -8.8330  1.7990  1.8920  1.7410  2.5000  5494.5  285.50  0.5685 -1.3256 -0.5354 
  5495.000 -12.774  1.7840  1.8920  1.7840 -8.7740  1.7840  1.8920  1.7840  2.5100  5495.0  285.52  0.5744 -1.3467 -0.5461 
  5495.500 -12.667  1.7770  1.8990  1.7980 -8.6670  1.7770  1.8990  1.7980  2.5200  5495.5  285.54  0.5802 -1.3679 -0.5570 
  5496.000 -12.614  1.7700  1.9060  1.8410 -8.6140  1.7700  1.9060  1.8410  2.5300  5496.0  285.56  0.5862 -1.3892 -0.5678 
  5496.500 -12.561  1.7550  1.8990  1.8630 -8.5610  1.7550  1.8990  1.8630  2.5400  5496.5  285.58  0.5921 -1.4105 -0.5787 
  5497.000 -12.454  1.7550  1.8840  1.8730 -8.4540  1.7550  1.8840  1.8730  2.5500  5497.0  285.60  0.5981 -1.4319 -0.5896 
  5497.500 -12.347  1.7510  1.8800  1.8840 -8.3470  1.7510  1.8800  1.8840  2.5600  5497.5  285.62  0.6041 -1.4534 -0.6006 
  5498.000 -12.330  1.7470  1.8770  1.8980 -8.3300  1.7470  1.8770  1.8980  2.5700  5498.0  285.64  0.6102 -1.4750 -0.6116 
  5498.500 -12.312  1.7400  1.8840  1.8980 -8.3120  1.7400  1.8840  1.8980  2.5800  5498.5  285.66  0.6162 -1.4967 -0.6226 
  5499.000 -12.170  1.7330  1.8910  1.8910 -8.1700  1.7330  1.8910  1.8910  2.5900  5499.0  285.68  0.6223 -1.5185 -0.6336 
  5499.500 -12.152  1.7250  1.8980  1.8400 -8.1520  1.7250  1.8980  1.8400  2.6000  5499.5  285.70  0.6285 -1.5403 -0.6447 
  5500.000 -12.135  1.7250  1.9050  1.8040 -8.1350  1.7250  1.9050  1.8040  2.6100  5500.0  285.72  0.6346 -1.5622 -0.6559 
  5500.500 -12.029  1.7250  1.9120  1.7540 -8.0290  1.7250  1.9120  1.7540  2.6200  5500.5  285.74  0.6408 -1.5842 -0.6671 
  5501.000 -12.012  1.7250  1.9150  1.7250 -8.0120  1.7250  1.9150  1.7250  2.6300  5501.0  285.76  0.6471 -1.6063 -0.6783 
  5501.500 -11.995  1.7250  1.9190  1.7100 -7.9950  1.7250  1.9190  1.7100  2.6400  5501.5  285.78  0.6533 -1.6284 -0.6895 
  5502.000 -11.996  1.7240  1.9180  1.6960 -7.9960  1.7240  1.9180  1.6960  2.6500  5502.0  285.80  0.6596 -1.6507 -0.7008 
  5502.500 -11.961  1.7240  1.9180  1.6950 -7.9610  1.7240  1.9180  1.6950  2.6600  5502.5  285.82  0.6660 -1.6730 -0.7121 
  5503.000 -11.926  1.7240  1.9180  1.6950 -7.9260  1.7240  1.9180  1.6950  2.6700  5503.0  285.84  0.6723 -1.6954 -0.7234 
  5503.500 -11.999  1.7240  1.9110  1.7060 -7.9990  1.7240  1.9110  1.7060  2.6800  5503.5  285.86  0.6787 -1.7179 -0.7348 
  5504.000 -12.072  1.7200  1.9100  1.7160 -8.0720  1.7200  1.9100  1.7160  2.6900  5504.0  285.88  0.6851 -1.7405 -0.7462 
  5504.500 -12.109  1.7160  1.9100  1.7300 -8.1090  1.7160  1.9100  1.7300  2.7000  5504.5  285.90  0.6916 -1.7631 -0.7577 
  5505.000 -12.145  1.7090  1.9100  1.7450 -8.1450  1.7090  1.9100  1.7450  2.7100  5505.0  285.92  0.6981 -1.7859 -0.7692 
  5505.500 -12.182  1.7080  1.9100  1.7520 -8.1820  1.7080  1.9100  1.7520  2.7200  5505.5  285.94  0.7046 -1.8087 -0.7807 
  5506.000 -12.112  1.7080  1.9100  1.7590 -8.1120  1.7080  1.9100  1.7590  2.7300  5506.0  285.96  0.7111 -1.8316 -0.7923 
  5506.500 -12.041  1.7080  1.9090  1.7680 -8.0410  1.7080  1.9090  1.7680  2.7400  5506.5  285.98  0.7177 -1.8546 -0.8039 
  5507.000 -11.970  1.7080  1.9020  1.7770 -7.9700  1.7080  1.9020  1.7770  2.7500  5507.0  286.00  0.7243 -1.8776 -0.8155 
  5507.500 -11.936  1.7150  1.8980  1.7870 -7.9360  1.7150  1.8980  1.7870  2.7625  5507.5  286.03  0.7310 -1.9008 -0.8272 
  5508.000 -11.901  1.7220  1.8940  1.8010 -7.9010  1.7220  1.8940  1.8010  2.7750  5508.0  286.07  0.7377 -1.9240 -0.8389 
  5508.500 -11.794  1.7220  1.8900  1.8150 -7.7940  1.7220  1.8900  1.8150  2.7875  5508.5  286.10  0.7444 -1.9474 -0.8506 
  5509.000 -11.616  1.7210  1.8870  1.8330 -7.6160  1.7210  1.8870  1.8330  2.8000  5509.0  286.13  0.7512 -1.9709 -0.8624 
  5509.500 -11.545  1.7210  1.8860  1.8510 -7.5450  1.7210  1.8860  1.8510  2.8125  5509.5  286.17  0.7580 -1.9944 -0.8743 
  5510.000 -11.295  1.7210  1.8860  1.8610 -7.2950  1.7210  1.8860  1.8610  2.8250  5510.0  286.20  0.7649 -2.0181 -0.8861 
  5510.500 -11.152  1.7210  1.8860  1.8720 -7.1520  1.7210  1.8860  1.8720  2.8375  5510.5  286.23  0.7718 -2.0419 -0.8980 
  5511.000 -10.723  1.7210  1.8890  1.8750 -6.7230  1.7210  1.8890  1.8750  2.8500  5511.0  286.27  0.7788 -2.0657 -0.9100 
  5511.500 -10.437  1.7170  1.8930  1.8780 -6.4370  1.7170  1.8930  1.8780  2.8625  5511.5  286.30  0.7858 -2.0897 -0.9220 
  5512.000 -10.294  1.7130  1.8930  1.8780 -6.2940  1.7130  1.8930  1.8780  2.8750  5512.0  286.33  0.7929 -2.1138 -0.9340 
  5512.500 -10.044  1.7160  1.8920  1.8850 -6.0440  1.7160  1.8920  1.8850  2.8875  5512.5  286.37  0.7999 -2.1379 -0.9461 
  5513.000 -9.8660  1.7200  1.8960  1.8850 -5.8660  1.7200  1.8960  1.8850  2.9000  5513.0  286.40  0.8071 -2.1622 -0.9582 
  5513.500 -9.9030  1.7230  1.8990  1.8880 -5.9030  1.7230  1.8990  1.8880  2.9125  5513.5  286.43  0.8143 -2.1866 -0.9703 
  5514.000 -9.9750  1.7260  1.9060  1.8920 -5.9750  1.7260  1.9060  1.8920  2.9250  5513.9  286.47  0.8215 -2.2110 -0.9825 
  5514.500 -10.048  1.7260  1.9060  1.8950 -6.0480  1.7260  1.9060  1.8950  2.9375  5514.4  286.50  0.8288 -2.2356 -0.9948 
  5515.000 -10.193  1.7260  1.9060  1.8980 -6.1930  1.7260  1.9060  1.8980  2.9500  5514.9  286.53  0.8361 -2.2603 -1.0070 
  5515.500 -10.230  1.7260  1.9020  1.8980 -6.2300  1.7260  1.9020  1.8980  2.9625  5515.4  286.57  0.8435 -2.2850 -1.0193 
  5516.000 -10.266  1.7260  1.8980  1.8980 -6.2660  1.7260  1.8980  1.8980  2.9750  5515.9  286.60  0.8509 -2.3099 -1.0317 
  5516.500 -10.375  1.7230  1.8940  1.8910 -6.3750  1.7230  1.8940  1.8910  2.9875  5516.4  286.63  0.8584 -2.3349 -1.0441 
  5517.000 -10.520  1.7200  1.8900  1.8830 -6.5200  1.7200  1.8900  1.8830  3.0000  5516.9  286.67  0.8659 -2.3599 -1.0565 
