~Version Information
VERS.                     2.0: CWLS log ASCII Standard Version 2.00
WRAP.                      NO: One line per depth step
~Well Information Block
#MNEM.UNIT                               Data Type  Information
#---------                               ---------  -----------
STRT.FT                                   350.0000:
STOP.FT                                  6780.0000:
STEP.FT                                     0.5000:
NULL.                 -999.25                     :
COMP.                                             :COMPANY            
WELL.     CCMO 58-20 REDRILL                      :WELL               
FLD .                                             :FIELD              
CTRY.                                             :COUNTRY            
STAT.                                             :STATE              
LOC .                                             :LOCATION           
UWI .                                             :UNIQUE WELL ID     
SRVC.                                             :Service company    
DATE.                                             :LOG DATE           
~Curve Information
#MNEM.UNIT           API CODE  Curve Description
#---------           --------  -----------------
DEPT.FT                      :   1 DEPTH
SP  .MV                      :   2
AM16.OHMM                    :   3
AO10.OHMM                    :   4
AO19.OHMM                    :   5
SBL .MV                      :   6
RS  .OHMM                    :   7
RM  .OHMM                    :   8
RD  .OHMM                    :   9
DEVI.DEG                     :  10
TVD .FT                      :  11
AZIM.DEG                     :  12
NORT.FT                      :  13
EAST.FT                      :  14
OFFS.FT                      :  15
~A
# ...
  3762.500 -48.975  11.243  15.768  7.1460 -34.260  11.243  15.768  7.1460  0.0000  3762.5  0.0000  0.0000  0.0000  0.0000 
  3763.000 -49.688  11.159  15.547  6.7240 -34.966  11.159  15.547  6.7240  0.0000  3763.0  0.0000  0.0000  0.0000  0.0000 
  3763.500 -50.329  11.160  15.448  6.8110 -35.601  11.160  15.448  6.8110  0.0000  3763.5  0.0000  0.0000  0.0000  0.0000 
  3764.000 -51.114  11.169  15.808  6.9060 -36.379  11.169  15.808  6.9060  0.0000  3764.0  0.0000  0.0000  0.0000  0.0000 
  3764.500 -51.970  11.149  16.212  7.0010 -37.229  11.149  16.212  7.0010  0.0000  3764.5  0.0000  0.0000  0.0000  0.0000 
  3765.000 -52.647  11.028  16.745  7.0530 -37.899  11.028  16.745  7.0530  0.0000  3765.0  0.0000  0.0000  0.0000  0.0000 
  3765.500 -52.999  10.699  17.558  6.9320 -38.244  10.699  17.558  6.9320  0.0000  3765.5  0.0000  0.0000  0.0000  0.0000 
  3766.000 -52.306  10.356  17.969  6.7970 -37.545  10.356  17.969  6.7970  0.0000  3766.0  0.0000  0.0000  0.0000  0.0000 
  3766.500 -51.617  9.8190  18.782  6.6980 -36.849  9.8190  18.782  6.6980  0.0000  3766.5  0.0000  0.0000  0.0000  0.0000 
  3767.000 -50.746  9.2960  18.855  6.7720 -35.972  9.2960  18.855  6.7720  0.0000  3767.0  0.0000  0.0000  0.0000  0.0000 
  3767.500 -49.444  8.5860  18.842  6.8160 -34.663  8.5860  18.842  6.8160  0.0000  3767.5  0.0000  0.0000  0.0000  0.0000 
  3768.000 -47.961  7.8260  18.743  6.8460 -33.174  7.8260  18.743  6.8460  0.0000  3768.0  0.0000  0.0000  0.0000  0.0000 
  3768.500 -46.406  7.1960  18.479  6.8470 -31.612  7.1960  18.479  6.8470  0.0000  3768.5  0.0000  0.0000  0.0000  0.0000 
  3769.000 -46.076  6.4860  18.171  6.6690 -31.275  6.4860  18.171  6.6690  0.0000  3769.0  0.0000  0.0000  0.0000  0.0000 
  3769.500 -41.569  5.9350  14.847  6.4120 -26.762  5.9350  14.847  6.4120  0.0000  3769.5  0.0000  0.0000  0.0000  0.0000 
  3770.000 -36.704  5.5190  13.793  6.0980 -21.890  5.5190  13.793  6.0980  0.0000  3770.0  0.0000  0.0000  0.0000  0.0000 
  3770.500 -34.394  5.1400  12.365  5.7760 -19.574  5.1400  12.365  5.7760  0.0000  3770.5  0.0000  0.0000  0.0000  0.0000 
  3771.000 -31.076  4.8040  11.088  5.6260 -16.249  4.8040  11.088  5.6260  0.0000  3771.0  0.0000  0.0000  0.0000  0.0000 
  3771.500 -29.054  4.5900  10.199  5.7790 -14.220  4.5900  10.199  5.7790  0.0000  3771.5  0.0000  0.0000  0.0000  0.0000 
  3772.000 -27.499  4.4980  9.3890  5.9170 -12.659  4.4980  9.3890  5.9170  0.0000  3772.0  0.0000  0.0000  0.0000  0.0000 
  3772.500 -27.490  4.4280  8.8230  6.0400 -12.643  4.4280  8.8230  6.0400  0.0000  3772.5  0.0000  0.0000  0.0000  0.0000 
  3773.000 -27.539  4.3570  8.4440  6.2140 -12.686  4.3570  8.4440  6.2140  0.0000  3773.0  0.0000  0.0000  0.0000  0.0000 
  3773.500 -27.588  4.2300  8.1010  6.3520 -12.728  4.2300  8.1010  6.3520  0.0000  3773.5  0.0000  0.0000  0.0000  0.0000 
  3774.000 -27.323  4.1160  7.9080  6.4610 -12.456  4.1160  7.9080  6.4610  0.0000  3774.0  0.0000  0.0000  0.0000  0.0000 
  3774.500 -27.030  4.0460  7.6370  6.5840 -12.157  4.0460  7.6370  6.5840  0.0000  3774.5  0.0000  0.0000  0.0000  0.0000 
  3775.000 -26.304  3.9400  7.4080  6.7580 -11.424  3.9400  7.4080  6.7580  0.0000  3775.0  0.0000  0.0000  0.0000  0.0000 
  3775.500 -25.252  3.8190  7.2020  6.7890 -10.366  3.8190  7.2020  6.7890  0.0000  3775.5  0.0000  0.0000  0.0000  0.0000 
  3776.000 -24.489  3.7630  7.0160  6.7610 -9.5961  3.7630  7.0160  6.7610  0.0000  3776.0  0.0000  0.0000  0.0000  0.0000 
  3776.500 -23.798  3.6640  6.8090  6.7340 -8.8985  3.6640  6.8090  6.7340  0.0000  3776.5  0.0000  0.0000  0.0000  0.0000 
  3777.000 -23.395  3.6290  6.5590  6.8000 -8.4889  3.6290  6.5590  6.8000  0.0000  3777.0  0.0000  0.0000  0.0000  0.0000 
  3777.500 -24.036  3.5950  6.3890  6.9380 -9.1233  3.5950  6.3890  6.9380  0.0000  3777.5  0.0000  0.0000  0.0000  0.0000 
  3778.000 -24.315  3.5820  6.2610  6.9900 -9.3957  3.5820  6.2610  6.9900  0.0000  3778.0  0.0000  0.0000  0.0000  0.0000 
  3778.500 -23.406  3.5760  6.1540  7.1130 -8.4801  3.5760  6.1540  7.1130  0.0000  3778.5  0.0000  0.0000  0.0000  0.0000 
  3779.000 -23.075  3.5630  6.0120  7.2940 -8.1425  3.5630  6.0120  7.2940  0.0000  3779.0  0.0000  0.0000  0.0000  0.0000 
  3779.500 -22.926  3.5360  5.8990  7.3740 -7.9870  3.5360  5.8990  7.3740  0.0000  3779.5  0.0000  0.0000  0.0000  0.0000 
  3780.000 -23.135  3.5230  5.7780  7.2830 -8.1894  3.5230  5.7780  7.2830  0.0000  3780.0  0.0000  0.0000  0.0000  0.0000 
  3780.500 -23.559  3.5310  5.6720  7.1980 -8.6068  3.5310  5.6720  7.1980  0.0000  3780.5  0.0000  0.0000  0.0000  0.0000 
  3781.000 -24.020  3.5550  5.5580  7.0990 -9.0612  3.5550  5.5580  7.0990  0.0000  3781.0  0.0000  0.0000  0.0000  0.0000 
  3781.500 -23.866  3.5920  5.4450  7.0140 -8.9006  3.5920  5.4450  7.0140  0.0000  3781.5  0.0000  0.0000  0.0000  0.0000 
  3782.000 -23.754  3.6290  5.3670  6.9370 -8.7820  3.6290  5.3670  6.9370  0.0000  3782.0  0.0000  0.0000  0.0000  0.0000 
  3782.500 -23.493  3.7390  5.2750  6.8730 -8.5144  3.7390  5.2750  6.8730  0.0000  3782.5  0.0000  0.0000  0.0000  0.0000 
  3783.000 -23.163  3.8480  5.1830  6.9470 -8.1778  3.8480  5.1830  6.9470  0.0000  3783.0  0.0000  0.0000  0.0000  0.0000 
  3783.500 -22.724  3.9570  5.0560  7.1710 -7.7322  3.9570  5.0560  7.1710  0.0000  3783.5  0.0000  0.0000  0.0000  0.0000 
  3784.000 -22.536  4.1450  5.0500  7.4090 -7.5376  4.1450  5.0500  7.4090  0.0000  3784.0  0.0000  0.0000  0.0000  0.0000 
  3784.500 -22.710  4.4550  5.2020  7.6830 -7.7051  4.4550  5.2020  7.6830  0.0000  3784.5  0.0000  0.0000  0.0000  0.0000 
  3785.000 -23.241  4.6000  5.3620  8.0510 -8.2295  4.6000  5.3620  8.0510  0.0000  3785.0  0.0000  0.0000  0.0000  0.0000 
  3785.500 -25.718  4.8390  5.6290  8.3830 -10.700  4.8390  5.6290  8.3830  0.0000  3785.5  0.0000  0.0000  0.0000  0.0000 
  3786.000 -27.726  4.9910  5.8100  8.7650 -12.701  4.9910  5.8100  8.7650  0.0000  3786.0  0.0000  0.0000  0.0000  0.0000 
  3786.500 -30.885  5.1860  6.1560  8.9820 -15.854  5.1860  6.1560  8.9820  0.0000  3786.5  0.0000  0.0000  0.0000  0.0000 
  3787.000 -33.288  5.3890  6.3730  9.1560 -18.250  5.3890  6.3730  9.1560  0.0000  3787.0  0.0000  0.0000  0.0000  0.0000 
  3787.500 -35.621  5.4910  6.5250  9.2360 -20.577  5.4910  6.5250  9.2360  0.0000  3787.5  0.0000  0.0000  0.0000  0.0000 
  3788.000 -35.864  5.4200  6.5910  9.2590 -20.813  5.4200  6.5910  9.2590  0.0000  3788.0  0.0000  0.0000  0.0000  0.0000 
  3788.500 -35.390  5.2210  6.5490  8.8940 -20.332  5.2210  6.5490  8.8940  0.0000  3788.5  0.0000  0.0000  0.0000  0.0000 
  3789.000 -31.640  5.0640  6.4500  8.5080 -16.576  5.0640  6.4500  8.5080  0.0000  3789.0  0.0000  0.0000  0.0000  0.0000 
  3789.500 -26.127  4.8430  6.2580  8.0070 -11.056  4.8430  6.2580  8.0070  0.0000  3789.5  0.0000  0.0000  0.0000  0.0000 
  3790.000 -24.860  4.6360  5.6420  7.4050 -9.7826  4.6360  5.6420  7.4050  0.0000  3790.0  0.0000  0.0000  0.0000  0.0000 
  3790.500 -24.060  4.4650  5.3340  6.8680 -8.9760  4.4650  5.3340  6.8680  0.0000  3790.5  0.0000  0.0000  0.0000  0.0000 
  3791.000 -23.548  4.3090  5.0770  6.5600 -8.4574  4.3090  5.0770  6.5600  0.0000  3791.0  0.0000  0.0000  0.0000  0.0000 
  3791.500 -23.182  4.1670  4.7840  6.2170 -8.0848  4.1670  4.7840  6.2170  0.0000  3791.5  0.0000  0.0000  0.0000  0.0000 
  3792.000 -22.959  4.0890  4.6490  5.9600 -7.8552  4.0890  4.6490  5.9600  0.0000  3792.0  0.0000  0.0000  0.0000  0.0000 
  3792.500 -22.700  4.0260  4.5070  5.8460 -7.5896  4.0260  4.5070  5.8460  0.0000  3792.5  0.0000  0.0000  0.0000  0.0000 
  3793.000 -22.513  4.0480  4.4080  5.9120 -7.3960  4.0480  4.4080  5.9120  0.0000  3793.0  0.0000  0.0000  0.0000  0.0000 
  3793.500 -22.541  4.1580  4.3160  5.9930 -7.4174  4.1580  4.3160  5.9930  0.0000  3793.5  0.0000  0.0000  0.0000  0.0000 
  3794.000 -23.109  4.3680  4.2810  6.0660 -7.9789  4.3680  4.2810  6.0660  0.0000  3794.0  0.0000  0.0000  0.0000  0.0000 
  3794.500 -24.577  4.4480  4.3620  6.1680 -9.4403  4.4480  4.3620  6.1680  0.0000  3794.5  0.0000  0.0000  0.0000  0.0000 
