~Version Information
VERS.                     2.0: CWLS log ASCII Standard Version 2.00
WRAP.                      NO: One line per depth step
~Well Information Block
#MNEM.UNIT                               Data Type  Information
#---------                               ---------  -----------
STRT.FT                                   350.0000:
STOP.FT                                  6780.0000:
STEP.FT                                     0.5000:
NULL.                 -999.25                     :
COMP.                                             :COMPANY            
WELL.     CCMO 58-20 REDRILL                      :WELL               
FLD .                                             :FIELD              
CTRY.                                             :COUNTRY            
STAT.                                             :STATE              
LOC .                                             :LOCATION           
UWI .                                             :UNIQUE WELL ID     
SRVC.                                             :Service company    
DATE.                                             :LOG DATE           
~Curve Information
#MNEM.UNIT           API CODE  Curve Description
#---------           --------  -----------------
DEPT.FT                      :   1 DEPTH
SP  .MV                      :   2
AM16.OHMM                    :   3
AO10.OHMM                    :   4
AO19.OHMM                    :   5
SBL .MV                      :   6
RS  .OHMM                    :   7
RM  .OHMM                    :   8
RD  .OHMM                    :   9
DEVI.DEG                     :  10
TVD .FT                      :  11
AZIM.DEG                     :  12
NORT.FT                      :  13
EAST.FT                      :  14
OFFS.FT                      :  15
~A
# ...
  3340.000 -46.008  11.039  7.6860  9.2400 -36.861  11.039  7.6860  9.2400  0.0000  3340.0  0.0000  0.0000  0.0000  0.0000 
  3340.500 -46.505  11.040  7.6080  9.2410 -37.352  11.040  7.6080  9.2410  0.0000  3340.5  0.0000  0.0000  0.0000  0.0000 
  3341.000 -47.147  11.064  7.5010  9.2390 -37.987  11.064  7.5010  9.2390  0.0000  3341.0  0.0000  0.0000  0.0000  0.0000 
  3341.500 -47.644  11.072  7.4380  9.2360 -38.478  11.072  7.4380  9.2360  0.0000  3341.5  0.0000  0.0000  0.0000  0.0000 
  3342.000 -47.638  11.095  7.4030  9.2380 -38.465  11.095  7.4030  9.2380  0.0000  3342.0  0.0000  0.0000  0.0000  0.0000 
  3342.500 -46.911  11.118  7.3970  9.2280 -37.731  11.118  7.3970  9.2280  0.0000  3342.5  0.0000  0.0000  0.0000  0.0000 
  3343.000 -46.365  11.122  7.4200  9.2190 -37.179  11.122  7.4200  9.2190  0.0000  3343.0  0.0000  0.0000  0.0000  0.0000 
  3343.500 -45.315  11.127  7.5790  9.2130 -36.122  11.127  7.5790  9.2130  0.0000  3343.5  0.0000  0.0000  0.0000  0.0000 
  3344.000 -44.482  10.554  7.7960  9.2060 -35.283  10.554  7.7960  9.2060  0.0000  3344.0  0.0000  0.0000  0.0000  0.0000 
  3344.500 -43.324  9.9440  8.2070  9.1940 -34.118  9.9440  8.2070  9.1940  0.0000  3344.5  0.0000  0.0000  0.0000  0.0000 
  3345.000 -41.951  9.3140  9.1630  9.1380 -32.738  9.3140  9.1630  9.1380  0.0000  3345.0  0.0000  0.0000  0.0000  0.0000 
  3345.500 -40.001  8.6540  9.9180  9.1180 -30.782  8.6540  9.9180  9.1180  0.0000  3345.5  0.0000  0.0000  0.0000  0.0000 
  3346.000 -37.691  7.8940  10.918  8.9820 -28.465  7.8940  10.918  8.9820  0.0000  3346.0  0.0000  0.0000  0.0000  0.0000 
  3346.500 -34.734  6.8680  11.371  8.5810 -25.502  6.8680  11.371  8.5810  0.0000  3346.5  0.0000  0.0000  0.0000  0.0000 
  3347.000 -30.948  5.9430  11.315  8.1160 -21.709  5.9430  11.315  8.1160  0.0000  3347.0  0.0000  0.0000  0.0000  0.0000 
  3347.500 -27.452  5.3700  10.454  6.9250 -18.207  5.3700  10.454  6.9250  0.0000  3347.5  0.0000  0.0000  0.0000  0.0000 
  3348.000 -23.380  4.9470  9.3710  5.9850 -14.128  4.9470  9.3710  5.9850  0.0000  3348.0  0.0000  0.0000  0.0000  0.0000 
  3348.500 -18.155  4.6680  8.3530  5.0450 -8.8964  4.6680  8.3530  5.0450  0.0000  3348.5  0.0000  0.0000  0.0000  0.0000 
  3349.000 -16.637  4.3610  7.2550  4.7370 -7.3718  4.3610  7.2550  4.7370  0.0000  3349.0  0.0000  0.0000  0.0000  0.0000 
  3349.500 -15.766  4.3120  6.9120  4.3940 -6.4942  4.3120  6.9120  4.3940  0.0000  3349.5  0.0000  0.0000  0.0000  0.0000 
  3350.000 -15.365  4.2990  6.7190  4.2160 -6.0866  4.2990  6.7190  4.2160  0.0000  3350.0  0.0000  0.0000  0.0000  0.0000 
  3350.500 -15.143  4.3070  6.4180  4.0950 -5.8580  4.3070  6.4180  4.0950  0.0000  3350.5  0.0000  0.0000  0.0000  0.0000 
  3351.000 -15.064  4.3220  6.1470  3.9600 -5.7724  4.3220  6.1470  3.9600  0.0000  3351.0  0.0000  0.0000  0.0000  0.0000 
  3351.500 -14.987  4.3230  5.9750  3.8240 -5.6888  4.3230  5.9750  3.8240  0.0000  3351.5  0.0000  0.0000  0.0000  0.0000 
  3352.000 -14.946  4.3960  5.8400  3.6240 -5.6412  4.3960  5.8400  3.6240  0.0000  3352.0  0.0000  0.0000  0.0000  0.0000 
  3352.500 -14.977  4.5120  6.0490  4.1420 -5.6656  4.5120  6.0490  4.1420  0.0000  3352.5  0.0000  0.0000  0.0000  0.0000 
  3353.000 -15.511  4.7220  6.2440  4.5030 -6.1930  4.7220  6.2440  4.5030  0.0000  3353.0  0.0000  0.0000  0.0000  0.0000 
  3353.500 -16.476  5.0390  6.3960  4.7120 -7.1515  5.0390  6.3960  4.7120  0.0000  3353.5  0.0000  0.0000  0.0000  0.0000 
  3354.000 -17.227  5.3700  6.5620  4.9860 -7.8959  5.3700  6.5620  4.9860  0.0000  3354.0  0.0000  0.0000  0.0000  0.0000 
  3354.500 -18.084  5.6940  6.7720  5.3170 -8.7463  5.6940  6.7720  5.3170  0.0000  3354.5  0.0000  0.0000  0.0000  0.0000 
  3355.000 -18.691  5.9470  6.9310  5.5990 -9.3467  5.9470  6.9310  5.5990  0.0000  3355.0  0.0000  0.0000  0.0000  0.0000 
  3355.500 -19.728  6.1850  7.1550  5.8440 -10.377  6.1850  7.1550  5.8440  0.0000  3355.5  0.0000  0.0000  0.0000  0.0000 
  3356.000 -20.298  6.3870  7.1990  6.1610 -10.941  6.3870  7.1990  6.1610  0.0000  3356.0  0.0000  0.0000  0.0000  0.0000 
  3356.500 -20.977  6.6250  7.2570  6.4280 -11.613  6.6250  7.2570  6.4280  0.0000  3356.5  0.0000  0.0000  0.0000  0.0000 
  3357.000 -22.159  6.8700  7.3010  6.7300 -12.788  6.8700  7.3010  6.7300  0.0000  3357.0  0.0000  0.0000  0.0000  0.0000 
  3357.500 -24.636  7.2520  7.2660  7.0550 -15.259  7.2520  7.2660  7.0550  0.0000  3357.5  0.0000  0.0000  0.0000  0.0000 
  3358.000 -27.293  8.0220  7.2030  7.3860 -17.909  8.0220  7.2030  7.3860  0.0000  3358.0  0.0000  0.0000  0.0000  0.0000 
  3358.500 -29.843  8.6830  7.2260  7.7100 -20.453  8.6830  7.2260  7.7100  0.0000  3358.5  0.0000  0.0000  0.0000  0.0000 
  3359.000 -32.715  9.0510  7.2980  8.1060 -23.318  9.0510  7.2980  8.1060  0.0000  3359.0  0.0000  0.0000  0.0000  0.0000 
  3359.500 -35.085  9.6770  7.4860  8.5460 -25.681  9.6770  7.4860  8.5460  0.0000  3359.5  0.0000  0.0000  0.0000  0.0000 
  3360.000 -37.490  10.468  7.8610  9.1070 -28.080  10.468  7.8610  9.1070  0.0000  3360.0  0.0000  0.0000  0.0000  0.0000 
  3360.500 -39.930  11.008  8.0990  9.6040 -30.513  11.008  8.0990  9.6040  0.0000  3360.5  0.0000  0.0000  0.0000  0.0000 
  3361.000 -41.365  11.418  8.2360  9.8410 -31.942  11.418  8.2360  9.8410  0.0000  3361.0  0.0000  0.0000  0.0000  0.0000 
  3361.500 -42.727  11.699  8.3090  10.223 -33.297  11.699  8.3090  10.223  0.0000  3361.5  0.0000  0.0000  0.0000  0.0000 
  3362.000 -44.305  11.973  8.3810  10.555 -34.868  11.973  8.3810  10.555  0.0000  3362.0  0.0000  0.0000  0.0000  0.0000 
  3362.500 -44.336  12.075  8.5560  10.771 -34.893  12.075  8.5560  10.771  0.0000  3362.5  0.0000  0.0000  0.0000  0.0000 
  3363.000 -43.968  12.018  8.6580  10.952 -34.518  12.018  8.6580  10.952  0.0000  3363.0  0.0000  0.0000  0.0000  0.0000 
  3363.500 -43.855  11.919  8.7450  11.089 -34.399  11.919  8.7450  11.089  0.0000  3363.5  0.0000  0.0000  0.0000  0.0000 
  3364.000 -43.705  11.762  8.9610  11.184 -34.242  11.762  8.9610  11.184  0.0000  3364.0  0.0000  0.0000  0.0000  0.0000 
  3364.500 -43.591  11.454  9.1340  11.235 -34.121  11.454  9.1340  11.235  0.0000  3364.5  0.0000  0.0000  0.0000  0.0000 
  3365.000 -43.154  11.175  9.2860  11.208 -33.678  11.175  9.2860  11.208  0.0000  3365.0  0.0000  0.0000  0.0000  0.0000 
  3365.500 -42.214  10.781  9.3740  11.116 -32.731  10.781  9.3740  11.116  0.0000  3365.5  0.0000  0.0000  0.0000  0.0000 
  3366.000 -40.985  10.610  9.4250  10.980 -31.496  10.610  9.4250  10.980  0.0000  3366.0  0.0000  0.0000  0.0000  0.0000 
  3366.500 -39.359  10.626  9.3690  10.608 -29.863  10.626  9.3690  10.608  0.0000  3366.5  0.0000  0.0000  0.0000  0.0000 
  3367.000 -38.778  10.713  9.2760  10.192 -29.276  10.713  9.2760  10.192  0.0000  3367.0  0.0000  0.0000  0.0000  0.0000 
  3367.500 -38.700  10.972  9.1190  9.8410 -29.191  10.972  9.1190  9.8410  0.0000  3367.5  0.0000  0.0000  0.0000  0.0000 
  3368.000 -40.026  11.462  9.0490  9.6920 -30.510  11.462  9.0490  9.6920  0.0000  3368.0  0.0000  0.0000  0.0000  0.0000 
  3368.500 -42.396  12.195  9.0860  9.8150 -32.874  12.195  9.0860  9.8150  0.0000  3368.5  0.0000  0.0000  0.0000  0.0000 
  3369.000 -43.614  12.886  9.1440  9.9880 -34.085  12.886  9.1440  9.9880  0.0000  3369.0  0.0000  0.0000  0.0000  0.0000 
  3369.500 -45.335  14.130  9.4610  10.276 -35.800  14.130  9.4610  10.276  0.0000  3369.5  0.0000  0.0000  0.0000  0.0000 
  3370.000 -47.128  14.475  9.8000  10.536 -37.586  14.475  9.8000  10.536  0.0000  3370.0  0.0000  0.0000  0.0000  0.0000 
  3370.500 -48.275  14.857  10.541  10.695 -38.726  14.857  10.541  10.695  0.0000  3370.5  0.0000  0.0000  0.0000  0.0000 
  3371.000 -48.879  15.081  11.899  10.825 -39.324  15.081  11.899  10.825  0.0000  3371.0  0.0000  0.0000  0.0000  0.0000 
  3371.500 -49.377  15.226  12.891  10.870 -39.815  15.226  12.891  10.870  0.0000  3371.5  0.0000  0.0000  0.0000  0.0000 
  3372.000 -49.876  15.205  13.776  10.813 -40.308  15.205  13.776  10.813  0.0000  3372.0  0.0000  0.0000  0.0000  0.0000 
