~Version Information
VERS.                     2.0: CWLS log ASCII Standard Version 2.00
WRAP.                      NO: One line per depth step
~Well Information Block
#MNEM.UNIT                               Data Type  Information
#---------                               ---------  -----------
STRT.FT                                   350.0000:
STOP.FT                                  6780.0000:
STEP.FT                                     0.5000:
NULL.                 -999.25                     :
COMP.                                             :COMPANY            
WELL.     CCMO 58-20 REDRILL                      :WELL               
FLD .                                             :FIELD              
CTRY.                                             :COUNTRY            
STAT.                                             :STATE              
LOC .                                             :LOCATION           
UWI .                                             :UNIQUE WELL ID     
SRVC.                                             :Service company    
DATE.                                             :LOG DATE           
~Curve Information
#MNEM.UNIT           API CODE  Curve Description
#---------           --------  -----------------
DEPT.FT                      :   1 DEPTH
SP  .MV                      :   2
AM16.OHMM                    :   3
AO10.OHMM                    :   4
AO19.OHMM                    :   5
SBL .MV                      :   6
RS  .OHMM                    :   7
RM  .OHMM                    :   8
RD  .OHMM                    :   9
DEVI.DEG                     :  10
TVD .FT                      :  11
AZIM.DEG                     :  12
NORT.FT                      :  13
EAST.FT                      :  14
OFFS.FT                      :  15
~A
# ...
  1195.000 -34.056  4.3900  6.1060  6.6400 -8.2932  4.3900  6.1060  6.6400  0.0000  1195.0  0.0000  0.0000  0.0000  0.0000 
  1195.500 -34.453  4.4400  6.1560  6.7340 -8.6759  4.4400  6.1560  6.7340  0.0000  1195.5  0.0000  0.0000  0.0000  0.0000 
  1196.000 -34.742  4.5480  6.2420  6.7980 -8.9506  4.5480  6.2420  6.7980  0.0000  1196.0  0.0000  0.0000  0.0000  0.0000 
  1196.500 -35.211  4.6270  6.1990  6.8480 -9.4053  4.6270  6.1990  6.8480  0.0000  1196.5  0.0000  0.0000  0.0000  0.0000 
  1197.000 -35.428  4.8130  6.0980  6.7840 -9.6080  4.8130  6.0980  6.7840  0.0000  1197.0  0.0000  0.0000  0.0000  0.0000 
  1197.500 -35.717  4.9500  5.9900  6.6470 -9.8826  4.9500  5.9900  6.6470  0.0000  1197.5  0.0000  0.0000  0.0000  0.0000 
  1198.000 -36.005  5.1070  5.8540  6.5400 -10.156  5.1070  5.8540  6.5400  0.0000  1198.0  0.0000  0.0000  0.0000  0.0000 
  1198.500 -36.186  5.2870  5.7890  6.4750 -10.323  5.2870  5.7890  6.4750  0.0000  1198.5  0.0000  0.0000  0.0000  0.0000 
  1199.000 -36.331  5.4590  5.7680  6.4680 -10.454  5.4590  5.7680  6.4680  0.0000  1199.0  0.0000  0.0000  0.0000  0.0000 
  1199.500 -36.439  5.6670  5.7820  6.5030 -10.547  5.6670  5.7820  6.5030  0.0000  1199.5  0.0000  0.0000  0.0000  0.0000 
  1200.000 -36.656  5.9250  5.8250  6.5970 -10.750  5.9250  5.8250  6.5970  0.0000  1200.0  0.0000  0.0000  0.0000  0.0000 
  1200.500 -36.877  6.1400  5.9170  6.7390 -10.957  6.1400  5.9170  6.7390  0.0000  1200.5  0.0000  0.0000  0.0000  0.0000 
  1201.000 -37.169  6.5120  5.9740  6.8890 -11.234  6.5120  5.9740  6.8890  0.0000  1201.0  0.0000  0.0000  0.0000  0.0000 
  1201.500 -37.534  7.0930  6.1160  7.4270 -11.585  7.0930  6.1160  7.4270  0.0000  1201.5  0.0000  0.0000  0.0000  0.0000 
  1202.000 -38.187  7.5440  6.2450  8.2300 -12.224  7.5440  6.2450  8.2300  0.0000  1202.0  0.0000  0.0000  0.0000  0.0000 
  1202.500 -39.597  8.0670  6.5170  9.2410 -13.619  8.0670  6.5170  9.2410  0.0000  1202.5  0.0000  0.0000  0.0000  0.0000 
  1203.000 -42.448  8.6190  7.2260  9.8140 -16.456  8.6190  7.2260  9.8140  0.0000  1203.0  0.0000  0.0000  0.0000  0.0000 
  1203.500 -46.489  9.1350  7.6990  10.294 -20.483  9.1350  7.6990  10.294  0.0000  1203.5  0.0000  0.0000  0.0000  0.0000 
  1204.000 -49.340  9.8520  7.9930  10.602 -23.320  9.8520  7.9930  10.602  0.0000  1204.0  0.0000  0.0000  0.0000  0.0000 
  1204.500 -51.758  10.511  8.2720  10.902 -25.723  10.511  8.2720  10.902  0.0000  1204.5  0.0000  0.0000  0.0000  0.0000 
  1205.000 -54.682  11.271  8.5360  11.110 -28.633  11.271  8.5360  11.110  0.0000  1205.0  0.0000  0.0000  0.0000  0.0000 
  1205.500 -56.092  11.902  8.7360  11.267 -30.029  11.902  8.7360  11.267  0.0000  1205.5  0.0000  0.0000  0.0000  0.0000 
  1206.000 -57.718  12.152  8.8860  11.423 -31.640  12.152  8.8860  11.423  0.0000  1206.0  0.0000  0.0000  0.0000  0.0000 
  1206.500 -58.767  12.302  9.0070  11.509 -32.675  12.302  9.0070  11.509  0.0000  1206.5  0.0000  0.0000  0.0000  0.0000 
  1207.000 -59.781  12.387  9.1570  11.572 -33.675  12.387  9.1570  11.572  0.0000  1207.0  0.0000  0.0000  0.0000  0.0000 
  1207.500 -60.506  12.293  9.2420  11.615 -34.385  12.293  9.2420  11.615  0.0000  1207.5  0.0000  0.0000  0.0000  0.0000 
  1208.000 -61.015  12.206  9.3630  11.642 -34.880  12.206  9.3630  11.642  0.0000  1208.0  0.0000  0.0000  0.0000  0.0000 
  1208.500 -61.127  12.169  9.4410  11.634 -34.978  12.169  9.4410  11.634  0.0000  1208.5  0.0000  0.0000  0.0000  0.0000 
  1209.000 -61.095  12.161  9.5550  11.583 -34.931  12.161  9.5550  11.583  0.0000  1209.0  0.0000  0.0000  0.0000  0.0000 
  1209.500 -61.028  12.174  9.6480  11.360 -34.850  12.174  9.6480  11.360  0.0000  1209.5  0.0000  0.0000  0.0000  0.0000 
  1210.000 -60.960  12.209  9.8260  11.064 -34.768  12.209  9.8260  11.064  0.0000  1210.0  0.0000  0.0000  0.0000  0.0000 
  1210.500 -60.856  12.230  10.012  10.905 -34.649  12.230  10.012  10.905  0.0000  1210.5  0.0000  0.0000  0.0000  0.0000 
  1211.000 -60.825  12.279  10.241  10.768 -34.604  12.279  10.241  10.768  0.0000  1211.0  0.0000  0.0000  0.0000  0.0000 
  1211.500 -61.225  12.321  10.433  10.724 -34.990  12.321  10.433  10.724  0.0000  1211.5  0.0000  0.0000  0.0000  0.0000 
  1212.000 -61.843  12.392  10.677  10.737 -35.594  12.392  10.677  10.737  0.0000  1212.0  0.0000  0.0000  0.0000  0.0000 
  1212.500 -62.280  12.463  11.035  10.772 -36.016  12.463  11.035  10.772  0.0000  1212.5  0.0000  0.0000  0.0000  0.0000 
  1213.000 -62.464  12.512  11.306  10.822 -36.186  12.512  11.306  10.822  0.0000  1213.0  0.0000  0.0000  0.0000  0.0000 
  1213.500 -62.541  12.526  11.873  10.900 -36.249  12.526  11.873  10.900  0.0000  1213.5  0.0000  0.0000  0.0000  0.0000 
  1214.000 -62.545  12.518  12.697  10.964 -36.238  12.518  12.697  10.964  0.0000  1214.0  0.0000  0.0000  0.0000  0.0000 
  1214.500 -62.297  12.481  13.191  11.042 -35.976  12.481  13.191  11.042  0.0000  1214.5  0.0000  0.0000  0.0000  0.0000 
  1215.000 -61.869  12.401  15.344  11.134 -35.534  12.401  15.344  11.134  0.0000  1215.0  0.0000  0.0000  0.0000  0.0000 
  1215.500 -61.189  12.156  15.932  11.212 -34.839  12.156  15.932  11.212  0.0000  1215.5  0.0000  0.0000  0.0000  0.0000 
  1216.000 -60.148  11.782  17.036  11.276 -33.784  11.782  17.036  11.276  0.0000  1216.0  0.0000  0.0000  0.0000  0.0000 
  1216.500 -59.143  11.372  18.033  11.318 -32.765  11.372  18.033  11.318  0.0000  1216.5  0.0000  0.0000  0.0000  0.0000 
  1217.000 -57.995  10.811  18.621  11.353 -31.602  10.811  18.621  11.353  0.0000  1217.0  0.0000  0.0000  0.0000  0.0000 
  1217.500 -56.918  9.8260  19.057  11.352 -30.511  9.8260  19.057  11.352  0.0000  1217.5  0.0000  0.0000  0.0000  0.0000 
  1218.000 -55.841  8.7270  19.114  10.403 -29.420  8.7270  19.114  10.403  0.0000  1218.0  0.0000  0.0000  0.0000  0.0000 
  1218.500 -54.044  7.9220  18.862  9.8350 -27.608  7.9220  18.862  9.8350  0.0000  1218.5  0.0000  0.0000  0.0000  0.0000 
  1219.000 -52.859  7.3260  18.516  9.4110 -26.409  7.3260  18.516  9.4110  0.0000  1219.0  0.0000  0.0000  0.0000  0.0000 
  1219.500 -51.134  7.0090  17.776  8.9360 -24.670  7.0090  17.776  8.9360  0.0000  1219.5  0.0000  0.0000  0.0000  0.0000 
  1220.000 -50.057  6.7640  15.586  8.4260 -23.578  6.7640  15.586  8.4260  0.0000  1220.0  0.0000  0.0000  0.0000  0.0000 
  1220.500 -48.512  6.4970  13.640  7.7930 -22.019  6.4970  13.640  7.7930  0.0000  1220.5  0.0000  0.0000  0.0000  0.0000 
  1221.000 -47.255  6.3170  12.519  7.2540 -20.748  6.3170  12.519  7.2540  0.0000  1221.0  0.0000  0.0000  0.0000  0.0000 
  1221.500 -45.890  6.2010  11.937  6.7790 -19.369  6.2010  11.937  6.7790  0.0000  1221.5  0.0000  0.0000  0.0000  0.0000 
  1222.000 -44.561  6.1720  11.290  6.6920 -18.025  6.1720  11.290  6.6920  0.0000  1222.0  0.0000  0.0000  0.0000  0.0000 
  1222.500 -43.088  6.1850  10.765  6.7770 -16.538  6.1850  10.765  6.7770  0.0000  1222.5  0.0000  0.0000  0.0000  0.0000 
  1223.000 -42.083  6.2270  10.462  6.9480 -15.519  6.2270  10.462  6.9480  0.0000  1223.0  0.0000  0.0000  0.0000  0.0000 
  1223.500 -41.475  6.2690  10.375  7.2060 -14.896  6.2690  10.375  7.2060  0.0000  1223.5  0.0000  0.0000  0.0000  0.0000 
  1224.000 -41.660  6.3040  10.403  7.6790 -15.067  6.3040  10.403  7.6790  0.0000  1224.0  0.0000  0.0000  0.0000  0.0000 
  1224.500 -41.844  6.3320  10.495  8.0300 -15.237  6.3320  10.495  8.0300  0.0000  1224.5  0.0000  0.0000  0.0000  0.0000 
  1225.000 -41.921  6.2090  10.631  8.3660 -15.299  6.2090  10.631  8.3660  0.0000  1225.0  0.0000  0.0000  0.0000  0.0000 
  1225.500 -41.277  6.1150  10.687  8.7460 -14.641  6.1150  10.687  8.7460  0.0000  1225.5  0.0000  0.0000  0.0000  0.0000 
  1226.000 -40.884  6.1140  10.772  9.0100 -14.234  6.1140  10.772  9.0100  0.0000  1226.0  0.0000  0.0000  0.0000  0.0000 
  1226.500 -41.429  6.1270  10.829  9.1670 -14.764  6.1270  10.829  9.1670  0.0000  1226.5  0.0000  0.0000  0.0000  0.0000 
  1227.000 -42.047  6.1550  10.857  9.3380 -15.368  6.1550  10.857  9.3380  0.0000  1227.0  0.0000  0.0000  0.0000  0.0000 
