~Version Information
VERS.                     2.0: CWLS log ASCII Standard Version 2.00
WRAP.                      NO: One line per depth step
~Well Information Block
#MNEM.UNIT                               Data Type  Information
#---------                               ---------  -----------
STRT.FT                                   350.0000:
STOP.FT                                  6780.0000:
STEP.FT                                     0.5000:
NULL.                 -999.25                     :
COMP.                                             :COMPANY            
WELL.     CCMO 58-20 REDRILL                      :WELL               
FLD .                                             :FIELD              
CTRY.                                             :COUNTRY            
STAT.                                             :STATE              
LOC .                                             :LOCATION           
UWI .                                             :UNIQUE WELL ID     
SRVC.                                             :Service company    
DATE.                                             :LOG DATE           
~Curve Information
#MNEM.UNIT           API CODE  Curve Description
#---------           --------  -----------------
DEPT.FT                      :   1 DEPTH
SP  .MV                      :   2
AM16.OHMM                    :   3
AO10.OHMM                    :   4
AO19.OHMM                    :   5
SBL .MV                      :   6
RS  .OHMM                    :   7
RM  .OHMM                    :   8
RD  .OHMM                    :   9
DEVI.DEG                     :  10
TVD .FT                      :  11
AZIM.DEG                     :  12
NORT.FT                      :  13
EAST.FT                      :  14
OFFS.FT                      :  15
~A
# ...
   772.500 -28.433  4.7650  4.3340  5.2820 -12.433  4.7650  4.3340  5.2820  0.0000  772.50  0.0000  0.0000  0.0000  0.0000 
   773.000 -29.586  4.8430  4.4840  5.3610 -13.586  4.8430  4.4840  5.3610  0.0000  773.00  0.0000  0.0000  0.0000  0.0000 
   773.500 -30.920  4.9220  4.6490  5.4600 -14.920  4.9220  4.6490  5.4600  0.0000  773.50  0.0000  0.0000  0.0000  0.0000 
   774.000 -31.857  4.9780  4.8130  5.5240 -15.857  4.9780  4.8130  5.5240  0.0000  774.00  0.0000  0.0000  0.0000  0.0000 
   774.500 -32.795  5.0350  5.0420  5.5590 -16.795  5.0350  5.0420  5.5590  0.0000  774.50  0.0000  0.0000  0.0000  0.0000 
   775.000 -32.008  5.0920  5.1930  5.5080 -16.008  5.0920  5.1930  5.5080  0.0000  775.00  0.0000  0.0000  0.0000  0.0000 
   775.500 -31.112  5.1340  5.0840  5.4220 -15.112  5.1340  5.0840  5.4220  0.0000  775.50  0.0000  0.0000  0.0000  0.0000 
   776.000 -30.037  5.1450  4.9970  5.1980 -14.037  5.1450  4.9970  5.1980  0.0000  776.00  0.0000  0.0000  0.0000  0.0000 
   776.500 -29.214  5.1550  4.9960  5.0320 -13.214  5.1550  4.9960  5.0320  0.0000  776.50  0.0000  0.0000  0.0000  0.0000 
   777.000 -28.894  5.1900  5.0680  4.9450 -12.894  5.1900  5.0680  4.9450  0.0000  777.00  0.0000  0.0000  0.0000  0.0000 
   777.500 -30.514  5.2100  5.1460  4.9880 -14.514  5.2100  5.1460  4.9880  0.0000  777.50  0.0000  0.0000  0.0000  0.0000 
   778.000 -32.063  5.2530  5.3170  5.1090 -16.063  5.2530  5.3170  5.1090  0.0000  778.00  0.0000  0.0000  0.0000  0.0000 
   778.500 -34.439  5.2950  5.6180  5.2020 -18.439  5.2950  5.6180  5.2020  0.0000  778.50  0.0000  0.0000  0.0000  0.0000 
   779.000 -34.694  5.3810  5.8260  5.3160 -18.694  5.3810  5.8260  5.3160  0.0000  779.00  0.0000  0.0000  0.0000  0.0000 
   779.500 -33.835  5.4520  6.0690  5.3300 -17.835  5.4520  6.0690  5.3300  0.0000  779.50  0.0000  0.0000  0.0000  0.0000 
   780.000 -33.442  5.5520  6.1760  5.3070 -17.442  5.5520  6.1760  5.3070  0.0000  780.00  0.0000  0.0000  0.0000  0.0000 
   780.500 -33.338  5.6440  6.2470  5.2560 -17.338  5.6440  6.2470  5.2560  0.0000  780.50  0.0000  0.0000  0.0000  0.0000 
   781.000 -33.953  5.7370  6.3330  5.3200 -17.953  5.7370  6.3330  5.3200  0.0000  781.00  0.0000  0.0000  0.0000  0.0000 
   781.500 -34.603  5.8010  6.3970  5.4340 -18.603  5.8010  6.3970  5.4340  0.0000  781.50  0.0000  0.0000  0.0000  0.0000 
   782.000 -35.469  5.8720  6.4610  5.5270 -19.469  5.8720  6.4610  5.5270  0.0000  782.00  0.0000  0.0000  0.0000  0.0000 
   782.500 -35.976  5.8860  6.6540  5.6340 -19.976  5.8860  6.6540  5.6340  0.0000  782.50  0.0000  0.0000  0.0000  0.0000 
   783.000 -35.871  5.6260  6.7470  5.7560 -19.871  5.6260  6.7470  5.7560  0.0000  783.00  0.0000  0.0000  0.0000  0.0000 
   783.500 -35.479  5.4820  6.7960  5.8190 -19.479  5.4820  6.7960  5.8190  0.0000  783.50  0.0000  0.0000  0.0000  0.0000 
   784.000 -34.656  5.3880  6.8140  5.8330 -18.656  5.3880  6.8140  5.8330  0.0000  784.00  0.0000  0.0000  0.0000  0.0000 
   784.500 -33.760  5.2940  6.8310  5.8250 -17.760  5.2940  6.8310  5.8250  0.0000  784.50  0.0000  0.0000  0.0000  0.0000 
   785.000 -32.039  5.0270  6.7870  5.7670 -16.039  5.0270  6.7870  5.7670  0.0000  785.00  0.0000  0.0000  0.0000  0.0000 
   785.500 -30.065  4.9330  6.6210  5.6870 -14.065  4.9330  6.6210  5.6870  0.0000  785.50  0.0000  0.0000  0.0000  0.0000 
   786.000 -29.026  4.7530  6.3830  5.4860 -13.026  4.7530  6.3830  5.4860  0.0000  786.00  0.0000  0.0000  0.0000  0.0000 
   786.500 -28.167  4.6230  6.1170  5.1690 -12.167  4.6230  6.1170  5.1690  0.0000  786.50  0.0000  0.0000  0.0000  0.0000 
   787.000 -27.848  4.4280  5.9650  4.8380 -11.848  4.4280  5.9650  4.8380  0.0000  787.00  0.0000  0.0000  0.0000  0.0000 
   787.500 -27.814  4.3060  5.8420  4.8230 -11.814  4.3060  5.8420  4.8230  0.0000  787.50  0.0000  0.0000  0.0000  0.0000 
   788.000 -28.069  4.1680  5.8130  4.9080 -12.069  4.1680  5.8130  4.9080  0.0000  788.00  0.0000  0.0000  0.0000  0.0000 
   788.500 -28.217  4.0530  5.8120  5.0150 -12.217  4.0530  5.8120  5.0150  0.0000  788.50  0.0000  0.0000  0.0000  0.0000 
   789.000 -27.142  3.9510  5.8010  5.0570 -11.142  3.9510  5.8010  5.0570  0.0000  789.00  0.0000  0.0000  0.0000  0.0000 
   789.500 -25.599  3.8860  5.7900  5.1000 -9.5990  3.8860  5.7900  5.1000  0.0000  789.50  0.0000  0.0000  0.0000  0.0000 
   790.000 -23.663  3.8350  5.7240  4.9340 -7.6630  3.8350  5.7240  4.9340  0.0000  790.00  0.0000  0.0000  0.0000  0.0000 
   790.500 -22.263  3.8130  5.4860  4.8260 -6.2630  3.8130  5.4860  4.8260  0.0000  790.50  0.0000  0.0000  0.0000  0.0000 
   791.000 -21.045  3.8050  5.2990  4.6310 -5.0450  3.8050  5.2990  4.6310  0.0000  791.00  0.0000  0.0000  0.0000  0.0000 
   791.500 -20.581  3.8330  4.9320  4.4000 -4.5810  3.8330  4.9320  4.4000  0.0000  791.50  0.0000  0.0000  0.0000  0.0000 
   792.000 -20.261  3.8900  4.8380  4.2560 -4.2610  3.8900  4.8380  4.2560  0.0000  792.00  0.0000  0.0000  0.0000  0.0000 
   792.500 -20.192  3.9610  4.8800  4.1980 -4.1920  3.9610  4.8800  4.1980  0.0000  792.50  0.0000  0.0000  0.0000  0.0000 
   793.000 -20.807  3.9960  4.9730  4.2830 -4.8070  3.9960  4.9730  4.2830  0.0000  793.00  0.0000  0.0000  0.0000  0.0000 
   793.500 -21.529  4.0320  5.1300  4.3400 -5.5290  4.0320  5.1300  4.3400  0.0000  793.50  0.0000  0.0000  0.0000  0.0000 
   794.000 -23.186  4.2890  5.2590  4.5260 -7.1860  4.2890  5.2590  4.5260  0.0000  794.00  0.0000  0.0000  0.0000  0.0000 
   794.500 -25.633  4.5470  5.5380  4.7620 -9.6330  4.5470  5.5380  4.7620  0.0000  794.50  0.0000  0.0000  0.0000  0.0000 
   795.000 -28.261  4.7760  5.8750  4.9990 -12.261  4.7760  5.8750  4.9990  0.0000  795.00  0.0000  0.0000  0.0000  0.0000 
   795.500 -30.420  4.9690  6.1470  5.3710 -14.420  4.9690  6.1470  5.3710  0.0000  795.50  0.0000  0.0000  0.0000  0.0000 
   796.000 -32.760  5.1620  6.3760  5.6290 -16.760  5.1620  6.3760  5.6290  0.0000  796.00  0.0000  0.0000  0.0000  0.0000 
   796.500 -33.949  5.3120  6.6480  5.9010 -17.949  5.3120  6.6480  5.9010  0.0000  796.50  0.0000  0.0000  0.0000  0.0000 
   797.000 -34.061  5.4550  6.7770  6.0660 -18.061  5.4550  6.7770  6.0660  0.0000  797.00  0.0000  0.0000  0.0000  0.0000 
   797.500 -34.064  5.4830  6.7620  6.1440 -18.064  5.4830  6.7620  6.1440  0.0000  797.50  0.0000  0.0000  0.0000  0.0000 
   798.000 -33.960  5.4970  6.7250  6.1940 -17.960  5.4970  6.7250  6.1940  0.0000  798.00  0.0000  0.0000  0.0000  0.0000 
   798.500 -33.388  5.4320  6.6740  6.2180 -17.388  5.4320  6.6740  6.2180  0.0000  798.50  0.0000  0.0000  0.0000  0.0000 
   799.000 -31.846  5.2230  6.5730  6.2430 -15.846  5.2230  6.5730  6.2430  0.0000  799.00  0.0000  0.0000  0.0000  0.0000 
   799.500 -30.842  5.1070  6.4280  6.2780 -14.842  5.1070  6.4280  6.2780  0.0000  799.50  0.0000  0.0000  0.0000  0.0000 
   800.000 -29.696  4.9480  6.2700  6.2050 -13.696  4.9480  6.2700  6.2050  0.0000  800.00  0.0000  0.0000  0.0000  0.0000 
   800.500 -27.722  4.8690  6.0110  6.0610 -11.722  4.8690  6.0110  6.0610  0.0000  800.50  0.0000  0.0000  0.0000  0.0000 
   801.000 -25.532  4.8250  5.7230  5.9170 -9.5320  4.8250  5.7230  5.9170  0.0000  801.00  0.0000  0.0000  0.0000  0.0000 
   801.500 -23.917  4.7960  5.3560  5.8520 -7.9170  4.7960  5.3560  5.8520  0.0000  801.50  0.0000  0.0000  0.0000  0.0000 
   802.000 -23.165  4.8100  5.0680  5.7360 -7.1650  4.8100  5.0680  5.7360  0.0000  802.00  0.0000  0.0000  0.0000  0.0000 
   802.500 -22.665  4.8660  4.9600  5.6560 -6.6650  4.8660  4.9600  5.6560  0.0000  802.50  0.0000  0.0000  0.0000  0.0000 
   803.000 -22.452  4.9810  4.9090  5.6700 -6.4520  4.9810  4.9090  5.6700  0.0000  803.00  0.0000  0.0000  0.0000  0.0000 
   803.500 -22.670  5.0740  4.9230  5.7410 -6.6700  5.0740  4.9230  5.7410  0.0000  803.50  0.0000  0.0000  0.0000  0.0000 
   804.000 -23.500  5.2310  4.9980  5.8770 -7.5000  5.2310  4.9980  5.8770  0.0000  804.00  0.0000  0.0000  0.0000  0.0000 
   804.500 -25.444  5.5250  5.0730  6.0210 -9.4440  5.5250  5.0730  6.0210  0.0000  804.50  0.0000  0.0000  0.0000  0.0000 
