~Version Information
VERS.                     2.0: CWLS log ASCII Standard Version 2.00
WRAP.                      NO: One line per depth step
~Well Information Block
#MNEM.UNIT                               Data Type  Information
#---------                               ---------  -----------
STRT.FT                                   350.0000:
STOP.FT                                  6780.0000:
STEP.FT                                     0.5000:
NULL.                 -999.25                     :
COMP.                                             :COMPANY            
WELL.     CCMO 58-20 REDRILL                      :WELL               
FLD .                                             :FIELD              
CTRY.                                             :COUNTRY            
STAT.                                             :STATE              
LOC .                                             :LOCATION           
UWI .                                             :UNIQUE WELL ID     
SRVC.                                             :Service company    
DATE.                                             :LOG DATE           
~Curve Information
#MNEM.UNIT           API CODE  Curve Description
#---------           --------  -----------------
DEPT.FT                      :   1 DEPTH
SP  .MV                      :   2
AM16.OHMM                    :   3
AO10.OHMM                    :   4
AO19.OHMM                    :   5
SBL .MV                      :   6
RS  .OHMM                    :   7
RM  .OHMM                    :   8
RD  .OHMM                    :   9
DEVI.DEG                     :  10
TVD .FT                      :  11
AZIM.DEG                     :  12
NORT.FT                      :  13
EAST.FT                      :  14
OFFS.FT                      :  15
~A
# ...
  6330.000 -14.115  2.1460  2.1390  2.4270 -10.115  2.1460  2.1390  2.4270  16.750  6309.2  309.00  95.248 -142.35 -33.306 
  6330.500 -13.847  2.1170  2.1610  2.4480 -9.8470  2.1170  2.1610  2.4480  16.750  6309.7  309.00  95.339 -142.46 -33.322 
  6331.000 -13.579  2.0740  2.1750  2.4620 -9.5790  2.0740  2.1750  2.4620  16.750  6310.2  309.00  95.429 -142.57 -33.337 
  6331.500 -12.791  2.0310  1.9660  2.4690 -8.7910  2.0310  1.9660  2.4690  16.750  6310.7  309.00  95.520 -142.69 -33.352 
  6332.000 -12.829  2.0090  1.8360  2.4620 -8.8290  2.0090  1.8360  2.4620  16.750  6311.2  309.00  95.611 -142.80 -33.367 
  6332.500 -13.117  1.9870  1.9720  2.4470 -9.1170  1.9870  1.9720  2.4470  16.750  6311.6  309.00  95.701 -142.91 -33.382 
  6333.000 -12.903  1.9720  2.1660  2.4320 -8.9030  1.9720  2.1660  2.4320  16.750  6312.1  309.00  95.792 -143.02 -33.397 
  6333.500 -12.546  1.9580  2.2310  2.3460 -8.5460  1.9580  2.2310  2.3460  16.750  6312.6  309.00  95.883 -143.13 -33.412 
  6334.000 -11.937  1.9720  2.3240  2.2810 -7.9370  1.9720  2.3240  2.2810  16.750  6313.1  309.00  95.973 -143.25 -33.427 
  6334.500 -11.580  1.9860  2.1220  2.2410 -7.5800  1.9860  2.1220  2.2410  16.750  6313.6  309.00  96.064 -143.36 -33.442 
  6335.000 -11.509  2.0000  1.9930  2.2010 -7.5090  2.0000  1.9930  2.2010  16.750  6314.0  309.00  96.155 -143.47 -33.457 
  6335.500 -11.905  2.0140  1.9200  2.1430 -7.9050  2.0140  1.9200  2.1430  16.750  6314.5  309.00  96.245 -143.58 -33.472 
  6336.000 -12.517  2.0140  1.9060  2.1210 -8.5170  2.0140  1.9060  2.1210  16.750  6315.0  309.00  96.336 -143.69 -33.487 
  6336.500 -12.697  2.0130  1.8910  2.0920 -8.6970  2.0130  1.8910  2.0920  16.750  6315.5  309.00  96.427 -143.81 -33.502 
  6337.000 -12.735  2.0130  1.9120  2.0780 -8.7350  2.0130  1.9120  2.0780  16.750  6315.9  309.00  96.517 -143.92 -33.517 
  6337.500 -12.772  1.9980  1.9410  2.0850 -8.7720  1.9980  1.9410  2.0850  16.750  6316.4  309.00  96.608 -144.03 -33.532 
  6338.000 -12.809  1.9840  1.9550  2.1060 -8.8090  1.9840  1.9550  2.1060  16.750  6316.9  309.00  96.699 -144.14 -33.547 
  6338.500 -12.739  1.9690  1.9760  2.1200 -8.7390  1.9690  1.9760  2.1200  16.750  6317.4  309.00  96.789 -144.25 -33.563 
  6339.000 -12.597  1.9540  1.9900  2.1410 -8.5970  1.9540  1.9900  2.1410  16.750  6317.9  309.00  96.880 -144.37 -33.578 
  6339.500 -12.418  1.9400  1.9900  2.1630 -8.4180  1.9400  1.9900  2.1630  16.750  6318.3  309.00  96.971 -144.48 -33.593 
  6340.000 -11.882  1.9180  2.0180  2.1770 -7.8820  1.9180  2.0180  2.1770  16.750  6318.8  309.00  97.061 -144.59 -33.608 
  6340.500 -11.632  1.9030  2.0540  2.1910 -7.6320  1.9030  2.0540  2.1910  16.750  6319.3  309.00  97.152 -144.70 -33.623 
  6341.000 -11.561  1.8890  2.0900  2.1830 -7.5610  1.8890  2.0900  2.1830  16.750  6319.8  309.00  97.243 -144.81 -33.638 
  6341.500 -11.706  1.8450  2.1610  2.1690 -7.7060  1.8450  2.1610  2.1690  16.750  6320.3  309.00  97.334 -144.93 -33.653 
  6342.000 -11.959  1.8090  2.2040  2.1470 -7.9590  1.8090  2.2040  2.1470  16.750  6320.7  309.00  97.424 -145.04 -33.668 
  6342.500 -11.996  1.7940  2.2690  2.1110 -7.9960  1.7940  2.2690  2.1110  16.750  6321.2  309.00  97.515 -145.15 -33.683 
  6343.000 -11.890  1.7650  2.1680  2.0960 -7.8900  1.7650  2.1680  2.0960  16.750  6321.7  309.00  97.606 -145.26 -33.698 
  6343.500 -11.712  1.7470  2.0380  2.0810 -7.7120  1.7470  2.0380  2.0810  16.750  6322.2  309.00  97.696 -145.37 -33.713 
  6344.000 -11.390  1.7290  2.0310  2.0380 -7.3900  1.7290  2.0310  2.0380  16.750  6322.6  309.00  97.787 -145.49 -33.728 
  6344.500 -10.997  1.7070  2.0520  2.0090 -6.9970  1.7070  2.0520  2.0090  16.750  6323.1  309.00  97.878 -145.60 -33.743 
  6345.000 -10.532  1.6850  2.0300  2.0010 -6.5320  1.6850  2.0300  2.0010  16.750  6323.6  309.00  97.968 -145.71 -33.758 
  6345.500 -10.389  1.6770  1.9000  2.0080 -6.3890  1.6770  1.9000  2.0080  16.750  6324.1  309.00  98.059 -145.82 -33.773 
  6346.000 -10.355  1.6700  1.8280  2.0150 -6.3550  1.6700  1.8280  2.0150  16.750  6324.6  309.00  98.150 -145.93 -33.789 
  6346.500 -10.356  1.6700  1.7850  2.0290 -6.3560  1.6700  1.7850  2.0290  16.750  6325.0  309.00  98.240 -146.05 -33.804 
  6347.000 -10.393  1.6550  1.7700  2.0500 -6.3930  1.6550  1.7700  2.0500  16.750  6325.5  309.00  98.331 -146.16 -33.819 
  6347.500 -10.430  1.6550  1.7700  2.0790 -6.4300  1.6550  1.7700  2.0790  16.750  6326.0  309.00  98.422 -146.27 -33.834 
  6348.000 -10.504  1.6580  1.7690  2.1000 -6.5040  1.6580  1.7690  2.1000  16.750  6326.5  309.00  98.512 -146.38 -33.849 
  6348.500 -10.290  1.6610  1.7760  2.1210 -6.2900  1.6610  1.7760  2.1210  16.750  6327.0  309.00  98.603 -146.49 -33.864 
  6349.000 -10.542  1.6790  1.7900  2.1430 -6.5420  1.6790  1.7900  2.1430  16.750  6327.4  309.00  98.694 -146.61 -33.879 
  6349.500 -10.633  1.6970  1.8050  2.1710 -6.6330  1.6970  1.8050  2.1710  16.750  6327.9  309.00  98.784 -146.72 -33.894 
  6350.000 -10.724  1.7180  1.8330  2.2000 -6.7240  1.7180  1.8330  2.2000  16.750  6328.4  309.00  98.875 -146.83 -33.909 
  6350.500 -10.796  1.7400  1.8690  2.2210 -6.7960  1.7400  1.8690  2.2210  16.750  6328.9  309.00  98.966 -146.94 -33.924 
  6351.000 -10.867  1.8050  1.8910  2.2360 -6.8670  1.8050  1.8910  2.2360  16.750  6329.4  309.00  99.056 -147.05 -33.939 
  6351.500 -11.728  1.8410  1.9130  2.2500 -7.7280  1.8410  1.9130  2.2500  16.750  6329.8  309.00  99.147 -147.17 -33.954 
  6352.000 -12.301  1.8880  1.9340  2.2360 -8.3010  1.8880  1.9340  2.2360  16.750  6330.3  309.00  99.238 -147.28 -33.969 
  6352.500 -11.619  1.9340  1.9850  2.2290 -7.6190  1.9340  1.9850  2.2290  16.750  6330.8  309.00  99.329 -147.39 -33.984 
  6353.000 -10.936  1.9780  2.0350  2.2290 -6.9360  1.9780  2.0350  2.2290  16.750  6331.3  309.00  99.419 -147.50 -33.999 
  6353.500 -10.649  2.0210  2.0570  2.2370 -6.6490  2.0210  2.0570  2.2370  16.750  6331.7  309.00  99.510 -147.61 -34.015 
  6354.000 -10.397  2.0970  2.0790  2.2370 -6.3970  2.0970  2.0790  2.2370  16.750  6332.2  309.00  99.601 -147.73 -34.030 
  6354.500 -10.504  2.1720  2.1360  2.2370 -6.5040  2.1720  2.1360  2.2370  16.750  6332.7  309.00  99.691 -147.84 -34.045 
  6355.000 -11.257  2.2260  2.1510  2.2230 -7.2570  2.2260  2.1510  2.2230  16.750  6333.2  309.00  99.782 -147.95 -34.060 
  6355.500 -12.118  2.2800  2.1800  2.2080 -8.1180  2.2800  2.1800  2.2080  16.750  6333.7  309.00  99.873 -148.06 -34.075 
  6356.000 -12.404  2.3520  2.1940  2.1800 -8.4040  2.3520  2.1940  2.1800  16.750  6334.1  309.00  99.963 -148.17 -34.090 
  6356.500 -12.726  2.4240  2.1510  2.1730 -8.7260  2.4240  2.1510  2.1730  16.750  6334.6  309.00  100.05 -148.29 -34.105 
  6357.000 -13.049  2.4930  2.0000  2.1730 -9.0490  2.4930  2.0000  2.1730  16.750  6335.1  309.00  100.14 -148.40 -34.120 
  6357.500 -13.730  2.5610  1.9210  2.2090 -9.7300  2.5610  1.9210  2.2090  16.750  6335.6  309.00  100.24 -148.51 -34.135 
  6358.000 -14.196  2.6690  1.8570  2.2380 -10.196  2.6690  1.8570  2.2380  16.750  6336.1  309.00  100.33 -148.62 -34.150 
  6358.500 -14.518  2.7630  1.8280  2.2740 -10.518  2.7630  1.8280  2.2740  16.750  6336.5  309.00  100.42 -148.73 -34.165 
  6359.000 -14.769  2.8130  1.9000  2.3100 -10.769  2.8130  1.9000  2.3100  16.750  6337.0  309.00  100.51 -148.85 -34.180 
  6359.500 -14.984  2.8850  1.9800  2.3960 -10.984  2.8850  1.9800  2.3960  16.750  6337.5  309.00  100.60 -148.96 -34.195 
  6360.000 -15.163  2.9430  2.1020  2.4290 -11.163  2.9430  2.1020  2.4290  16.750  6338.0  309.00  100.69 -149.07 -34.210 
  6360.500 -15.270  3.0220  2.2670  2.4610 -11.270  3.0220  2.2670  2.4610  16.750  6338.4  309.00  100.78 -149.18 -34.225 
  6361.000 -15.377  3.0510  2.4330  2.5480 -11.377  3.0510  2.4330  2.5480  16.750  6338.9  309.00  100.87 -149.29 -34.241 
  6361.500 -15.484  2.9870  2.6060  2.5840 -11.484  2.9870  2.6060  2.5840  16.750  6339.4  309.00  100.96 -149.41 -34.256 
  6362.000 -15.735  2.8640  2.7210  2.5910 -11.735  2.8640  2.7210  2.5910  16.750  6339.9  309.00  101.05 -149.52 -34.271 
