~Version Information
VERS.                     2.0: CWLS log ASCII Standard Version 2.00
WRAP.                      NO: One line per depth step
~Well Information Block
#MNEM.UNIT                               Data Type  Information
#---------                               ---------  -----------
STRT.FT                                   350.0000:
STOP.FT                                  6780.0000:
STEP.FT                                     0.5000:
NULL.                 -999.25                     :
COMP.                                             :COMPANY            
WELL.     CCMO 58-20 REDRILL                      :WELL               
FLD .                                             :FIELD              
CTRY.                                             :COUNTRY            
STAT.                                             :STATE              
LOC .                                             :LOCATION           
UWI .                                             :UNIQUE WELL ID     
SRVC.                                             :Service company    
DATE.                                             :LOG DATE           
~Curve Information
#MNEM.UNIT           API CODE  Curve Description
#---------           --------  -----------------
DEPT.FT                      :   1 DEPTH
SP  .MV                      :   2
AM16.OHMM                    :   3
AO10.OHMM                    :   4
AO19.OHMM                    :   5
SBL .MV                      :   6
RS  .OHMM                    :   7
RM  .OHMM                    :   8
RD  .OHMM                    :   9
DEVI.DEG                     :  10
TVD .FT                      :  11
AZIM.DEG                     :  12
NORT.FT                      :  13
EAST.FT                      :  14
OFFS.FT                      :  15
~A
# ...
  4607.500 -16.272  3.0010  3.1770  2.5580 -15.429  3.0010  3.1770  2.5580  0.0000  4607.5  0.0000  0.0000  0.0000  0.0000 
  4608.000 -17.782  3.1370  3.1950  2.6300 -16.930  3.1370  3.1950  2.6300  0.0000  4608.0  0.0000  0.0000  0.0000  0.0000 
  4608.500 -19.221  3.3380  3.2230  2.6880 -18.360  3.3380  3.2230  2.6880  0.0000  4608.5  0.0000  0.0000  0.0000  0.0000 
  4609.000 -22.062  3.5540  3.2300  2.7950 -21.192  3.5540  3.2300  2.7950  0.0000  4609.0  0.0000  0.0000  0.0000  0.0000 
  4609.500 -20.984  3.6830  3.2230  2.9100 -20.104  3.6830  3.2230  2.9100  0.0000  4609.5  0.0000  0.0000  0.0000  0.0000 
  4610.000 -19.978  3.7620  3.2120  3.0180 -19.089  3.7620  3.2120  3.0180  0.0000  4610.0  0.0000  0.0000  0.0000  0.0000 
  4610.500 -19.259  3.7980  3.2020  3.0900 -18.361  3.7980  3.2020  3.0900  0.0000  4610.5  0.0000  0.0000  0.0000  0.0000 
  4611.000 -19.152  3.8410  3.1800  3.1620 -18.245  3.8410  3.1800  3.1620  0.0000  4611.0  0.0000  0.0000  0.0000  0.0000 
  4611.500 -19.549  3.8920  3.1650  3.1260 -18.632  3.8920  3.1650  3.1260  0.0000  4611.5  0.0000  0.0000  0.0000  0.0000 
  4612.000 -19.944  3.9630  3.1370  3.0970 -19.018  3.9630  3.1370  3.0970  0.0000  4612.0  0.0000  0.0000  0.0000  0.0000 
  4612.500 -22.246  4.0860  3.2080  3.0900 -21.311  4.0860  3.2080  3.0900  0.0000  4612.5  0.0000  0.0000  0.0000  0.0000 
  4613.000 -24.871  4.3160  3.3450  3.1690 -23.927  4.3160  3.3450  3.1690  0.0000  4613.0  0.0000  0.0000  0.0000  0.0000 
  4613.500 -27.747  4.5100  3.4670  3.2330 -26.793  4.5100  3.4670  3.2330  0.0000  4613.5  0.0000  0.0000  0.0000  0.0000 
  4614.000 -30.157  4.7180  3.5750  3.3120 -29.194  4.7180  3.5750  3.3120  0.0000  4614.0  0.0000  0.0000  0.0000  0.0000 
  4614.500 -31.919  4.8830  3.7620  3.3910 -30.947  4.8830  3.7620  3.3910  0.0000  4614.5  0.0000  0.0000  0.0000  0.0000 
  4615.000 -32.674  4.9840  3.8620  3.4560 -31.693  4.9840  3.8620  3.4560  0.0000  4615.0  0.0000  0.0000  0.0000  0.0000 
  4615.500 -33.286  5.0130  3.9130  3.4780 -32.295  5.0130  3.9130  3.4780  0.0000  4615.5  0.0000  0.0000  0.0000  0.0000 
  4616.000 -31.849  4.9480  3.8910  3.4920 -30.849  4.9480  3.8910  3.4920  0.0000  4616.0  0.0000  0.0000  0.0000  0.0000 
  4616.500 -30.412  4.7680  3.7900  3.4850 -29.403  4.7680  3.7900  3.4850  0.0000  4616.5  0.0000  0.0000  0.0000  0.0000 
  4617.000 -29.082  4.4230  3.7470  3.4700 -28.063  4.4230  3.7470  3.4700  0.0000  4617.0  0.0000  0.0000  0.0000  0.0000 
  4617.500 -27.645  4.1850  3.6750  3.4560 -26.617  4.1850  3.6750  3.4560  0.0000  4617.5  0.0000  0.0000  0.0000  0.0000 
  4618.000 -25.668  4.0270  3.6100  3.4200 -24.631  4.0270  3.6100  3.4200  0.0000  4618.0  0.0000  0.0000  0.0000  0.0000 
  4618.500 -21.606  3.9260  3.4880  3.3980 -20.560  3.9260  3.4880  3.3980  0.0000  4618.5  0.0000  0.0000  0.0000  0.0000 
  4619.000 -19.989  3.8760  3.4520  3.2900 -18.933  3.8760  3.4520  3.2900  0.0000  4619.0  0.0000  0.0000  0.0000  0.0000 
  4619.500 -21.105  3.8330  3.3440  3.1820 -20.040  3.8330  3.3440  3.1820  0.0000  4619.5  0.0000  0.0000  0.0000  0.0000 
  4620.000 -22.148  3.7900  3.2360  2.9520 -21.074  3.7900  3.2360  2.9520  0.0000  4620.0  0.0000  0.0000  0.0000  0.0000 
  4620.500 -23.514  3.7540  3.1500  2.7580 -22.431  3.7540  3.1500  2.7580  0.0000  4620.5  0.0000  0.0000  0.0000  0.0000 
  4621.000 -24.989  3.7250  3.2070  2.8300 -23.896  3.7250  3.2070  2.8300  0.0000  4621.0  0.0000  0.0000  0.0000  0.0000 
  4621.500 -26.032  3.7100  3.3010  2.9090 -24.930  3.7100  3.3010  2.9090  0.0000  4621.5  0.0000  0.0000  0.0000  0.0000 
  4622.000 -24.164  3.6600  3.3650  3.0600 -23.053  3.6600  3.3650  3.0600  0.0000  4622.0  0.0000  0.0000  0.0000  0.0000 
  4622.500 -21.899  3.5160  3.4010  3.1390 -20.779  3.5160  3.4010  3.1390  0.0000  4622.5  0.0000  0.0000  0.0000  0.0000 
  4623.000 -19.671  3.3790  3.2860  3.1820 -18.541  3.3790  3.2860  3.1820  0.0000  4623.0  0.0000  0.0000  0.0000  0.0000 
  4623.500 -18.270  3.2500  3.1920  3.1740 -17.131  3.2500  3.1920  3.1740  0.0000  4623.5  0.0000  0.0000  0.0000  0.0000 
  4624.000 -16.868  3.0630  3.0770  3.0880 -15.720  3.0630  3.0770  3.0880  0.0000  4624.0  0.0000  0.0000  0.0000  0.0000 
  4624.500 -15.826  2.9260  2.9840  2.9370 -14.669  2.9260  2.9840  2.9370  0.0000  4624.5  0.0000  0.0000  0.0000  0.0000 
  4625.000 -15.216  2.9550  2.9120  2.7720 -14.049  2.9550  2.9120  2.7720  0.0000  4625.0  0.0000  0.0000  0.0000  0.0000 
  4625.500 -15.181  3.1850  2.8690  2.5850 -14.005  3.1850  2.8690  2.5850  0.0000  4625.5  0.0000  0.0000  0.0000  0.0000 
  4626.000 -18.992  3.4800  2.8540  2.5130 -17.807  3.4800  2.8540  2.5130  0.0000  4626.0  0.0000  0.0000  0.0000  0.0000 
  4626.500 -24.421  3.8100  2.9120  2.6350 -23.227  3.8100  2.9120  2.6350  0.0000  4626.5  0.0000  0.0000  0.0000  0.0000 
  4627.000 -28.160  4.1770  3.0270  2.7640 -26.956  4.1770  3.0270  2.7640  0.0000  4627.0  0.0000  0.0000  0.0000  0.0000 
  4627.500 -32.691  4.4570  3.1700  2.8790 -31.478  4.4570  3.1700  2.8790  0.0000  4627.5  0.0000  0.0000  0.0000  0.0000 
  4628.000 -35.603  4.5510  3.2850  3.0370 -34.381  4.5510  3.2850  3.0370  0.0000  4628.0  0.0000  0.0000  0.0000  0.0000 
  4628.500 -37.222  4.6940  3.3930  3.1090 -35.991  4.6940  3.3930  3.1090  0.0000  4628.5  0.0000  0.0000  0.0000  0.0000 
  4629.000 -38.481  4.8310  3.5440  3.2020 -37.240  4.8310  3.5440  3.2020  0.0000  4629.0  0.0000  0.0000  0.0000  0.0000 
  4629.500 -38.409  4.8810  3.6010  3.2740 -37.159  4.8810  3.6010  3.2740  0.0000  4629.5  0.0000  0.0000  0.0000  0.0000 
  4630.000 -36.972  4.8670  3.6730  3.3530 -35.713  4.8670  3.6730  3.3530  0.0000  4630.0  0.0000  0.0000  0.0000  0.0000 
  4630.500 -31.005  4.6870  3.7020  3.4030 -29.736  4.6870  3.7020  3.4030  0.0000  4630.5  0.0000  0.0000  0.0000  0.0000 
  4631.000 -25.613  4.3490  3.7230  3.4250 -24.335  4.3490  3.7230  3.4250  0.0000  4631.0  0.0000  0.0000  0.0000  0.0000 
  4631.500 -22.846  3.9530  3.7310  3.3600 -21.559  3.9530  3.7310  3.3600  0.0000  4631.5  0.0000  0.0000  0.0000  0.0000 
  4632.000 -20.617  3.7090  3.7380  3.2950 -19.321  3.7090  3.7380  3.2950  0.0000  4632.0  0.0000  0.0000  0.0000  0.0000 
  4632.500 -17.886  3.5070  3.7230  3.2230 -16.580  3.5070  3.7230  3.2230  0.0000  4632.5  0.0000  0.0000  0.0000  0.0000 
  4633.000 -15.586  3.4070  3.6220  3.1590 -14.271  3.4070  3.6220  3.1590  0.0000  4633.0  0.0000  0.0000  0.0000  0.0000 
  4633.500 -13.753  3.2770  3.5220  3.1010 -12.429  3.2770  3.5220  3.1010  0.0000  4633.5  0.0000  0.0000  0.0000  0.0000 
  4634.000 -12.280  3.2200  3.3560  3.0720 -10.947  3.2200  3.3560  3.0720  0.0000  4634.0  0.0000  0.0000  0.0000  0.0000 
  4634.500 -11.417  3.1800  3.2920  3.0430 -10.074  3.1800  3.2920  3.0430  0.0000  4634.5  0.0000  0.0000  0.0000  0.0000 
  4635.000 -10.735  3.1410  3.1980  3.0290 -9.3831  3.1410  3.1980  3.0290  0.0000  4635.0  0.0000  0.0000  0.0000  0.0000 
  4635.500 -10.340  3.0830  3.1260  3.0360 -8.9789  3.0830  3.1260  3.0360  0.0000  4635.5  0.0000  0.0000  0.0000  0.0000 
  4636.000 -10.161  3.0830  3.0900  3.0580 -8.7906  3.0830  3.0900  3.0580  0.0000  4636.0  0.0000  0.0000  0.0000  0.0000 
  4636.500 -10.198  3.0830  3.0470  3.0860 -8.8184  3.0830  3.0470  3.0860  0.0000  4636.5  0.0000  0.0000  0.0000  0.0000 
  4637.000 -10.342  3.1010  3.0400  3.1010 -8.9531  3.1010  3.0400  3.1010  0.0000  4637.0  0.0000  0.0000  0.0000  0.0000 
  4637.500 -10.451  3.1190  3.0470  3.1190 -9.0529  3.1190  3.0470  3.1190  0.0000  4637.5  0.0000  0.0000  0.0000  0.0000 
  4638.000 -10.559  3.1940  3.0680  3.1370 -9.1516  3.1940  3.0680  3.1370  0.0000  4638.0  0.0000  0.0000  0.0000  0.0000 
  4638.500 -10.667  3.2690  3.1040  3.1720 -9.2503  3.2690  3.1040  3.1720  0.0000  4638.5  0.0000  0.0000  0.0000  0.0000 
  4639.000 -11.172  3.4200  3.1620  3.2080 -9.7461  3.4200  3.1620  3.2080  0.0000  4639.0  0.0000  0.0000  0.0000  0.0000 
  4639.500 -11.424  3.6570  3.2190  3.2730 -9.9888  3.6570  3.2190  3.2730  0.0000  4639.5  0.0000  0.0000  0.0000  0.0000 
