~Version Information
VERS.                     2.0: CWLS log ASCII Standard Version 2.00
WRAP.                      NO: One line per depth step
~Well Information Block
#MNEM.UNIT                               Data Type  Information
#---------                               ---------  -----------
STRT.FT                                   350.0000:
STOP.FT                                  6780.0000:
STEP.FT                                     0.5000:
NULL.                 -999.25                     :
COMP.                                             :COMPANY            
WELL.     CCMO 58-20 REDRILL                      :WELL               
FLD .                                             :FIELD              
CTRY.                                             :COUNTRY            
STAT.                                             :STATE              
LOC .                                             :LOCATION           
UWI .                                             :UNIQUE WELL ID     
SRVC.                                             :Service company    
DATE.                                             :LOG DATE           
~Curve Information
#MNEM.UNIT           API CODE  Curve Description
#---------           --------  -----------------
DEPT.FT                      :   1 DEPTH
SP  .MV                      :   2
AM16.OHMM                    :   3
AO10.OHMM                    :   4
AO19.OHMM                    :   5
SBL .MV                      :   6
RS  .OHMM                    :   7
RM  .OHMM                    :   8
RD  .OHMM                    :   9
DEVI.DEG                     :  10
TVD .FT                      :  11
AZIM.DEG                     :  12
NORT.FT                      :  13
EAST.FT                      :  14
OFFS.FT                      :  15
~A
# ...
  6752.500 -74.209  11.791  3.5090  3.7250 -70.209  11.791  3.5090  3.7250  11.250  6717.4  307.00  159.76 -228.98 -48.950 
  6753.000 -72.952  12.402  3.6250  3.8480 -68.952  12.402  3.6250  3.8480  11.250  6717.9  307.00  159.82 -229.06 -48.963 
  6753.500 -71.372  12.934  3.7690  3.9410 -67.372  12.934  3.7690  3.9410  11.250  6718.4  307.00  159.87 -229.14 -48.977 
  6754.000 -69.935  13.474  3.9200  3.9920 -65.935  13.474  3.9200  3.9920  11.250  6718.9  307.00  159.93 -229.22 -48.991 
  6754.500 -68.965  13.970  4.0930  4.0430 -64.965  13.970  4.0930  4.0430  11.250  6719.4  307.00  159.99 -229.29 -49.004 
  6755.000 -68.174  14.473  4.2800  4.1580 -64.174  14.473  4.2800  4.1580  11.250  6719.9  307.00  160.05 -229.37 -49.018 
  6755.500 -67.204  15.164  4.3590  4.2300 -63.204  15.164  4.3590  4.2300  11.250  6720.4  307.00  160.11 -229.45 -49.031 
  6756.000 -66.916  15.624  4.1660  4.2730 -62.916  15.624  4.1660  4.2730  11.250  6720.9  307.00  160.17 -229.53 -49.045 
  6756.500 -67.345  15.869  4.0080  4.2670 -63.345  15.869  4.0080  4.2670  11.250  6721.3  307.00  160.23 -229.61 -49.058 
  6757.000 -68.815  16.034  3.9790  4.1810 -64.815  16.034  3.9790  4.1810  11.250  6721.8  307.00  160.29 -229.68 -49.072 
  6757.500 -69.998  16.121  3.9580  4.1310 -65.998  16.121  3.9580  4.1310  11.250  6722.3  307.00  160.34 -229.76 -49.086 
  6758.000 -71.001  16.258  3.9660  4.0880 -67.001  16.258  3.9660  4.0880  11.250  6722.8  307.00  160.40 -229.84 -49.099 
  6758.500 -70.677  16.204  3.9700  4.0450 -66.677  16.204  3.9700  4.0450  11.250  6723.3  307.00  160.46 -229.92 -49.113 
  6759.000 -70.066  16.151  3.9730  4.0200 -66.066  16.151  3.9730  4.0200  11.250  6723.8  307.00  160.52 -230.00 -49.126 
  6759.500 -69.526  16.043  4.0020  3.9950 -65.526  16.043  4.0020  3.9950  11.250  6724.3  307.00  160.58 -230.07 -49.140 
  6760.000 -69.525  15.975  4.0100  3.9520 -65.525  15.975  4.0100  3.9520  11.250  6724.8  307.00  160.64 -230.15 -49.153 
  6760.500 -70.385  15.907  4.0170  3.9310 -66.385  15.907  4.0170  3.9310  11.250  6725.3  307.00  160.70 -230.23 -49.167 
  6761.000 -71.173  15.792  4.0110  3.9100 -67.173  15.792  4.0110  3.9100  11.250  6725.8  307.00  160.76 -230.31 -49.181 
  6761.500 -71.710  15.728  4.0040  3.8810 -67.710  15.728  4.0040  3.8810  11.250  6726.3  307.00  160.81 -230.39 -49.194 
  6762.000 -72.319  15.613  3.9970  3.8670 -68.319  15.613  3.9970  3.8670  11.250  6726.7  307.00  160.87 -230.46 -49.208 
  6762.500 -72.102  15.542  3.9790  3.8640 -68.102  15.542  3.9790  3.8640  11.250  6727.2  307.00  160.93 -230.54 -49.221 
  6763.000 -71.437  15.520  3.9610  3.8610 -67.437  15.520  3.9610  3.8610  11.250  6727.7  307.00  160.99 -230.62 -49.235 
  6763.500 -70.772  15.679  3.9400  3.8580 -66.772  15.679  3.9400  3.8580  11.250  6728.2  307.00  161.05 -230.70 -49.248 
  6764.000 -69.694  15.823  3.9120  3.8540 -65.694  15.823  3.9120  3.8540  11.250  6728.7  307.00  161.11 -230.77 -49.262 
  6764.500 -69.190  15.715  3.9340  3.8470 -65.190  15.715  3.9340  3.8470  11.250  6729.2  307.00  161.17 -230.85 -49.276 
  6765.000 -68.866  15.680  3.9630  3.8400 -64.866  15.680  3.9630  3.8400  11.250  6729.7  307.00  161.22 -230.93 -49.289 
  6765.500 -69.116  15.666  4.0200  3.8440 -65.116  15.666  4.0200  3.8440  11.250  6730.2  307.00  161.28 -231.01 -49.303 
  6766.000 -70.263  15.781  4.1290  3.8480 -66.263  15.781  4.1290  3.8480  11.250  6730.7  307.00  161.34 -231.09 -49.316 
  6766.500 -71.231  16.227  4.1610  3.8520 -67.231  16.227  4.1610  3.8520  11.250  6731.2  307.00  161.40 -231.16 -49.330 
  6767.000 -71.875  16.810  4.1940  3.8560 -67.875  16.810  4.1940  3.8560  11.250  6731.6  307.00  161.46 -231.24 -49.344 
  6767.500 -72.628  17.327  4.3310  3.8630 -68.628  17.327  4.3310  3.8630  11.250  6732.1  307.00  161.52 -231.32 -49.357 
  6768.000 -72.340  17.364  4.4100  3.8710 -68.340  17.364  4.4100  3.8710  11.250  6732.6  307.00  161.58 -231.40 -49.371 
  6768.500 -72.195  17.191  4.4820  3.8640 -68.195  17.191  4.4820  3.8640  11.250  6733.1  307.00  161.64 -231.48 -49.384 
  6769.000 -72.265  16.868  4.5620  3.8360 -68.265  16.868  4.5620  3.8360  11.250  6733.6  307.00  161.69 -231.55 -49.398 
  6769.500 -72.371  16.523  4.6120  3.8140 -68.371  16.523  4.6120  3.8140  11.250  6734.1  307.00  161.75 -231.63 -49.411 
  6770.000 -70.863  16.150  4.6340  3.7640 -66.863  16.150  4.6340  3.7640  11.250  6734.6  307.00  161.81 -231.71 -49.425 
  6770.500 -69.929  15.827  4.6340  3.7290 -65.929  15.827  4.6340  3.7290  11.250  6735.1  307.00  161.87 -231.79 -49.439 
  6771.000 -69.389  15.892  4.5480  3.6930 -65.389  15.892  4.5480  3.6930  11.250  6735.6  307.00  161.93 -231.87 -49.452 
  6771.500 -68.634  16.021  4.4270  3.6570 -64.634  16.021  4.4270  3.6570  11.250  6736.1  307.00  161.99 -231.94 -49.466 
  6772.000 -68.274  16.338  4.3480  3.5640 -64.274  16.338  4.3480  3.5640  11.250  6736.5  307.00  162.05 -232.02 -49.479 
  6772.500 -68.093  16.583  4.2470  3.4850 -64.093  16.583  4.2470  3.4850  11.250  6737.0  307.00  162.11 -232.10 -49.493 
  6773.000 -68.200  16.748  4.2120  3.4000 -64.200  16.748  4.2120  3.4000  11.250  6737.5  307.00  162.16 -232.18 -49.506 
  6773.500 -70.387  16.752  4.1830  3.3280 -66.387  16.752  4.1830  3.3280  11.250  6738.0  307.00  162.22 -232.25 -49.520 
  6774.000 -73.652  16.756  4.1550  3.2350 -69.652  16.756  4.1550  3.2350  11.250  6738.5  307.00  162.28 -232.33 -49.534 
  6774.500 -75.194  16.757  4.1050  3.2210 -71.194  16.757  4.1050  3.2210  11.250  6739.0  307.00  162.34 -232.41 -49.547 
  6775.000 -74.977  17.289  4.1050  3.2170 -70.977  17.289  4.1050  3.2170  11.250  6739.5  307.00  162.40 -232.49 -49.561 
  6775.500 -74.976  17.627  4.1060  3.2140 -70.976  17.627  4.1060  3.2140  11.250  6740.0  307.00  162.46 -232.57 -49.574 
  6776.000 -75.118  17.742  4.1130  3.2180 -71.118  17.742  4.1130  3.2180  11.250  6740.5  307.00  162.52 -232.64 -49.588 
  6776.500 -75.404  17.728  4.1200  3.2220 -71.404  17.728  4.1200  3.2220  11.250  6741.0  307.00  162.58 -232.72 -49.601 
  6777.000 -75.833  17.714  4.1320  3.2370 -71.833  17.714  4.1320  3.2370  11.250  6741.5  307.00  162.63 -232.80 -49.615 
  6777.500 -76.155  17.711  4.1430  3.2400 -72.155  17.711  4.1430  3.2400  11.250  6741.9  307.00  162.69 -232.88 -49.629 
  6778.000 -76.620  17.708  4.1500  3.2440 -72.620  17.708  4.1500  3.2440  11.250  6742.4  307.00  162.75 -232.96 -49.642 
  6778.500 -76.798  17.708  4.1540  3.2450 -72.798  17.708  4.1540  3.2450  11.250  6742.9  307.00  162.81 -233.03 -49.656 
  6779.000 -76.546  17.708  4.1580  3.2490 -72.546  17.708  4.1580  3.2490  11.250  6743.4  307.00  162.87 -233.11 -49.669 
  6779.500 -76.796  17.708  4.1620  3.2520 -72.796  17.708  4.1620  3.2520  11.250  6743.9  307.00  162.93 -233.19 -49.683 
  6780.000 -77.189  17.709  4.1660 -999.25 -73.189  17.709  4.1660 -999.25  11.250  6744.4  307.00  162.99 -233.27 -49.696 
