~V
VERS. 2.00: Ver 2.00
WRAP.   NO:        
~W
 STRT.FT 120:
 STOP.FT 3000:
 STEP.FT 0.5:
 NULL. -999.250000:
 COMP. TENNECO OIL COMPANY (E & P):Company
 WELL. 62X-30:Well
 FLD. LOS LOBOS:Field
 LOC. SEC 30 TWP 11N RGE 22W:Location
 STAT. CA:State
 SRVC. :Service Company
 SON. :Service Order #
 DATE. :Log Date
 UWI. :Unique Well ID
~C
 DEPT.FT :
 CALS.IN :
 GRC.GAPI :
 NPHC.PU-S :
 PHES. :
 PHIE. :
 PHIT. :
 PHTS. :
 PHZC. :
 RD.OHMM :
 ROBC.G/C3 :
 RS.OHMM :
 SBL.MV :
 VCLW. :
 VCWS. :
 VSHL. :
 VSHS. :
~P
~A
# ...
   1260.0000     10.4749     68.1407      0.3914      0.1748      0.2073      0.3449      0.3124      0.3009      3.2550      2.1511      3.0600     -9.2670      0.2645      0.2645      0.6613      0.8252
   1260.5000     10.6124     69.6725      0.3827      0.1679      0.1979      0.3417      0.3117      0.2997      3.2430      2.1509      3.0310     -9.0800      0.2765      0.2765      0.6913      0.8321
   1261.0000     10.7605     69.9357      0.3759      0.1378      0.1728      0.3437      0.3087      0.2945      3.2300      2.1384      2.9980     -8.2210      0.3288      0.3288      0.8219      0.8622
   1261.5000     10.8634     69.3345      0.3798      0.0000      0.0000      0.1957      0.1957      0.2898      3.2000      2.1178      2.9430     -7.4420      0.3763      0.3763      0.9406      1.2542
   1262.0000     10.9394     68.5312      0.3997      0.0000      0.0000      0.2241      0.2241      0.2843      3.1880      2.0947      2.9050     -6.5440      0.4309      0.4309      1.0772      1.4362
   1262.5000     10.9607     68.1962      0.4252      0.0000      0.0000      0.2398      0.2398      0.2813      3.1580      2.0858      2.8730     -5.9610      0.4611      0.4611      1.1527      1.5369
   1263.0000     10.9390     66.6322      0.4418      0.0000      0.0000      0.2529      0.2529      0.2787      3.1290      2.0906      2.8360     -5.3400      0.4864      0.4864      1.2160      1.6213
   1263.5000     10.9779     64.3102      0.4533      0.0000      0.0000      0.2645      0.2645      0.2765      3.1050      2.0927      2.8250     -4.7970      0.5086      0.5086      1.2715      1.6954
   1264.0000     11.0844     64.0808      0.4667      0.0000      0.0000      0.2768      0.2768      0.2741      3.0880      2.0836      2.7990     -4.2150      0.5324      0.5324      1.3310      1.7746
   1264.5000     11.1221     65.7789      0.4586      0.0000      0.0000      0.2876      0.2876      0.2721      3.0760      2.0697      2.7680     -3.7120      0.5530      0.5530      1.3825      1.8433
   1265.0000     11.1336     66.3400      0.4226      0.0000      0.0000      0.2950      0.2950      0.2706      3.0580      2.0602      2.7520     -3.3660      0.5673      0.5673      1.4183      1.8911
   1265.5000     11.2520     65.6296      0.4149      0.0000      0.0000      0.3016      0.2944      0.2693      3.0350      2.0609      2.7510     -3.0600      0.5801      0.5728      1.4502      1.9336
   1266.0000     11.4837     65.5460      0.4175      0.0000      0.0000      0.3058      0.2939      0.2685      3.0290      2.0714      2.7460     -2.8730      0.5880      0.5762      1.4701      1.9601
   1266.5000     11.6194     68.2422      0.4178      0.0000      0.0000      0.3099      0.2935      0.2677      3.0180      2.0793      2.7450     -2.6850      0.5961      0.5796      1.4901      1.9869
   1267.0000     11.6566     70.8230      0.4076      0.0000      0.0000      0.3141      0.2930      0.2669      3.0110      2.0886      2.7440     -2.4980      0.6040      0.5829      1.5101      2.0134
   1267.5000     11.5081     71.5186      0.3955      0.0000      0.0000      0.3150      0.2929      0.2668      3.0050      2.1045      2.7540     -2.4680      0.6057      0.5837      1.5143      2.0191
   1268.0000     11.2878     70.7137      0.4001      0.0000      0.0000      0.3191      0.2925      0.2660      2.9990      2.1337      2.7630     -2.2810      0.6137      0.5870      1.5342      2.0457
   1268.5000     11.0581     69.0931      0.4351      0.0000      0.0000      0.3225      0.2921      0.2653      2.9710      2.1582      2.7670     -2.1330      0.6201      0.5897      1.5503      2.0670
   1269.0000     10.8634     68.0914      0.4713      0.0000      0.0000      0.3291      0.2914      0.2640      2.9490      2.1684      2.7720     -1.8270      0.6328      0.5951      1.5821      2.1095
   1269.5000     10.9669     67.8701      0.4904      0.0000      0.0000      0.3382      0.2904      0.2623      2.9270      2.1561      2.7610     -1.4020      0.6503      0.6025      1.6258      2.1678
   1270.0000     11.2667     66.8945      0.4924      0.0000      0.0000      0.3481      0.2893      0.2604      2.9100      2.1432      2.6960     -0.9390      0.6694      0.6106      1.6734      2.2312
   1270.5000     11.4876     64.5329      0.4875      0.0000      0.0000      0.3539      0.2886      0.2592      2.8830      2.1314      2.6230     -0.6720      0.6805      0.6153      1.7013      2.2684
   1271.0000     11.6628     62.2726      0.4904      0.0000      0.0000      0.3597      0.2880      0.2581      2.8620      2.1077      2.5750     -0.4060      0.6917      0.6200      1.7292      2.3055
   1271.5000     11.7705     61.8947      0.4886      0.0000      0.0000      0.3640      0.2875      0.2573      2.8450      2.0662      2.5280     -0.0600      0.7000      0.6235      1.7500      2.3333
   1272.0000     11.8178     62.5356      0.4735      0.0000      0.0000      0.3640      0.2875      0.2573      2.8240      2.0120      2.4860      0.2060      0.7000      0.6235      1.7500      2.3333
   1272.5000     11.8197     62.9362      0.4657      0.0000      0.0000      0.3640      0.2875      0.2573      2.8030      1.9899      2.4360      0.2350      0.7000      0.6235      1.7500      2.3333
   1273.0000     11.8440     62.4645      0.4654      0.0000      0.0000      0.3640      0.2875      0.2573      2.7820      1.9926      2.3870      0.2260      0.7000      0.6235      1.7500      2.3333
   1273.5000     11.8669     62.0501      0.4785      0.0000      0.0000      0.3640      0.2875      0.2573      2.7610      2.0103      2.3700      0.2160      0.7000      0.6235      1.7500      2.3333
   1274.0000     11.8099     62.1710      0.4942      0.0000      0.0000      0.3640      0.2875      0.2573      2.7360      2.0278      2.3560      0.3250      0.7000      0.6235      1.7500      2.3333
   1274.5000     11.6664     61.9798      0.5090      0.0000      0.0000      0.3640      0.2875      0.2573      2.7100      2.0382      2.3690      0.4330      0.7000      0.6235      1.7500      2.3333
   1275.0000     11.5280     61.6651      0.5199      0.0000      0.0000      0.3640      0.2875      0.2573      2.7000      2.0389      2.4160      0.2250      0.7000      0.6235      1.7500      2.3333
   1275.5000     11.5072     61.5342      0.5282      0.0000      0.0000      0.3640      0.2875      0.2572      2.6940      2.0263      2.4150      0.0780      0.7000      0.6235      1.7500      2.3333
   1276.0000     11.5386     61.8790      0.5270      0.0000      0.0000      0.3640      0.2875      0.2572      2.6980      2.0077      2.3930     -0.0690      0.7000      0.6235      1.7500      2.3333
   1276.5000     11.6285     62.2756      0.5178      0.0000      0.0000      0.3594      0.2880      0.2581      2.7230      2.0026      2.3750     -0.5540      0.6912      0.6197      1.7279      2.3039
   1277.0000     11.8029     61.8880      0.5080      0.0000      0.0000      0.3488      0.2891      0.2602      2.7670      2.0332      2.3960     -1.0770      0.6707      0.6111      1.6769      2.2358
   1277.5000     11.9857     61.0693      0.4957      0.0000      0.0000      0.3415      0.2899      0.2616      2.8070      2.0735      2.4660     -1.4420      0.6566      0.6051      1.6416      2.1888
   1278.0000     12.0981     61.7450      0.4799      0.0000      0.0000      0.3333      0.2908      0.2631      2.8420      2.0981      2.5570     -1.8460      0.6410      0.5985      1.6024      2.1366
   1278.5000     12.0817     63.7315      0.4699      0.0000      0.0000      0.3292      0.2912      0.2639      2.8780      2.0778      2.6180     -2.0540      0.6331      0.5952      1.5829      2.1105
   1279.0000     11.9269     64.4627      0.4658      0.0000      0.0000      0.3359      0.2905      0.2626      2.9140      2.0344      2.6510     -1.7480      0.6459      0.6005      1.6147      2.1529
   1279.5000     11.7303     62.8716      0.4747      0.0000      0.0000      0.3433      0.2897      0.2612      2.9350      2.0112      2.6650     -1.4020      0.6602      0.6066      1.6505      2.2007
