~V
VERS. 2.00: Ver 2.00
WRAP.   NO:        
~W
 STRT.FT 120:
 STOP.FT 3000:
 STEP.FT 0.5:
 NULL. -999.250000:
 COMP. TENNECO OIL COMPANY (E & P):Company
 WELL. 62X-30:Well
 FLD. LOS LOBOS:Field
 LOC. SEC 30 TWP 11N RGE 22W:Location
 STAT. CA:State
 SRVC. :Service Company
 SON. :Service Order #
 DATE. :Log Date
 UWI. :Unique Well ID
~C
 DEPT.FT :
 CALS.IN :
 GRC.GAPI :
 NPHC.PU-S :
 PHES. :
 PHIE. :
 PHIT. :
 PHTS. :
 PHZC. :
 RD.OHMM :
 ROBC.G/C3 :
 RS.OHMM :
 SBL.MV :
 VCLW. :
 VCWS. :
 VSHL. :
 VSHS. :
~P
~A
# ...
   1420.0000     10.8698     52.8651      0.4788      0.0000      0.0000      0.3182      0.2910      0.2646      2.3160      1.9969      2.2700     -3.2921      0.6120      0.5848      1.5299      2.0399
   1420.5000     11.0456     51.8373      0.4838      0.0000      0.0000      0.3281      0.2900      0.2627      2.2950      1.9831      2.2740     -2.8095      0.6309      0.5928      1.5772      2.1029
   1421.0000     11.2572     50.8882      0.4918      0.0000      0.0000      0.3322      0.2895      0.2619      2.2700      1.9666      2.2370     -2.6029      0.6388      0.5961      1.5969      2.1292
   1421.5000     11.3662     50.4241      0.5027      0.0000      0.0000      0.3379      0.2889      0.2608      2.2660      1.9633      2.2170     -2.3174      0.6498      0.6008      1.6245      2.1660
   1422.0000     11.2975     50.5182      0.5107      0.0000      0.0000      0.3412      0.2885      0.2602      2.2580      1.9661      2.1770     -2.1498      0.6561      0.6034      1.6403      2.1871
   1422.5000     11.1969     51.5038      0.5112      0.0000      0.0000      0.3420      0.2884      0.2600      2.2620      1.9595      2.1540     -2.1002      0.6577      0.6041      1.6443      2.1924
   1423.0000     11.1132     52.1079      0.5073      0.0000      0.0000      0.3445      0.2881      0.2595      2.2700      1.9381      2.1300     -1.9716      0.6625      0.6061      1.6562      2.2083
   1423.5000     11.0764     51.5479      0.5063      0.0000      0.0000      0.3420      0.2884      0.2600      2.2790      1.9140      2.0920     -2.0810      0.6577      0.6041      1.6443      2.1924
   1424.0000     11.1223     51.5110      0.5094      0.0000      0.0000      0.3354      0.2891      0.2613      2.2620      1.8975      2.0690     -2.3874      0.6451      0.5987      1.6127      2.1503
   1424.5000     11.2005     52.3119      0.5103      0.0000      0.0000      0.3305      0.2896      0.2622      2.2580      1.9066      2.0620     -2.6148      0.6356      0.5947      1.5890      2.1187
   1425.0000     11.1769     52.5984      0.5059      0.0000      0.0000      0.3272      0.2900      0.2628      2.2500      1.9326      2.1500     -2.7632      0.6293      0.5921      1.5732      2.0976
   1425.5000     10.9834     51.0118      0.5027      0.0000      0.0000      0.3248      0.2903      0.2633      2.2590      1.9452      2.2380     -2.8716      0.6246      0.5900      1.5614      2.0819
   1426.0000     10.7955     48.9633      0.5046      0.0000      0.0000      0.3256      0.2902      0.2631      2.2670      1.9500      2.2630     -2.8220      0.6262      0.5907      1.5654      2.0872
   1426.5000     10.8305     48.3156      0.5107      0.0000      0.0000      0.3297      0.2897      0.2623      2.2670      1.9464      2.1980     -2.6154      0.6340      0.5941      1.5851      2.1135
   1427.0000     11.0406     49.2753      0.5125      0.0000      0.0000      0.3272      0.2900      0.2628      2.2550      1.9429      2.1470     -2.7238      0.6293      0.5920      1.5733      2.0977
   1427.5000     11.4268     50.4423      0.5091      0.0000      0.0000      0.3231      0.2904      0.2636      2.2510      1.9491      2.1470     -2.9122      0.6214      0.5887      1.5535      2.0713
   1428.0000     11.9814     50.8372      0.5103      0.0000      0.0000      0.3223      0.2905      0.2637      2.2390      1.9537      2.1860     -2.9417      0.6198      0.5880      1.5496      2.0661
   1428.5000     12.6545     52.4616      0.5128      0.0000      0.0000      0.3231      0.2904      0.2636      2.2270      1.9478      2.1980     -2.8931      0.6214      0.5887      1.5535      2.0713
   1429.0000     13.2185     55.0558      0.5049      0.0000      0.0000      0.3223      0.2905      0.2637      2.2180      1.9366      2.2060     -2.9225      0.6198      0.5880      1.5496      2.0661
   1429.5000     13.5521     55.9657      0.4942      0.0000      0.0000      0.3223      0.2905      0.2637      2.2070      1.9334      2.1750     -2.9129      0.6198      0.5880      1.5496      2.0661
   1430.0000     13.6768     54.8546      0.4925      0.0000      0.0000      0.3240      0.2903      0.2634      2.1870      1.9256      2.1200     -2.8243      0.6230      0.5893      1.5575      2.0767
   1430.5000     13.7835     53.6454      0.4998      0.0000      0.0000      0.3256      0.2901      0.2631      2.1710      1.9020      2.0670     -2.7367      0.6261      0.5907      1.5653      2.0871
   1431.0000     13.8710     53.6463      0.5043      0.0000      0.0000      0.3256      0.2901      0.2631      2.1320      1.8810      2.0180     -2.7261      0.6262      0.5907      1.5654      2.0872
   1431.5000     13.9416     54.5922      0.5032      0.0000      0.0000      0.3256      0.2901      0.2631      2.1090      1.8753      1.9820     -2.7165      0.6262      0.5907      1.5654      2.0872
   1432.0000     13.9548     54.5548      0.5014      0.0000      0.0000      0.3264      0.2900      0.2629      2.0820      1.8666      1.9500     -2.6679      0.6277      0.5913      1.5693      2.0924
   1432.5000     13.7388     53.5726      0.5061      0.0000      0.0000      0.3264      0.2900      0.2629      2.0560      1.8574      1.9570     -2.6583      0.6277      0.5913      1.5693      2.0924
   1433.0000     13.2757     52.3789      0.5173      0.0000      0.0000      0.3264      0.2900      0.2629      2.0480      1.8542      1.9930     -2.6487      0.6277      0.5913      1.5693      2.0924
   1433.5000     13.0176     52.1798      0.5226      0.0000      0.0000      0.3264      0.2900      0.2629      2.0490      1.8602      2.0190     -2.6401      0.6277      0.5913      1.5692      2.0923
   1434.0000     12.8473     52.1199      0.5219      0.0000      0.0000      0.3264      0.2900      0.2629      2.0560      1.8643      2.0260     -2.6305      0.6277      0.5913      1.5692      2.0923
   1434.5000     12.7699     52.6255      0.5210      0.0000      0.0000      0.3264      0.2900      0.2629      2.0490      1.8688      2.0260     -2.6199      0.6277      0.5913      1.5693      2.0924
   1435.0000     12.6965     53.0605      0.5282      0.0000      0.0000      0.3264      0.2900      0.2629      2.0490      1.8729      2.0270     -2.6104      0.6277      0.5913      1.5693      2.0924
   1435.5000     12.6453     53.4520      0.5472      0.0000      0.0000      0.3264      0.2900      0.2629      2.0560      1.8759      2.0190     -2.6008      0.6277      0.5913      1.5693      2.0924
   1436.0000     12.6617     54.5965      0.5562      0.0000      0.0000      0.3264      0.2900      0.2629      2.0560      1.8779      1.9610     -2.5912      0.6277      0.5913      1.5693      2.0924
   1436.5000     12.7193     55.3817      0.5432      0.0000      0.0000      0.3264      0.2900      0.2629      2.0570      1.8766      1.9510     -2.5816      0.6277      0.5913      1.5693      2.0924
   1437.0000     12.7373     54.6474      0.5124      0.0000      0.0000      0.3264      0.2900      0.2629      2.0600      1.8788      1.9900     -2.5720      0.6277      0.5913      1.5693      2.0924
   1437.5000     12.6424     52.5617      0.4932      0.0000      0.0000      0.3264      0.2900      0.2629      2.0600      1.8906      2.0120     -2.5624      0.6277      0.5913      1.5693      2.0924
   1438.0000     12.5232     51.2885      0.4766      0.0000      0.0000      0.3256      0.2900      0.2630      2.0610      1.8990      2.0270     -2.5918      0.6262      0.5906      1.5654      2.0872
   1438.5000     12.4890     52.7213      0.4726      0.0000      0.0000      0.3256      0.2900      0.2630      2.0610      1.9061      2.0380     -2.5822      0.6262      0.5906      1.5654      2.0872
   1439.0000     12.5882     54.1582      0.4685      0.0000      0.0000      0.3256      0.2900      0.2630      2.0680      1.9165      2.0530     -2.5736      0.6261      0.5906      1.5653      2.0871
   1439.5000     12.6816     54.2363      0.4808      0.0000      0.0000      0.3264      0.2899      0.2628      2.0680      1.9261      2.0720     -2.5250      0.6277      0.5912      1.5692      2.0923
