~V
VERS. 2.00: Ver 2.00
WRAP.   NO:        
~W
 STRT.FT 120:
 STOP.FT 3000:
 STEP.FT 0.5:
 NULL. -999.250000:
 COMP. TENNECO OIL COMPANY (E & P):Company
 WELL. 62X-30:Well
 FLD. LOS LOBOS:Field
 LOC. SEC 30 TWP 11N RGE 22W:Location
 STAT. CA:State
 SRVC. :Service Company
 SON. :Service Order #
 DATE. :Log Date
 UWI. :Unique Well ID
~C
 DEPT.FT :
 CALS.IN :
 GRC.GAPI :
 NPHC.PU-S :
 PHES. :
 PHIE. :
 PHIT. :
 PHTS. :
 PHZC. :
 RD.OHMM :
 ROBC.G/C3 :
 RS.OHMM :
 SBL.MV :
 VCLW. :
 VCWS. :
 VSHL. :
 VSHS. :
~P
~A
# ...
    840.0000      9.9700     88.3894      0.3628   -999.2500   -999.2500   -999.2500   -999.2500   -999.2500      5.3350      2.2463      4.7050     -4.3468   -999.2500   -999.2500   -999.2500   -999.2500
    840.5000     10.0920     87.1222      0.3795   -999.2500   -999.2500   -999.2500   -999.2500   -999.2500      5.5810      2.2439      4.5760     -4.1947   -999.2500   -999.2500   -999.2500   -999.2500
    841.0000     10.1790     86.7298      0.4028   -999.2500   -999.2500   -999.2500   -999.2500   -999.2500      5.9340      2.2379      4.7780     -5.0695   -999.2500   -999.2500   -999.2500   -999.2500
    841.5000     10.2540     86.0048      0.4094   -999.2500   -999.2500   -999.2500   -999.2500   -999.2500      6.2650      2.2285      5.3180     -6.3794   -999.2500   -999.2500   -999.2500   -999.2500
    842.0000     10.3210     84.1596      0.3871   -999.2500   -999.2500   -999.2500   -999.2500   -999.2500      6.6860      2.2207      5.9830     -7.7273   -999.2500   -999.2500   -999.2500   -999.2500
    842.5000     10.2340     80.5401      0.3731   -999.2500   -999.2500   -999.2500   -999.2500   -999.2500      7.5090      2.2119      6.4670     -8.6422   -999.2500   -999.2500   -999.2500   -999.2500
    843.0000     10.0690     76.7097      0.3750   -999.2500   -999.2500   -999.2500   -999.2500   -999.2500      8.5720      2.2173      6.6920     -9.0041   -999.2500   -999.2500   -999.2500   -999.2500
    843.5000      9.9940     71.7080      0.3872   -999.2500   -999.2500   -999.2500   -999.2500   -999.2500      9.5570      2.2415      6.8600     -8.9330   -999.2500   -999.2500   -999.2500   -999.2500
    844.0000     10.0250     64.5156      0.3798   -999.2500   -999.2500   -999.2500   -999.2500   -999.2500     10.0530      2.2731      7.2160     -8.6239   -999.2500   -999.2500   -999.2500   -999.2500
    844.5000     10.1000     59.1025      0.3109   -999.2500   -999.2500   -999.2500   -999.2500   -999.2500     10.5530      2.3363      7.8570     -8.3928   -999.2500   -999.2500   -999.2500   -999.2500
    845.0000     10.1990     55.7638      0.2339   -999.2500   -999.2500   -999.2500   -999.2500   -999.2500     10.9790      2.4096      8.8240     -8.3597   -999.2500   -999.2500   -999.2500   -999.2500
    845.5000     10.2580     57.1593      0.1282   -999.2500   -999.2500   -999.2500   -999.2500   -999.2500     11.2990      2.4925     11.8680     -8.4476   -999.2500   -999.2500   -999.2500   -999.2500
    846.0000     10.2940     59.3698      0.1131   -999.2500   -999.2500   -999.2500   -999.2500   -999.2500     11.8400      2.5126     17.7090     -8.5725   -999.2500   -999.2500   -999.2500   -999.2500
    846.5000     10.2580     61.5816      0.1027   -999.2500   -999.2500   -999.2500   -999.2500   -999.2500     12.3410      2.4975     22.5920     -8.7774   -999.2500   -999.2500   -999.2500   -999.2500
    847.0000     10.2430     64.6966      0.1144   -999.2500   -999.2500   -999.2500   -999.2500   -999.2500     12.9090      2.4594     24.9140     -8.9013   -999.2500   -999.2500   -999.2500   -999.2500
    847.5000     10.1910     67.8390      0.1562   -999.2500   -999.2500   -999.2500   -999.2500   -999.2500     12.7400      2.3568     25.5920     -9.0652   -999.2500   -999.2500   -999.2500   -999.2500
    848.0000     10.1160     69.1109      0.2114   -999.2500   -999.2500   -999.2500   -999.2500   -999.2500     11.8820      2.2869     25.9070     -9.0711   -999.2500   -999.2500   -999.2500   -999.2500
    848.5000     10.0340     66.3724      0.2602   -999.2500   -999.2500   -999.2500   -999.2500   -999.2500     11.1630      2.2154     24.4730     -9.1180   -999.2500   -999.2500   -999.2500   -999.2500
    849.0000     10.1170     63.0633      0.2883   -999.2500   -999.2500   -999.2500   -999.2500   -999.2500     10.5250      2.1665     22.4120     -9.0459   -999.2500   -999.2500   -999.2500   -999.2500
    849.5000     10.2430     60.0060      0.3019   -999.2500   -999.2500   -999.2500   -999.2500   -999.2500     10.4440      2.1459     21.4040     -9.0138   -999.2500   -999.2500   -999.2500   -999.2500
    850.0000     10.2860     58.7768      0.3101   -999.2500   -999.2500   -999.2500   -999.2500   -999.2500     10.7860      2.1446     20.3290     -8.8226   -999.2500   -999.2500   -999.2500   -999.2500
    850.5000     10.2900     60.6444      0.3137   -999.2500   -999.2500   -999.2500   -999.2500   -999.2500     11.2830      2.1446     19.7000     -8.5135   -999.2500   -999.2500   -999.2500   -999.2500
    851.0000     10.3060     70.8686      0.3062   -999.2500   -999.2500   -999.2500   -999.2500   -999.2500     11.6750      2.1893     19.1600     -7.9284   -999.2500   -999.2500   -999.2500   -999.2500
    851.5000     10.4160     85.6734      0.2789   -999.2500   -999.2500   -999.2500   -999.2500   -999.2500     11.4170      2.2428     20.1520     -6.8703   -999.2500   -999.2500   -999.2500   -999.2500
    852.0000     10.5460     93.7760      0.2214   -999.2500   -999.2500   -999.2500   -999.2500   -999.2500     10.3420      2.3097     22.3450     -5.8512   -999.2500   -999.2500   -999.2500   -999.2500
    852.5000     10.7390     95.8945      0.1742   -999.2500   -999.2500   -999.2500   -999.2500   -999.2500      9.0010      2.3390     22.0910     -5.0681   -999.2500   -999.2500   -999.2500   -999.2500
    853.0000     10.8410     96.7232      0.1578   -999.2500   -999.2500   -999.2500   -999.2500   -999.2500      7.7760      2.3545     15.2840     -3.9300   -999.2500   -999.2500   -999.2500   -999.2500
    853.5000     10.8650     95.6311      0.1739   -999.2500   -999.2500   -999.2500   -999.2500   -999.2500      6.9550      2.3382      8.6860     -2.7939   -999.2500   -999.2500   -999.2500   -999.2500
    854.0000     10.7580     90.9652      0.2272   -999.2500   -999.2500   -999.2500   -999.2500   -999.2500      6.1980      2.2764      5.0450     -2.0898   -999.2500   -999.2500   -999.2500   -999.2500
    854.5000     10.7380     81.9677      0.3150   -999.2500   -999.2500   -999.2500   -999.2500   -999.2500      5.3160      2.2119      3.5160     -1.6227   -999.2500   -999.2500   -999.2500   -999.2500
    855.0000     10.7690     75.8701      0.3936      0.0000      0.0000      0.3005      0.3001      0.2751      4.6860      2.1412      3.4510     -1.3136      0.5778      0.5774      1.4446      1.9261
    855.5000     10.7450     71.6206      0.4380      0.0000      0.0000      0.3015      0.3000      0.2749      4.2300      2.1064      3.4550     -1.2805      0.5797      0.5782      1.4494      1.9325
    856.0000     10.5320     67.3024      0.4603      0.0000      0.0000      0.3024      0.2998      0.2747      3.7970      2.1033      3.3000     -1.2494      0.5815      0.5790      1.4539      1.9385
    856.5000     10.4410     63.0230      0.4818      0.0000      0.0000      0.3023      0.2998      0.2747      3.4210      2.1011      2.9410     -1.2543      0.5813      0.5789      1.4532      1.9376
    857.0000     10.4250     56.3725      0.4978      0.0000      0.0000      0.3067      0.2993      0.2739      3.0930      2.0894      2.7330     -1.1042      0.5899      0.5825      1.4747      1.9663
    857.5000     10.4170     52.9001      0.5036      0.0000      0.0000      0.3112      0.2988      0.2730      2.8740      2.0366      2.5490     -0.9541      0.5985      0.5861      1.4963      1.9950
    858.0000     10.3890     51.5358      0.5084      0.0000      0.0000      0.3294      0.2968      0.2695      2.6860      2.0083      2.4340     -0.8410      0.6335      0.6009      1.5837      2.1117
    858.5000     10.3650     52.4467      0.5221      0.0000      0.0000      0.3309      0.2967      0.2692      2.5880      1.9867      2.3080     -0.7709      0.6363      0.6021      1.5908      2.1211
    859.0000     10.3250     54.6278      0.5471      0.0000      0.0000      0.3316      0.2966      0.2690      2.5630      1.9815      2.1960     -0.7357      0.6377      0.6027      1.5944      2.1258
    859.5000     10.2890     57.3441      0.5812      0.0000      0.0000      0.3347      0.2962      0.2684      2.5720      1.9862      2.1360     -0.5866      0.6437      0.6052      1.6093      2.1458
