~V
VERS. 2.00: Ver 2.00
WRAP.   NO:        
~W
 STRT.FT 120:
 STOP.FT 3000:
 STEP.FT 0.5:
 NULL. -999.250000:
 COMP. TENNECO OIL COMPANY (E & P):Company
 WELL. 62X-30:Well
 FLD. LOS LOBOS:Field
 LOC. SEC 30 TWP 11N RGE 22W:Location
 STAT. CA:State
 SRVC. :Service Company
 SON. :Service Order #
 DATE. :Log Date
 UWI. :Unique Well ID
~C
 DEPT.FT :
 CALS.IN :
 GRC.GAPI :
 NPHC.PU-S :
 PHES. :
 PHIE. :
 PHIT. :
 PHTS. :
 PHZC. :
 RD.OHMM :
 ROBC.G/C3 :
 RS.OHMM :
 SBL.MV :
 VCLW. :
 VCWS. :
 VSHL. :
 VSHS. :
~P
~A
# ...
   2840.0000      9.7707     84.5854      0.4008      0.3080      0.3185      0.4193      0.4463      0.4407      2.4660      1.8487      2.4660     -7.6346      0.2015      0.2304      0.6176      0.5761
   2840.5000      9.7086     82.6115      0.4038      0.3169      0.3363      0.4273      0.4488      0.4436      2.4250      1.8239      2.3600     -8.0423      0.1820      0.2200      0.5578      0.5499
   2841.0000      9.6699     80.3532      0.4151      0.3283      0.3560      0.4394      0.4522      0.4472      2.3810      1.8020      2.3040     -8.5691      0.1669      0.2064      0.5115      0.5161
   2841.5000      9.6917     79.5094      0.4271      0.3381      0.3638      0.4464      0.4550      0.4503      2.3450      1.8020      2.3070     -9.0178      0.1651      0.1949      0.5060      0.4873
   2842.0000      9.7076     80.0639      0.4361      0.3460      0.3686      0.4513      0.4573      0.4529      2.2940      1.8038      2.3320     -9.3876      0.1653      0.1855      0.5065      0.4637
   2842.5000      9.7117     80.9432      0.4290      0.3540      0.3710      0.4473      0.4596      0.4554      2.2390      1.8025      2.2720     -9.7563      0.1527      0.1761      0.4681      0.4402
   2843.0000      9.7281     81.1166      0.4232      0.3584      0.3721      0.4439      0.4609      0.4568      2.1980      1.8009      2.1700     -9.9661      0.1437      0.1708      0.4404      0.4270
   2843.5000      9.7433     82.1054      0.4266      0.3630      0.3742      0.4456      0.4622      0.4583      2.1530      1.8009      2.1140    -10.1798      0.1427      0.1654      0.4374      0.4136
   2844.0000      9.7583     84.7480      0.4348      0.3579      0.3715      0.4500      0.4608      0.4567      2.1140      1.8010      2.1060     -9.9586      0.1569      0.1714      0.4810      0.4285
   2844.5000      9.7626     88.5276      0.4349      0.3545      0.3669      0.4497      0.4598      0.4556      2.0630      1.8025      2.1320     -9.8133      0.1657      0.1754      0.5077      0.4385
   2845.0000      9.7517     92.9061      0.4271      0.3373      0.3509      0.4433      0.4548      0.4501      2.0100      1.8083      2.1310     -9.0410      0.1849      0.1957      0.5667      0.4893
   2845.5000      9.7491     96.3419      0.4231      0.3184      0.3335      0.4378      0.4493      0.4440      1.9700      1.8177      2.0730     -8.1878      0.2085      0.2182      0.6389      0.5454
   2846.0000      9.7481     99.6587      0.4274      0.2899      0.3120      0.4359      0.4410      0.4349      1.9480      1.8290      2.0050     -6.9035      0.2477      0.2518      0.6880      0.6296
   2846.5000      9.7471    102.9027      0.4552      0.2631      0.2983      0.4481      0.4332      0.4264      1.9220      1.8348      1.9290     -5.6963      0.2996      0.2835      0.7017      0.7087
   2847.0000      9.7462    104.4856      0.4729      0.2415      0.2828      0.4540      0.4269      0.4195      1.8970      1.8425      1.8630     -4.7250      0.3425      0.3090      0.7172      0.7585
   2847.5000      9.7351    103.7300      0.4753      0.2252      0.2727      0.4538      0.4222      0.4143      1.8890      1.8465      1.8280     -3.9908      0.3621      0.3283      0.7273      0.7748
   2848.0000      9.7222    101.0726      0.4616      0.2236      0.2727      0.4463      0.4217      0.4138      1.8820      1.8483      1.8650     -3.9265      0.3471      0.3301      0.7273      0.7764
   2848.5000      9.7167     96.5754      0.4443      0.2299      0.2809      0.4398      0.4235      0.4158      1.8780      1.8403      1.9190     -4.2173      0.3179      0.3227      0.7191      0.7701
   2849.0000      9.7152     91.4278      0.4440      0.2474      0.2941      0.4409      0.4286      0.4214      1.8730      1.8386      1.9430     -5.0210      0.2937      0.3020      0.7059      0.7526
   2849.5000      9.7166     87.1553      0.4499      0.2641      0.3057      0.4444      0.4335      0.4267      1.8720      1.8400      1.9490     -5.7848      0.2773      0.2823      0.6943      0.7057
   2850.0000      9.7227     85.1769      0.4467      0.2746      0.3133      0.4437      0.4365      0.4300      1.8720      1.8363      1.9200     -6.2705      0.2608      0.2699      0.6867      0.6746
   2850.5000      9.7240     84.6568      0.4387      0.2937      0.3282      0.4432      0.4421      0.4361      1.8710      1.8222      1.8500     -7.1473      0.2300      0.2472      0.6718      0.6181
   2851.0000      9.7232     84.4511      0.4448      0.3068      0.3398      0.4490      0.4459      0.4403      1.8620      1.8149      1.8620     -7.7460      0.2185      0.2318      0.6602      0.5796
   2851.5000      9.7198     84.5291      0.4537      0.3128      0.3455      0.4549      0.4476      0.4422      1.8580      1.8139      1.9130     -8.0308      0.2187      0.2246      0.6545      0.5616
   2852.0000      9.7057     85.8841      0.4590      0.3155      0.3456      0.4572      0.4484      0.4431      1.8560      1.8177      1.9710     -8.1585      0.2232      0.2215      0.6544      0.5538
   2852.5000      9.6896     87.6194      0.4625      0.3155      0.3405      0.4565      0.4484      0.4431      1.8580      1.8276      2.0140     -8.1673      0.2321      0.2215      0.6595      0.5537
   2853.0000      9.6945     87.6243      0.4666      0.3112      0.3348      0.4565      0.4471      0.4417      1.8670      1.8353      2.0230     -7.9790      0.2434      0.2266      0.6652      0.5664
   2853.5000      9.7062     86.6544      0.4701      0.3051      0.3298      0.4570      0.4454      0.4398      1.8730      1.8394      2.0110     -7.7110      0.2542      0.2337      0.6702      0.5844
   2854.0000      9.7113     85.5358      0.4742      0.3034      0.3305      0.4593      0.4449      0.4392      1.8790      1.8377      1.9590     -7.6409      0.2576      0.2358      0.6695      0.5894
   2854.5000      9.7120     83.9043      0.4736      0.3086      0.3427      0.4631      0.4464      0.4409      1.8870      1.8233      1.9120     -7.8859      0.2408      0.2296      0.6573      0.5740
   2855.0000      9.7113     81.1594      0.4633      0.3191      0.3539      0.4609      0.4494      0.4442      1.8970      1.8114      1.8790     -8.3698      0.2140      0.2172      0.6461      0.5431
   2855.5000      9.7103     76.9081      0.4486      0.3321      0.3608      0.4534      0.4532      0.4484      1.9130      1.8101      1.8780     -8.9688      0.1851      0.2019      0.5674      0.5047
   2856.0000      9.7100     74.0046      0.4398      0.3434      0.3670      0.4492      0.4565      0.4520      1.9080      1.8105      1.9680     -9.4907      0.1645      0.1885      0.5042      0.4713
   2856.5000      9.7064     75.0526      0.4380      0.3537      0.3760      0.4513      0.4595      0.4553      1.9060      1.8021      2.0470     -9.9707      0.1505      0.1763      0.4613      0.4407
   2857.0000      9.7050     74.8459      0.4427      0.3642      0.3828      0.4524      0.4625      0.4586      1.9020      1.7930      2.0530    -10.4526      0.1392      0.1640      0.4267      0.4099
   2857.5000      9.7100     74.1060      0.4524      0.3547      0.3807      0.4593      0.4598      0.4556      1.8760      1.7990      1.9820    -10.0296      0.1572      0.1752      0.4818      0.4379
   2858.0000      9.7177     74.6074      0.4587      0.3443      0.3670      0.4574      0.4567      0.4522      1.8850      1.8175      1.9100     -9.5645      0.1807      0.1874      0.5538      0.4686
   2858.5000      9.7305     77.2767      0.4576      0.3417      0.3580      0.4535      0.4560      0.4514      1.8910      1.8297      1.9500     -9.4545      0.1911      0.1905      0.5855      0.4762
   2859.0000      9.7371     79.6901      0.4521      0.3417      0.3560      0.4509      0.4560      0.4514      1.8830      1.8287      1.9810     -9.4634      0.1897      0.1905      0.5812      0.4762
   2859.5000      9.7380     81.0242      0.4501      0.3400      0.3594      0.4529      0.4555      0.4509      1.8750      1.8182      1.9950     -9.3954      0.1869      0.1924      0.5726      0.4811
