~V
VERS. 2.00: Ver 2.00
WRAP.   NO:        
~W
 STRT.FT 120:
 STOP.FT 3000:
 STEP.FT 0.5:
 NULL. -999.250000:
 COMP. TENNECO OIL COMPANY (E & P):Company
 WELL. 62X-30:Well
 FLD. LOS LOBOS:Field
 LOC. SEC 30 TWP 11N RGE 22W:Location
 STAT. CA:State
 SRVC. :Service Company
 SON. :Service Order #
 DATE. :Log Date
 UWI. :Unique Well ID
~C
 DEPT.FT :
 CALS.IN :
 GRC.GAPI :
 NPHC.PU-S :
 PHES. :
 PHIE. :
 PHIT. :
 PHTS. :
 PHZC. :
 RD.OHMM :
 ROBC.G/C3 :
 RS.OHMM :
 SBL.MV :
 VCLW. :
 VCWS. :
 VSHL. :
 VSHS. :
~P
~A
# ...
   1700.0000     10.3536     81.2766      0.4541      0.1882      0.2539      0.4424      0.4163      0.4072      3.8290      1.8770      4.1260     -5.0727      0.3770      0.3801      0.7461      0.8118
   1700.5000     10.3081     82.9384      0.5194      0.1831      0.2739      0.4909      0.4148      0.4055      3.6920      1.8478      4.1860     -4.8450      0.4341      0.3861      0.7261      0.8169
   1701.0000     10.2352     85.6389      0.5476      0.1860      0.2932      0.5170      0.4156      0.4064      3.5600      1.8201      4.0960     -4.9713      0.4477      0.3828      0.7068      0.8140
   1701.5000     10.1828     88.6578      0.5243      0.1914      0.3011      0.5062      0.4172      0.4082      3.4070      1.8043      3.7660     -5.2156      0.4102      0.3763      0.6989      0.8086
   1702.0000     10.1994     89.7839      0.4982      0.1969      0.2998      0.4864      0.4188      0.4099      3.2620      1.7951      3.0710     -5.4599      0.3732      0.3699      0.7002      0.8031
   1702.5000     10.2232     88.6022      0.4875      0.2006      0.2994      0.4767      0.4199      0.4111      3.1220      1.7893      2.7780     -5.6252      0.3545      0.3655      0.7006      0.7994
   1703.0000     10.2273     84.2069      0.4839      0.2043      0.3020      0.4737      0.4209      0.4123      2.9720      1.7911      2.6210     -5.7915      0.3435      0.3611      0.6980      0.7957
   1703.5000     10.2237     77.5369      0.4787      0.2106      0.3081      0.4720      0.4228      0.4143      2.9180      1.7971      2.5740     -6.0748      0.3278      0.3536      0.6919      0.7894
   1704.0000     10.2267     73.4627      0.4758      0.2178      0.3134      0.4710      0.4249      0.4166      2.8970      1.8015      2.6020     -6.3981      0.3153      0.3451      0.6866      0.7822
   1704.5000     10.2574     71.8557      0.4748      0.2242      0.3189      0.4718      0.4267      0.4186      2.8970      1.8006      2.7580     -6.6814      0.3059      0.3376      0.6811      0.7758
   1705.0000     10.2871     72.4327      0.4679      0.2296      0.3187      0.4677      0.4283      0.4204      2.9020      1.8040      2.8760     -6.9267      0.2980      0.3311      0.6813      0.7704
   1705.5000     10.2865     75.3103      0.4695      0.2377      0.3169      0.4666      0.4307      0.4229      2.9290      1.8138      3.0320     -7.2890      0.2994      0.3216      0.6831      0.7623
   1706.0000     10.2052     78.4498      0.4984      0.2458      0.3188      0.4820      0.4330      0.4255      2.9560      1.8184      3.1110     -7.6513      0.3263      0.3120      0.6812      0.7542
   1706.5000     10.1098     82.2499      0.5317      0.2495      0.3264      0.5045      0.4341      0.4267      2.9720      1.8088      2.9830     -7.8166      0.3562      0.3076      0.6736      0.7505
   1707.0000     10.0495     83.4530      0.5521      0.2488      0.3374      0.5211      0.4339      0.4265      2.9720      1.7894      2.9180     -7.7859      0.3674      0.3085      0.6626      0.7512
   1707.5000     10.0238     84.8991      0.5542      0.2499      0.3482      0.5256      0.4342      0.4268      2.9180      1.7648      2.9180     -7.8332      0.3549      0.3072      0.6518      0.7501
   1708.0000     10.0209     87.6734      0.5350      0.2509      0.3476      0.5119      0.4345      0.4271      2.8190      1.7509      2.8870     -7.8806      0.3286      0.3060      0.6524      0.7491
   1708.5000     10.0437     91.2841      0.5173      0.2511      0.3397      0.4969      0.4345      0.4272      2.7330      1.7506      2.7680     -7.8889      0.3143      0.3057      0.6603      0.7489
   1709.0000     10.0853     93.7799      0.5107      0.2486      0.3303      0.4895      0.4338      0.4264      2.6210      1.7593      2.6550     -7.7792      0.3183      0.3087      0.6697      0.7514
   1709.5000     10.1415     97.5080      0.5282      0.2417      0.3248      0.5008      0.4318      0.4242      2.5460      1.7661      2.5550     -7.4725      0.3520      0.3168      0.6752      0.7583
   1710.0000     10.1775     99.6322      0.5615      0.2305      0.3260      0.5271      0.4285      0.4206      2.4860      1.7696      2.5040     -6.9688      0.4021      0.3301      0.6740      0.7695
   1710.5000     10.1940    100.2157      0.5839      0.2136      0.3166      0.5422      0.4236      0.4152      2.4370      1.7790      2.4640     -6.2131      0.4512      0.3501      0.6834      0.7864
   1711.0000     10.2257     98.9795      0.5785      0.1975      0.3009      0.5353      0.4190      0.4101      2.4150      1.7923      2.4290     -5.4974      0.4688      0.3690      0.6991      0.8025
   1711.5000     10.2637     93.8079      0.5417      0.1824      0.2871      0.5085      0.4145      0.4053      2.4420      1.8028      2.4110     -4.8197      0.4429      0.3870      0.7129      0.8176
   1712.0000     10.2616     85.7225      0.5061      0.1690      0.2762      0.4839      0.4106      0.4010      2.4740      1.8129      2.4250     -4.2220      0.4155      0.4028      0.7238      0.8310
   1712.5000     10.2197     77.8460      0.4805      0.1626      0.2690      0.4661      0.4088      0.3990      2.6470      1.8270      2.6470     -3.9393      0.3943      0.4103      0.7310      0.8374
   1713.0000     10.1663     72.7798      0.4560      0.1581      0.2582      0.4479      0.4075      0.3975      2.8380      1.8459      2.9160     -3.7346      0.3794      0.4157      0.7418      0.8419
   1713.5000     10.1293     68.6420      0.4396      0.1587      0.2475      0.4333      0.4077      0.3977      3.0420      1.8689      3.2180     -3.7659      0.3717      0.4149      0.7525      0.8413
   1714.0000     10.1252     66.5598      0.4243      0.1709      0.2445      0.4210      0.4112      0.4016      3.2370      1.8851      3.4440     -4.3102      0.3530      0.4005      0.7555      0.8291
   1714.5000     10.1542     65.7672      0.4125      0.1892      0.2507      0.4145      0.4165      0.4074      3.5070      1.8905      3.7250     -5.1285      0.3276      0.3788      0.7493      0.8108
   1715.0000     10.1903     68.1792      0.4078      0.2163      0.2701      0.4172      0.4244      0.4161      3.6450      1.8767      3.9560     -6.3418      0.2941      0.3468      0.7299      0.7837
   1715.5000     10.2211     72.2284      0.4143      0.2338      0.2895      0.4279      0.4295      0.4216      3.7670      1.8534      4.0890     -7.1221      0.2769      0.3261      0.7105      0.7662
   1716.0000     10.2525     76.9804      0.4333      0.2327      0.3002      0.4443      0.4292      0.4213      3.7890      1.8323      4.0310     -7.0744      0.2882      0.3274      0.6998      0.7673
   1716.5000     10.2686     80.5800      0.4568      0.2299      0.3072      0.4606      0.4283      0.4204      3.7550      1.8200      3.8590     -6.9488      0.3069      0.3307      0.6928      0.7701
   1717.0000     10.2549     82.2874      0.4737      0.2288      0.3119      0.4716      0.4280      0.4201      3.7150      1.8141      3.7490     -6.9021      0.3195      0.3320      0.6881      0.7712
   1717.5000     10.2521     82.2055      0.4776      0.2287      0.3178      0.4772      0.4280      0.4200      3.6420      1.8058      3.7560     -6.8944      0.3187      0.3322      0.6822      0.7713
   1718.0000     10.2943     81.8804      0.4754      0.2294      0.3205      0.4765      0.4282      0.4202      3.5310      1.7962      3.6030     -6.9267      0.3120      0.3313      0.6795      0.7706
   1718.5000     10.3696     87.8772      0.4675      0.2265      0.3121      0.4694      0.4274      0.4193      3.4370      1.7920      3.4740     -6.8010      0.3147      0.3347      0.6879      0.7735
   1719.0000     10.4452     93.6816      0.4647      0.2220      0.3043      0.4684      0.4260      0.4179      3.3200      1.8011      3.3690     -6.5963      0.3282      0.3401      0.6957      0.7780
   1719.5000     10.4220     99.4906      0.4989      0.2059      0.2870      0.4830      0.4214      0.4127      3.2140      1.8191      3.2970     -5.8796      0.3920      0.3591      0.7130      0.7941
