~V
VERS. 2.00: Ver 2.00
WRAP.   NO:        
~W
 STRT.FT 120:
 STOP.FT 3000:
 STEP.FT 0.5:
 NULL. -999.250000:
 COMP. TENNECO OIL COMPANY (E & P):Company
 WELL. 62X-30:Well
 FLD. LOS LOBOS:Field
 LOC. SEC 30 TWP 11N RGE 22W:Location
 STAT. CA:State
 SRVC. :Service Company
 SON. :Service Order #
 DATE. :Log Date
 UWI. :Unique Well ID
~C
 DEPT.FT :
 CALS.IN :
 GRC.GAPI :
 NPHC.PU-S :
 PHES. :
 PHIE. :
 PHIT. :
 PHTS. :
 PHZC. :
 RD.OHMM :
 ROBC.G/C3 :
 RS.OHMM :
 SBL.MV :
 VCLW. :
 VCWS. :
 VSHL. :
 VSHS. :
~P
~A
# ...
    980.0000     12.2960     60.1220      0.5300      0.0000      0.0000      0.3029      0.2973      0.2722      2.5610      1.9243      2.4160     -1.7792      0.5824      0.5769      1.4561      1.9415
    980.5000     12.4890     63.1623      0.5290      0.0000      0.0000      0.3019      0.2974      0.2723      2.5600      1.9121      2.4060     -1.8221      0.5806      0.5761      1.4514      1.9352
    981.0000     12.5560     65.1134      0.5301      0.0000      0.0000      0.3018      0.2974      0.2723      2.5640      1.9125      2.4400     -1.8240      0.5803      0.5760      1.4508      1.9344
    981.5000     12.2060     63.7904      0.5377      0.0000      0.0000      0.3008      0.2975      0.2725      2.5490      1.9370      2.4400     -1.8649      0.5785      0.5752      1.4462      1.9283
    982.0000     11.7920     61.5090      0.5606      0.0000      0.0000      0.2999      0.2976      0.2727      2.5390      1.9429      2.4260     -1.9068      0.5766      0.5744      1.4416      1.9222
    982.5000     11.8870     60.8598      0.5639      0.0000      0.0000      0.2997      0.2976      0.2727      2.5150      1.9418      2.4070     -1.9087      0.5764      0.5743      1.4410      1.9213
    983.0000     12.1560     61.9526      0.5311      0.0000      0.0000      0.2988      0.2977      0.2729      2.4950      1.9218      2.3890     -1.9486      0.5746      0.5735      1.4366      1.9154
    983.5000     12.2230     62.5979      0.5256      0.0000      0.0000      0.2970      0.2970      0.2732      2.4950      1.9123      2.3840     -2.0305      0.5712      0.5712      1.4279      1.9039
    984.0000     12.2000     62.6589      0.5443      0.0000      0.0000      0.2969      0.2969      0.2732      2.4750      1.9171      2.3700     -2.0324      0.5709      0.5709      1.4273      1.9031
    984.5000     11.9830     60.8134      0.5552      0.0000      0.0000      0.2967      0.2967      0.2732      2.4610      1.9308      2.3640     -2.0353      0.5706      0.5706      1.4266      1.9021
    985.0000     11.9790     58.2376      0.5299      0.0000      0.0000      0.2966      0.2966      0.2733      2.4470      1.9340      2.3590     -2.0372      0.5704      0.5704      1.4260      1.9013
    985.5000     12.2360     57.0334      0.5124      0.0000      0.0000      0.2965      0.2965      0.2733      2.4280      1.9256      2.3290     -2.0371      0.5702      0.5702      1.4255      1.9007
    986.0000     12.7960     56.9981      0.5072      0.0000      0.0000      0.2964      0.2964      0.2733      2.4140      1.9022      2.2980     -2.0400      0.5699      0.5699      1.4248      1.8998
    986.5000     12.7290     56.8880      0.5225      0.0000      0.0000      0.2963      0.2963      0.2733      2.4130      1.8787      2.2730     -2.0409      0.5697      0.5697      1.4243      1.8991
    987.0000     12.6430     57.9551      0.5401      0.0000      0.0000      0.2978      0.2977      0.2730      2.4170      1.8733      2.2920     -1.9638      0.5726      0.5726      1.4316      1.9088
    987.5000     12.7700     59.8236      0.5511      0.0000      0.0000      0.2968      0.2968      0.2732      2.4120      1.8872      2.3290     -2.0057      0.5708      0.5708      1.4269      1.9026
    988.0000     13.0770     61.4090      0.5578      0.0000      0.0000      0.2958      0.2958      0.2733      2.3930      1.9003      2.3370     -2.0476      0.5689      0.5689      1.4223      1.8964
    988.5000     13.1530     62.0947      0.5644      0.0000      0.0000      0.2941      0.2941      0.2737      2.3660      1.9007      2.3190     -2.1275      0.5656      0.5656      1.4139      1.8852
    989.0000     13.2870     62.2421      0.5656      0.0000      0.0000      0.2931      0.2931      0.2738      2.3480      1.8287      2.3060     -2.1694      0.5637      0.5637      1.4093      1.8790
    989.5000     13.3820     60.9351      0.5513      0.0000      0.0000      0.2930      0.2930      0.2739      2.3390      1.7813      2.2970     -2.1703      0.5635      0.5635      1.4087      1.8783
    990.0000     13.1650     57.7703      0.5436      0.0000      0.0000      0.2920      0.2920      0.2740      2.3210      1.7852      2.2460     -2.2132      0.5616      0.5616      1.4040      1.8720
    990.5000     12.4800     55.2177      0.5378      0.0000      0.0000      0.2919      0.2919      0.2741      2.3120      1.7966      2.2250     -2.2141      0.5614      0.5614      1.4035      1.8713
    991.0000     12.6810     55.3402      0.5269      0.0000      0.0000      0.2926      0.2926      0.2739      2.2900      1.8554      2.2080     -2.1780      0.5627      0.5627      1.4067      1.8756
    991.5000     12.6030     56.0813      0.5192      0.0000      0.0000      0.2941      0.2941      0.2736      2.2890      1.9177      2.2190     -2.0989      0.5657      0.5657      1.4141      1.8855
    992.0000     12.0710     55.6901      0.5288      0.0000      0.0000      0.2948      0.2948      0.2735      2.2800      1.9379      2.2310     -2.0608      0.5670      0.5670      1.4175      1.8900
    992.5000     11.5350     55.6391      0.5506      0.0000      0.0000      0.2955      0.2955      0.2733      2.2790      1.9480      2.2380     -2.0247      0.5683      0.5683      1.4207      1.8943
    993.0000     11.4910     56.5803      0.5583      0.0000      0.0000      0.2954      0.2954      0.2733      2.2780      1.9477      2.2410     -2.0256      0.5681      0.5681      1.4202      1.8936
    993.5000     11.6770     58.0972      0.5551      0.0000      0.0000      0.2952      0.2952      0.2734      2.2770      1.9472      2.2450     -2.0286      0.5678      0.5678      1.4194      1.8926
    994.0000     11.7290     58.9732      0.5584      0.0000      0.0000      0.2959      0.2959      0.2732      2.2850      1.9458      2.2400     -1.9905      0.5691      0.5691      1.4228      1.8971
    994.5000     11.6110     58.4872      0.5825      0.0000      0.0000      0.2958      0.2958      0.2732      2.2840      1.9435      2.2350     -1.9934      0.5688      0.5688      1.4221      1.8961
    995.0000     11.3350     56.4893      0.5977      0.0000      0.0000      0.2965      0.2965      0.2731      2.2750      1.9418      2.2260     -1.9553      0.5702      0.5702      1.4255      1.9006
    995.5000     11.3270     55.2038      0.6043      0.0000      0.0000      0.2964      0.2964      0.2731      2.2700      1.9451      2.2130     -1.9572      0.5699      0.5699      1.4248      1.8998
    996.0000     11.3790     55.5029      0.5527      0.0000      0.0000      0.2979      0.2975      0.2728      2.2690      1.9586      2.2000     -1.8811      0.5728      0.5725      1.4320      1.9094
    996.5000     11.4270     57.9103      0.5308      0.0000      0.0000      0.2986      0.2974      0.2727      2.2680      1.9721      2.1830     -1.8420      0.5742      0.5731      1.4355      1.9140
    997.0000     11.5140     60.1109      0.5209      0.0000      0.0000      0.2976      0.2975      0.2728      2.2680      1.9808      2.1790     -1.8839      0.5723      0.5723      1.4309      1.9078
    997.5000     11.5970     60.6058      0.5166      0.0000      0.0000      0.2967      0.2967      0.2730      2.2630      1.9879      2.1780     -1.9238      0.5706      0.5706      1.4264      1.9019
    998.0000     11.6680     59.2530      0.5232      0.0000      0.0000      0.2941      0.2941      0.2735      2.2580      1.9883      2.1810     -2.0437      0.5656      0.5656      1.4140      1.8854
    998.5000     11.4910     57.5181      0.5352      0.0000      0.0000      0.2923      0.2923      0.2738      2.2530      1.9691      2.1920     -2.1246      0.5622      0.5622      1.4055      1.8740
    999.0000     11.3730     57.4370      0.5428      0.0000      0.0000      0.2873      0.2873      0.2748      2.2520      1.9569      2.2030     -2.3635      0.5525      0.5525      1.3812      1.8416
    999.5000     11.3420     59.3860      0.5384      0.0000      0.0000      0.2797      0.2797      0.2762      2.2390      1.9567      2.1900     -2.7214      0.5380      0.5380      1.3449      1.7933
