~V
VERS. 2.00: Ver 2.00
WRAP.   NO:        
~W
 STRT.FT 120:
 STOP.FT 3000:
 STEP.FT 0.5:
 NULL. -999.250000:
 COMP. TENNECO OIL COMPANY (E & P):Company
 WELL. 62X-30:Well
 FLD. LOS LOBOS:Field
 LOC. SEC 30 TWP 11N RGE 22W:Location
 STAT. CA:State
 SRVC. :Service Company
 SON. :Service Order #
 DATE. :Log Date
 UWI. :Unique Well ID
~C
 DEPT.FT :
 CALS.IN :
 GRC.GAPI :
 NPHC.PU-S :
 PHES. :
 PHIE. :
 PHIT. :
 PHTS. :
 PHZC. :
 RD.OHMM :
 ROBC.G/C3 :
 RS.OHMM :
 SBL.MV :
 VCLW. :
 VCWS. :
 VSHL. :
 VSHS. :
~P
~A
# ...
   1840.0000     10.4340    103.4091      0.3900      0.1388      0.1963      0.4011      0.4013      0.3908      3.1560      1.8931      3.4880     -2.9863      0.4095      0.4375      0.8037      0.8612
   1840.5000     10.4810    107.4886      0.4887      0.1513      0.2134      0.4570      0.4050      0.3948      3.0320      1.8852      3.1730     -3.5446      0.4872      0.4228      0.7866      0.8487
   1841.0000     10.5550    108.2588      0.4789      0.1664      0.2252      0.4531      0.4094      0.3996      2.8500      1.8741      2.8550     -4.2209      0.4558      0.4049      0.7748      0.8336
   1841.5000     10.4990    102.2000      0.4679      0.1895      0.2596      0.4559      0.4161      0.4070      2.7230      1.8408      2.7530     -5.2522      0.3925      0.3776      0.7404      0.8105
   1842.0000     10.4130     97.3779      0.4207      0.2090      0.2829      0.4393      0.4217      0.4132      2.5740      1.7989      2.6020     -6.1255      0.3127      0.3545      0.7171      0.7910
   1842.5000     10.3610     93.6376      0.3999      0.2294      0.2737      0.4160      0.4277      0.4197      2.4060      1.7788      2.4020     -7.0388      0.2845      0.3304      0.7263      0.7706
   1843.0000     10.4040     95.0657      0.4218      0.2375      0.2876      0.4270      0.4300      0.4223      2.2660      1.7725      2.2740     -7.4001      0.2787      0.3209      0.7124      0.7625
   1843.5000     10.4430     97.7060      0.4799      0.2385      0.3066      0.4630      0.4303      0.4226      2.1380      1.7661      2.1300     -7.4454      0.3127      0.3197      0.6934      0.7615
   1844.0000     10.4660     99.6027      0.4931      0.2386      0.3095      0.4684      0.4303      0.4227      2.0210      1.7514      2.0200     -7.4517      0.3180      0.3195      0.6905      0.7614
   1844.5000     10.4460     99.0079      0.5107      0.2388      0.3175      0.4794      0.4304      0.4227      1.9480      1.7381      1.9590     -7.4580      0.3239      0.3193      0.6825      0.7612
   1845.0000     10.4650     97.0496      0.5216      0.2380      0.3227      0.4863      0.4302      0.4225      1.8450      1.7316      1.8750     -7.4253      0.3271      0.3202      0.6773      0.7620
   1845.5000     10.5550     98.0178      0.5008      0.2364      0.3129      0.4698      0.4297      0.4219      1.7370      1.7289      1.8010     -7.3517      0.3139      0.3222      0.6871      0.7636
   1846.0000     10.6840     99.8169      0.4833      0.2330      0.3021      0.4617      0.4287      0.4209      1.7090      1.7578      1.7660     -7.2010      0.3193      0.3262      0.6979      0.7670
   1846.5000     10.8140    100.8301      0.4878      0.2199      0.2962      0.4656      0.4249      0.4167      1.7090      1.7636      1.7850     -6.6153      0.3386      0.3417      0.7038      0.7801
   1847.0000     10.8410    100.9928      0.4922      0.2068      0.2905      0.4692      0.4211      0.4125      1.7240      1.7687      1.8370     -6.0306      0.3573      0.3571      0.7095      0.7932
   1847.5000     10.8250    101.5559      0.4812      0.2052      0.2864      0.4620      0.4206      0.4120      1.7460      1.7670      1.8710     -5.9579      0.3511      0.3591      0.7136      0.7948
   1848.0000     10.8320    104.1280      0.4680      0.2167      0.2873      0.4490      0.4240      0.4157      1.7940      1.7439      1.9290     -6.4762      0.3233      0.3454      0.7127      0.7833
   1848.5000     10.8670    105.1152      0.4581      0.2248      0.2876      0.4400      0.4263      0.4182      1.8400      1.7326      1.9500     -6.8375      0.3047      0.3358      0.7124      0.7752
   1849.0000     10.9490    103.7750      0.4900      0.2302      0.3023      0.4624      0.4279      0.4200      1.9180      1.7315      1.9750     -7.0798      0.3202      0.3294      0.6977      0.7698
   1849.5000     10.9330    103.8033      0.5174      0.2242      0.3112      0.4857      0.4261      0.4180      1.9930      1.7396      2.0670     -6.8101      0.3490      0.3366      0.6888      0.7758
   1850.0000     10.8620    105.8681      0.5306      0.2075      0.3017      0.5011      0.4213      0.4127      2.1470      1.7689      2.2800     -6.0674      0.3989      0.3562      0.6983      0.7925
   1850.5000     10.9160    109.3129      0.5021      0.1999      0.2911      0.4829      0.4190      0.4103      2.3940      1.7725      2.4880     -5.7247      0.3835      0.3653      0.7089      0.8001
   1851.0000     11.0060    107.2051      0.4747      0.1860      0.2776      0.4678      0.4150      0.4059      2.5990      1.7847      2.6850     -5.1060      0.3803      0.3816      0.7224      0.8140
   1851.5000     11.1340    101.4446      0.3924      0.1739      0.2450      0.4197      0.4115      0.4020      2.8260      1.8168      2.8670     -4.5663      0.3494      0.3959      0.7550      0.8261
   1852.0000     11.0430     96.9658      0.3507      0.1707      0.2210      0.3945      0.4105      0.4009      3.0280      1.8294      3.1740     -4.4206      0.3471      0.3998      0.7790      0.8293
   1852.5000     10.9950     93.6957      0.3178      0.1718      0.1992      0.3701      0.4109      0.4013      3.2100      1.8654      3.8420     -4.4719      0.3418      0.3984      0.8008      0.8282
   1853.0000     11.1000     93.6144      0.3146      0.1774      0.1992      0.3673      0.4125      0.4031      3.3050      1.8743      4.2160     -4.7212      0.3361      0.3919      0.8008      0.8226
   1853.5000     11.2130     95.6073      0.3464      0.1856      0.2184      0.3836      0.4149      0.4057      3.3720      1.8734      3.7400     -5.0875      0.3304      0.3822      0.7816      0.8144
   1854.0000     11.2670     96.6324      0.4122      0.1955      0.2557      0.4254      0.4178      0.4089      3.3780      1.8457      3.2870     -5.5339      0.3393      0.3704      0.7443      0.8045
   1854.5000     11.0890     94.9417      0.4275      0.2020      0.2848      0.4447      0.4196      0.4109      3.3660      1.7951      3.2050     -5.8222      0.3198      0.3628      0.7152      0.7980
   1855.0000     10.9390     93.1593      0.4121      0.2066      0.2778      0.4309      0.4210      0.4124      3.3420      1.7826      3.3420     -6.0315      0.3062      0.3572      0.7222      0.7934
   1855.5000     11.0250     91.5122      0.4077      0.2104      0.2802      0.4304      0.4221      0.4136      3.2580      1.7881      3.3000     -6.2008      0.3003      0.3528      0.7198      0.7896
   1856.0000     11.1490     90.4072      0.4100      0.2222      0.2928      0.4364      0.4255      0.4174      3.1080      1.7988      3.1650     -6.7261      0.2872      0.3389      0.7072      0.7778
   1856.5000     11.2110     90.3719      0.4144      0.2321      0.2982      0.4377      0.4284      0.4205      2.9540      1.8041      2.9650     -7.1714      0.2790      0.3271      0.7018      0.7679
   1857.0000     10.9780     90.8734      0.4033      0.2395      0.2946      0.4304      0.4305      0.4229      2.7880      1.8059      2.8280     -7.4997      0.2716      0.3184      0.7054      0.7605
   1857.5000     10.8640     91.8625      0.3912      0.2468      0.2901      0.4230      0.4326      0.4252      2.6300      1.8052      2.6690     -7.8270      0.2659      0.3098      0.7099      0.7532
   1858.0000     10.8430     89.7484      0.3814      0.2532      0.2770      0.4056      0.4345      0.4273      2.4910      1.7787      2.5090     -8.1153      0.2572      0.3022      0.7230      0.7468
   1858.5000     10.8260     88.2651      0.3967      0.2605      0.2837      0.4079      0.4366      0.4296      2.3380      1.7637      2.3720     -8.4426      0.2485      0.2935      0.7163      0.7338
   1859.0000     10.8130     89.2674      0.4318      0.2617      0.2966      0.4209      0.4370      0.4300      2.2100      1.7290      2.2140     -8.4939      0.2487      0.2922      0.7034      0.7305
   1859.5000     10.8050     97.0806      0.4548      0.2549      0.3012      0.4336      0.4350      0.4278      2.1310      1.7091      2.1160     -8.1902      0.2648      0.3002      0.6988      0.7451
