~V
VERS. 2.00: Ver 2.00
WRAP.   NO:        
~W
 STRT.FT 120:
 STOP.FT 3000:
 STEP.FT 0.5:
 NULL. -999.250000:
 COMP. TENNECO OIL COMPANY (E & P):Company
 WELL. 62X-30:Well
 FLD. LOS LOBOS:Field
 LOC. SEC 30 TWP 11N RGE 22W:Location
 STAT. CA:State
 SRVC. :Service Company
 SON. :Service Order #
 DATE. :Log Date
 UWI. :Unique Well ID
~C
 DEPT.FT :
 CALS.IN :
 GRC.GAPI :
 NPHC.PU-S :
 PHES. :
 PHIE. :
 PHIT. :
 PHTS. :
 PHZC. :
 RD.OHMM :
 ROBC.G/C3 :
 RS.OHMM :
 SBL.MV :
 VCLW. :
 VCWS. :
 VSHL. :
 VSHS. :
~P
~A
# ...
   1560.0000     10.7304     49.2609      0.6660      0.4471      0.5546      0.6000      0.4922      0.4904      1.7620      1.5479      2.0050    -17.7040      0.0908      0.0751      0.4454      0.1878
   1560.5000     10.5302     52.3806      0.6294      0.4434      0.5682      0.6000      0.4911      0.4892      1.8080      1.5577      2.1450    -17.3143      0.0636      0.0794      0.4318      0.1986
   1561.0000     10.4858     54.0916      0.6040      0.4402      0.5752      0.5988      0.4901      0.4881      1.8240      1.5568      2.1850    -16.9646      0.0472      0.0833      0.4068      0.2083
   1561.5000     10.5501     55.8126      0.6014      0.4358      0.5769      0.5977      0.4889      0.4868      1.8380      1.5434      2.1380    -16.4960      0.0418      0.0884      0.3725      0.2211
   1562.0000     10.6450     58.8467      0.5969      0.4293      0.5738      0.5933      0.4870      0.4847      1.8490      1.5359      2.0770    -15.7913      0.0391      0.0961      0.3466      0.2402
   1562.5000     10.8611     62.2787      0.5828      0.4218      0.5545      0.5745      0.4848      0.4823      1.8590      1.5515      2.0180    -14.9686      0.0400      0.1050      0.3487      0.2624
   1563.0000     11.1265     65.3107      0.5658      0.4126      0.5245      0.5500      0.4821      0.4793      1.8760      1.5910      2.0440    -13.9489      0.0509      0.1159      0.4020      0.2898
   1563.5000     11.3979     68.5250      0.5578      0.4075      0.5036      0.5393      0.4806      0.4777      1.8900      1.6136      2.1200    -13.4032      0.0714      0.1219      0.4490      0.3047
   1564.0000     11.6359     71.5861      0.5647      0.4004      0.4974      0.5472      0.4786      0.4754      1.8980      1.6183      2.1840    -12.6195      0.0997      0.1303      0.4930      0.3258
   1564.5000     11.7964     74.1529      0.5915      0.3921      0.5048      0.5744      0.4762      0.4728      1.9050      1.6118      2.1330    -11.7188      0.1394      0.1400      0.4952      0.3501
   1565.0000     11.9154     76.8804      0.6162      0.3798      0.5048      0.5984      0.4726      0.4689      1.9050      1.6066      2.0380    -10.6201      0.1873      0.1546      0.4952      0.3865
   1565.5000     11.9670     79.6876      0.5978      0.3593      0.4753      0.5750      0.4666      0.4623      1.9060      1.6188      1.9980     -9.7184      0.1996      0.1789      0.5247      0.4472
   1566.0000     11.9457     81.6104      0.5563      0.3467      0.4309      0.5270      0.4629      0.4583      1.8920      1.6396      1.9880     -9.1717      0.1923      0.1938      0.5691      0.4845
   1566.5000     11.9647     81.6813      0.5415      0.3288      0.4081      0.5104      0.4577      0.4526      1.8860      1.6533      1.9730     -8.3890      0.2046      0.2149      0.5919      0.5373
   1567.0000     12.1620     81.9942      0.5382      0.3188      0.3963      0.5046      0.4548      0.4494      1.8690      1.6640      1.9670     -7.9603      0.2166      0.2267      0.6037      0.5668
   1567.5000     12.4085     82.6786      0.5284      0.3079      0.3828      0.4950      0.4517      0.4459      1.8490      1.6727      1.9780     -7.4916      0.2244      0.2395      0.6172      0.5989
   1568.0000     12.3830     83.1872      0.5164      0.2997      0.3691      0.4836      0.4493      0.4433      1.8320      1.6837      1.9670     -7.1419      0.2289      0.2492      0.6309      0.6231
   1568.5000     12.2078     83.9486      0.5244      0.2942      0.3658      0.4902      0.4477      0.4415      1.8160      1.7021      1.9360     -6.9092      0.2488      0.2558      0.6342      0.6396
   1569.0000     12.0546     87.1528      0.5641      0.2886      0.3695      0.5221      0.4460      0.4397      1.8070      1.7217      1.9080     -6.6775      0.3052      0.2624      0.6305      0.6560
   1569.5000     11.9684     91.4220      0.6056      0.2830      0.3721      0.5562      0.4444      0.4380      1.7910      1.7332      1.8770     -6.4458      0.3682      0.2690      0.6279      0.6724
   1570.0000     12.0224     94.4075      0.6140      0.2801      0.3677      0.5624      0.4436      0.4370      1.7810      1.7402      1.8640     -6.3322      0.3893      0.2724      0.6323      0.6811
   1570.5000     12.1996     96.5340      0.5815      0.2772      0.3541      0.5327      0.4427      0.4361      1.7680      1.7400      1.8640     -6.2175      0.3573      0.2759      0.6459      0.6898
   1571.0000     12.3796     97.2986      0.5485      0.2769      0.3466      0.5064      0.4426      0.4360      1.7580      1.7327      1.8390     -6.2228      0.3195      0.2762      0.6534      0.6905
   1571.5000     12.4736     93.9941      0.5427      0.2784      0.3504      0.5022      0.4431      0.4365      1.7380      1.7257      1.8360     -6.3051      0.3036      0.2745      0.6496      0.6862
   1572.0000     12.3970     89.8340      0.5487      0.2834      0.3593      0.5070      0.4445      0.4381      1.7120      1.7186      1.8020     -6.5454      0.2954      0.2686      0.6407      0.6714
   1572.5000     12.1967     85.7551      0.5580      0.2954      0.3729      0.5154      0.4480      0.4419      1.6960      1.7125      1.7820     -7.1007      0.2849      0.2543      0.6271      0.6358
   1573.0000     11.9822     83.9997      0.5684      0.3128      0.3866      0.5248      0.4530      0.4474      1.6800      1.7113      1.7680     -7.8930      0.2765      0.2338      0.6134      0.5845
   1573.5000     11.7492     81.9198      0.5884      0.3310      0.4014      0.5416      0.4583      0.4532      1.6590      1.7159      1.7490     -8.7243      0.2804      0.2123      0.5986      0.5307
   1574.0000     11.4250     80.5006      0.6137      0.3518      0.4200      0.5649      0.4644      0.4599      1.6370      1.7197      1.7450     -9.6726      0.2899      0.1876      0.5800      0.4691
   1574.5000     11.0881     79.7654      0.6315      0.3665      0.4369      0.5825      0.4687      0.4646      1.6220      1.7139      1.7450    -10.3469      0.2911      0.1702      0.5631      0.4256
   1575.0000     10.9203     79.6187      0.6136      0.3821      0.4489      0.5708      0.4732      0.4696      1.6010      1.6976      1.7470    -11.0592      0.2439      0.1518      0.5511      0.3796
   1575.5000     10.9208     79.1236      0.5854      0.3893      0.4553      0.5485      0.4753      0.4718      1.5830      1.6795      1.7530    -11.7725      0.1865      0.1434      0.5447      0.3584
   1576.0000     10.8829     76.5602      0.5668      0.3951      0.4641      0.5336      0.4770      0.4737      1.5680      1.6617      1.7560    -12.4458      0.1389      0.1364      0.5359      0.3411
   1576.5000     10.8182     73.7613      0.5508      0.3989      0.4656      0.5193      0.4781      0.4749      1.5620      1.6448      1.7490    -12.8831      0.1074      0.1320      0.4839      0.3300
   1577.0000     10.8790     70.8238      0.5466      0.4012      0.4706      0.5161      0.4788      0.4757      1.5560      1.6359      1.7490    -13.1634      0.0911      0.1292      0.4568      0.3230
   1577.5000     11.0127     69.1740      0.5559      0.4043      0.4824      0.5260      0.4796      0.4766      1.5530      1.6336      1.7510    -13.5217      0.0872      0.1256      0.4706      0.3140
   1578.0000     11.0535     68.8933      0.6031      0.4073      0.5152      0.5744      0.4805      0.4776      1.5520      1.6332      1.7510    -13.8800      0.1183      0.1220      0.4848      0.3049
   1578.5000     10.9640     70.1839      0.6559      0.4108      0.5171      0.6000      0.4815      0.4787      1.5630      1.6307      1.7500    -14.2783      0.1658      0.1179      0.4829      0.2948
   1579.0000     10.8378     70.6813      0.6878      0.4142      0.5031      0.6000      0.4825      0.4798      1.5660      1.6265      1.7500    -14.6757      0.1939      0.1139      0.4969      0.2848
   1579.5000     10.7197     68.6737      0.6393      0.4186      0.5338      0.6000      0.4838      0.4812      1.5650      1.6195      1.7490    -15.1920      0.1325      0.1086      0.4662      0.2716
