~V
VERS. 2.00: Ver 2.00
WRAP.   NO:        
~W
 STRT.FT 120:
 STOP.FT 3000:
 STEP.FT 0.5:
 NULL. -999.250000:
 COMP. TENNECO OIL COMPANY (E & P):Company
 WELL. 62X-30:Well
 FLD. LOS LOBOS:Field
 LOC. SEC 30 TWP 11N RGE 22W:Location
 STAT. CA:State
 SRVC. :Service Company
 SON. :Service Order #
 DATE. :Log Date
 UWI. :Unique Well ID
~C
 DEPT.FT :
 CALS.IN :
 GRC.GAPI :
 NPHC.PU-S :
 PHES. :
 PHIE. :
 PHIT. :
 PHTS. :
 PHZC. :
 RD.OHMM :
 ROBC.G/C3 :
 RS.OHMM :
 SBL.MV :
 VCLW. :
 VCWS. :
 VSHL. :
 VSHS. :
~P
~A
# ...
   2980.0000      9.7780    434.8392      0.4632      0.0000      0.0000      0.3744      0.1545      0.0819      2.0950      1.9480      2.2620      2.7890      0.7488      0.7964      1.0000      1.0000
   2980.5000      9.7540    434.4857      0.4621      0.0000      0.0000      0.3805      0.1545      0.0463      2.1260      1.9395      2.3000      3.6510      0.7611      0.8677      1.0000      1.0000
   2981.0000      9.7460    434.3680      0.4621      0.0000      0.0000      0.3730      0.1545      0.0563      2.1620      1.9246      2.3290      3.4090      0.7460      0.8477      1.0000      1.0000
   2981.5000      9.7610    434.5927      0.4621      0.0000      0.0000      0.3715      0.1545      0.0678      2.1980      1.9297      2.3000      3.1290      0.7430      0.8246      1.0000      1.0000
   2982.0000      9.8160    435.4078      0.4622      0.0000      0.0000      0.3731      0.1545      0.0827      2.2380      1.9466      2.2100      2.7690      0.7462      0.7948      1.0000      1.0000
   2982.5000      9.8240    435.5281      0.4622      0.0000      0.0000      0.3808      0.1545      0.0649      2.2430      1.9549      2.2670      3.1990      0.7616      0.8304      1.0000      1.0000
   2983.0000      9.7880    434.9969      0.4622      0.0000      0.0000      0.3754      0.1545      0.0554      2.2100      1.9315      2.3820      3.4290      0.7509      0.8494      1.0000      1.0000
   2983.5000      9.7640    434.6437      0.4632      0.0000      0.0000      0.3630      0.1545      0.0801      2.1740      1.9116      2.3430      2.8330      0.7260      0.8001      1.0000      1.0000
   2984.0000      9.7400    434.2888      0.4632      0.0000      0.0000      0.3533      0.1545      0.1079      2.1510      1.9048      2.1870      2.1590      0.7066      0.7443      1.0000      1.0000
   2984.5000      9.7200    433.9722      0.4643      0.0000      0.0000      0.3504      0.1420      0.1358      2.1430      1.9179      2.1280      1.4840      0.7008      0.3486      1.0000      1.0000
   2985.0000      9.6720    433.1559      0.4665      0.0000      0.0000      0.3614      0.1420      0.1068      2.1360      1.9241      2.1200      2.1870      0.7228      0.7467      1.0000      1.0000
   2985.5000      9.6080    432.1755      0.4676      0.0000      0.0000      0.3709      0.1420      0.0792      2.1210      1.9286      2.1320      2.8530      0.7418      0.8017      1.0000      1.0000
   2986.0000      9.5280    430.9596      0.4697      0.0000      0.0000      0.3807      0.1420      0.0533      2.1090      1.9330      2.1560      3.4790      0.7613      0.8535      1.0000      1.0000
   2986.5000      9.2340    426.4888      0.4718      0.0000      0.0000      0.3867      0.1420      0.0389      2.0980      1.9357      2.1960      3.8280      0.7735      0.8824      1.0000      1.0000
   2987.0000      8.9170    421.5802      0.4750      0.0000      0.0000      0.3842      0.1420      0.0440      2.0980      1.9273      2.2570      3.7040      0.7685      0.8721      1.0000      1.0000
   2987.5000      8.3620    412.5915      0.4880      0.0000      0.0000      0.3828      0.1420      0.0556      2.1060      1.9108      2.3030      3.4250      0.7656      0.8491      1.0000      1.0000
   2988.0000      8.1120    408.5231      0.4911      0.0000      0.0000      0.3696      0.1420      0.0835      2.1100      1.8893      2.2820      2.7490      0.7392      0.7931      1.0000      1.0000
   2988.5000      8.0520    407.5269      0.4933      0.0000      0.0000      0.3617      0.1420      0.1032      2.1140      1.8778      2.2410      2.2720      0.7234      0.7537      1.0000      1.0000
   2989.0000      8.0280    407.1067      0.4944      0.0000      0.0000      0.3559      0.1406      0.1344      2.1260      1.8844      2.2170      1.5190      0.7119      0.3480      1.0000      1.0000
   2989.5000      7.8880    404.9453      0.4965      0.0000      0.0000      0.3695      0.1406      0.1248      2.1260      1.9125      2.1930      1.7490      0.7390      0.7104      1.0000      1.0000
   2990.0000      6.5150   -999.2500      0.5048      0.0000      0.0000      0.3813      0.1406      0.1055      2.1260      2.0032      2.1850      2.2160      0.7625      0.7491      1.0000      1.0000
   2990.5000      5.3530   -999.2500      0.5219      0.0000      0.2470      0.2470      0.1406      0.0899      2.1210      2.2424      2.1680      2.5940      0.0000      0.7803      0.7530      1.0000
   2991.0000      4.8380   -999.2500      0.5293      0.0000      0.1390      0.1390      0.1406      0.0743      2.1120      2.4207      2.1710      2.9710      0.0000      0.8115      0.8610      1.0000
   2991.5000      4.6080   -999.2500      0.5292      0.0000      0.1080      0.1080      0.1406      0.0620      2.1070      2.4718      2.3000      3.2680      0.0000      0.8361      0.8920      1.0000
   2992.0000      4.6030   -999.2500      0.5303      0.0000      0.1090      0.1090      0.1406      0.1084      2.1060      2.4701      2.4180      2.1470      0.0000      0.7434      0.8910      1.0000
   2992.5000      4.6020   -999.2500      0.5303      0.0000      0.1090      0.1090      0.1686      0.1629      2.1080      2.4701      2.4840      0.8290      0.0000      0.3589      0.8910      1.0000
   2993.0000      4.7560   -999.2500   -999.2500      0.0000      0.1100      0.1100      0.2029      0.1979      2.1110      2.4685      2.5090     -0.0170      0.0000      0.3722      0.0000      1.0000
   2993.5000      5.0320   -999.2500   -999.2500      0.0000      0.1100      0.1100      0.2068      0.2018      2.1170      2.4685      2.5170     -0.1130      0.0000      0.3738      0.0000      1.0000
   2994.0000   -999.2500   -999.2500   -999.2500      0.0000      0.1090      0.1090      0.2076      0.2026      2.1160      2.4701      2.5200     -0.1330      0.0000      0.3741      0.0000      1.0000
   2994.5000   -999.2500   -999.2500   -999.2500      0.0000      0.7000      0.7000      0.2050      0.2000      2.1190   -999.2500      2.5190     -0.0690      0.0000      0.3731      0.0000      1.0000
   2995.0000   -999.2500   -999.2500   -999.2500      0.0000      0.7000      0.7000      0.1978      0.1927      2.1170   -999.2500      2.5270      0.1080      0.0000      0.3703      0.0000      1.0000
   2995.5000   -999.2500   -999.2500   -999.2500      0.0000      0.7000      0.7000      0.1938      0.1885      2.1160   -999.2500      2.5210      0.2080      0.0000      0.3687      0.0000      1.0000
   2996.0000   -999.2500   -999.2500   -999.2500      0.0000      0.7000      0.7000      0.1896      0.1843      2.1030   -999.2500      2.5240      0.3100      0.0000      0.3671      0.0000      1.0000
   2996.5000   -999.2500   -999.2500   -999.2500      0.0000      0.7000      0.7000      0.1903      0.1850      2.0980   -999.2500      2.5270      0.2930      0.0000      0.3673      0.0000      1.0000
   2997.0000   -999.2500   -999.2500   -999.2500      0.0000      0.7000      0.7000      0.1910      0.1858      2.0970   -999.2500      2.5300      0.2750      0.0000      0.3676      0.0000      1.0000
   2997.5000   -999.2500   -999.2500   -999.2500      0.0000      0.7000      0.7000      0.1950      0.1898      2.0920   -999.2500      2.5330      0.1780      0.0000      0.3691      0.0000      1.0000
   2998.0000   -999.2500   -999.2500   -999.2500      0.0000      0.7000      0.7000      0.1941      0.1889      2.0910   -999.2500      2.5320      0.1990      0.0000      0.3688      0.0000      1.0000
   2998.5000   -999.2500   -999.2500   -999.2500      0.0000      0.7000      0.7000      0.1932      0.1879      2.0900   -999.2500      2.5390      0.2220      0.0000      0.3684      0.0000      1.0000
   2999.0000   -999.2500   -999.2500   -999.2500      0.0000      0.7000      0.7000      0.1939      0.1886      2.0880   -999.2500      2.5470      0.2050      0.0000      0.3687      0.0000      1.0000
   2999.5000   -999.2500   -999.2500   -999.2500      0.0000      0.7000      0.7000      0.1946      0.1894      2.0870   -999.2500      2.5590      0.1870      0.0000      0.3690      0.0000      1.0000
