~V
VERS. 2.00: Ver 2.00
WRAP.   NO:        
~W
 STRT.FT 120:
 STOP.FT 3000:
 STEP.FT 0.5:
 NULL. -999.250000:
 COMP. TENNECO OIL COMPANY (E & P):Company
 WELL. 62X-30:Well
 FLD. LOS LOBOS:Field
 LOC. SEC 30 TWP 11N RGE 22W:Location
 STAT. CA:State
 SRVC. :Service Company
 SON. :Service Order #
 DATE. :Log Date
 UWI. :Unique Well ID
~C
 DEPT.FT :
 CALS.IN :
 GRC.GAPI :
 NPHC.PU-S :
 PHES. :
 PHIE. :
 PHIT. :
 PHTS. :
 PHZC. :
 RD.OHMM :
 ROBC.G/C3 :
 RS.OHMM :
 SBL.MV :
 VCLW. :
 VCWS. :
 VSHL. :
 VSHS. :
~P
~A
# ...
   2560.0000      9.7623     93.2513      0.5380      0.3822      0.4188      0.5231      0.4690      0.4656      3.8230      1.7604      3.3110     -6.4956      0.2085      0.1447      0.5812      0.3618
   2560.5000      9.8371     96.7439      0.5147      0.3599      0.3890      0.5032      0.4625      0.4584      3.8160      1.7783      3.1240     -5.1631      0.2285      0.1711      0.6110      0.4278
   2561.0000     10.0638    101.7517      0.4485      0.3432      0.3580      0.4604      0.4577      0.4531      3.8020      1.7932      2.9370     -4.3817      0.2047      0.1908      0.6272      0.4771
   2561.5000     10.3213    105.1859      0.4069      0.3247      0.3296      0.4322      0.4523      0.4472      3.7810      1.7899      2.8170     -3.5212      0.2054      0.2126      0.6294      0.5316
   2562.0000     10.3856    106.2191      0.4136      0.3089      0.3208      0.4316      0.4477      0.4422      3.7740      1.7784      2.8070     -2.7778      0.2216      0.2314      0.6790      0.5784
   2562.5000     10.3204    106.5142      0.4352      0.2975      0.3266      0.4438      0.4444      0.4385      3.7610      1.7713      2.8320     -2.2313      0.2345      0.2449      0.6734      0.6122
   2563.0000     10.1374    104.3044      0.4497      0.2966      0.3336      0.4543      0.4441      0.4382      3.7400      1.7677      2.8840     -2.1568      0.2414      0.2459      0.6664      0.6148
   2563.5000      9.9633    100.5382      0.4522      0.3027      0.3402      0.4556      0.4459      0.4402      3.6860      1.7632      2.9100     -2.3964      0.2307      0.2386      0.6598      0.5966
   2564.0000      9.8708     96.9736      0.4438      0.3124      0.3435      0.4485      0.4487      0.4433      3.6070      1.7605      2.8010     -2.7929      0.2101      0.2272      0.6437      0.5680
   2564.5000      9.8506     95.0845      0.4383      0.3194      0.3443      0.4432      0.4508      0.4455      3.5420      1.7611      2.6870     -3.0725      0.1977      0.2189      0.6059      0.5472
   2565.0000      9.8345     99.2537      0.4392      0.3256      0.3445      0.4434      0.4526      0.4475      3.5160      1.7619      2.5910     -3.3120      0.1978      0.2116      0.6063      0.5290
   2565.5000      9.8234    105.8476      0.4433      0.3397      0.3483      0.4458      0.4566      0.4520      3.5030      1.7598      2.5670     -3.9055      0.1949      0.1950      0.5973      0.4875
   2566.0000      9.8132    108.8702      0.4415      0.3528      0.3535      0.4452      0.4605      0.4562      3.5160      1.7548      2.6770     -4.4591      0.1835      0.1794      0.5623      0.4485
   2566.5000      9.7937    107.8407      0.4324      0.3590      0.3498      0.4379      0.4623      0.4581      3.5550      1.7504      2.7360     -4.6986      0.1761      0.1721      0.5398      0.4303
   2567.0000      9.7837    103.2861      0.4232      0.3396      0.3345      0.4290      0.4566      0.4520      3.5870      1.7490      2.6870     -3.7991      0.1890      0.1950      0.5791      0.4875
   2567.5000      9.8091     99.5754      0.4180      0.3291      0.3285      0.4257      0.4536      0.4486      3.6070      1.7530      2.6340     -3.2917      0.1943      0.2075      0.5953      0.5186
   2568.0000      9.8660     99.7973      0.4175      0.3194      0.3251      0.4269      0.4507      0.4455      3.6200      1.7593      2.6140     -2.8242      0.2036      0.2189      0.6240      0.5472
   2568.5000      9.9268    102.0119      0.4208      0.3115      0.3237      0.4307      0.4484      0.4430      3.6200      1.7647      2.5960     -2.4348      0.2138      0.2282      0.6552      0.5706
   2569.0000      9.9681    104.3304      0.4242      0.3036      0.3249      0.4370      0.4461      0.4404      3.6200      1.7770      2.6190     -2.0453      0.2242      0.2376      0.6751      0.5940
   2569.5000      9.9802    105.5047      0.4246      0.3001      0.3271      0.4437      0.4451      0.4393      3.6000      1.7943      2.6580     -1.8528      0.2332      0.2418      0.6729      0.6044
   2570.0000      9.9818    103.5338      0.4175      0.2965      0.3241      0.4410      0.4441      0.4382      3.5740      1.8052      2.7810     -1.6604      0.2337      0.2459      0.6759      0.6148
   2570.5000      9.9697     99.1911      0.4040      0.3019      0.3232      0.4329      0.4456      0.4399      3.5280      1.8086      2.8730     -1.8649      0.2193      0.2396      0.6720      0.5989
   2571.0000      9.9648     95.6558      0.3924      0.3081      0.3227      0.4273      0.4475      0.4419      3.4770      1.7963      3.0280     -2.1085      0.2090      0.2322      0.6405      0.5805
   2571.5000      9.9719     96.7151      0.3902      0.3047      0.3116      0.4184      0.4465      0.4408      3.4200      1.7807      3.0440     -1.9190      0.2136      0.2363      0.6545      0.5906
   2572.0000      9.9811    100.9288      0.4019      0.2951      0.3083      0.4222      0.4437      0.4377      3.4130      1.7732      2.9350     -1.4956      0.2278      0.2476      0.6917      0.6189
   2572.5000      9.9868    104.3967      0.4248      0.2917      0.3188      0.4365      0.4427      0.4366      3.4750      1.7726      2.7380     -1.3473      0.2354      0.2516      0.6812      0.6291
   2573.0000      9.9922    108.0546      0.4426      0.2909      0.3259      0.4535      0.4424      0.4364      3.5960      1.7882      2.8710     -1.3169      0.2551      0.2525      0.6741      0.6314
   2573.5000      9.9905    110.5678      0.4480      0.2892      0.3235      0.4596      0.4419      0.4358      3.7770      1.8079      3.3010     -1.2465      0.2723      0.2545      0.6765      0.6363
   2574.0000      9.9872    111.0052      0.4440      0.2902      0.3189      0.4561      0.4422      0.4361      3.9370      1.8202      3.8030     -1.2941      0.2744      0.2534      0.6811      0.6335
   2574.5000      9.9942    109.3456      0.4326      0.2850      0.3107      0.4475      0.4407      0.4345      4.1420      1.8304      4.1420     -1.0668      0.2735      0.2595      0.6893      0.6488
   2575.0000      9.9961    106.4474      0.4036      0.2745      0.2987      0.4292      0.4377      0.4311      4.2950      1.8355      4.3180     -0.6044      0.2611      0.2719      0.7013      0.6797
   2575.5000      9.9861    103.8562      0.3702      0.2685      0.2823      0.4105      0.4359      0.4292      4.3730      1.8357      4.4690     -0.3380      0.2565      0.2790      0.7177      0.6976
   2576.0000      9.9695    104.6581      0.3572      0.2677      0.2756      0.4047      0.4357      0.4289      4.4440      1.8299      4.5670     -0.3067      0.2582      0.2800      0.7244      0.7000
   2576.5000      9.9478    108.3580      0.3563      0.2678      0.2746      0.4060      0.4357      0.4290      4.4590      1.8223      4.5660     -0.3153      0.2628      0.2799      0.7254      0.6997
   2577.0000      9.9268    110.9995      0.3732      0.2705      0.2827      0.4144      0.4365      0.4298      4.4180      1.8242      4.1460     -0.4419      0.2635      0.2767      0.7173      0.6917
   2577.5000      9.9162    112.4675      0.3956      0.2732      0.2915      0.4235      0.4373      0.4307      4.2910      1.8349      3.7710     -0.5686      0.2639      0.2734      0.7085      0.6836
   2578.0000      9.9173    111.9565      0.4104      0.2759      0.2924      0.4293      0.4381      0.4316      4.1070      1.8409      3.4810     -0.6952      0.2739      0.2702      0.7076      0.6755
   2578.5000      9.9438    109.4162      0.4242      0.2778      0.2991      0.4375      0.4386      0.4322      3.9310      1.8363      3.2120     -0.7828      0.2768      0.2680      0.7009      0.6700
   2579.0000      9.9962    106.7210      0.4363      0.2765      0.3062      0.4464      0.4382      0.4318      3.8030      1.8299      3.2830     -0.7314      0.2805      0.2695      0.6938      0.6737
   2579.5000     10.0628    105.7183      0.4425      0.2753      0.3073      0.4501      0.4379      0.4314      3.7270      1.8320      3.5040     -0.6811      0.2858      0.2709      0.6927      0.6774
