~V
VERS. 2.00: Ver 2.00
WRAP.   NO:        
~W
 STRT.FT 120:
 STOP.FT 3000:
 STEP.FT 0.5:
 NULL. -999.250000:
 COMP. TENNECO OIL COMPANY (E & P):Company
 WELL. 62X-30:Well
 FLD. LOS LOBOS:Field
 LOC. SEC 30 TWP 11N RGE 22W:Location
 STAT. CA:State
 SRVC. :Service Company
 SON. :Service Order #
 DATE. :Log Date
 UWI. :Unique Well ID
~C
 DEPT.FT :
 CALS.IN :
 GRC.GAPI :
 NPHC.PU-S :
 PHES. :
 PHIE. :
 PHIT. :
 PHTS. :
 PHZC. :
 RD.OHMM :
 ROBC.G/C3 :
 RS.OHMM :
 SBL.MV :
 VCLW. :
 VCWS. :
 VSHL. :
 VSHS. :
~P
~A
# ...
   1980.0000     10.5964     97.2503      0.4464      0.1847      0.2725      0.4461      0.4141      0.4049      3.0540      1.7820      2.3640     -5.1609      0.3471      0.3823      0.7275      0.8153
   1980.5000     10.5468     90.2137      0.4242      0.1944      0.2793      0.4376      0.4169      0.4080      3.2910      1.7907      2.5330     -5.5952      0.3164      0.3708      0.7207      0.8056
   1981.0000     10.4946     84.2879      0.3949      0.2015      0.2761      0.4258      0.4190      0.4103      3.4760      1.7953      3.1680     -5.9115      0.2995      0.3624      0.7239      0.7985
   1981.5000     10.5486     85.8937      0.3678      0.2006      0.2609      0.4122      0.4187      0.4100      3.6580      1.7978      3.4570     -5.8718      0.3024      0.3635      0.7391      0.7994
   1982.0000     10.6145     91.4299      0.3522      0.1909      0.2442      0.4038      0.4159      0.4069      3.8980      1.8010      3.3770     -5.4381      0.3191      0.3750      0.7558      0.8091
   1982.5000     10.5116     95.3413      0.3480      0.1865      0.2341      0.3983      0.4146      0.4055      4.0210      1.8120      3.2860     -5.2414      0.3284      0.3802      0.7659      0.8135
   1983.0000     10.3985     99.3531      0.3548      0.1829      0.2291      0.3976      0.4135      0.4043      3.8640      1.8284      3.1750     -5.0838      0.3370      0.3844      0.7709      0.8171
   1983.5000     10.3341    103.8825      0.3697      0.1785      0.2284      0.4019      0.4123      0.4029      3.5410      1.8401      2.9580     -4.8871      0.3470      0.3896      0.7716      0.8215
   1984.0000     10.2956    110.9751      0.3887      0.1741      0.2314      0.4116      0.4110      0.4015      3.2280      1.8392      2.7210     -4.6904      0.3603      0.3948      0.7686      0.8259
   1984.5000     10.2853    118.0106      0.4002      0.1803      0.2400      0.4214      0.4128      0.4035      2.9530      1.8226      2.5540     -4.9667      0.3629      0.3875      0.7600      0.8197
   1985.0000     10.3115    119.8824      0.4064      0.1935      0.2521      0.4281      0.4166      0.4077      2.6530      1.8072      2.2650     -5.5590      0.3520      0.3718      0.7479      0.8065
   1985.5000     10.4145    118.1212      0.4209      0.2023      0.2611      0.4316      0.4192      0.4105      2.4410      1.7867      2.1730     -5.9533      0.3409      0.3614      0.7389      0.7977
   1986.0000     10.5189    115.5845      0.4606      0.2129      0.2762      0.4475      0.4223      0.4139      2.2410      1.7606      2.0730     -6.4266      0.3425      0.3489      0.7238      0.7871
   1986.5000     10.5712    115.9058      0.4795      0.2191      0.2853      0.4569      0.4240      0.4158      2.0840      1.7443      2.0130     -6.7029      0.3432      0.3416      0.7147      0.7809
   1987.0000     10.4772    119.5083      0.4894      0.2200      0.2872      0.4628      0.4243      0.4161      1.9810      1.7377      1.9660     -6.7432      0.3510      0.3405      0.7128      0.7800
   1987.5000     10.3713    123.5291      0.4955      0.2111      0.2821      0.4673      0.4217      0.4133      1.8860      1.7404      1.9350     -6.3485      0.3704      0.3510      0.7179      0.7889
   1988.0000     10.3194    126.3671      0.4980      0.2014      0.2756      0.4703      0.4189      0.4102      1.8320      1.7499      1.9140     -5.9158      0.3896      0.3624      0.7244      0.7986
   1988.5000     10.2932    128.3743      0.4872      0.1988      0.2690      0.4643      0.4181      0.4094      1.8130      1.7579      1.9530     -5.7971      0.3905      0.3656      0.7310      0.8012
   1989.0000     10.2468    129.5340      0.4708      0.1979      0.2629      0.4548      0.4179      0.4091      1.8060      1.7642      1.9920     -5.7584      0.3838      0.3666      0.7371      0.8021
   1989.5000     10.2046    129.0826      0.4581      0.1926      0.2573      0.4487      0.4163      0.4074      1.8160      1.7715      1.9320     -5.5217      0.3827      0.3729      0.7427      0.8074
   1990.0000     10.1994    125.9272      0.4470      0.1794      0.2502      0.4436      0.4125      0.4032      1.8230      1.7776      1.8530     -4.9310      0.3867      0.3885      0.7498      0.8206
   1990.5000     10.2298    120.8036      0.4603      0.1840      0.2593      0.4530      0.4138      0.4046      1.8430      1.7827      1.8630     -5.1383      0.3874      0.3830      0.7407      0.8160
   1991.0000     10.2722    116.4811      0.4991      0.2027      0.2804      0.4751      0.4193      0.4106      1.8770      1.7785      1.8670     -5.9766      0.3894      0.3609      0.7196      0.7973
   1991.5000     10.3374    111.8294      0.5198      0.2144      0.2959      0.4883      0.4227      0.4143      1.9470      1.7650      1.8940     -6.4989      0.3849      0.3471      0.7041      0.7856
   1992.0000     10.4129    106.5260      0.5137      0.2102      0.2993      0.4825      0.4214      0.4130      1.9680      1.7481      1.9360     -6.3123      0.3664      0.3520      0.7007      0.7898
   1992.5000     10.4459    102.4746      0.4891      0.1884      0.2816      0.4634      0.4151      0.4060      1.9940      1.7434      2.0050     -5.3366      0.3636      0.3778      0.7184      0.8116
   1993.0000     10.3942    102.1566      0.4639      0.1780      0.2681      0.4485      0.4121      0.4027      2.0300      1.7554      2.1330     -4.8739      0.3608      0.3901      0.7319      0.8220
   1993.5000     10.3970    103.9755      0.4343      0.1624      0.2504      0.4321      0.4075      0.3977      2.0790      1.7655      2.2320     -4.1742      0.3633      0.4086      0.7496      0.8376
   1994.0000     10.5512    103.1921      0.4186      0.1485      0.2365      0.4246      0.4035      0.3933      2.1140      1.7724      2.2320     -3.5535      0.3763      0.4250      0.7635      0.8515
   1994.5000     10.9241     97.4522      0.4331      0.1425      0.2470      0.4373      0.4017      0.3914      2.2120      1.7834      2.1800     -3.2878      0.3807      0.4320      0.7530      0.8575
   1995.0000     11.2777     93.7129      0.4354      0.1524      0.2552      0.4395      0.4046      0.3945      2.2530      1.7858      2.1800     -3.7311      0.3687      0.4203      0.7448      0.8476
   1995.5000     11.4450     93.7382      0.4236      0.1650      0.2570      0.4309      0.4083      0.3985      2.2900      1.7812      2.2330     -4.2934      0.3478      0.4055      0.7430      0.8350
   1996.0000     11.2937     97.5842      0.4358      0.1740      0.2624      0.4365      0.4109      0.4014      2.2250      1.7763      2.2370     -4.6977      0.3481      0.3948      0.7376      0.8260
   1996.5000     11.0939    103.7616      0.4609      0.1848      0.2703      0.4519      0.4140      0.4049      2.1850      1.7774      2.1260     -5.1810      0.3634      0.3820      0.7297      0.8152
   1997.0000     11.1742    107.5905      0.4854      0.1930      0.2790      0.4685      0.4164      0.4075      2.0580      1.7808      2.0390     -5.5463      0.3789      0.3724      0.7210      0.8070
   1997.5000     11.3270    110.6908      0.5116      0.2012      0.2871      0.4853      0.4188      0.4101      1.9810      1.7780      1.9810     -5.9116      0.3965      0.3627      0.7129      0.7988
   1998.0000     11.2918    112.4212      0.5192      0.2031      0.2891      0.4892      0.4194      0.4107      1.9110      1.7712      1.9240     -5.9999      0.4002      0.3604      0.7109      0.7969
   1998.5000     11.0397    112.7518      0.4959      0.2060      0.2850      0.4698      0.4202      0.4116      1.8900      1.7568      1.8930     -6.1282      0.3694      0.3570      0.7150      0.7940
   1999.0000     10.7999    114.1919      0.4776      0.2062      0.2794      0.4556      0.4203      0.4117      1.8800      1.7443      1.8800     -6.1395      0.3525      0.3567      0.7206      0.7938
   1999.5000     10.5976    116.2361      0.4752      0.2011      0.2749      0.4534      0.4188      0.4101      1.9040      1.7408      1.8730     -5.9128      0.3569      0.3627      0.7251      0.7989
