~V
VERS. 2.00: Ver 2.00
WRAP.   NO:        
~W
 STRT.FT 120:
 STOP.FT 3000:
 STEP.FT 0.5:
 NULL. -999.250000:
 COMP. TENNECO OIL COMPANY (E & P):Company
 WELL. 62X-30:Well
 FLD. LOS LOBOS:Field
 LOC. SEC 30 TWP 11N RGE 22W:Location
 STAT. CA:State
 SRVC. :Service Company
 SON. :Service Order #
 DATE. :Log Date
 UWI. :Unique Well ID
~C
 DEPT.FT :
 CALS.IN :
 GRC.GAPI :
 NPHC.PU-S :
 PHES. :
 PHIE. :
 PHIT. :
 PHTS. :
 PHZC. :
 RD.OHMM :
 ROBC.G/C3 :
 RS.OHMM :
 SBL.MV :
 VCLW. :
 VCWS. :
 VSHL. :
 VSHS. :
~P
~A
# ...
   2700.0000      9.9389    105.0193      0.4043      0.3249      0.3212      0.4274      0.4518      0.4467      3.2830      1.8365      3.2710     -3.5444      0.2124      0.2115      0.6508      0.5288
   2700.5000      9.9384     98.5352      0.3972      0.3338      0.3302      0.4249      0.4544      0.4496      3.4150      1.8334      3.4150     -3.9378      0.1894      0.2009      0.5805      0.5023
   2701.0000      9.9409     96.4688      0.3965      0.3313      0.3309      0.4249      0.4536      0.4488      3.4250      1.8320      3.4320     -3.8192      0.1880      0.2038      0.5761      0.5096
   2701.5000      9.9370    100.1531      0.4064      0.3218      0.3241      0.4289      0.4509      0.4457      3.3860      1.8341      3.1600     -3.3857      0.2096      0.2151      0.6423      0.5378
   2702.0000      9.9240    106.4852      0.4296      0.3088      0.3092      0.4357      0.4471      0.4416      3.3470      1.8499      2.8260     -2.7961      0.2531      0.2305      0.6908      0.5762
   2702.5000      9.9344    111.7218      0.4583      0.2975      0.2885      0.4423      0.4438      0.4380      3.2260      1.8748      2.5970     -2.2845      0.3076      0.2438      0.7115      0.6096
   2703.0000      9.9396    114.7602      0.4693      0.2888      0.2711      0.4420      0.4413      0.4352      3.0690      1.8920      2.5440     -1.8899      0.3418      0.2541      0.7289      0.6351
   2703.5000      9.9378    115.8018      0.4710      0.2811      0.2577      0.4387      0.4390      0.4327      2.9570      1.9074      2.6510     -1.5364      0.3618      0.2632      0.7423      0.6580
   2704.0000      9.9367    115.7551      0.4710      0.2742      0.2528      0.4380      0.4370      0.4305      2.8600      1.9107      2.7040     -1.2218      0.3704      0.2713      0.7472      0.6783
   2704.5000      9.9357    115.5312      0.4707      0.2744      0.2582      0.4403      0.4371      0.4306      2.7770      1.9024      2.6870     -1.2212      0.3644      0.2711      0.7418      0.6778
   2705.0000      9.9313    116.4032      0.4664      0.2790      0.2747      0.4453      0.4384      0.4320      2.7000      1.8779      2.6180     -1.4186      0.3412      0.2657      0.7253      0.6643
   2705.5000      9.9214    117.8942      0.4545      0.2836      0.2854      0.4439      0.4397      0.4335      2.6400      1.8628      2.6450     -1.6161      0.3169      0.2603      0.7146      0.6507
   2706.0000      9.9171    117.9190      0.4543      0.2811      0.2871      0.4451      0.4390      0.4327      2.5720      1.8582      2.6440     -1.4985      0.3160      0.2632      0.7129      0.6580
   2706.5000      9.9107    115.7369      0.4792      0.2768      0.2895      0.4593      0.4378      0.4313      2.5200      1.8526      2.4610     -1.3009      0.3397      0.2682      0.7105      0.6706
   2707.0000      9.9096    114.4588      0.5020      0.2779      0.2990      0.4753      0.4381      0.4317      2.4550      1.8393      2.3200     -1.3403      0.3525      0.2670      0.7010      0.6675
   2707.5000      9.9053    117.3173      0.5084      0.2755      0.2997      0.4805      0.4374      0.4309      2.3920      1.8338      2.2730     -1.2248      0.3615      0.2698      0.7003      0.6746
   2708.0000      9.8986    120.1961      0.5028      0.2721      0.2968      0.4778      0.4364      0.4298      2.3390      1.8330      2.3130     -1.0662      0.3620      0.2738      0.7032      0.6846
   2708.5000      9.9041    120.1392      0.5004      0.2679      0.2916      0.4746      0.4352      0.4285      2.2660      1.8370      2.2330     -0.8706      0.3659      0.2788      0.7084      0.6970
   2709.0000      9.9190    116.3393      0.5036      0.2654      0.2886      0.4739      0.4344      0.4277      2.2080      1.8429      2.1440     -0.7510      0.3705      0.2818      0.7114      0.7044
   2709.5000      9.9407    114.8275      0.5022      0.2647      0.2862      0.4719      0.4342      0.4274      2.1980      1.8483      2.2020     -0.7115      0.3713      0.2826      0.7138      0.7065
   2710.0000      9.9571    115.1999      0.4943      0.2622      0.2827      0.4667      0.4335      0.4267      2.2290      1.8518      2.2620     -0.5949      0.3680      0.2855      0.7173      0.7137
   2710.5000      9.9555    115.4273      0.4913      0.2607      0.2798      0.4641      0.4331      0.4262      2.2400      1.8551      2.2860     -0.5203      0.3686      0.2873      0.7202      0.7182
   2711.0000      9.9486    115.6057      0.4875      0.2600      0.2773      0.4609      0.4329      0.4259      2.2390      1.8576      2.2520     -0.4817      0.3671      0.2881      0.7227      0.7202
   2711.5000      9.9353    115.5682      0.4802      0.2602      0.2774      0.4567      0.4329      0.4260      2.2630      1.8566      2.2180     -0.4832      0.3588      0.2878      0.7226      0.7196
   2712.0000      9.9051    114.8413      0.4752      0.2631      0.2823      0.4556      0.4338      0.4269      2.3330      1.8513      2.2330     -0.6046      0.3466      0.2844      0.7177      0.7111
   2712.5000      9.8616    111.6775      0.4593      0.2686      0.2942      0.4516      0.4353      0.4287      2.4010      1.8416      2.4270     -0.8420      0.3150      0.2780      0.7058      0.6949
   2713.0000      9.8221    105.5508      0.4405      0.2971      0.3140      0.4455      0.4436      0.4378      2.4750      1.8324      2.5810     -2.2233      0.2631      0.2443      0.6860      0.6107
   2713.5000      9.7984     99.7897      0.4277      0.3254      0.3279      0.4386      0.4519      0.4468      2.5150      1.8351      2.6610     -3.5997      0.2213      0.2108      0.6721      0.5269
   2714.0000      9.7876     96.6239      0.4122      0.3724      0.3464      0.4290      0.4655      0.4618      2.5550      1.8441      2.8660     -5.8070      0.1651      0.1553      0.5058      0.3881
   2714.5000      9.7883     90.9831      0.4031      0.3917      0.3677      0.4240      0.4711      0.4680      2.5730      1.8484      3.0870     -7.7763      0.1125      0.1324      0.3448      0.3310
   2715.0000      9.7948     83.7861      0.4151      0.3992      0.3862      0.4320      0.4733      0.4703      2.5860      1.8439      3.1140     -8.7217      0.0917      0.1236      0.2810      0.3089
   2715.5000      9.7990     81.4722      0.4398      0.4010      0.4003      0.4485      0.4738      0.4709      2.5570      1.8312      2.7950     -9.0370      0.0964      0.1214      0.2956      0.3034
   2716.0000      9.8074     85.6013      0.4461      0.3821      0.3794      0.4534      0.4683      0.4649      2.4690      1.8206      2.5100     -7.0273      0.1480      0.1438      0.4536      0.3594
   2716.5000      9.7856     90.7913      0.4378      0.3647      0.3604      0.4472      0.4633      0.4593      2.3110      1.8211      2.3240     -6.0047      0.1737      0.1644      0.5323      0.4109
   2717.0000      9.7895     94.6660      0.4355      0.3507      0.3487      0.4445      0.4592      0.4549      2.2270      1.8238      2.2680     -5.4910      0.1917      0.1808      0.5876      0.4520
   2717.5000      9.7953     95.2428      0.4493      0.3439      0.3432      0.4493      0.4572      0.4527      2.0550      1.8315      2.1740     -5.2943      0.2121      0.1889      0.6499      0.4722
   2718.0000      9.7913     93.3566      0.4666      0.3441      0.3521      0.4607      0.4573      0.4528      1.9590      1.8208      1.9880     -5.4127      0.2173      0.1886      0.6479      0.4715
   2718.5000      9.7945     91.1836      0.4751      0.3541      0.3670      0.4694      0.4602      0.4559      1.8510      1.8061      1.9050     -5.9650      0.2047      0.1769      0.6273      0.4422
   2719.0000      9.7983     89.3498      0.4764      0.3631      0.3757      0.4709      0.4628      0.4588      1.8100      1.7965      1.8500     -6.4763      0.1904      0.1662      0.5834      0.4155
   2719.5000      9.8014     87.7168      0.4747      0.3739      0.3817      0.4693      0.4659      0.4623      1.7830      1.7934      1.8360     -7.0677      0.1751      0.1534      0.5366      0.3836
