~V
VERS. 2.00: Ver 2.00
WRAP.   NO:        
~W
 STRT.FT 120:
 STOP.FT 3000:
 STEP.FT 0.5:
 NULL. -999.250000:
 COMP. TENNECO OIL COMPANY (E & P):Company
 WELL. 62X-30:Well
 FLD. LOS LOBOS:Field
 LOC. SEC 30 TWP 11N RGE 22W:Location
 STAT. CA:State
 SRVC. :Service Company
 SON. :Service Order #
 DATE. :Log Date
 UWI. :Unique Well ID
~C
 DEPT.FT :
 CALS.IN :
 GRC.GAPI :
 NPHC.PU-S :
 PHES. :
 PHIE. :
 PHIT. :
 PHTS. :
 PHZC. :
 RD.OHMM :
 ROBC.G/C3 :
 RS.OHMM :
 SBL.MV :
 VCLW. :
 VCWS. :
 VSHL. :
 VSHS. :
~P
~A
# ...
   2260.0000     10.0330    124.1246      0.4568      0.3156      0.3224      0.4446      0.4510      0.4455      1.9650      1.7432      2.0600     -6.8422      0.2445      0.2255      0.6776      0.5638
   2260.5000     10.0443    130.5210      0.4507      0.3049      0.3108      0.4408      0.4478      0.4421      1.9120      1.7476      2.0980     -6.3515      0.2600      0.2382      0.6892      0.5955
   2261.0000     10.0463    138.5385      0.4705      0.2942      0.3066      0.4520      0.4447      0.4387      1.8540      1.7417      1.9790     -5.8598      0.2909      0.2509      0.6934      0.6273
   2261.5000     10.0398    145.8589      0.4897      0.2816      0.3033      0.4628      0.4411      0.4347      1.8170      1.7283      1.8950     -5.2891      0.3189      0.2657      0.6967      0.6643
   2262.0000     10.0391    151.9904      0.5160      0.2586      0.3000      0.4810      0.4344      0.4273      1.7810      1.7181      1.8000     -4.2464      0.3620      0.2930      0.7000      0.7325
   2262.5000     10.0441    154.0312      0.5372      0.2452      0.3030      0.4997      0.4305      0.4230      1.7480      1.7189      1.7680     -3.6367      0.3934      0.3088      0.6970      0.7548
   2263.0000     10.0453    152.9190      0.5213      0.2414      0.2924      0.4854      0.4294      0.4219      1.7200      1.7250      1.7390     -3.4590      0.3860      0.3132      0.7076      0.7586
   2263.5000     10.0443    151.0127      0.5012      0.2474      0.2873      0.4701      0.4311      0.4238      1.6980      1.7293      1.7260     -3.7153      0.3656      0.3061      0.7127      0.7526
   2264.0000     10.0433    148.6874      0.4985      0.2516      0.2891      0.4686      0.4323      0.4251      1.6790      1.7337      1.7160     -3.8926      0.3590      0.3012      0.7109      0.7484
   2264.5000     10.0423    145.3982      0.5202      0.2559      0.3000      0.4845      0.4336      0.4264      1.6490      1.7387      1.7100     -4.0699      0.3689      0.2962      0.7000      0.7404
   2265.0000     10.0360    139.0355      0.5383      0.2618      0.3121      0.5000      0.4353      0.4284      1.6250      1.7413      1.7290     -4.3262      0.3759      0.2891      0.6879      0.7227
   2265.5000     10.0190    132.6601      0.5357      0.2687      0.3175      0.4977      0.4373      0.4305      1.6160      1.7429      1.7320     -4.6225      0.3604      0.2810      0.6825      0.7024
   2266.0000      9.9954    126.3433      0.5142      0.2853      0.3234      0.4816      0.4421      0.4358      1.6040      1.7422      1.7280     -5.3508      0.3163      0.2614      0.6766      0.6535
   2266.5000      9.9837    122.0725      0.4840      0.3036      0.3242      0.4585      0.4474      0.4417      1.5890      1.7339      1.7220     -6.1581      0.2686      0.2398      0.6758      0.5994
   2267.0000      9.9886    120.4267      0.4624      0.3219      0.3266      0.4410      0.4527      0.4475      1.5690      1.7214      1.7120     -6.9655      0.2288      0.2181      0.6734      0.5453
   2267.5000      9.9992    120.1854      0.4618      0.3349      0.3304      0.4386      0.4565      0.4517      1.5610      1.7093      1.7030     -7.5358      0.2163      0.2027      0.6628      0.5068
   2268.0000     10.0049    118.7388      0.4772      0.3206      0.3346      0.4500      0.4524      0.4471      1.5550      1.7043      1.7310     -6.8871      0.2308      0.2196      0.6654      0.5490
   2268.5000     10.0228    115.1875      0.4998      0.3081      0.3416      0.4690      0.4487      0.4431      1.5520      1.7060      1.7370     -6.3164      0.2549      0.2344      0.6584      0.5860
   2269.0000     10.0391    111.5855      0.4984      0.3035      0.3390      0.4685      0.4474      0.4416      1.5720      1.7179      1.7150     -6.0997      0.2589      0.2398      0.6610      0.5996
   2269.5000     10.0449    109.1306      0.4866      0.3042      0.3342      0.4614      0.4476      0.4419      1.5890      1.7354      1.7240     -6.1200      0.2544      0.2390      0.6658      0.5975
   2270.0000     10.0447    105.4795      0.4775      0.3102      0.3363      0.4570      0.4493      0.4438      1.6060      1.7441      1.7720     -6.3763      0.2414      0.2319      0.6637      0.5798
   2270.5000     10.0459    101.4450      0.4778      0.3182      0.3435      0.4573      0.4517      0.4463      1.6300      1.7411      1.7780     -6.7246      0.2277      0.2224      0.6565      0.5560
   2271.0000     10.0545     98.3665      0.4867      0.3280      0.3546      0.4646      0.4545      0.4495      1.6510      1.7387      1.7950     -7.1529      0.2200      0.2108      0.6454      0.5270
   2271.5000     10.0590     95.6279      0.4867      0.3352      0.3598      0.4672      0.4566      0.4517      1.6660      1.7501      1.8480     -7.4612      0.2147      0.2023      0.6402      0.5058
   2272.0000     10.0596     93.2918      0.4780      0.3406      0.3618      0.4656      0.4582      0.4535      1.6880      1.7661      1.9880     -7.6925      0.2075      0.1959      0.6359      0.4898
   2272.5000     10.0575     94.7263      0.4499      0.3469      0.3555      0.4471      0.4600      0.4555      1.7040      1.7656      2.0700     -7.9628      0.1830      0.1885      0.5610      0.4712
   2273.0000     10.0462    100.3580      0.4261      0.3532      0.3383      0.4254      0.4618      0.4575      1.7130      1.7476      2.1240     -8.2321      0.1742      0.1811      0.5339      0.4526
   2273.5000     10.0382    106.9251      0.4179      0.3489      0.3184      0.4116      0.4606      0.4561      1.7170      1.7305      1.9610     -8.0294      0.1865      0.1861      0.5715      0.4653
   2274.0000     10.0248    110.4890      0.4175      0.3253      0.3020      0.4085      0.4537      0.4486      1.7450      1.7223      1.8530     -6.9617      0.2131      0.2141      0.6532      0.5351
   2274.5000     10.0122    113.2964      0.4409      0.3034      0.3063      0.4249      0.4473      0.4416      1.7940      1.7193      1.8470     -5.9720      0.2372      0.2399      0.6937      0.5998
   2275.0000     10.0072    115.4221      0.4721      0.2859      0.3179      0.4488      0.4422      0.4360      1.8440      1.7186      1.8610     -5.1783      0.2618      0.2606      0.6821      0.6516
   2275.5000     10.0060    116.3073      0.4916      0.2807      0.3255      0.4667      0.4407      0.4343      1.8990      1.7206      1.9840     -4.9376      0.2824      0.2667      0.6745      0.6667
   2276.0000     10.0060    113.1528      0.5006      0.2738      0.3297      0.4777      0.4387      0.4321      2.0730      1.7307      2.1730     -4.6170      0.2958      0.2749      0.6703      0.6872
   2276.5000     10.0060    105.8191      0.5028      0.2713      0.3340      0.4829      0.4380      0.4313      2.2420      1.7475      2.3420     -4.4933      0.2979      0.2779      0.6660      0.6946
   2277.0000      9.9995    101.5712      0.4906      0.2740      0.3357      0.4788      0.4388      0.4322      2.5330      1.7587      2.5980     -4.6056      0.2861      0.2746      0.6643      0.6865
   2277.5000      9.9880     98.2290      0.4762      0.2926      0.3433      0.4718      0.4442      0.4381      2.7190      1.7652      2.8670     -5.4259      0.2570      0.2526      0.6567      0.6315
   2278.0000      9.9760     95.6093      0.4479      0.3077      0.3439      0.4558      0.4486      0.4430      2.9630      1.7755      3.1520     -6.0902      0.2238      0.2347      0.6561      0.5868
   2278.5000      9.9716     94.7288      0.3950      0.3255      0.3305      0.4271      0.4537      0.4486      3.2160      1.7906      3.4090     -6.8715      0.1932      0.2138      0.5921      0.5344
   2279.0000      9.9651     93.3167      0.3672      0.3362      0.3245      0.4152      0.4569      0.4520      3.4720      1.8032      3.5360     -7.3388      0.1814      0.2011      0.5559      0.5028
   2279.5000      9.9355     90.7999      0.3808      0.3486      0.3403      0.4236      0.4605      0.4560      3.6210      1.8006      3.4470     -7.8841      0.1666      0.1864      0.5104      0.4660
