~V
VERS. 2.00: Ver 2.00
WRAP.   NO:        
~W
 STRT.FT 120:
 STOP.FT 3000:
 STEP.FT 0.5:
 NULL. -999.250000:
 COMP. TENNECO OIL COMPANY (E & P):Company
 WELL. 62X-30:Well
 FLD. LOS LOBOS:Field
 LOC. SEC 30 TWP 11N RGE 22W:Location
 STAT. CA:State
 SRVC. :Service Company
 SON. :Service Order #
 DATE. :Log Date
 UWI. :Unique Well ID
~C
 DEPT.FT :
 CALS.IN :
 GRC.GAPI :
 NPHC.PU-S :
 PHES. :
 PHIE. :
 PHIT. :
 PHTS. :
 PHZC. :
 RD.OHMM :
 ROBC.G/C3 :
 RS.OHMM :
 SBL.MV :
 VCLW. :
 VCWS. :
 VSHL. :
 VSHS. :
~P
~A
# ...
   1120.0000     10.8500     63.2857      0.4228      0.0000      0.0000      0.2683      0.2683      0.2772      2.6030      2.1334      2.4920     -2.6246      0.5159      0.5159      1.2897      1.7197
   1120.5000     10.8775     63.4880      0.4161      0.0000      0.0000      0.2626      0.2626      0.2783      2.6070      2.1343      2.5050     -2.9014      0.5050      0.5050      1.2626      1.6835
   1121.0000     10.8923     65.4151      0.4168      0.0000      0.0000      0.2587      0.2587      0.2790      2.6210      2.1250      2.5090     -3.0983      0.4974      0.4974      1.2435      1.6580
   1121.5000     10.8768     66.6505      0.4292      0.0000      0.0000      0.2514      0.2514      0.2804      2.6210      2.1133      2.5090     -3.4532      0.4834      0.4834      1.2086      1.6114
   1122.0000     10.8123     66.1506      0.4435      0.0000      0.0000      0.2547      0.2547      0.2798      2.6250      2.1007      2.5130     -3.2971      0.4899      0.4899      1.2248      1.6330
   1122.5000     10.7462     65.0023      0.4526      0.0000      0.0000      0.2524      0.2524      0.2802      2.6240      2.0876      2.5080     -3.4160      0.4854      0.4854      1.2134      1.6179
   1123.0000     10.7195     65.0274      0.4526      0.0000      0.0000      0.2443      0.2443      0.2818      2.6290      2.0776      2.4670     -3.8099      0.4698      0.4698      1.1746      1.5661
   1123.5000     10.7049     65.5648      0.4486      0.0000      0.0000      0.2337      0.2337      0.2838      2.6280      2.0714      2.4080     -4.3228      0.4493      0.4493      1.1233      1.4978
   1124.0000     10.6942     64.6637      0.4577      0.0000      0.0000      0.2228      0.2228      0.2859      2.6230      2.0669      2.3470     -4.6767      0.4284      0.4284      1.0711      1.4281
   1124.5000     10.6862     61.1967      0.4819      0.0000      0.0000      0.2106      0.2106      0.2882      2.6180      2.0636      2.3170     -5.0716      0.4051      0.4051      1.0127      1.3503
   1125.0000     10.6810     57.5932      0.4995      0.0000      0.0000      0.2071      0.2071      0.2889      2.6030      2.0591      2.2670     -5.1894      0.3983      0.3983      0.9959      1.3278
   1125.5000     10.7883     56.0884      0.4996      0.0000      0.0000      0.2220      0.2220      0.2861      2.5790      2.0526      2.2330     -4.7193      0.4269      0.4269      1.0673      1.4230
   1126.0000     11.1389     57.0529      0.4930      0.0000      0.0000      0.2359      0.2359      0.2834      2.5600      2.0483      2.2250     -4.2482      0.4537      0.4537      1.1342      1.5122
   1126.5000     11.5472     60.3235      0.4956      0.0000      0.0000      0.2442      0.2442      0.2818      2.5360      2.0463      2.2170     -3.8571      0.4695      0.4695      1.1738      1.5651
   1127.0000     11.7118     62.9661      0.5037      0.0000      0.0000      0.2410      0.2410      0.2824      2.5360      2.0370      2.2160     -4.0160      0.4634      0.4634      1.1585      1.5447
   1127.5000     11.3669     64.1236      0.5012      0.0000      0.0000      0.2427      0.2427      0.2820      2.5350      2.0239      2.2520     -3.9369      0.4668      0.4668      1.1670      1.5560
   1128.0000     10.8942     63.6659      0.4838      0.0000      0.0000      0.2412      0.2412      0.2823      2.5250      2.0273      2.2720     -4.0168      0.4638      0.4638      1.1595      1.5461
   1128.5000     10.8071     61.7114      0.4607      0.0000      0.0000      0.2462      0.2462      0.2814      2.5250      2.0466      2.2800     -3.7827      0.4734      0.4734      1.1835      1.5780
   1129.0000     10.8774     60.0806      0.4349      0.0000      0.0000      0.2504      0.2504      0.2806      2.5430      2.0613      2.2760     -3.5866      0.4815      0.4815      1.2037      1.6050
   1129.5000     10.9461     58.9201      0.4417      0.0000      0.0000      0.2513      0.2513      0.2804      2.5570      2.0566      2.2260     -3.5484      0.4832      0.4832      1.2081      1.6108
   1130.0000     11.0358     58.2904      0.4783      0.0000      0.0000      0.2514      0.2514      0.2804      2.5750      2.0375      2.2020     -3.5493      0.4834      0.4834      1.2085      1.6114
   1130.5000     11.1137     59.1087      0.4944      0.0000      0.0000      0.2490      0.2490      0.2808      2.5740      2.0260      2.1730     -3.6682      0.4789      0.4789      1.1972      1.5963
   1131.0000     11.0619     59.8901      0.4831      0.0000      0.0000      0.2475      0.2475      0.2811      2.5650      2.0284      2.2620     -3.7481      0.4759      0.4759      1.1898      1.5864
   1131.5000     10.9874     59.8175      0.4764      0.0000      0.0000      0.2476      0.2476      0.2811      2.5360      2.0402      2.3370     -3.7500      0.4761      0.4761      1.1902      1.5869
   1132.0000     11.0721     58.6908      0.4672      0.0000      0.0000      0.2501      0.2501      0.2806      2.5310      2.0471      2.4050     -3.6319      0.4810      0.4810      1.2026      1.6034
   1132.5000     11.3064     57.1310      0.4541      0.0000      0.0000      0.2543      0.2543      0.2798      2.5260      2.0432      2.3700     -3.4378      0.4890      0.4890      1.2225      1.6301
   1133.0000     11.6993     56.5655      0.4464      0.0000      0.0000      0.2569      0.2569      0.2793      2.5300      2.0261      2.3270     -3.3197      0.4940      0.4940      1.2349      1.6465
   1133.5000     12.0355     57.0641      0.4568      0.0000      0.0000      0.2569      0.2569      0.2793      2.5390      2.0072      2.2930     -3.3226      0.4941      0.4941      1.2352      1.6469
   1134.0000     12.1736     58.3734      0.4740      0.0000      0.0000      0.2562      0.2562      0.2794      2.5480      1.9847      2.3300     -3.3614      0.4927      0.4927      1.2319      1.6425
   1134.5000     12.0698     59.1254      0.4859      0.0000      0.0000      0.2563      0.2563      0.2794      2.5610      1.9771      2.3560     -3.3623      0.4929      0.4929      1.2324      1.6431
   1135.0000     11.6543     58.4817      0.5044      0.0000      0.0000      0.2564      0.2564      0.2793      2.5890      1.9945      2.3720     -3.3632      0.4931      0.4931      1.2328      1.6437
   1135.5000     11.1698     57.2132      0.5164      0.0000      0.0000      0.2573      0.2573      0.2792      2.6360      1.9967      2.3720     -3.3271      0.4948      0.4948      1.2370      1.6493
   1136.0000     10.8704     56.3821      0.5188      0.0000      0.0000      0.2574      0.2574      0.2791      2.6650      1.9747      2.3980     -3.3260      0.4951      0.4951      1.2377      1.6502
   1136.5000     10.7778     57.3378      0.5139      0.0000      0.0000      0.2576      0.2576      0.2791      2.7080      1.9482      2.4590     -3.3239      0.4954      0.4954      1.2384      1.6513
   1137.0000     10.8801     58.2163      0.4976      0.0000      0.0000      0.2576      0.2576      0.2791      2.7570      1.9742      2.5220     -3.3278      0.4954      0.4954      1.2386      1.6515
   1137.5000     11.2107     59.0855      0.4774      0.0000      0.0000      0.2577      0.2577      0.2791      2.7970      2.0214      2.5960     -3.3307      0.4956      0.4956      1.2389      1.6519
   1138.0000     11.5436     55.7859      0.4647      0.0000      0.0000      0.2578      0.2578      0.2790      2.8690      2.0409      2.7020     -3.3306      0.4958      0.4958      1.2395      1.6526
   1138.5000     11.7431     50.8113      0.4221      0.0000      0.0000      0.2579      0.2579      0.2790      2.9370      2.0641      2.7810     -3.3314      0.4960      0.4960      1.2399      1.6533
   1139.0000     11.8455     49.1824      0.3750      0.0000      0.0000      0.2580      0.2580      0.2790      2.9800      2.0761      2.7500     -3.3323      0.4962      0.4962      1.2404      1.6539
   1139.5000     11.8757     48.7251      0.3696      0.0000      0.0000      0.2581      0.2581      0.2790      2.9960      2.0829      2.6950     -3.3342      0.4963      0.4963      1.2408      1.6544
