~V
VERS. 2.00: Ver 2.00
WRAP.   NO:        
~W
 STRT.FT 120:
 STOP.FT 3000:
 STEP.FT 0.5:
 NULL. -999.250000:
 COMP. TENNECO OIL COMPANY (E & P):Company
 WELL. 62X-30:Well
 FLD. LOS LOBOS:Field
 LOC. SEC 30 TWP 11N RGE 22W:Location
 STAT. CA:State
 SRVC. :Service Company
 SON. :Service Order #
 DATE. :Log Date
 UWI. :Unique Well ID
~C
 DEPT.FT :
 CALS.IN :
 GRC.GAPI :
 NPHC.PU-S :
 PHES. :
 PHIE. :
 PHIT. :
 PHTS. :
 PHZC. :
 RD.OHMM :
 ROBC.G/C3 :
 RS.OHMM :
 SBL.MV :
 VCLW. :
 VCWS. :
 VSHL. :
 VSHS. :
~P
~A
# ...
   2120.0000     10.4734    113.4098      0.4746      0.1985      0.2754      0.4650      0.4175      0.4087      1.5970      1.7968      1.6560     -4.7105      0.3792      0.3650      0.7246      0.8015
   2120.5000     10.4323    110.7153      0.4729      0.1997      0.2768      0.4611      0.4178      0.4091      1.5970      1.7859      1.6590     -4.7538      0.3687      0.3636      0.7232      0.8003
   2121.0000     10.4534    112.5447      0.4769      0.2035      0.2784      0.4621      0.4190      0.4103      1.6030      1.7801      1.6500     -4.9152      0.3674      0.3590      0.7216      0.7965
   2121.5000     10.5017    116.5740      0.4870      0.2065      0.2797      0.4692      0.4198      0.4113      1.6140      1.7856      1.6500     -5.0385      0.3791      0.3555      0.7203      0.7935
   2122.0000     10.4799    117.9604      0.4972      0.2130      0.2830      0.4761      0.4217      0.4134      1.6410      1.7911      1.6590     -5.3178      0.3861      0.3478      0.7170      0.7870
   2122.5000     10.3946    114.7682      0.5136      0.2195      0.2922      0.4831      0.4236      0.4154      1.6560      1.7741      1.6980     -5.5971      0.3819      0.3401      0.7078      0.7805
   2123.0000     10.3397    111.9343      0.5231      0.2234      0.3034      0.4868      0.4247      0.4167      1.6650      1.7457      1.7230     -5.7594      0.3667      0.3355      0.6966      0.7766
   2123.5000     10.3079    112.8422      0.5083      0.2290      0.3034      0.4753      0.4264      0.4185      1.6730      1.7306      1.7390     -5.9997      0.3438      0.3289      0.6966      0.7710
   2124.0000     10.2941    115.2666      0.4888      0.2267      0.2949      0.4601      0.4257      0.4177      1.6950      1.7200      1.7350     -5.8860      0.3305      0.3316      0.7051      0.7733
   2124.5000     10.3108    118.2211      0.4836      0.2183      0.2868      0.4567      0.4232      0.4150      1.7160      1.7233      1.7380     -5.4963      0.3399      0.3416      0.7132      0.7817
   2125.0000     10.3691    119.9580      0.4864      0.2142      0.2833      0.4610      0.4220      0.4137      1.7510      1.7399      1.7480     -5.3036      0.3553      0.3464      0.7167      0.7858
   2125.5000     10.4345    117.2195      0.4846      0.2137      0.2830      0.4630      0.4219      0.4136      1.8360      1.7602      1.9210     -5.2689      0.3600      0.3470      0.7170      0.7863
   2126.0000     10.4745    112.5852      0.4780      0.2140      0.2856      0.4645      0.4220      0.4137      2.0030      1.7803      2.0960     -5.2722      0.3578      0.3466      0.7144      0.7860
   2126.5000     10.4934    108.4784      0.4715      0.2179      0.2892      0.4662      0.4231      0.4149      2.1300      1.8033      2.2790     -5.4345      0.3541      0.3420      0.7108      0.7821
   2127.0000     10.5555    105.9915      0.4669      0.2235      0.2834      0.4586      0.4247      0.4167      2.3850      1.8218      2.3290     -5.6748      0.3503      0.3354      0.7166      0.7765
   2127.5000     10.6732    105.0913      0.4576      0.2256      0.2850      0.4544      0.4253      0.4174      2.6070      1.8179      2.2950     -5.7581      0.3389      0.3329      0.7150      0.7744
   2128.0000     10.7614    102.1364      0.4380      0.2119      0.2843      0.4472      0.4213      0.4130      2.7880      1.7978      2.2620     -5.1324      0.3259      0.3491      0.7157      0.7881
   2128.5000     10.7838     97.2214      0.4155      0.2104      0.2789      0.4318      0.4209      0.4125      2.9710      1.7912      2.3320     -5.0577      0.3058      0.3508      0.7211      0.7896
   2129.0000     10.8348     92.9223      0.3877      0.2134      0.2716      0.4203      0.4218      0.4135      3.1370      1.8124      2.8860     -5.1800      0.2974      0.3473      0.7284      0.7866
   2129.5000     10.9132     89.3110      0.3668      0.2190      0.2596      0.4032      0.4234      0.4153      3.2770      1.8397      3.2530     -5.4204      0.2873      0.3406      0.7404      0.7810
   2130.0000     10.8797     87.1204      0.3664      0.2194      0.2586      0.4007      0.4235      0.4154      3.3680      1.8483      3.1890     -5.4247      0.2842      0.3402      0.7414      0.7806
   2130.5000     10.6525     89.6974      0.3804      0.2079      0.2605      0.4099      0.4202      0.4117      3.4040      1.8363      2.8690     -4.9000      0.2989      0.3538      0.7395      0.7921
   2131.0000     10.4286     95.2083      0.3810      0.1990      0.2561      0.4135      0.4176      0.4089      3.4270      1.8214      2.8210     -4.4923      0.3147      0.3643      0.7439      0.8010
   2131.5000     10.3535    102.8442      0.3553      0.1919      0.2331      0.3988      0.4155      0.4066      3.2860      1.8255      3.1120     -4.1636      0.3314      0.3727      0.7669      0.8081
   2132.0000     10.3978    110.9747      0.3358      0.1848      0.2098      0.3841      0.4135      0.4043      2.9400      1.8400      3.1050     -3.8359      0.3487      0.3810      0.7902      0.8152
   2132.5000     10.5094    120.1546      0.3330      0.1751      0.1977      0.3826      0.4106      0.4012      2.6740      1.8393      2.7880     -3.3892      0.3699      0.3926      0.8023      0.8249
   2133.0000     10.5798    128.3343      0.3385      0.1662      0.1942      0.3888      0.4081      0.3984      2.4860      1.8240      2.5780     -2.9815      0.3890      0.4030      0.8058      0.8338
   2133.5000     10.6380    135.7327      0.3588      0.1512      0.1958      0.4022      0.4037      0.3936      2.3150      1.8112      2.4010     -2.2988      0.4128      0.4208      0.8042      0.8488
   2134.0000     10.6861    142.8970      0.3863      0.1397      0.2003      0.4165      0.4003      0.3899      2.1950      1.8115      2.3100     -1.7741      0.4325      0.4344      0.7997      0.8603
   2134.5000     10.7025    147.3179      0.4066      0.1282      0.1967      0.4238      0.3970      0.3862      2.1350      1.8257      2.2430     -1.2494      0.4541      0.4480      0.8033      0.8718
   2135.0000     10.6994    149.8349      0.4259      0.1182      0.1802      0.4279      0.3941      0.3830      2.0890      1.8497      2.2220     -0.6057      0.4954      0.4598      0.8198      0.8818
   2135.5000     10.6802    151.4915      0.4653      0.1205      0.1696      0.4414      0.3948      0.3838      2.0660      1.8786      2.1810     -0.7500      0.5435      0.4570      0.8304      0.8795
   2136.0000     10.6593    153.6576      0.5011      0.1272      0.1602      0.4545      0.3967      0.3859      2.0580      1.8998      2.1570     -1.1693      0.5887      0.4492      0.8398      0.8728
   2136.5000     10.6706    155.8586      0.5023      0.1342      0.1555      0.4517      0.3987      0.3881      2.0420      1.9097      2.1330     -1.4706      0.5924      0.4409      0.8445      0.8658
   2137.0000     10.7255    157.3824      0.4919      0.1429      0.1577      0.4451      0.4013      0.3909      2.0270      1.9115      2.1060     -1.8509      0.5748      0.4306      0.8423      0.8571
   2137.5000     10.7871    157.3406      0.4866      0.1525      0.1682      0.4445      0.4041      0.3940      2.0110      1.9025      2.0630     -2.2702      0.5527      0.4192      0.8318      0.8475
   2138.0000     10.8147    154.2496      0.4867      0.1639      0.1851      0.4489      0.4074      0.3976      1.9850      1.8869      2.0110     -2.7686      0.5277      0.4057      0.8149      0.8361
   2138.5000     10.8175    149.4463      0.4825      0.1709      0.1995      0.4505      0.4094      0.3999      1.9850      1.8730      1.9810     -3.0699      0.5020      0.3974      0.8005      0.8291
   2139.0000     10.7659    142.1926      0.4761      0.1762      0.2138      0.4506      0.4109      0.4015      1.9990      1.8602      1.9810     -3.2932      0.4737      0.3912      0.7862      0.8238
   2139.5000     10.6488    133.2541      0.4710      0.1849      0.2327      0.4524      0.4135      0.4043      2.0390      1.8445      2.0020     -3.6735      0.4394      0.3809      0.7673      0.8151
