~V
VERS. 2.00: Ver 2.00
WRAP.   NO:        
~W
 STRT.FT 120:
 STOP.FT 3000:
 STEP.FT 0.5:
 NULL. -999.250000:
 COMP. TENNECO OIL COMPANY (E & P):Company
 WELL. 62X-30:Well
 FLD. LOS LOBOS:Field
 LOC. SEC 30 TWP 11N RGE 22W:Location
 STAT. CA:State
 SRVC. :Service Company
 SON. :Service Order #
 DATE. :Log Date
 UWI. :Unique Well ID
~C
 DEPT.FT :
 CALS.IN :
 GRC.GAPI :
 NPHC.PU-S :
 PHES. :
 PHIE. :
 PHIT. :
 PHTS. :
 PHZC. :
 RD.OHMM :
 ROBC.G/C3 :
 RS.OHMM :
 SBL.MV :
 VCLW. :
 VCWS. :
 VSHL. :
 VSHS. :
~P
~A
# ...
   2400.0000     10.0130    157.8423      0.4929      0.1561      0.2227      0.4751      0.4040      0.3941      2.5390      1.8242      2.2520      0.4207      0.5049      0.4131      0.7773      0.8439
   2400.5000      9.9990    146.5618      0.4776      0.1863      0.2569      0.4735      0.4128      0.4037      2.5500      1.8010      2.4230     -0.9140      0.4333      0.3774      0.7431      0.8137
   2401.0000      9.9780    136.5897      0.4809      0.2139      0.2789      0.4718      0.4208      0.4125      2.5930      1.7761      2.5600     -2.1307      0.3858      0.3448      0.7211      0.7861
   2401.5000      9.9780    131.4365      0.4907      0.2458      0.3003      0.4783      0.4301      0.4227      2.6230      1.7745      2.5990     -3.5433      0.3560      0.3071      0.6997      0.7542
   2402.0000      9.9620    131.5630      0.4852      0.2787      0.3150      0.4771      0.4396      0.4332      2.6620      1.7810      2.7310     -4.9960      0.3242      0.2682      0.6850      0.6706
   2402.5000      9.9140    143.1593      0.4743      0.3036      0.3176      0.4725      0.4468      0.4411      2.6980      1.7889      2.8850     -6.0947      0.3097      0.2388      0.6824      0.5970
   2403.0000      9.8780    155.6321      0.4611      0.3074      0.3083      0.4665      0.4479      0.4423      2.7580      1.8018      2.9720     -6.2503      0.3166      0.2343      0.6917      0.5857
   2403.5000      9.8620    165.2880      0.4600      0.2813      0.2792      0.4595      0.4404      0.4340      2.8150      1.8232      3.0280     -5.0700      0.3606      0.2651      0.7208      0.6628
   2404.0000      9.8490    168.6195      0.4775      0.2377      0.2430      0.4619      0.4277      0.4201      2.9050      1.8511      2.9750     -3.1047      0.4377      0.3167      0.7570      0.7623
   2404.5000      9.8450    160.9608      0.4753      0.2116      0.2234      0.4549      0.4201      0.4117      2.9920      1.8692      2.9010     -1.9243      0.4629      0.3475      0.7766      0.7884
   2405.0000      9.8320    150.0948      0.4731      0.1908      0.2188      0.4533      0.4140      0.4051      3.1100      1.8692      2.8190     -0.9800      0.4690      0.3721      0.7812      0.8092
   2405.5000      9.8200    134.1933      0.4501      0.2051      0.2408      0.4439      0.4182      0.4097      3.2620      1.8592      3.0610     -1.6067      0.4061      0.3551      0.7592      0.7949
   2406.0000      9.7800    122.4311      0.4041      0.2599      0.2698      0.4215      0.4341      0.4272      3.4150      1.8523      3.3780     -4.0413      0.3034      0.2903      0.7302      0.7259
   2406.5000      9.7480    109.9456      0.3898      0.3218      0.3115      0.4190      0.4521      0.4469      3.5760      1.8405      3.7280     -6.7910      0.2150      0.2172      0.6589      0.5431
   2407.0000      9.7280     99.9112      0.3799      0.3766      0.3422      0.4172      0.4681      0.4644      3.6830      1.8321      4.1600     -9.2257      0.1499      0.1525      0.4593      0.3812
   2407.5000      9.7270     94.3983      0.3733      0.3927      0.3619      0.4151      0.4727      0.4695      3.7520      1.8288      4.4920    -10.8743      0.1064      0.1334      0.3262      0.3335
   2408.0000      9.7260     95.5524      0.3744      0.3921      0.3614      0.4160      0.4726      0.4694      3.7750      1.8288      4.6610    -10.7950      0.1093      0.1341      0.3349      0.3352
   2408.5000      9.7610    105.0356      0.4029      0.3880      0.3661      0.4330      0.4714      0.4680      3.7080      1.8257      4.3750    -10.3217      0.1337      0.1389      0.4096      0.3473
   2409.0000      9.8550    115.3464      0.4271      0.3818      0.3626      0.4494      0.4696      0.4661      3.6430      1.8132      4.0330     -9.6133      0.1736      0.1463      0.5320      0.3656
   2409.5000      9.9450    121.5603      0.4622      0.3746      0.3673      0.4701      0.4675      0.4637      3.5790      1.7842      3.6580     -9.0620      0.2057      0.1548      0.6303      0.3871
   2410.0000      9.9840    125.4677      0.5116      0.3564      0.3728      0.5012      0.4622      0.4579      3.5100      1.7646      3.2520     -8.2357      0.2568      0.1763      0.6272      0.4407
   2410.5000      9.9640    124.7186      0.5324      0.3460      0.3734      0.5156      0.4591      0.4546      3.4460      1.7595      3.0570     -7.7543      0.2844      0.1886      0.6266      0.4716
   2411.0000      9.9900    119.6588      0.5028      0.3399      0.3642      0.4929      0.4574      0.4527      3.3900      1.7647      2.9900     -7.4700      0.2574      0.1957      0.6358      0.4894
   2411.5000     10.0180    115.5165      0.4732      0.3401      0.3559      0.4721      0.4574      0.4527      3.2990      1.7682      3.0280     -7.4607      0.2324      0.1956      0.6441      0.4890
   2412.0000     10.0570    116.6122      0.4173      0.3490      0.3355      0.4343      0.4600      0.4556      3.2270      1.7717      3.1400     -7.8453      0.1977      0.1850      0.6060      0.4626
   2412.5000     10.0560    125.1740      0.4052      0.3509      0.3268      0.4302      0.4605      0.4562      3.2150      1.7833      3.2920     -7.9140      0.2067      0.1828      0.6334      0.4571
   2413.0000     10.0400    133.1258      0.3965      0.3404      0.3157      0.4288      0.4575      0.4528      3.2320      1.7931      3.3520     -7.4337      0.2261      0.1951      0.6843      0.4878
   2413.5000     10.0510    141.1725      0.4096      0.3107      0.3061      0.4377      0.4489      0.4433      3.2560      1.7981      3.1680     -6.0883      0.2633      0.2303      0.6939      0.5758
   2414.0000     10.1180    144.6890      0.4425      0.2835      0.2996      0.4554      0.4410      0.4347      3.2790      1.7986      2.9030     -4.8610      0.3117      0.2624      0.7004      0.6560
   2414.5000     10.1730    144.6286      0.4985      0.2810      0.3091      0.4877      0.4402      0.4339      3.2610      1.7973      2.8140     -4.7337      0.3572      0.2654      0.6909      0.6634
   2415.0000     10.2160    140.7953      0.5117      0.2855      0.3172      0.4974      0.4415      0.4353      3.2610      1.7943      2.9080     -4.9203      0.3604      0.2600      0.6828      0.6501
   2415.5000     10.2230    135.8535      0.5018      0.2927      0.3236      0.4919      0.4436      0.4376      3.2840      1.7927      3.0370     -5.2260      0.3367      0.2515      0.6764      0.6289
   2416.0000     10.2340    131.4321      0.4875      0.3016      0.3300      0.4839      0.4462      0.4404      3.3750      1.7895      3.1960     -5.6097      0.3077      0.2410      0.6700      0.6025
   2416.5000     10.2500    128.2039      0.4733      0.3052      0.3304      0.4759      0.4473      0.4416      3.4420      1.7912      3.3380     -5.7573      0.2910      0.2367      0.6696      0.5918
   2417.0000     10.2650    126.5380      0.4097      0.2948      0.3082      0.4386      0.4442      0.4383      3.5240      1.8029      3.3740     -5.2770      0.2610      0.2490      0.6918      0.6226
   2417.5000     10.2880    128.6667      0.3976      0.2818      0.2908      0.4288      0.4404      0.4341      3.5950      1.8129      3.3740     -4.6787      0.2759      0.2645      0.7092      0.6611
   2418.0000     10.2720    133.2400      0.3987      0.2713      0.2818      0.4273      0.4374      0.4308      3.6410      1.8194      3.3250     -4.1973      0.2911      0.2768      0.7182      0.6920
   2418.5000     10.2130    135.9100      0.3910      0.2706      0.2758      0.4232      0.4372      0.4305      3.6540      1.8174      3.2820     -4.1490      0.2948      0.2777      0.7242      0.6942
   2419.0000     10.1260    133.8145      0.3735      0.2733      0.2707      0.4157      0.4380      0.4314      3.6870      1.8069      3.2290     -4.2577      0.2898      0.2744      0.7293      0.6860
   2419.5000     10.0350    129.9044      0.3636      0.2779      0.2700      0.4105      0.4393      0.4328      3.7540      1.8046      3.1760     -4.4453      0.2811      0.2691      0.7300      0.6726
