~Version Information
VERS.                     2.0: CWLS log ASCII Standard Version 2.00
WRAP.                      NO: One line per depth step
~Well Information Block
#MNEM.UNIT                               Data Type  Information
#---------                               ---------  -----------
STRT.FT                                   350.0000:
STOP.FT                                  7530.0000:
STEP.FT                                     0.5000:
NULL.                 -999.25                     :
COMP.                                             :COMPANY            
WELL.     CCMO 67-20                              :WELL               
FLD .                                             :FIELD              
CTRY.                                             :COUNTRY            
STAT.                                             :STATE              
LOC .                                             :LOCATION           
UWI .                                             :UNIQUE WELL ID     
SRVC.                                             :Service company    
DATE.                                             :LOG DATE           
~Curve Information
#MNEM.UNIT           API CODE  Curve Description
#---------           --------  -----------------
DEPT.FT                      :   1 DEPTH
SP  .MV                      :   2
AM16.OHMM                    :   3
AO10.OHMM                    :   4
AO19.OHMM                    :   5
SBL .MV                      :   6
RS  .OHMM                    :   7
RM  .OHMM                    :   8
RD  .OHMM                    :   9
DEVI.DEG                     :  10
TVD .FT                      :  11
AZIM.DEG                     :  12
NORT.FT                      :  13
EAST.FT                      :  14
OFFS.FT                      :  15
~A
# ...
  7500.000 -23.622  3.8080  11.554  7.0710 -15.622  3.8080  11.554  7.0710  1.3330  7499.4  165.00 -9.3506  38.333  20.493 
  7500.500 -21.498  3.7790  10.901  7.5870 -13.498  3.7790  10.901  7.5870  1.3309  7499.9  165.07 -9.3618  38.336  20.488 
  7501.000 -19.808  3.7680  9.8390  7.7880 -11.808  3.7680  9.8390  7.7880  1.3289  7500.4  165.15 -9.3730  38.339  20.482 
  7501.500 -18.693  3.7570  8.4400  7.6580 -10.693  3.7570  8.4400  7.6580  1.3268  7500.9  165.22 -9.3842  38.342  20.476 
  7502.000 -17.543  3.7640  7.2850  7.2780 -9.5430  3.7640  7.2850  7.2780  1.3247  7501.4  165.30 -9.3954  38.344  20.470 
  7502.500 -17.076  3.7420  6.4740  6.7470 -9.0760  3.7420  6.4740  6.7470  1.3226  7501.9  165.37 -9.4065  38.347  20.464 
  7503.000 -15.998  3.6480  5.8790  6.2160 -7.9980  3.6480  5.8790  6.2160  1.3206  7502.4  165.45 -9.4177  38.350  20.458 
  7503.500 -15.531  3.4760  5.4050  6.2160 -7.5310  3.4760  5.4050  6.2160  1.3185  7502.9  165.52 -9.4288  38.353  20.453 
  7504.000 -15.011  3.3110  4.9820  6.4020 -7.0110  3.3110  4.9820  6.4020  1.3164  7503.4  165.60 -9.4400  38.356  20.447 
  7504.500 -14.490  3.1960  4.6520  6.5520 -6.4900  3.1960  4.6520  6.5520  1.3143  7503.9  165.67 -9.4511  38.359  20.441 
  7505.000 -13.917  3.0520  4.4720  6.6240 -5.9170  3.0520  4.4720  6.6240  1.3123  7504.4  165.75 -9.4622  38.362  20.435 
  7505.500 -13.702  2.9010  4.3000  6.5370 -5.7020  2.9010  4.3000  6.5370  1.3102  7504.9  165.82 -9.4733  38.364  20.429 
  7506.000 -13.453  2.8400  4.1200  6.4790 -5.4530  2.8400  4.1200  6.4790  1.3081  7505.4  165.90 -9.4843  38.367  20.423 
  7506.500 -13.345  2.7790  4.0270  6.4070 -5.3450  2.7790  4.0270  6.4070  1.3060  7505.9  165.97 -9.4954  38.370  20.417 
  7507.000 -13.238  2.6780  3.9120  6.2350 -5.2380  2.6780  3.9120  6.2350  1.3040  7506.4  166.05 -9.5064  38.373  20.412 
  7507.500 -13.097  2.5990  3.7970  6.1420 -5.0970  2.5990  3.7970  6.1420  1.3019  7506.9  166.12 -9.5175  38.375  20.406 
  7508.000 -12.990  2.5660  3.7000  5.9690 -4.9900  2.5660  3.7000  5.9690  1.2998  7507.4  166.20 -9.5285  38.378  20.400 
  7508.500 -12.883  2.5340  3.6030  5.7890 -4.8830  2.5340  3.6030  5.7890  1.2977  7507.9  166.27 -9.5395  38.381  20.394 
  7509.000 -12.831  2.4830  3.5090  5.6030 -4.8310  2.4830  3.5090  5.6030  1.2957  7508.4  166.35 -9.5505  38.384  20.388 
  7509.500 -12.779  2.4760  3.4800  5.4090 -4.7790  2.4760  3.4800  5.4090  1.2936  7508.9  166.42 -9.5614  38.386  20.382 
  7510.000 -12.799  2.5080  3.4720  5.2790 -4.7990  2.5080  3.4720  5.2790  1.2915  7509.4  166.50 -9.5724  38.389  20.376 
  7510.500 -12.819  2.5400  3.4720  5.1070 -4.8190  2.5400  3.4720  5.1070  1.2894  7509.9  166.57 -9.5833  38.391  20.370 
  7511.000 -12.822  2.6290  3.4860  4.9850 -4.8220  2.6290  3.4860  4.9850  1.2874  7510.4  166.65 -9.5943  38.394  20.365 
  7511.500 -12.788  2.7180  3.5140  4.8480 -4.7880  2.7180  3.5140  4.8480  1.2853  7510.9  166.72 -9.6052  38.397  20.359 
  7512.000 -12.790  2.7820  3.5320  4.7550 -4.7900  2.7820  3.5320  4.7550  1.2832  7511.4  166.80 -9.6161  38.399  20.353 
  7512.500 -12.792  2.8180  3.5500  4.7330 -4.7920  2.8180  3.5500  4.7330  1.2811  7511.9  166.87 -9.6270  38.402  20.347 
  7513.000 -13.011  2.8680  3.5750  4.7680 -5.0110  2.8680  3.5750  4.7680  1.2791  7512.4  166.95 -9.6378  38.404  20.341 
  7513.500 -13.265  2.9390  3.5990  4.8610 -5.2650  2.9390  3.5990  4.8610  1.2770  7512.9  167.02 -9.6487  38.407  20.335 
  7514.000 -13.519  2.9680  3.6280  5.0400 -5.5190  2.9680  3.6280  5.0400  1.2749  7513.4  167.10 -9.6595  38.409  20.329 
  7514.500 -13.772  3.0180  3.6420  5.3060 -5.7720  3.0180  3.6420  5.3060  1.2728  7513.9  167.17 -9.6704  38.412  20.323 
  7515.000 -14.061  3.0750  3.6560  5.5780 -6.0610  3.0750  3.6560  5.5780  1.2708  7514.4  167.25 -9.6812  38.414  20.317 
  7515.500 -14.496  3.1820  3.6550  5.8430 -6.4960  3.1820  3.6550  5.8430  1.2687  7514.9  167.32 -9.6920  38.417  20.311 
  7516.000 -14.858  3.2610  3.6620  5.7280 -6.8580  3.2610  3.6620  5.7280  1.2666  7515.4  167.40 -9.7028  38.419  20.305 
  7516.500 -15.292  3.2890  3.6690  5.4330 -7.2920  3.2890  3.6690  5.4330  1.2645  7515.9  167.47 -9.7135  38.421  20.300 
  7517.000 -15.546  3.3030  3.6690  5.0960 -7.5460  3.3030  3.6690  5.0960  1.2625  7516.4  167.55 -9.7243  38.424  20.294 
  7517.500 -15.800  3.2960  3.6690  5.0020 -7.8000  3.2960  3.6690  5.0020  1.2604  7516.9  167.62 -9.7350  38.426  20.288 
  7518.000 -15.946  3.2950  3.6680  4.9920 -7.9460  3.2950  3.6680  4.9920  1.2583  7517.4  167.70 -9.7458  38.428  20.282 
  7518.500 -16.055  3.2950  3.6680  4.9810 -8.0550  3.2950  3.6680  4.9810  1.2562  7517.9  167.77 -9.7565  38.431  20.276 
  7519.000 -16.058  3.3020  3.6680  4.9660 -8.0580  3.3020  3.6680  4.9660  1.2542  7518.4  167.85 -9.7672  38.433  20.270 
  7519.500 -16.061  3.3050  3.6670  4.9690 -8.0610  3.3050  3.6670  4.9690  1.2521  7518.9  167.92 -9.7779  38.435  20.264 
  7520.000 -16.025  3.3090  3.6740  4.9730 -8.0250  3.3090  3.6740  4.9730  1.2500  7519.4  168.00 -9.7885  38.438  20.258 
  7520.500 -16.028  3.3150  3.6740  4.9790 -8.0280  3.3150  3.6740  4.9790  1.2500  7519.9  168.00 -9.7992  38.440  20.252 
  7521.000 -15.993  3.3190  3.6810  4.9930 -7.9930  3.3190  3.6810  4.9930  1.2500  7520.4  168.00 -9.8099  38.442  20.246 
  7521.500 -15.960  3.3220  3.6800  4.9960 -7.9600  3.3220  3.6800  4.9960  1.2500  7520.9  168.00 -9.8205  38.444  20.240 
  7522.000 -15.889  3.3360  3.6800  5.0000 -7.8890  3.3360  3.6800  5.0000  1.2500  7521.4  168.00 -9.8312  38.447  20.234 
  7522.500 -15.818  3.3360  3.6730  5.0070 -7.8180  3.3360  3.6730  5.0070  1.2500  7521.9  168.00 -9.8419  38.449  20.228 
  7523.000 -15.747  3.3210  3.6730  5.0130 -7.7470  3.3210  3.6730  5.0130  1.2500  7522.4  168.00 -9.8526  38.451  20.222 
  7523.500 -15.659  3.3130  3.6730  5.0130 -7.6590  3.3130  3.6730  5.0130  1.2500  7522.9  168.00 -9.8632  38.454  20.216 
  7524.000 -15.571  3.3130  3.6650  4.9840 -7.5710  3.3130  3.6650  4.9840  1.2500  7523.4  168.00 -9.8739  38.456  20.210 
  7524.500 -15.536  3.3130  3.6570  4.9560 -7.5360  3.3130  3.6570  4.9560  1.2500  7523.9  168.00 -9.8846  38.458  20.205 
  7525.000 -15.502  3.3090  3.6570  4.9760 -7.5020  3.3090  3.6570  4.9760  1.2500  7524.4  168.00 -9.8952  38.460  20.199 
  7525.500 -15.470  3.3060  3.6570  5.0090 -7.4700  3.3060  3.6570  5.0090  1.2500  7524.9  168.00 -9.9059  38.463  20.193 
  7526.000 -15.400  3.2690  3.6600  5.0410 -7.4000  3.2690  3.6600  5.0410  1.2500  7525.4  168.00 -9.9166  38.465  20.187 
  7526.500 -15.366  3.2470  3.6630  5.1120 -7.3660  3.2470  3.6630  5.1120  1.2500  7525.9  168.00 -9.9272  38.467  20.181 
  7527.000 -15.331  3.1320  3.6670  5.1400 -7.3310  3.1320  3.6670  5.1400  1.2500  7526.4  168.00 -9.9379  38.469  20.175 
  7527.500 -15.296  3.0600  3.6700  5.1330 -7.2960  3.0600  3.6700  5.1330  1.2500  7526.9  168.00 -9.9486  38.472  20.169 
  7528.000 -15.263  2.9670  3.6910  5.0750 -7.2630  2.9670  3.6910  5.0750  1.2500  7527.4  168.00 -9.9592  38.474  20.163 
  7528.500 -15.246 -999.25  3.6830 -999.25 -7.2460 -999.25  3.6830 -999.25  1.2500  7527.9  168.00 -9.9699  38.476  20.157 
  7529.000 -15.229 -999.25  3.6760 -999.25 -7.2290 -999.25  3.6760 -999.25  1.2500  7528.4  168.00 -9.9806  38.478  20.151 
  7529.500 -15.232 -999.25  3.6680 -999.25 -7.2320 -999.25  3.6680 -999.25  1.2500  7528.9  168.00 -9.9912  38.481  20.145 
  7530.000 -15.234 -999.25  3.6680 -999.25 -7.2340 -999.25  3.6680 -999.25  1.2500  7529.4  168.00 -10.002  38.483  20.139 
