~Version Information
VERS.                     2.0: CWLS log ASCII Standard Version 2.00
WRAP.                      NO: One line per depth step
~Well Information Block
#MNEM.UNIT                               Data Type  Information
#---------                               ---------  -----------
STRT.FT                                   350.0000:
STOP.FT                                  7530.0000:
STEP.FT                                     0.5000:
NULL.                 -999.25                     :
COMP.                                             :COMPANY            
WELL.     CCMO 67-20                              :WELL               
FLD .                                             :FIELD              
CTRY.                                             :COUNTRY            
STAT.                                             :STATE              
LOC .                                             :LOCATION           
UWI .                                             :UNIQUE WELL ID     
SRVC.                                             :Service company    
DATE.                                             :LOG DATE           
~Curve Information
#MNEM.UNIT           API CODE  Curve Description
#---------           --------  -----------------
DEPT.FT                      :   1 DEPTH
SP  .MV                      :   2
AM16.OHMM                    :   3
AO10.OHMM                    :   4
AO19.OHMM                    :   5
SBL .MV                      :   6
RS  .OHMM                    :   7
RM  .OHMM                    :   8
RD  .OHMM                    :   9
DEVI.DEG                     :  10
TVD .FT                      :  11
AZIM.DEG                     :  12
NORT.FT                      :  13
EAST.FT                      :  14
OFFS.FT                      :  15
~A
# ...
  6070.000 -12.774  2.0020  3.0560  2.6190 -8.8323  2.0020  3.0560  2.6190  0.6000  6069.6  114.50  13.999  37.138  36.159 
  6070.500 -12.021  1.9660  2.9480  2.5110 -8.0787  1.9660  2.9480  2.5110  0.5983  6070.1  114.67  13.997  37.143  36.161 
  6071.000 -11.342  1.8930  2.6530  2.2950 -7.3991  1.8930  2.6530  2.2950  0.5967  6070.6  114.85  13.995  37.148  36.163 
  6071.500 -10.698  1.8420  2.4160  2.1000 -6.7544  1.8420  2.4160  2.1000  0.5950  6071.1  115.02  13.992  37.152  36.165 
  6072.000 -10.090  1.7480  2.2500  1.9130 -6.1458  1.7480  2.2500  1.9130  0.5933  6071.6  115.20  13.990  37.157  36.166 
  6072.500 -9.6620  1.6680  2.1770  1.8040 -5.7171  1.6680  2.1770  1.8040  0.5917  6072.1  115.37  13.988  37.162  36.168 
  6073.000 -9.9540  1.6240  2.1330  1.6960 -6.0085  1.6240  2.1330  1.6960  0.5900  6072.6  115.55  13.986  37.166  36.170 
  6073.500 -10.139  1.5660  2.0960  1.6450 -6.1928  1.5660  2.0960  1.6450  0.5883  6073.1  115.72  13.983  37.171  36.172 
  6074.000 -10.323  1.5220  2.0600  1.6800 -6.3762  1.5220  2.0600  1.6800  0.5867  6073.6  115.90  13.981  37.176  36.173 
  6074.500 -10.293  1.5000  2.0450  1.7040 -6.3456  1.5000  2.0450  1.7040  0.5850  6074.1  116.07  13.979  37.180  36.175 
  6075.000 -10.153  1.4700  2.0080  1.7290 -6.2049  1.4700  2.0080  1.7290  0.5833  6074.6  116.25  13.977  37.185  36.177 
  6075.500 -9.7970  1.4620  1.9850  1.7530 -5.8483  1.4620  1.9850  1.7530  0.5817  6075.1  116.42  13.974  37.189  36.178 
  6076.000 -9.2610  1.4470  1.9560  1.7770 -5.3116  1.4470  1.9560  1.7770  0.5800  6075.6  116.60  13.972  37.194  36.180 
  6076.500 -9.0860  1.4240  1.9190  1.7910 -5.1360  1.4240  1.9190  1.7910  0.5783  6076.1  116.77  13.970  37.198  36.181 
  6077.000 -8.9820  1.4090  1.8750  1.8040 -5.0314  1.4090  1.8750  1.8040  0.5767  6076.6  116.95  13.968  37.203  36.183 
  6077.500 -9.0580  1.3870  1.8240  1.8100 -5.1067  1.3870  1.8240  1.8100  0.5750  6077.1  117.12  13.965  37.207  36.184 
  6078.000 -9.3860  1.3720  1.7950  1.7950 -5.4341  1.3720  1.7950  1.7950  0.5733  6077.6  117.30  13.963  37.212  36.186 
  6078.500 -9.9320  1.3640  1.7580  1.7800 -5.9794  1.3640  1.7580  1.7800  0.5717  6078.1  117.47  13.961  37.216  36.187 
  6079.000 -10.404  1.3480  1.7570  1.7500 -6.4508  1.3480  1.7570  1.7500  0.5700  6078.6  117.65  13.958  37.220  36.189 
  6079.500 -10.625  1.3400  1.7560  1.7130 -6.6712  1.3400  1.7560  1.7130  0.5683  6079.1  117.82  13.956  37.225  36.190 
  6080.000 -10.340  1.3400  1.7910  1.6980 -6.3855  1.3400  1.7910  1.6980  0.5667  6079.6  118.00  13.954  37.229  36.192 
  6080.500 -9.8050  1.3460  1.8980  1.7150 -5.8499  1.3460  1.8980  1.7150  0.5650  6080.1  118.17  13.951  37.234  36.193 
  6081.000 -9.6290  1.3740  1.9470  1.7330 -5.6732  1.3740  1.9470  1.7330  0.5633  6080.6  118.35  13.949  37.238  36.195 
  6081.500 -9.9220  1.3870  2.0180  1.8170 -5.9656  1.3870  2.0180  1.8170  0.5617  6081.1  118.52  13.947  37.242  36.196 
  6082.000 -9.3850  1.4010  2.0460  1.8880 -5.4279  1.4010  2.0460  1.8880  0.5600  6081.6  118.70  13.944  37.247  36.197 
  6082.500 -8.7060  1.4430  2.0520  1.9660 -4.7483  1.4430  2.0520  1.9660  0.5583  6082.1  118.87  13.942  37.251  36.199 
  6083.000 -8.7820  1.4560  2.0370  2.0230 -4.8237  1.4560  2.0370  2.0230  0.5567  6082.6  119.05  13.940  37.255  36.200 
  6083.500 -9.4350  1.4700  2.0150  2.0580 -5.4760  1.4700  2.0150  2.0580  0.5550  6083.1  119.22  13.937  37.259  36.201 
  6084.000 -8.9350  1.4690  1.9930  2.0710 -4.9754  1.4690  1.9930  2.0710  0.5533  6083.6  119.40  13.935  37.263  36.203 
  6084.500 -7.7510  1.4680  1.9700  2.0560 -3.7907  1.4680  1.9700  2.0560  0.5517  6084.1  119.57  13.933  37.268  36.204 
  6085.000 -7.7910  1.4640  1.9410  2.0340 -3.8301  1.4640  1.9410  2.0340  0.5500  6084.6  119.75  13.930  37.272  36.205 
  6085.500 -8.4080  1.4600  1.9110  2.0120 -4.4465  1.4600  1.9110  2.0120  0.5483  6085.1  119.92  13.928  37.276  36.207 
  6086.000 -8.0170  1.4440  1.8640  1.8890 -4.0548  1.4440  1.8640  1.8890  0.5467  6085.6  120.10  13.925  37.280  36.208 
  6086.500 -7.8050  1.4360  1.8160  1.8200 -3.8422  1.4360  1.8160  1.8200  0.5450  6086.1  120.27  13.923  37.284  36.209 
  6087.000 -7.7370  1.4210  1.7580  1.7510 -3.7735  1.4210  1.7580  1.7510  0.5433  6086.6  120.45  13.921  37.288  36.210 
  6087.500 -8.3540  1.4130  1.7140  1.6710 -4.3899  1.4130  1.7140  1.6710  0.5417  6087.1  120.62  13.918  37.292  36.211 
  6088.000 -8.7910  1.4050  1.6770  1.7270 -4.8263  1.4050  1.6770  1.7270  0.5400  6087.6  120.80  13.916  37.296  36.213 
  6088.500 -9.1550  1.3970  1.6410  1.7590 -5.1896  1.3970  1.6410  1.7590  0.5383  6088.1  120.97  13.913  37.300  36.214 
  6089.000 -9.0880  1.3960  1.6040  1.7910 -5.1220  1.3960  1.6040  1.7910  0.5367  6088.6  121.15  13.911  37.304  36.215 
  6089.500 -9.2000  1.3950  1.5670  1.8760 -5.2333  1.3950  1.5670  1.8760  0.5350  6089.1  121.32  13.909  37.308  36.216 
  6090.000 -9.6730  1.4010  1.5450  1.9320 -5.7057  1.4010  1.5450  1.9320  0.5333  6089.6  121.50  13.906  37.312  36.217 
  6090.500 -9.4250  1.4000  1.5300  1.9170 -5.4571  1.4000  1.5300  1.9170  0.5317  6090.1  121.67  13.904  37.316  36.218 
  6091.000 -9.0330  1.3920  1.4960  1.8660 -5.0644  1.3920  1.4960  1.8660  0.5300  6090.6  121.85  13.901  37.320  36.219 
  6091.500 -9.5060  1.3840  1.4630  1.8220 -5.5368  1.3840  1.4630  1.8220  0.5283  6091.1  122.02  13.899  37.324  36.220 
  6092.000 -9.6900  1.3760  1.4480  1.7490 -5.7201  1.3760  1.4480  1.7490  0.5267  6091.6  122.20  13.896  37.328  36.221 
  6092.500 -9.8030  1.3760  1.4330  1.6840 -5.8325  1.3760  1.4330  1.6840  0.5250  6092.1  122.37  13.894  37.332  36.222 
  6093.000 -9.8430  1.3750  1.5540  1.6470 -5.8718  1.3750  1.5540  1.6470  0.5234  6092.6  122.55  13.891  37.336  36.223 
  6093.500 -9.4150  1.3810  1.6250  1.6430 -5.4432  1.3810  1.6250  1.6430  0.5217  6093.1  122.72  13.889  37.340  36.224 
  6094.000 -8.4120  1.3800  1.7100  1.6380 -4.4396  1.3800  1.7100  1.6380  0.5200  6093.6  122.90  13.887  37.343  36.225 
  6094.500 -7.9470  1.3860  1.8160  1.6660 -3.9739  1.3860  1.8160  1.6660  0.5184  6094.1  123.07  13.884  37.347  36.226 
  6095.000 -8.2400  1.3930  1.8440  1.7580 -4.2663  1.3930  1.8440  1.7580  0.5167  6094.6  123.25  13.882  37.351  36.227 
  6095.500 -8.4250  1.3920  1.8620  1.8150 -4.4506  1.3920  1.8620  1.8150  0.5150  6095.1  123.42  13.879  37.355  36.228 
  6096.000 -8.1770  1.4020  1.8790  1.8790 -4.2020  1.4020  1.8790  1.8790  0.5134  6095.6  123.60  13.877  37.358  36.229 
  6096.500 -8.2890  1.4120  1.8990  1.9140 -4.3134  1.4120  1.8990  1.9140  0.5117  6096.1  123.77  13.874  37.362  36.230 
  6097.000 -9.1940  1.4180  1.9060  1.9340 -5.2177  1.4180  1.9060  1.9340  0.5100  6096.6  123.95  13.872  37.366  36.230 
  6097.500 -9.7390  1.4310  1.9120  1.9260 -5.7621  1.4310  1.9120  1.9260  0.5084  6097.1  124.12  13.869  37.370  36.231 
  6098.000 -10.067  1.4450  1.9180  1.9190 -6.0894  1.4450  1.9180  1.9190  0.5067  6097.6  124.30  13.867  37.373  36.232 
  6098.500 -10.304  1.4660  1.9170  1.8880 -6.3258  1.4660  1.9170  1.8880  0.5050  6098.1  124.47  13.864  37.377  36.233 
  6099.000 -10.542  1.4930  1.9090  1.8590 -6.5632  1.4930  1.9090  1.8590  0.5034  6098.6  124.65  13.862  37.380  36.234 
  6099.500 -10.909  1.5000  1.8870  1.8290 -6.9295  1.5000  1.8870  1.8290  0.5017  6099.1  124.82  13.859  37.384  36.234 
  6100.000 -10.336  1.5280  1.8720  1.8000 -6.3559  1.5280  1.8720  1.8000  0.5000  6099.6  125.00  13.857  37.388  36.235 
  6100.500 -9.9450  1.5550  1.8570  1.7780 -5.9642  1.5550  1.8570  1.7780  0.5000  6100.1  124.91  13.854  37.391  36.236 
  6101.000 -9.7330  1.5970  1.8420  1.7700 -5.7516  1.5970  1.8420  1.7700  0.5000  6100.6  124.83  13.852  37.395  36.237 
  6101.500 -10.313  1.6260  1.8340  1.7900 -6.3309  1.6260  1.8340  1.7900  0.5000  6101.1  124.74  13.849  37.398  36.238 
  6102.000 -10.822  1.6540  1.8290  1.8080 -6.8393  1.6540  1.8290  1.8080  0.5000  6101.6  124.66  13.847  37.402  36.238 
