~Version Information
VERS.                     2.0: CWLS log ASCII Standard Version 2.00
WRAP.                      NO: One line per depth step
~Well Information Block
#MNEM.UNIT                               Data Type  Information
#---------                               ---------  -----------
STRT.FT                                   350.0000:
STOP.FT                                  7530.0000:
STEP.FT                                     0.5000:
NULL.                 -999.25                     :
COMP.                                             :COMPANY            
WELL.     CCMO 67-20                              :WELL               
FLD .                                             :FIELD              
CTRY.                                             :COUNTRY            
STAT.                                             :STATE              
LOC .                                             :LOCATION           
UWI .                                             :UNIQUE WELL ID     
SRVC.                                             :Service company    
DATE.                                             :LOG DATE           
~Curve Information
#MNEM.UNIT           API CODE  Curve Description
#---------           --------  -----------------
DEPT.FT                      :   1 DEPTH
SP  .MV                      :   2
AM16.OHMM                    :   3
AO10.OHMM                    :   4
AO19.OHMM                    :   5
SBL .MV                      :   6
RS  .OHMM                    :   7
RM  .OHMM                    :   8
RD  .OHMM                    :   9
DEVI.DEG                     :  10
TVD .FT                      :  11
AZIM.DEG                     :  12
NORT.FT                      :  13
EAST.FT                      :  14
OFFS.FT                      :  15
~A
# ...
  5127.500 -15.736  4.7570  6.0970  5.6570 -13.003  4.7570  6.0970  5.6570  1.4541  5127.3  54.122  5.8036  24.820  21.654 
  5128.000 -12.209  4.6280  6.0610  5.5850 -9.4750  4.6280  6.0610  5.5850  1.4532  5127.8  54.197  5.8110  24.831  21.667 
  5128.500 -10.447  4.4550  6.0180  5.3120 -7.7124  4.4550  6.0180  5.3120  1.4524  5128.3  54.272  5.8184  24.841  21.679 
  5129.000 -9.9450  4.3330  5.9460  5.0460 -7.2097  4.3330  5.9460  5.0460  1.4516  5128.8  54.347  5.8258  24.851  21.692 
  5129.500 -9.7670  4.1540  5.7810  4.7670 -7.0311  4.1540  5.7810  4.7670  1.4507  5129.3  54.422  5.8331  24.862  21.704 
  5130.000 -9.6250  3.9670  5.4080  4.5220 -6.8885  3.9670  5.4080  4.5220  1.4499  5129.8  54.497  5.8405  24.872  21.717 
  5130.500 -9.5900  3.7520  4.7190  4.3720 -6.8528  3.7520  4.7190  4.3720  1.4491  5130.3  54.572  5.8478  24.882  21.729 
  5131.000 -9.5920  3.7440  4.2460  4.2140 -6.8542  3.7440  4.2460  4.2140  1.4482  5130.8  54.647  5.8551  24.893  21.742 
  5131.500 -9.5940  3.8800  4.0160  4.0550 -6.8555  3.8800  4.0160  4.0550  1.4474  5131.3  54.722  5.8624  24.903  21.754 
  5132.000 -9.7400  3.9870  4.0160  4.0910 -7.0009  3.9870  4.0160  4.0910  1.4466  5131.8  54.797  5.8697  24.913  21.767 
  5132.500 -11.073  4.0800  4.0510  4.1840 -8.3333  4.0800  4.0510  4.1840  1.4457  5132.3  54.872  5.8770  24.923  21.779 
  5133.000 -12.947  4.1660  4.0940  4.3840 -10.207  4.1660  4.0940  4.3840  1.4449  5132.8  54.947  5.8842  24.934  21.792 
  5133.500 -14.605  4.2730  4.2870  4.5340 -11.864  4.2730  4.2870  4.5340  1.4441  5133.3  55.022  5.8914  24.944  21.804 
  5134.000 -15.939  4.3440  4.4440  4.7700 -13.197  4.3440  4.4440  4.7700  1.4432  5133.8  55.097  5.8986  24.954  21.816 
  5134.500 -16.409  4.4220  4.6380  4.9640 -13.667  4.4220  4.6380  4.9640  1.4424  5134.3  55.172  5.9058  24.965  21.829 
  5135.000 -14.574  4.4010  4.7230  5.1500 -11.831  4.4010  4.7230  5.1500  1.4416  5134.8  55.247  5.9130  24.975  21.841 
  5135.500 -11.552  4.3500  4.7370  5.2210 -8.8084  4.3500  4.7370  5.2210  1.4407  5135.3  55.322  5.9201  24.985  21.854 
  5136.000 -10.078  4.2780  4.7080  5.1200 -7.3338  4.2780  4.7080  5.1200  1.4399  5135.8  55.397  5.9273  24.996  21.866 
  5136.500 -9.4680  4.1990  4.6790  4.8470 -6.7231  4.1990  4.6790  4.8470  1.4391  5136.3  55.472  5.9344  25.006  21.878 
  5137.000 -9.3250  4.0980  4.5640  4.7680 -6.5795  4.0980  4.5640  4.7680  1.4382  5136.8  55.547  5.9415  25.016  21.891 
  5137.500 -9.2550  3.9830  4.4780  4.6320 -6.5088  3.9830  4.4780  4.6320  1.4374  5137.3  55.622  5.9486  25.027  21.903 
  5138.000 -9.2930  3.8250  4.4920  4.4950 -6.5462  3.8250  4.4920  4.4950  1.4365  5137.8  55.697  5.9556  25.037  21.915 
  5138.500 -9.5110  3.8610  4.5410  4.3940 -6.7636  3.8610  4.5410  4.3940  1.4357  5138.3  55.772  5.9627  25.048  21.928 
  5139.000 -9.9090  3.9320  4.5770  4.3650 -7.1609  3.9320  4.5770  4.3650  1.4349  5138.8  55.847  5.9697  25.058  21.940 
  5139.500 -10.234  4.0250  4.6120  4.4440 -7.4853  4.0250  4.6120  4.4440  1.4340  5139.3  55.922  5.9767  25.068  21.952 
  5140.000 -10.920  4.0890  4.6410  4.5010 -8.1706  4.0890  4.6410  4.5010  1.4332  5139.8  55.997  5.9837  25.079  21.964 
  5140.500 -11.750  4.1600  4.6550  4.5580 -9.0000  4.1600  4.6550  4.5580  1.4324  5140.3  56.072  5.9907  25.089  21.977 
  5141.000 -12.112  4.1960  4.6830  4.6510 -9.3614  4.1960  4.6830  4.6510  1.4315  5140.8  56.147  5.9977  25.099  21.989 
  5141.500 -11.681  4.1810  4.6900  4.6790 -8.9297  4.1810  4.6900  4.6790  1.4307  5141.3  56.222  6.0046  25.110  22.001 
  5142.000 -10.171  4.1090  4.6750  4.5780 -7.4191  4.1090  4.6750  4.5780  1.4299  5141.8  56.297  6.0115  25.120  22.013 
  5142.500 -9.5610  4.0440  4.6250  4.4200 -6.8084  4.0440  4.6250  4.4200  1.4290  5142.3  56.372  6.0184  25.131  22.026 
  5143.000 -9.1670  3.9510  4.5530  4.2550 -6.4138  3.9510  4.5530  4.2550  1.4282  5142.8  56.447  6.0253  25.141  22.038 
  5143.500 -9.1690  3.8430  4.3730  4.0760 -6.4152  3.8430  4.3730  4.0760  1.4274  5143.3  56.522  6.0322  25.151  22.050 
  5144.000 -9.3150  3.7420  4.1790  3.8960 -6.5605  3.7420  4.1790  3.8960  1.4265  5143.8  56.597  6.0390  25.162  22.062 
  5144.500 -9.4600  3.7920  3.9640  3.7520 -6.7049  3.7920  3.9640  3.7520  1.4257  5144.3  56.672  6.0459  25.172  22.074 
  5145.000 -9.7500  4.0140  3.8630  3.6370 -6.9942  4.0140  3.8630  3.6370  1.4249  5144.8  56.747  6.0527  25.182  22.087 
  5145.500 -10.400  4.1850  3.8770  3.5650 -7.6436  4.1850  3.8770  3.5650  1.4240  5145.3  56.822  6.0595  25.193  22.099 
  5146.000 -11.985  4.4140  3.9340  3.8520 -9.2279  4.4140  3.9340  3.8520  1.4232  5145.7  56.897  6.0663  25.203  22.111 
  5146.500 -14.615  4.6070  4.0340  4.0730 -11.857  4.6070  4.0340  4.0730  1.4224  5146.2  56.972  6.0730  25.214  22.123 
  5147.000 -18.721  4.8720  4.1480  4.3530 -15.963  4.8720  4.1480  4.3530  1.4215  5146.7  57.047  6.0798  25.224  22.135 
  5147.500 -23.763  5.4600  4.3490  4.6100 -21.004  5.4600  4.3490  4.6100  1.4207  5147.2  57.122  6.0865  25.235  22.147 
  5148.000 -26.716  6.0250  4.6280  4.8890 -23.956  6.0250  4.6280  4.8890  1.4198  5147.7  57.197  6.0932  25.245  22.159 
  5148.500 -29.778  6.7700  4.8350  5.0580 -27.018  6.7700  4.8350  5.0580  1.4190  5148.2  57.272  6.0999  25.255  22.172 
  5149.000 -34.352  7.2500  5.0210  5.2260 -31.591  7.2500  5.0210  5.2260  1.4182  5148.7  57.347  6.1066  25.266  22.184 
  5149.500 -36.946  7.7730  5.4220  5.5550 -34.184  7.7730  5.4220  5.5550  1.4173  5149.2  57.422  6.1133  25.276  22.196 
  5150.000 -37.812  8.3460  5.8300  5.8130 -35.050  8.3460  5.8300  5.8130  1.4165  5149.7  57.497  6.1199  25.287  22.208 
  5150.500 -37.704  8.9050  6.5470  6.0350 -34.941  8.9050  6.5470  6.0350  1.4157  5150.2  57.572  6.1265  25.297  22.220 
  5151.000 -36.876  9.2780  7.1060  6.2710 -34.113  9.2780  7.1060  6.2710  1.4148  5150.7  57.647  6.1331  25.307  22.232 
  5151.500 -35.904  9.2060  7.5220  6.5580 -33.140  9.2060  7.5220  6.5580  1.4140  5151.2  57.722  6.1397  25.318  22.244 
  5152.000 -33.672  10.095  7.8370  6.9160 -30.907  10.095  7.8370  6.9160  1.4132  5151.7  57.797  6.1463  25.328  22.256 
  5152.500 -31.404  10.618  8.0520  7.0810 -28.639  10.618  8.0520  7.0810  1.4123  5152.2  57.872  6.1528  25.339  22.268 
  5153.000 -30.252  11.163  8.2460  7.3970 -27.486  11.163  8.2460  7.3970  1.4115  5152.7  57.947  6.1594  25.349  22.280 
  5153.500 -29.821  11.485  8.3680  7.6470 -27.054  11.485  8.3680  7.6470  1.4107  5153.2  58.022  6.1659  25.360  22.292 
  5154.000 -29.605  11.521  8.4250  7.8770 -26.838  11.521  8.4250  7.8770  1.4098  5153.7  58.097  6.1724  25.370  22.304 
  5154.500 -28.813  11.027  8.4610  7.9840 -26.045  11.027  8.4610  7.9840  1.4090  5154.2  58.172  6.1789  25.381  22.316 
  5155.000 -28.129  10.288  8.2670  7.8410 -25.360  10.288  8.2670  7.8410  1.4082  5154.7  58.247  6.1853  25.391  22.328 
  5155.500 -26.437  9.8080  8.1020  7.5690 -23.668  9.8080  8.1020  7.5690  1.4073  5155.2  58.322  6.1918  25.401  22.340 
  5156.000 -24.241  9.2130  7.5150  6.9810 -21.471  9.2130  7.5150  6.9810  1.4065  5155.7  58.397  6.1982  25.412  22.352 
  5156.500 -21.974  8.5830  6.8050  6.5580 -19.203  8.5830  6.8050  6.5580  1.4057  5156.2  58.472  6.2046  25.422  22.364 
  5157.000 -19.562  7.9450  6.3110  5.9630 -16.791  7.9450  6.3110  5.9630  1.4048  5156.7  58.547  6.2110  25.433  22.376 
  5157.500 -16.610  7.2280  5.9090  5.3320 -13.838  7.2280  5.9090  5.3320  1.4040  5157.2  58.622  6.2174  25.443  22.387 
  5158.000 -15.098  5.8450  5.4360  4.7090 -12.326  5.8450  5.4360  4.7090  1.4031  5157.7  58.697  6.2238  25.454  22.399 
  5158.500 -14.828  5.5510  5.0780  4.2570 -12.055  5.5510  5.0780  4.2570  1.4023  5158.2  58.772  6.2301  25.464  22.411 
  5159.000 -14.558  5.4940  4.7840  3.9280 -11.784  5.4940  4.7840  3.9280  1.4015  5158.7  58.847  6.2364  25.475  22.423 
  5159.500 -14.199  5.4580  4.5690  3.6910 -11.425  5.4580  4.5690  3.6910  1.4006  5159.2  58.922  6.2428  25.485  22.435 
