~Version Information
VERS.                     2.0: CWLS log ASCII Standard Version 2.00
WRAP.                      NO: One line per depth step
~Well Information Block
#MNEM.UNIT                               Data Type  Information
#---------                               ---------  -----------
STRT.FT                                   350.0000:
STOP.FT                                  7530.0000:
STEP.FT                                     0.5000:
NULL.                 -999.25                     :
COMP.                                             :COMPANY            
WELL.     CCMO 67-20                              :WELL               
FLD .                                             :FIELD              
CTRY.                                             :COUNTRY            
STAT.                                             :STATE              
LOC .                                             :LOCATION           
UWI .                                             :UNIQUE WELL ID     
SRVC.                                             :Service company    
DATE.                                             :LOG DATE           
~Curve Information
#MNEM.UNIT           API CODE  Curve Description
#---------           --------  -----------------
DEPT.FT                      :   1 DEPTH
SP  .MV                      :   2
AM16.OHMM                    :   3
AO10.OHMM                    :   4
AO19.OHMM                    :   5
SBL .MV                      :   6
RS  .OHMM                    :   7
RM  .OHMM                    :   8
RD  .OHMM                    :   9
DEVI.DEG                     :  10
TVD .FT                      :  11
AZIM.DEG                     :  12
NORT.FT                      :  13
EAST.FT                      :  14
OFFS.FT                      :  15
~A
# ...
  3210.000 -45.868  13.506  20.108  19.825 -35.906  13.506  20.108  19.825  0.6333  3210.0  78.699  2.7298  2.2598  3.5281 
  3210.500 -45.548  13.169  20.100  19.774 -35.589  13.169  20.100  19.774  0.6317  3210.5  78.884  2.7308  2.2652  3.5327 
  3211.000 -44.976  12.831  20.092  19.665 -35.020  12.831  20.092  19.665  0.6300  3211.0  79.069  2.7319  2.2706  3.5373 
  3211.500 -44.512  12.443  20.084  19.442 -34.559  12.443  20.084  19.442  0.6283  3211.5  79.254  2.7329  2.2760  3.5418 
  3212.000 -44.083  11.761  20.083  19.126 -34.133  11.761  20.083  19.126  0.6267  3212.0  79.439  2.7339  2.2813  3.5463 
  3212.500 -43.690  11.373  20.075  18.681 -33.743  11.373  20.075  18.681  0.6250  3212.5  79.624  2.7349  2.2867  3.5508 
  3213.000 -42.866  10.964  20.067  18.171 -32.922  10.964  20.067  18.171  0.6233  3213.0  79.809  2.7358  2.2921  3.5553 
  3213.500 -41.897  10.555  20.074  17.590 -31.956  10.555  20.074  17.590  0.6217  3213.5  79.994  2.7368  2.2974  3.5597 
  3214.000 -40.424  10.016  20.037  16.930 -30.486  10.016  20.037  16.930  0.6200  3214.0  80.179  2.7377  2.3027  3.5641 
  3214.500 -38.411  9.6000  19.792  16.384 -28.476  9.6000  19.792  16.384  0.6183  3214.5  80.364  2.7386  2.3081  3.5685 
  3215.000 -36.794  9.1980  19.433  15.925 -26.862  9.1980  19.433  15.925  0.6167  3215.0  80.549  2.7395  2.3134  3.5729 
  3215.500 -35.284  8.7530  18.931  15.401 -25.355  8.7530  18.931  15.401  0.6150  3215.5  80.734  2.7404  2.3187  3.5773 
  3216.000 -33.848  8.2140  18.450  14.826 -23.922  8.2140  18.450  14.826  0.6133  3216.0  80.919  2.7412  2.3239  3.5816 
  3216.500 -32.807  7.9630  17.840  14.116 -22.884  7.9630  17.840  14.116  0.6116  3216.5  81.104  2.7420  2.3292  3.5859 
  3217.000 -31.947  7.6750  17.559  13.277 -22.027  7.6750  17.559  13.277  0.6100  3217.0  81.289  2.7428  2.3345  3.5902 
  3217.500 -31.410  7.4450  16.878  12.867 -21.493  7.4450  16.878  12.867  0.6083  3217.5  81.474  2.7436  2.3397  3.5945 
  3218.000 -30.945  7.2860  15.873  12.415 -21.031  7.2860  15.873  12.415  0.6066  3218.0  81.659  2.7444  2.3450  3.5987 
  3218.500 -30.517  6.9920  14.891  12.084 -20.606  6.9920  14.891  12.084  0.6050  3218.5  81.844  2.7451  2.3502  3.6030 
  3219.000 -30.197  6.6830  14.374  11.833 -20.289  6.6830  14.374  11.833  0.6033  3219.0  82.029  2.7459  2.3554  3.6072 
  3219.500 -30.020  6.2880  13.742  11.624 -20.115  6.2880  13.742  11.624  0.6016  3219.5  82.214  2.7466  2.3606  3.6113 
  3220.000 -29.017  6.0790  13.318  11.401 -19.115  6.0790  13.318  11.401  0.6000  3220.0  82.399  2.7473  2.3658  3.6155 
  3220.500 -28.300  5.8780  12.830  11.135 -18.401  5.8780  12.830  11.135  0.5983  3220.5  82.584  2.7480  2.3710  3.6196 
  3221.000 -27.475  5.6040  12.206  10.826 -17.579  5.6040  12.206  10.826  0.5966  3221.0  82.769  2.7486  2.3761  3.6237 
  3221.500 -24.921  5.4670  11.825  10.367 -15.028  5.4670  11.825  10.367  0.5950  3221.5  82.954  2.7492  2.3813  3.6278 
  3222.000 -20.098  5.3090  11.258  9.8780 -10.207  5.3090  11.258  9.8780  0.5933  3222.0  83.139  2.7499  2.3864  3.6319 
  3222.500 -18.733  5.0860  10.526  9.2040 -8.8454  5.0860  10.526  9.2040  0.5916  3222.5  83.324  2.7505  2.3916  3.6360 
  3223.000 -17.800  4.9200  9.2710  8.9090 -7.9154  4.9200  9.2710  8.9090  0.5900  3223.0  83.509  2.7510  2.3967  3.6400 
  3223.500 -17.372  4.8330  8.6180  8.8010 -7.4903  4.8330  8.6180  8.8010  0.5883  3223.5  83.694  2.7516  2.4018  3.6440 
  3224.000 -17.016  4.7970  8.2950  8.7500 -7.1373  4.7970  8.2950  8.7500  0.5866  3224.0  83.879  2.7522  2.4069  3.6480 
  3224.500 -16.839  4.7670  8.0650  8.7920 -6.9633  4.7670  8.0650  8.7920  0.5849  3224.5  84.064  2.7527  2.4120  3.6519 
  3225.000 -16.627  4.7520  7.8060  8.8340 -6.7542  4.7520  7.8060  8.8340  0.5833  3225.0  84.249  2.7532  2.4170  3.6559 
  3225.500 -16.523  4.7440  7.5900  8.9050 -6.6532  4.7440  7.5900  8.9050  0.5816  3225.5  84.434  2.7537  2.4221  3.6598 
  3226.000 -16.671  4.7860  7.4530  8.9760 -6.8041  4.7860  7.4530  8.9760  0.5799  3226.0  84.619  2.7542  2.4271  3.6637 
  3226.500 -17.035  4.9220  7.3160  9.1400 -7.1711  4.9220  7.3160  9.1400  0.5783  3226.5  84.804  2.7546  2.4321  3.6676 
  3227.000 -18.948  5.1860  7.2220  9.3540 -9.0871  5.1860  7.2220  9.3540  0.5766  3227.0  84.989  2.7551  2.4371  3.6714 
  3227.500 -22.986  5.6440  7.1710  9.6760 -13.128  5.6440  7.1710  9.6760  0.5749  3227.5  85.174  2.7555  2.4421  3.6753 
  3228.000 -26.376  6.0590  7.2850  10.055 -16.521  6.0590  7.2850  10.055  0.5733  3228.0  85.359  2.7559  2.4471  3.6791 
  3228.500 -29.442  6.6530  7.3490  10.470 -19.590  6.6530  7.3490  10.470  0.5716  3228.5  85.544  2.7563  2.4521  3.6829 
  3229.000 -31.715  7.2330  7.3840  10.806 -21.866  7.2330  7.3840  10.806  0.5699  3229.0  85.729  2.7566  2.4571  3.6866 
  3229.500 -33.521  7.8060  7.4690  11.228 -23.675  7.8060  7.4690  11.228  0.5683  3229.5  85.914  2.7570  2.4620  3.6904 
  3230.000 -35.470  8.5070  8.4430  11.607 -25.627  8.5070  8.4430  11.607  0.5666  3230.0  86.099  2.7573  2.4669  3.6941 
  3230.500 -37.022  9.0300  8.7290  11.936 -27.182  9.0300  8.7290  11.936  0.5649  3230.5  86.284  2.7577  2.4719  3.6978 
  3231.000 -38.431  9.4310  8.9140  12.308 -28.594  9.4310  8.9140  12.308  0.5633  3231.0  86.469  2.7580  2.4768  3.7015 
  3231.500 -39.804  9.7810  9.0070  12.587 -29.970  9.7810  9.0070  12.587  0.5616  3231.5  86.654  2.7582  2.4817  3.7052 
  3232.000 -41.032  10.210  9.0850  12.773 -31.201  10.210  9.0850  12.773  0.5599  3232.0  86.839  2.7585  2.4865  3.7088 
  3232.500 -41.865  10.604  9.1060  12.894 -32.037  10.604  9.1060  12.894  0.5583  3232.5  87.024  2.7588  2.4914  3.7124 
  3233.000 -42.625  10.832  9.0830  12.943 -32.800  10.832  9.0830  12.943  0.5566  3233.0  87.209  2.7590  2.4963  3.7160 
  3233.500 -43.025  10.853  9.0470  12.950 -33.203  10.853  9.0470  12.950  0.5549  3233.5  87.394  2.7592  2.5011  3.7196 
  3234.000 -42.849  10.888  9.0030  12.863 -33.029  10.888  9.0030  12.863  0.5532  3234.0  87.579  2.7594  2.5059  3.7232 
  3234.500 -42.745  10.923  8.9520  12.790 -32.928  10.923  8.9520  12.790  0.5516  3234.5  87.764  2.7596  2.5107  3.7267 
  3235.000 -42.677  10.958  8.9150  12.625 -32.863  10.958  8.9150  12.625  0.5499  3235.0  87.949  2.7598  2.5155  3.7302 
  3235.500 -42.716  11.029  8.8930  12.524 -32.905  11.029  8.8930  12.524  0.5482  3235.5  88.134  2.7599  2.5203  3.7337 
  3236.000 -42.829  11.164  8.8710  12.422 -33.021  11.164  8.8710  12.422  0.5466  3236.0  88.319  2.7601  2.5251  3.7372 
  3236.500 -43.012  11.386  8.8700  12.386 -33.207  11.386  8.8700  12.386  0.5449  3236.5  88.504  2.7602  2.5298  3.7406 
  3237.000 -43.340  11.578  8.8760  12.428 -33.538  11.578  8.8760  12.428  0.5432  3237.0  88.689  2.7603  2.5346  3.7440 
  3237.500 -43.921  11.793  8.9190  12.535 -34.122  11.793  8.9190  12.535  0.5416  3237.5  88.874  2.7604  2.5393  3.7474 
  3238.000 -44.537  12.201  8.9970  12.627 -34.741  12.201  8.9970  12.627  0.5399  3238.0  89.059  2.7605  2.5440  3.7508 
  3238.500 -45.117  12.666  9.1680  12.691 -35.324  12.666  9.1680  12.691  0.5382  3238.5  89.243  2.7605  2.5487  3.7542 
  3239.000 -45.805  12.995  9.6470  12.783 -36.015  12.995  9.6470  12.783  0.5366  3239.0  89.428  2.7606  2.5534  3.7575 
  3239.500 -46.277  13.259  10.184  12.875 -36.490  13.259  10.184  12.875  0.5349  3239.5  89.613  2.7606  2.5580  3.7609 
  3240.000 -46.606  13.430  10.979  12.939 -36.822  13.430  10.979  12.939  0.5332  3240.0  89.798  2.7606  2.5627  3.7642 
  3240.500 -46.574  13.594  12.218  12.974 -36.793  13.594  12.218  12.974  0.5316  3240.5  89.983  2.7606  2.5673  3.7674 
  3241.000 -46.362  13.694  12.762  12.995 -36.584  13.694  12.762  12.995  0.5299  3241.0  90.168  2.7606  2.5720  3.7707 
  3241.500 -46.077  13.751  13.363  12.894 -36.302  13.751  13.363  12.894  0.5282  3241.5  90.353  2.7606  2.5766  3.7739 
  3242.000 -45.505  13.793  14.051  12.786 -35.733  13.793  14.051  12.786  0.5266  3242.0  90.538  2.7606  2.5812  3.7772 
