~Version Information
VERS.                     2.0: CWLS log ASCII Standard Version 2.00
WRAP.                      NO: One line per depth step
~Well Information Block
#MNEM.UNIT                               Data Type  Information
#---------                               ---------  -----------
STRT.FT                                   350.0000:
STOP.FT                                  7530.0000:
STEP.FT                                     0.5000:
NULL.                 -999.25                     :
COMP.                                             :COMPANY            
WELL.     CCMO 67-20                              :WELL               
FLD .                                             :FIELD              
CTRY.                                             :COUNTRY            
STAT.                                             :STATE              
LOC .                                             :LOCATION           
UWI .                                             :UNIQUE WELL ID     
SRVC.                                             :Service company    
DATE.                                             :LOG DATE           
~Curve Information
#MNEM.UNIT           API CODE  Curve Description
#---------           --------  -----------------
DEPT.FT                      :   1 DEPTH
SP  .MV                      :   2
AM16.OHMM                    :   3
AO10.OHMM                    :   4
AO19.OHMM                    :   5
SBL .MV                      :   6
RS  .OHMM                    :   7
RM  .OHMM                    :   8
RD  .OHMM                    :   9
DEVI.DEG                     :  10
TVD .FT                      :  11
AZIM.DEG                     :  12
NORT.FT                      :  13
EAST.FT                      :  14
OFFS.FT                      :  15
~A
# ...
  1292.500 -21.800  2.9840  3.4000  3.9420 -17.325  2.9840  3.4000  3.9420  0.3206  1292.5  56.973  0.1586 -0.5279 -0.2612 
  1293.000 -19.218  2.9770  3.2210  3.8050 -14.764  2.9770  3.2210  3.8050  0.3214  1293.0  56.708  0.1601 -0.5256 -0.2584 
  1293.500 -16.528  3.0050  3.1050  3.8620 -12.095  3.0050  3.1050  3.8620  0.3222  1293.5  56.443  0.1617 -0.5233 -0.2557 
  1294.000 -14.162  3.0550  3.0480  3.9410 -9.7505  3.0550  3.0480  3.9410  0.3230  1294.0  56.178  0.1633 -0.5209 -0.2529 
  1294.500 -13.840  3.1340  3.0620  4.0910 -9.4498  3.1340  3.0620  4.0910  0.3239  1294.5  55.913  0.1649 -0.5186 -0.2501 
  1295.000 -15.133  3.2050  3.1760  4.2770 -10.764  3.2050  3.1760  4.2770  0.3247  1295.0  55.648  0.1665 -0.5162 -0.2473 
  1295.500 -16.497  3.3340  3.2410  4.4350 -12.149  3.3340  3.2410  4.4350  0.3255  1295.5  55.383  0.1681 -0.5139 -0.2445 
  1296.000 -17.862  3.3980  3.4120  4.5130 -13.536  3.3980  3.4120  4.5130  0.3264  1296.0  55.118  0.1697 -0.5116 -0.2417 
  1296.500 -17.791  3.4620  3.6340  4.5990 -13.486  3.4620  3.6340  4.5990  0.3272  1296.5  54.853  0.1713 -0.5092 -0.2389 
  1297.000 -17.290  3.6630  3.9930  4.6130 -13.006  3.6630  3.9930  4.6130  0.3280  1297.0  54.588  0.1730 -0.5069 -0.2361 
  1297.500 -17.183  3.7340  4.1220  4.5770 -12.921  3.7340  4.1220  4.5770  0.3289  1297.5  54.323  0.1747 -0.5046 -0.2333 
  1298.000 -19.373  3.8630  4.2150  4.5050 -15.132  3.8630  4.2150  4.5050  0.3297  1298.0  54.058  0.1764 -0.5022 -0.2304 
  1298.500 -22.316  3.9780  4.2790  4.4540 -18.096  3.9780  4.2790  4.4540  0.3305  1298.5  53.793  0.1781 -0.4999 -0.2276 
  1299.000 -22.425  4.0310  4.3220  4.4180 -18.227  4.0310  4.3220  4.4180  0.3313  1299.0  53.528  0.1798 -0.4976 -0.2247 
  1299.500 -17.870  4.0850  4.4070  4.4110 -13.693  4.0850  4.4070  4.4110  0.3322  1299.5  53.263  0.1815 -0.4953 -0.2218 
  1300.000 -14.785  4.2640  4.4570  4.4820 -10.629  4.2640  4.4570  4.4820  0.3330  1300.0  52.998  0.1833 -0.4929 -0.2190 
  1300.500 -16.329  4.3350  4.5290  4.6260 -12.195  4.3350  4.5290  4.6260  0.3326  1300.5  53.453  0.1850 -0.4906 -0.2161 
  1301.000 -19.235  4.4070  4.6000  4.7470 -15.122  4.4070  4.6000  4.7470  0.3322  1301.0  53.908  0.1867 -0.4883 -0.2132 
  1301.500 -22.931  4.5860  4.7580  4.8330 -18.839  4.5860  4.7580  4.8330  0.3318  1301.5  54.363  0.1884 -0.4859 -0.2104 
  1302.000 -24.187  4.6500  4.8440  4.9050 -20.117  4.6500  4.8440  4.9050  0.3313  1302.0  54.818  0.1901 -0.4835 -0.2075 
  1302.500 -22.394  4.7360  4.9870  4.9840 -18.345  4.7360  4.9870  4.9840  0.3309  1302.5  55.273  0.1917 -0.4812 -0.2047 
  1303.000 -21.139  4.8220  4.8940  4.8620 -17.111  4.8220  4.8940  4.8620  0.3305  1303.0  55.728  0.1933 -0.4788 -0.2018 
  1303.500 -21.355  4.9150  4.7140  4.7180 -17.348  4.9150  4.7140  4.7180  0.3301  1303.5  56.183  0.1949 -0.4764 -0.1990 
  1304.000 -23.579  4.9870  4.5130  4.5890 -19.594  4.9870  4.5130  4.5890  0.3297  1304.0  56.638  0.1965 -0.4740 -0.1962 
  1304.500 -23.257  5.0730  4.4770  4.5310 -19.293  5.0730  4.4770  4.5310  0.3293  1304.5  57.093  0.1981 -0.4716 -0.1934 
  1305.000 -21.500  5.1590  4.5990  4.6240 -17.557  5.1590  4.5990  4.6240  0.3289  1305.0  57.548  0.1996 -0.4692 -0.1906 
  1305.500 -21.715  5.2950  4.6850  4.9330 -17.794  5.2950  4.6850  4.9330  0.3284  1305.5  58.003  0.2011 -0.4667 -0.1878 
  1306.000 -22.326  5.3810  4.8930  5.2620 -18.426  5.3810  4.8930  5.2620  0.3280  1306.0  58.458  0.2026 -0.4643 -0.1850 
  1306.500 -22.685  5.4520  5.1370  5.4560 -18.806  5.4520  5.1370  5.4560  0.3276  1306.5  58.913  0.2041 -0.4618 -0.1822 
  1307.000 -22.291  5.5380  5.2800  5.6280 -18.434  5.5380  5.2800  5.6280  0.3272  1307.0  59.368  0.2056 -0.4594 -0.1795 
  1307.500 -21.646  5.5950  5.3010  5.7210 -17.810  5.5950  5.3010  5.7210  0.3268  1307.5  59.823  0.2070 -0.4569 -0.1767 
  1308.000 -21.072  5.6380  5.2800  5.7420 -17.257  5.6380  5.2800  5.7420  0.3264  1308.0  60.278  0.2084 -0.4544 -0.1740 
  1308.500 -20.570  5.6880  5.2800  5.7210 -16.777  5.6880  5.2800  5.7210  0.3259  1308.5  60.733  0.2098 -0.4520 -0.1712 
  1309.000 -20.248  5.7810  5.2790  5.7200 -16.476  5.7810  5.2790  5.7200  0.3255  1309.0  61.188  0.2112 -0.4495 -0.1685 
  1309.500 -21.181  5.9180  5.2790  5.7560 -17.430  5.9180  5.2790  5.7560  0.3251  1309.5  61.643  0.2125 -0.4470 -0.1658 
  1310.000 -22.401  6.0820  5.2860  5.7850 -18.671  6.0820  5.2860  5.7850  0.3247  1310.0  62.098  0.2138 -0.4445 -0.1631 
  1310.500 -23.765  6.2040  5.3360  5.8060 -20.057  6.2040  5.3360  5.8060  0.3243  1310.5  62.553  0.2151 -0.4420 -0.1604 
  1311.000 -24.376  6.3400  5.4440  5.8420 -20.689  6.3400  5.4440  5.8420  0.3239  1311.0  63.008  0.2164 -0.4394 -0.1577 
  1311.500 -24.843  6.4620  5.6440  5.8990 -21.177  6.4620  5.6440  5.8990  0.3235  1311.5  63.463  0.2177 -0.4369 -0.1550 
  1312.000 -25.202  6.5620  5.8310  5.9560 -21.558  6.5620  5.8310  5.9560  0.3230  1312.0  63.918  0.2189 -0.4344 -0.1524 
  1312.500 -25.382  6.5980  6.0600  5.9920 -21.759  6.5980  6.0600  5.9920  0.3226  1312.5  64.373  0.2201 -0.4318 -0.1497 
  1313.000 -25.490  6.5690  6.2180  5.9560 -21.888  6.5690  6.2180  5.9560  0.3222  1313.0  64.828  0.2213 -0.4293 -0.1471 
  1313.500 -25.132  6.4830  6.4110  5.9340 -21.552  6.4830  6.4110  5.9340  0.3218  1313.5  65.283  0.2225 -0.4267 -0.1444 
  1314.000 -24.450  6.3540  6.5110  5.8910 -20.891  6.3540  6.5110  5.8910  0.3214  1314.0  65.738  0.2237 -0.4242 -0.1418 
  1314.500 -23.698  6.3250  6.5970  5.8620 -20.160  6.3250  6.5970  5.8620  0.3210  1314.5  66.193  0.2248 -0.4216 -0.1392 
  1315.000 -22.945  6.3460  6.7190  5.8550 -19.429  6.3460  6.7190  5.8550  0.3206  1315.0  66.648  0.2259 -0.4191 -0.1366 
  1315.500 -22.479  6.3960  6.8480  5.8910 -18.984  6.3960  6.8480  5.8910  0.3201  1315.5  67.103  0.2270 -0.4165 -0.1340 
  1316.000 -22.156  6.4540  6.9560  5.9690 -18.682  6.4540  6.9560  5.9690  0.3197  1316.0  67.558  0.2281 -0.4139 -0.1314 
  1316.500 -22.982  6.5040  7.0630  6.0120 -19.530  6.5040  7.0630  6.0120  0.3193  1316.5  68.013  0.2291 -0.4113 -0.1289 
  1317.000 -24.095  6.5750  7.1920  6.1050 -20.664  6.5750  7.1920  6.1050  0.3189  1317.0  68.468  0.2301 -0.4087 -0.1263 
  1317.500 -25.351  6.6250  7.2630  6.1770 -21.941  6.6250  7.2630  6.1770  0.3185  1317.5  68.923  0.2311 -0.4061 -0.1238 
  1318.000 -26.248  6.6610  7.3350  6.2340 -22.859  6.6610  7.3350  6.2340  0.3181  1318.0  69.378  0.2321 -0.4035 -0.1212 
  1318.500 -26.105  6.6970  7.4930  6.2910 -22.738  6.6970  7.4930  6.2910  0.3176  1318.5  69.833  0.2331 -0.4009 -0.1187 
  1319.000 -24.671  6.7680  7.5790  6.3340 -21.325  6.7680  7.5790  6.3340  0.3172  1319.0  70.288  0.2340 -0.3983 -0.1162 
  1319.500 -22.554  6.7750  7.7360  6.3700 -19.229  6.7750  7.7360  6.3700  0.3168  1319.5  70.743  0.2349 -0.3957 -0.1137 
  1320.000 -21.012  6.8040  7.9230  6.4560 -17.709  6.8040  7.9230  6.4560  0.3164  1320.0  71.198  0.2358 -0.3931 -0.1112 
  1320.500 -21.766  6.8180  8.0590  6.5420 -18.484  6.8180  8.0590  6.5420  0.3160  1320.5  71.653  0.2367 -0.3905 -0.1088 
  1321.000 -23.561  6.8250  8.2950  6.8210 -20.300  6.8250  8.2950  6.8210  0.3156  1321.0  72.108  0.2375 -0.3879 -0.1063 
  1321.500 -25.714  6.7890  8.5250  7.0650 -22.475  6.7890  8.5250  7.0650  0.3152  1321.5  72.563  0.2383 -0.3853 -0.1039 
  1322.000 -25.822  6.6100  8.8540  7.2870 -22.604  6.6100  8.8540  7.2870  0.3147  1322.0  73.018  0.2391 -0.3826 -0.1015 
  1322.500 -25.715  6.2360  9.0620  7.4380 -22.518  6.2360  9.0620  7.4380  0.3143  1322.5  73.473  0.2399 -0.3800 -0.0991 
  1323.000 -25.428  5.8710  9.1120  7.4590 -22.253  5.8710  9.1120  7.4590  0.3139  1323.0  73.928  0.2407 -0.3774 -0.0967 
  1323.500 -24.316  5.5330  9.0830  7.3800 -21.162  5.5330  9.0830  7.3800  0.3135  1323.5  74.383  0.2414 -0.3747 -0.0943 
  1324.000 -21.770  5.3110  8.6530  6.9640 -18.637  5.3110  8.6530  6.9640  0.3131  1324.0  74.838  0.2421 -0.3721 -0.0919 
  1324.500 -17.895  5.1390  8.1720  6.6200 -14.784  5.1390  8.1720  6.6200  0.3127  1324.5  75.293  0.2428 -0.3695 -0.0896 
