~Version Information
VERS.                     2.0: CWLS log ASCII Standard Version 2.00
WRAP.                      NO: One line per depth step
~Well Information Block
#MNEM.UNIT                               Data Type  Information
#---------                               ---------  -----------
STRT.FT                                   350.0000:
STOP.FT                                  7530.0000:
STEP.FT                                     0.5000:
NULL.                 -999.25                     :
COMP.                                             :COMPANY            
WELL.     CCMO 67-20                              :WELL               
FLD .                                             :FIELD              
CTRY.                                             :COUNTRY            
STAT.                                             :STATE              
LOC .                                             :LOCATION           
UWI .                                             :UNIQUE WELL ID     
SRVC.                                             :Service company    
DATE.                                             :LOG DATE           
~Curve Information
#MNEM.UNIT           API CODE  Curve Description
#---------           --------  -----------------
DEPT.FT                      :   1 DEPTH
SP  .MV                      :   2
AM16.OHMM                    :   3
AO10.OHMM                    :   4
AO19.OHMM                    :   5
SBL .MV                      :   6
RS  .OHMM                    :   7
RM  .OHMM                    :   8
RD  .OHMM                    :   9
DEVI.DEG                     :  10
TVD .FT                      :  11
AZIM.DEG                     :  12
NORT.FT                      :  13
EAST.FT                      :  14
OFFS.FT                      :  15
~A
# ...
  2267.500 -37.208  5.3790  11.757  8.3660 -19.494  5.3790  11.757  8.3660  0.5292  2267.5  26.698  0.3982  1.5439  1.3733 
  2268.000 -35.403  5.0360  11.270  8.0510 -17.674  5.0360  11.270  8.0510  0.5300  2268.0  26.918  0.4023  1.5460  1.3777 
  2268.500 -33.418  4.7930  10.818  7.5570 -15.675  4.7930  10.818  7.5570  0.5308  2268.5  27.138  0.4065  1.5481  1.3821 
  2269.000 -31.828  4.6280  10.052  7.0560 -14.071  4.6280  10.052  7.0560  0.5317  2269.0  27.358  0.4106  1.5502  1.3865 
  2269.500 -30.851  4.4850  9.1280  6.6410 -13.080  4.4850  9.1280  6.6410  0.5325  2269.5  27.578  0.4147  1.5524  1.3909 
  2270.000 -30.269  4.4570  8.3760  6.4260 -12.483  4.4570  8.3760  6.4260  0.5333  2270.0  27.798  0.4188  1.5545  1.3954 
  2270.500 -30.694  4.4570  7.9470  6.3620 -12.894  4.4570  7.9470  6.3620  0.5342  2270.5  28.018  0.4229  1.5567  1.3998 
  2271.000 -31.083  4.4790  7.6820  6.4420 -13.269  4.4790  7.6820  6.4420  0.5350  2271.0  28.238  0.4271  1.5589  1.4043 
  2271.500 -31.328  4.6160  8.0330  6.5930 -13.499  4.6160  8.0330  6.5930  0.5358  2271.5  28.458  0.4312  1.5612  1.4088 
  2272.000 -31.466  4.9030  8.4490  7.1740 -13.623  4.9030  8.4490  7.1740  0.5367  2272.0  28.678  0.4353  1.5634  1.4133 
  2272.500 -32.539  5.1610  8.5210  7.7620 -14.682  5.1610  8.5210  7.7620  0.5375  2272.5  28.898  0.4394  1.5657  1.4178 
  2273.000 -34.115  5.6200  8.5790  8.2140 -16.244  5.6200  8.5790  8.2140  0.5383  2273.0  29.118  0.4435  1.5680  1.4223 
  2273.500 -34.145  5.8570  8.6440  8.5510 -16.259  5.8570  8.6440  8.5510  0.5392  2273.5  29.338  0.4476  1.5703  1.4268 
  2274.000 -34.354  6.1220  8.6800  8.6730 -16.454  6.1220  8.6800  8.6730  0.5400  2274.0  29.558  0.4517  1.5726  1.4314 
  2274.500 -35.031  6.2870  8.4510  8.7100 -17.117  6.2870  8.4510  8.7100  0.5408  2274.5  29.778  0.4558  1.5749  1.4359 
  2275.000 -35.996  6.3880  8.4940  8.8030 -18.067  6.3880  8.4940  8.8030  0.5417  2275.0  29.998  0.4599  1.5773  1.4405 
  2275.500 -36.997  6.4100  8.7530  9.4060 -19.054  6.4100  8.7530  9.4060  0.5425  2275.5  30.218  0.4640  1.5797  1.4451 
  2276.000 -36.954  6.3670  9.2040  9.8150 -18.997  6.3670  9.2040  9.8150  0.5433  2276.0  30.438  0.4681  1.5821  1.4497 
  2276.500 -36.948  6.2810  9.4700  10.202 -18.977  6.2810  9.4700  10.202  0.5442  2276.5  30.658  0.4721  1.5845  1.4543 
  2277.000 -38.093  6.1380  9.5280  10.504 -20.107  6.1380  9.5280  10.504  0.5450  2277.0  30.878  0.4762  1.5870  1.4589 
  2277.500 -40.174  5.9810  9.5350  10.647 -22.174  5.9810  9.5350  10.647  0.5458  2277.5  31.098  0.4803  1.5894  1.4635 
  2278.000 -39.915  5.8240  9.4570  10.720 -21.901  5.8240  9.4570  10.720  0.5466  2278.0  31.318  0.4844  1.5919  1.4681 
  2278.500 -38.613  5.6170  9.2710  10.699 -20.584  5.6170  9.2710  10.699  0.5475  2278.5  31.538  0.4884  1.5944  1.4728 
  2279.000 -35.081  5.4810  8.8200  10.183 -17.038  5.4810  8.8200  10.183  0.5483  2279.0  31.758  0.4925  1.5969  1.4774 
  2279.500 -32.880  5.3020  8.0250  9.6250 -14.823  5.3020  8.0250  9.6250  0.5491  2279.5  31.978  0.4966  1.5994  1.4821 
  2280.000 -32.406  5.1660  7.2230  9.0950 -14.335  5.1660  7.2230  9.0950  0.5500  2280.0  32.198  0.5006  1.6020  1.4868 
  2280.500 -32.111  5.0880  6.4780  8.6660 -14.025  5.0880  6.4780  8.6660  0.5508  2280.5  32.418  0.5047  1.6046  1.4915 
  2281.000 -31.456  4.9880  6.1490  8.5580 -13.356  4.9880  6.1490  8.5580  0.5516  2281.0  32.638  0.5088  1.6072  1.4962 
  2281.500 -31.307  4.9240  5.9410  8.4510 -13.193  4.9240  5.9410  8.4510  0.5525  2281.5  32.858  0.5128  1.6098  1.5009 
  2282.000 -32.307  4.8450  5.7980  8.4090 -14.178  4.8450  5.7980  8.4090  0.5533  2282.0  33.078  0.5168  1.6124  1.5056 
  2282.500 -32.301  4.8100  5.7200  8.3670 -14.158  4.8100  5.7200  8.3670  0.5541  2282.5  33.298  0.5209  1.6151  1.5104 
  2283.000 -31.216  4.7670  5.6770  8.2810 -13.059  4.7670  5.6770  8.2810  0.5550  2283.0  33.518  0.5249  1.6178  1.5151 
  2283.500 -30.056  4.7240  5.6780  8.0810 -11.885  4.7240  5.6780  8.0810  0.5558  2283.5  33.738  0.5290  1.6205  1.5199 
  2284.000 -29.907  4.6670  5.6780  7.9310 -11.721  4.6670  5.6780  7.9310  0.5566  2284.0  33.958  0.5330  1.6232  1.5246 
  2284.500 -30.620  4.5820  5.7280  7.8670 -12.420  4.5820  5.7280  7.8670  0.5575  2284.5  34.178  0.5370  1.6259  1.5294 
  2285.000 -30.974  4.5610  5.7790  7.7890 -12.760  4.5610  5.7790  7.7890  0.5583  2285.0  34.398  0.5410  1.6287  1.5342 
  2285.500 -30.571  4.5970  5.7790  7.7320 -12.342  4.5970  5.7790  7.7320  0.5591  2285.5  34.618  0.5450  1.6314  1.5390 
  2286.000 -30.745  4.6330  5.7580  7.5960 -12.502  4.6330  5.7580  7.5960  0.5600  2286.0  34.838  0.5491  1.6342  1.5438 
  2286.500 -31.062  4.6690  5.7440  7.4610 -12.805  4.6690  5.7440  7.4610  0.5608  2286.5  35.058  0.5531  1.6370  1.5486 
  2287.000 -30.768  4.7490  5.7590  7.3320 -12.497  4.7490  5.7590  7.3320  0.5616  2287.0  35.278  0.5571  1.6399  1.5535 
  2287.500 -29.826  4.7850  5.8240  7.2610 -11.540  4.7850  5.8240  7.2610  0.5625  2287.5  35.498  0.5611  1.6427  1.5583 
  2288.000 -29.782  4.8850  6.0960  7.2260 -11.482  4.8850  6.0960  7.2260  0.5633  2288.0  35.718  0.5651  1.6456  1.5632 
  2288.500 -29.884  5.0580  6.3190  7.2480 -11.570  5.0580  6.3190  7.2480  0.5641  2288.5  35.938  0.5690  1.6485  1.5680 
  2289.000 -30.130  5.3230  6.4980  7.3340 -11.801  5.3230  6.4980  7.3340  0.5650  2289.0  36.158  0.5730  1.6514  1.5729 
  2289.500 -30.700  5.5460  6.5700  7.3850 -12.357  5.5460  6.5700  7.3850  0.5658  2289.5  36.378  0.5770  1.6543  1.5778 
  2290.000 -32.960  5.6680  6.6350  7.4710 -14.603  5.6680  6.6350  7.4710  0.5666  2290.0  36.598  0.5810  1.6573  1.5827 
  2290.500 -34.680  5.6750  6.6780  7.5790 -16.309  5.6750  6.6780  7.5790  0.5675  2290.5  36.818  0.5849  1.6602  1.5876 
  2291.000 -35.321  5.7120  6.6570  7.6440 -16.935  5.7120  6.6570  7.6440  0.5683  2291.0  37.038  0.5889  1.6632  1.5925 
  2291.500 -33.948  5.7480  6.6360  7.6880 -15.548  5.7480  6.6360  7.6880  0.5691  2291.5  37.258  0.5928  1.6662  1.5974 
  2292.000 -32.358  5.7840  6.5720  7.5160 -13.944  5.7840  6.5720  7.5160  0.5700  2292.0  37.478  0.5968  1.6692  1.6023 
  2292.500 -31.668  5.8130  6.5510  7.3880 -13.239  5.8130  6.5510  7.3880  0.5708  2292.5  37.698  0.6007  1.6723  1.6073 
  2293.000 -30.797  5.8420  6.4870  7.2810 -12.354  5.8420  6.4870  7.2810  0.5716  2293.0  37.918  0.6047  1.6754  1.6122 
  2293.500 -30.648  5.8920  6.4370  7.2600 -12.191  5.8920  6.4370  7.2600  0.5725  2293.5  38.138  0.6086  1.6784  1.6172 
  2294.000 -30.353  6.0000  6.4090  7.4820 -11.882  6.0000  6.4090  7.4820  0.5733  2294.0  38.358  0.6125  1.6815  1.6221 
  2294.500 -33.189  6.5380  6.4590  8.0490 -14.703  6.5380  6.4590  8.0490  0.5741  2294.5  38.578  0.6164  1.6847  1.6271 
  2295.000 -37.356  7.2050  6.5670  8.4720 -18.856  7.2050  6.5670  8.4720  0.5750  2295.0  38.798  0.6203  1.6878  1.6321 
  2295.500 -39.868  7.7420  7.0190  9.0390 -21.354  7.7420  7.0190  9.0390  0.5758  2295.5  39.018  0.6242  1.6910  1.6371 
  2296.000 -41.733  8.1150  7.5990  9.3040 -23.204  8.1150  7.5990  9.3040  0.5766  2296.0  39.238  0.6281  1.6942  1.6421 
  2296.500 -41.474  8.4600  7.8150  9.6560 -22.931  8.4600  7.8150  9.6560  0.5775  2296.5  39.458  0.6320  1.6974  1.6471 
  2297.000 -40.676  8.7540  7.9940  9.8720 -22.119  8.7540  7.9940  9.8720  0.5783  2297.0  39.678  0.6359  1.7006  1.6522 
  2297.500 -41.281  8.9980  8.0450  10.058 -22.710  8.9980  8.0450  10.058  0.5791  2297.5  39.898  0.6398  1.7038  1.6572 
  2298.000 -41.634  9.2350  8.1460  10.152 -23.048  9.2350  8.1460  10.152  0.5800  2298.0  40.118  0.6437  1.7071  1.6622 
  2298.500 -41.304  9.4210  8.2320  10.181 -22.704  9.4210  8.2320  10.181  0.5808  2298.5  40.338  0.6475  1.7104  1.6673 
  2299.000 -40.543  9.6010  8.3680  10.268 -21.929  9.6010  8.3680  10.268  0.5816  2299.0  40.558  0.6514  1.7137  1.6723 
  2299.500 -39.924  9.8810  8.5340  10.354 -21.295  9.8810  8.5340  10.354  0.5825  2299.5  40.778  0.6552  1.7170  1.6774 
