~Version Information
VERS.                     2.0: CWLS log ASCII Standard Version 2.00
WRAP.                      NO: One line per depth step
~Well Information Block
#MNEM.UNIT                               Data Type  Information
#---------                               ---------  -----------
STRT.FT                                   350.0000:
STOP.FT                                  7530.0000:
STEP.FT                                     0.5000:
NULL.                 -999.25                     :
COMP.                                             :COMPANY            
WELL.     CCMO 67-20                              :WELL               
FLD .                                             :FIELD              
CTRY.                                             :COUNTRY            
STAT.                                             :STATE              
LOC .                                             :LOCATION           
UWI .                                             :UNIQUE WELL ID     
SRVC.                                             :Service company    
DATE.                                             :LOG DATE           
~Curve Information
#MNEM.UNIT           API CODE  Curve Description
#---------           --------  -----------------
DEPT.FT                      :   1 DEPTH
SP  .MV                      :   2
AM16.OHMM                    :   3
AO10.OHMM                    :   4
AO19.OHMM                    :   5
SBL .MV                      :   6
RS  .OHMM                    :   7
RM  .OHMM                    :   8
RD  .OHMM                    :   9
DEVI.DEG                     :  10
TVD .FT                      :  11
AZIM.DEG                     :  12
NORT.FT                      :  13
EAST.FT                      :  14
OFFS.FT                      :  15
~A
# ...
   837.500 -46.289  6.7530  8.0620  7.7310 -22.420  6.7530  8.0620  7.7310  0.2604  837.50  96.876 -0.5257 -1.0547 -1.1175 
   838.000 -46.106  6.6310  8.0340  7.6710 -22.258  6.6310  8.0340  7.6710  0.2584  838.00  96.101 -0.5259 -1.0525 -1.1161 
   838.500 -45.419  6.5960  8.0710  7.5280 -21.593  6.5960  8.0710  7.5280  0.2563  838.50  95.326 -0.5261 -1.0503 -1.1147 
   839.000 -44.589  6.5320  8.0960  7.4990 -20.784  6.5320  8.0960  7.4990  0.2542  839.00  94.551 -0.5263 -1.0481 -1.1132 
   839.500 -44.082  6.4680  8.1220  7.4070 -20.298  6.4680  8.1220  7.4070  0.2521  839.50  93.776 -0.5265 -1.0459 -1.1118 
   840.000 -43.072  6.3970  8.1950  7.3000 -19.310  6.3970  8.1950  7.3000  0.2500  840.00  93.001 -0.5266 -1.0437 -1.1103 
   840.500 -42.206  6.3760  8.2320  7.2210 -18.465  6.3760  8.2320  7.2210  0.2479  840.50  92.226 -0.5266 -1.0415 -1.1089 
   841.000 -41.519  6.3190  8.3040  7.2870 -17.799  6.3190  8.3040  7.2870  0.2459  841.00  91.451 -0.5267 -1.0394 -1.1074 
   841.500 -42.342  6.2480  8.3980  7.3660 -18.644  6.2480  8.3980  7.3660  0.2438  841.50  90.676 -0.5267 -1.0372 -1.1059 
   842.000 -43.956  6.2130  8.5140  7.4320 -20.279  6.2130  8.5140  7.4320  0.2417  842.00  89.901 -0.5267 -1.0351 -1.1044 
   842.500 -45.426  6.1630  8.6590  7.4900 -21.770  6.1630  8.6590  7.4900  0.2396  842.50  89.126 -0.5267 -1.0330 -1.1029 
   843.000 -46.464  6.0700  8.8030  7.5410 -22.830  6.0700  8.8030  7.5410  0.2375  843.00  88.351 -0.5266 -1.0310 -1.1014 
   843.500 -47.036  5.9780  8.9190  7.5560 -23.423  5.9780  8.9190  7.5560  0.2354  843.50  87.576 -0.5265 -1.0289 -1.0999 
   844.000 -47.032  5.8350  9.0060  7.5430 -23.440  5.8350  9.0060  7.5430  0.2334  844.00  86.801 -0.5264 -1.0269 -1.0984 
   844.500 -45.914  5.6770  8.9490  7.4790 -22.344  5.6770  8.9490  7.4790  0.2313  844.50  86.026 -0.5263 -1.0249 -1.0968 
   845.000 -44.005  5.4910  8.7130  7.4220 -20.456  5.4910  8.7130  7.4220  0.2292  845.00  85.251 -0.5261 -1.0229 -1.0953 
   845.500 -43.750  5.3480  8.4470  7.3150 -20.222  5.3480  8.4470  7.3150  0.2271  845.50  84.476 -0.5259 -1.0209 -1.0938 
   846.000 -42.848  5.1970  8.1890  7.2220 -19.341  5.1970  8.1890  7.2220  0.2250  846.00  83.701 -0.5257 -1.0190 -1.0923 
   846.500 -41.694  5.0900  7.8660  7.0790 -18.209  5.0900  7.8660  7.0790  0.2229  846.50  82.926 -0.5255 -1.0170 -1.0907 
   847.000 -41.043  4.9760  7.6080  6.9000 -17.579  4.9760  7.6080  6.9000  0.2209  847.00  82.151 -0.5252 -1.0151 -1.0892 
   847.500 -39.746  4.8980  7.2920  6.6990 -16.303  4.8980  7.2920  6.6990  0.2188  847.50  81.376 -0.5249 -1.0132 -1.0876 
   848.000 -39.059  4.8120  7.0270  6.4700 -15.638  4.8120  7.0270  6.4700  0.2167  848.00  80.601 -0.5246 -1.0114 -1.0861 
   848.500 -38.696  4.7480  6.8190  6.2830 -15.296  4.7480  6.8190  6.2830  0.2146  848.50  79.826 -0.5243 -1.0095 -1.0846 
   849.000 -38.513  4.7270  6.6620  6.1040 -15.134  4.7270  6.6620  6.1040  0.2125  849.00  79.051 -0.5239 -1.0077 -1.0830 
   849.500 -38.473  4.7210  6.5190  6.1270 -15.116  4.7210  6.5190  6.1270  0.2104  849.50  78.276 -0.5236 -1.0059 -1.0815 
   850.000 -38.685  4.7460  6.4620  6.4370 -15.349  4.7460  6.4620  6.4370  0.2084  850.00  77.501 -0.5232 -1.0041 -1.0800 
   850.500 -38.971  4.7720  6.5050  6.6810 -15.656  4.7720  6.5050  6.6810  0.2063  850.50  76.726 -0.5228 -1.0024 -1.0784 
   851.000 -39.544  4.9660  6.6780  7.0270 -16.251  4.9660  6.6780  7.0270  0.2042  851.00  75.951 -0.5223 -1.0006 -1.0769 
   851.500 -39.902  5.0960  6.8580  7.2860 -16.630  5.0960  6.8580  7.2860  0.2021  851.50  75.176 -0.5219 -0.9989 -1.0754 
   852.000 -40.188  5.2470  7.1390  7.6530 -16.937  5.2470  7.1390  7.6530  0.2000  852.00  74.401 -0.5214 -0.9973 -1.0739 
   852.500 -40.941  5.3770  7.3480  7.9270 -17.711  5.3770  7.3480  7.9270  0.1979  852.50  73.626 -0.5209 -0.9956 -1.0723 
   853.000 -42.413  5.5210  7.5930  8.2290 -19.205  5.5210  7.5930  8.2290  0.1958  853.00  72.851 -0.5204 -0.9940 -1.0708 
   853.500 -42.806  5.6370  7.7940  8.4950 -19.619  5.6370  7.7940  8.4950  0.1938  853.50  72.076 -0.5199 -0.9924 -1.0693 
   854.000 -42.912  5.6950  8.0100  8.6470 -19.746  5.6950  8.0100  8.6470  0.1917  854.00  71.301 -0.5194 -0.9908 -1.0678 
   854.500 -43.054  5.7310  8.1760  8.8200 -19.910  5.7310  8.1760  8.8200  0.1896  854.50  70.526 -0.5188 -0.9892 -1.0663 
   855.000 -43.628  5.6590  8.2840  8.8990 -20.505  5.6590  8.2840  8.8990  0.1875  855.00  69.751 -0.5182 -0.9877 -1.0648 
   855.500 -44.237  5.6090  8.2920  8.7990 -21.135  5.6090  8.2920  8.7990  0.1854  855.50  68.976 -0.5177 -0.9862 -1.0634 
   856.000 -44.666  5.5090  8.1910  8.5830 -21.586  5.5090  8.1910  8.5830  0.1833  856.00  68.201 -0.5171 -0.9847 -1.0619 
   856.500 -44.701  5.3800  8.0690  8.3820 -21.642  5.3800  8.0690  8.3820  0.1813  856.50  67.426 -0.5165 -0.9832 -1.0604 
   857.000 -44.196  5.2000  7.8470  8.2170 -21.158  5.2000  7.8470  8.2170  0.1792  857.00  66.651 -0.5158 -0.9818 -1.0590 
   857.500 -43.223  5.1140  7.5880  8.0730 -20.207  5.1140  7.5880  8.0730  0.1771  857.50  65.876 -0.5152 -0.9804 -1.0575 
   858.000 -42.431  4.9700  7.3150  7.8870 -19.436  4.9700  7.3150  7.8870  0.1750  858.00  65.101 -0.5146 -0.9790 -1.0561 
   858.500 -42.034  4.8480  6.9920  7.7140 -19.060  4.8480  6.9920  7.7140  0.1729  858.50  64.326 -0.5139 -0.9776 -1.0547 
   859.000 -42.571  4.7480  6.6610  7.4990 -19.619  4.7480  6.6610  7.4990  0.1708  859.00  63.551 -0.5132 -0.9763 -1.0533 
   859.500 -42.713  4.7050  6.3740  7.3770 -19.782  4.7050  6.3740  7.3770  0.1688  859.50  62.776 -0.5126 -0.9750 -1.0519 
   860.000 -41.777  4.7990  6.1510  7.2550 -18.867  4.7990  6.1510  7.2550  0.1667  860.00  62.001 -0.5119 -0.9737 -1.0505 
   860.500 -41.164  4.9140  5.9640  7.2340 -18.275  4.9140  5.9640  7.2340  0.1646  860.50  61.226 -0.5112 -0.9724 -1.0491 
   861.000 -41.019  5.0580  5.9070  7.3560 -18.152  5.0580  5.9070  7.3560  0.1625  861.00  60.451 -0.5105 -0.9712 -1.0477 
   861.500 -41.412  5.1670  6.0370  7.5150 -18.566  5.1670  6.0370  7.5150  0.1604  861.50  59.676 -0.5098 -0.9700 -1.0464 
   862.000 -43.208  5.2530  6.2820  7.7950 -20.383  5.2530  6.2820  7.7950  0.1583  862.00  58.901 -0.5091 -0.9688 -1.0450 
   862.500 -45.363  5.4190  6.6130  8.1340 -22.560  5.4190  6.6130  8.1340  0.1563  862.50  58.126 -0.5084 -0.9677 -1.0437 
   863.000 -47.014  5.4980  6.8500  8.4290 -24.232  5.4980  6.8500  8.4290  0.1542  863.00  57.351 -0.5076 -0.9665 -1.0424 
   863.500 -47.767  5.5920  7.1310  8.7100 -25.006  5.5920  7.1310  8.7100  0.1521  863.50  56.576 -0.5069 -0.9654 -1.0411 
   864.000 -47.514  5.6500  7.3180  8.9830 -24.775  5.6500  7.3180  8.9830  0.1500  864.00  55.801 -0.5062 -0.9643 -1.0398 
   864.500 -46.685  5.6500  7.5700  9.0410 -23.967  5.6500  7.5700  9.0410  0.1479  864.50  55.026 -0.5054 -0.9633 -1.0385 
   865.000 -45.641  5.5350  7.7650  8.7820 -22.944  5.5350  7.7650  8.7820  0.1458  865.00  54.251 -0.5047 -0.9622 -1.0373 
   865.500 -44.346  5.2980  7.6720  8.2870 -21.671  5.2980  7.6720  8.2870  0.1438  865.50  53.476 -0.5039 -0.9612 -1.0360 
   866.000 -43.194  5.1400  7.5280  7.8980 -20.540  5.1400  7.5280  7.8980  0.1417  866.00  52.701 -0.5032 -0.9603 -1.0348 
   866.500 -41.790  4.9390  7.3770  7.5900 -19.157  4.9390  7.3770  7.5900  0.1396  866.50  51.926 -0.5024 -0.9593 -1.0336 
   867.000 -40.854  4.8750  7.1830  7.3810 -18.243  4.8750  7.1830  7.3810  0.1375  867.00  51.151 -0.5017 -0.9584 -1.0324 
   867.500 -40.708  4.7460  7.0040  7.1730 -18.118  4.7460  7.0040  7.1730  0.1354  867.50  50.376 -0.5009 -0.9574 -1.0312 
   868.000 -40.599  4.6740  6.6590  7.0290 -18.030  4.6740  6.6590  7.0290  0.1333  868.00  49.601 -0.5002 -0.9566 -1.0301 
   868.500 -40.525  4.6460  6.4440  6.8070 -17.977  4.6460  6.4440  6.8070  0.1313  868.50  48.826 -0.4994 -0.9557 -1.0289 
   869.000 -40.487  4.6170  6.2860  6.6990 -17.961  4.6170  6.2860  6.6990  0.1292  869.00  48.051 -0.4987 -0.9549 -1.0278 
   869.500 -41.061  4.5600  6.1130  6.5770 -18.556  4.5600  6.1130  6.5770  0.1271  869.50  47.276 -0.4979 -0.9540 -1.0267 
