~Version Information
VERS.                     2.0: CWLS log ASCII Standard Version 2.00
WRAP.                      NO: One line per depth step
~Well Information Block
#MNEM.UNIT                               Data Type  Information
#---------                               ---------  -----------
STRT.FT                                   350.0000:
STOP.FT                                  7530.0000:
STEP.FT                                     0.5000:
NULL.                 -999.25                     :
COMP.                                             :COMPANY            
WELL.     CCMO 67-20                              :WELL               
FLD .                                             :FIELD              
CTRY.                                             :COUNTRY            
STAT.                                             :STATE              
LOC .                                             :LOCATION           
UWI .                                             :UNIQUE WELL ID     
SRVC.                                             :Service company    
DATE.                                             :LOG DATE           
~Curve Information
#MNEM.UNIT           API CODE  Curve Description
#---------           --------  -----------------
DEPT.FT                      :   1 DEPTH
SP  .MV                      :   2
AM16.OHMM                    :   3
AO10.OHMM                    :   4
AO19.OHMM                    :   5
SBL .MV                      :   6
RS  .OHMM                    :   7
RM  .OHMM                    :   8
RD  .OHMM                    :   9
DEVI.DEG                     :  10
TVD .FT                      :  11
AZIM.DEG                     :  12
NORT.FT                      :  13
EAST.FT                      :  14
OFFS.FT                      :  15
~A
# ...
  5582.500 -15.676  5.4010  6.0460  5.3330 -12.359  5.4010  6.0460  5.3330  1.1232  5582.2  62.772  10.916  32.074  30.399 
  5583.000 -14.201  5.1430  5.9950  5.3320 -10.884  5.1430  5.9950  5.3320  1.1245  5582.7  62.807  10.920  32.083  30.408 
  5583.500 -13.374  4.9060  5.8450  5.1100 -10.056  4.9060  5.8450  5.1100  1.1257  5583.2  62.842  10.925  32.092  30.417 
  5584.000 -14.599  4.7480  5.6080  4.7160 -11.280  4.7480  5.6080  4.7160  1.1270  5583.7  62.877  10.929  32.101  30.427 
  5584.500 -16.184  4.5900  5.3210  4.4000 -12.865  4.5900  5.3210  4.4000  1.1282  5584.2  62.912  10.934  32.109  30.436 
  5585.000 -17.769  4.4970  4.9630  4.1710 -14.449  4.4970  4.9630  4.1710  1.1295  5584.7  62.947  10.938  32.118  30.445 
  5585.500 -19.102  4.4460  4.5900  4.0990 -15.781  4.4460  4.5900  4.0990  1.1307  5585.2  62.982  10.943  32.127  30.455 
  5586.000 -19.788  4.3170  4.2810  4.0340 -16.467  4.3170  4.2810  4.0340  1.1320  5585.7  63.017  10.947  32.136  30.464 
  5586.500 -19.177  4.2020  4.0880  3.9910 -15.855  4.2020  4.0880  3.9910  1.1332  5586.2  63.052  10.952  32.145  30.474 
  5587.000 -17.342  4.0800  3.9440  3.8470 -14.020  4.0800  3.9440  3.8470  1.1345  5586.7  63.087  10.956  32.153  30.483 
  5587.500 -15.687  3.9010  3.7720  3.6390 -12.364  3.9010  3.7720  3.6390  1.1357  5587.2  63.122  10.960  32.162  30.492 
  5588.000 -12.160  3.7360  3.6640  3.3950 -8.8363  3.7360  3.6640  3.3950  1.1370  5587.7  63.157  10.965  32.171  30.502 
  5588.500 -10.073  3.7210  3.5130  3.2440 -6.7486  3.7210  3.5130  3.2440  1.1382  5588.2  63.192  10.969  32.180  30.511 
  5589.000 -9.4620  3.8860  3.3980  3.1730 -6.1370  3.8860  3.3980  3.1730  1.1395  5588.7  63.227  10.974  32.189  30.521 
  5589.500 -9.4630  4.0290  3.3260  3.1580 -6.1374  4.0290  3.3260  3.1580  1.1407  5589.2  63.262  10.978  32.198  30.530 
  5590.000 -11.409  4.1650  3.2980  3.2870 -8.0827  4.1650  3.2980  3.2870  1.1420  5589.7  63.297  10.983  32.207  30.540 
  5590.500 -17.062  4.3720  3.4190  3.4940 -13.735  4.3720  3.4190  3.4940  1.1432  5590.2  63.332  10.987  32.216  30.549 
  5591.000 -24.695  4.4650  3.6560  3.7880 -21.367  4.4650  3.6560  3.7880  1.1445  5590.7  63.367  10.992  32.224  30.559 
  5591.500 -28.800  4.7660  3.9850  4.0100 -25.472  4.7660  3.9850  4.0100  1.1457  5591.2  63.402  10.996  32.233  30.568 
  5592.000 -31.897  5.3320  4.3930  4.2820 -28.568  5.3320  4.3930  4.2820  1.1470  5591.7  63.437  11.001  32.242  30.578 
  5592.500 -34.670  5.9700  4.8160  4.4680 -31.341  5.9700  4.8160  4.4680  1.1482  5592.2  63.472  11.005  32.251  30.587 
  5593.000 -36.687  6.2560  5.1020  4.5830 -33.357  6.2560  5.1020  4.5830  1.1495  5592.7  63.507  11.010  32.260  30.597 
  5593.500 -38.561  6.3780  5.3170  4.5470 -35.230  6.3780  5.3170  4.5470  1.1507  5593.2  63.542  11.014  32.269  30.606 
  5594.000 -39.606  6.5000  5.3460  4.3820 -36.275  6.5000  5.3460  4.3820  1.1520  5593.7  63.577  11.019  32.278  30.616 
  5594.500 -40.003  6.6070  5.3380  4.3530 -36.671  6.6070  5.3380  4.3530  1.1532  5594.2  63.612  11.023  32.287  30.625 
  5595.000 -38.564  6.5560  5.3310  4.2810 -35.231  6.5560  5.3310  4.2810  1.1545  5594.7  63.647  11.028  32.296  30.635 
  5595.500 -36.621  6.4850  5.3020  4.2310 -33.288  6.4850  5.3020  4.2310  1.1557  5595.2  63.682  11.032  32.305  30.644 
  5596.000 -35.182  6.4560  5.2770  4.2020 -31.848  6.4560  5.2770  4.2020  1.1570  5595.7  63.717  11.037  32.314  30.654 
  5596.500 -32.663  6.2190  5.2520  4.1800 -29.328  6.2190  5.2520  4.1800  1.1582  5596.2  63.752  11.041  32.323  30.663 
  5597.000 -30.721  5.9110  5.1580  4.1440 -27.386  5.9110  5.1580  4.1440  1.1595  5596.7  63.787  11.046  32.333  30.673 
  5597.500 -30.038  5.6810  5.0790  4.0000 -26.702  5.6810  5.0790  4.0000  1.1608  5597.2  63.822  11.050  32.342  30.683 
  5598.000 -29.355  5.4440  4.9930  3.8140 -26.018  5.4440  4.9930  3.8140  1.1620  5597.7  63.857  11.054  32.351  30.692 
  5598.500 -27.916  5.1720  4.8210  3.6420 -24.579  5.1720  4.8210  3.6420  1.1633  5598.2  63.892  11.059  32.360  30.702 
  5599.000 -26.945  5.0500  4.5190  3.4620 -23.607  5.0500  4.5190  3.4620  1.1645  5598.7  63.927  11.063  32.369  30.711 
  5599.500 -25.722  4.8770  4.2320  3.3690 -22.384  4.8770  4.2320  3.3690  1.1658  5599.2  63.962  11.068  32.378  30.721 
  5600.000 -24.247  4.7200  3.9310  3.2900 -20.908  4.7200  3.9310  3.2900  1.1670  5599.7  63.997  11.072  32.387  30.731 
  5600.500 -22.918  4.5470  3.6870  3.2750 -19.578  4.5470  3.6870  3.2750  1.1645  5600.2  63.812  11.077  32.396  30.740 
  5601.000 -22.813  4.3740  3.4930  3.2600 -19.473  4.3740  3.4930  3.2600  1.1620  5600.7  63.627  11.081  32.405  30.750 
  5601.500 -22.671  4.2730  3.5210  3.3240 -19.330  4.2730  3.5210  3.3240  1.1595  5601.2  63.442  11.086  32.415  30.759 
  5602.000 -22.170  4.1440  3.5710  3.3660 -18.828  4.1440  3.5710  3.3660  1.1570  5601.7  63.257  11.090  32.424  30.769 
  5602.500 -21.165  4.0360  3.6340  3.4010 -17.823  4.0360  3.6340  3.4010  1.1545  5602.2  63.072  11.095  32.433  30.779 
  5603.000 -20.159  3.8560  3.7060  3.4580 -16.816  3.8560  3.7060  3.4580  1.1520  5602.7  62.887  11.100  32.441  30.788 
  5603.500 -18.002  3.6760  3.7660  3.4940 -14.658  3.6760  3.7660  3.4940  1.1495  5603.2  62.702  11.104  32.450  30.798 
  5604.000 -15.917  3.4680  3.8260  3.5220 -12.573  3.4680  3.8260  3.5220  1.1470  5603.7  62.517  11.109  32.459  30.807 
  5604.500 -14.336  3.3100  3.8830  3.5500 -10.991  3.3100  3.8830  3.5500  1.1445  5604.2  62.332  11.113  32.468  30.817 
  5605.000 -12.142  3.1870  3.8900  3.5990 -8.7965  3.1870  3.8900  3.5990  1.1420  5604.7  62.147  11.118  32.477  30.826 
  5605.500 -10.561  3.1010  3.8680  3.5490 -7.2148  3.1010  3.8680  3.5490  1.1395  5605.2  61.962  11.123  32.486  30.836 
  5606.000 -9.5200  3.0570  3.7520  3.4400 -6.1732  3.0570  3.7520  3.4400  1.1370  5605.7  61.777  11.127  32.494  30.845 
  5606.500 -8.9470  3.0420  3.6870  3.3180 -5.5996  3.0420  3.6870  3.3180  1.1345  5606.2  61.592  11.132  32.503  30.855 
  5607.000 -8.8420  3.0420  3.6080  3.2240 -5.4939  3.0420  3.6080  3.2240  1.1320  5606.7  61.407  11.137  32.512  30.864 
  5607.500 -8.9880  3.0910  3.5570  3.1740 -5.6393  3.0910  3.5570  3.1740  1.1295  5607.2  61.222  11.142  32.520  30.874 
  5608.000 -9.6750  3.2700  3.5710  3.1590 -6.3256  3.2700  3.5710  3.1590  1.1270  5607.7  61.037  11.146  32.529  30.883 
  5608.500 -11.190  3.5060  3.5880  3.1940 -7.8400  3.5060  3.5880  3.1940  1.1245  5608.2  60.852  11.151  32.538  30.893 
  5609.000 -13.424  3.7990  3.6060  3.2400 -10.073  3.7990  3.6060  3.2400  1.1220  5608.7  60.667  11.156  32.546  30.902 
  5609.500 -17.279  3.9920  3.6770  3.2860 -13.928  3.9920  3.6770  3.2860  1.1195  5609.2  60.482  11.161  32.555  30.911 
  5610.000 -24.410  4.3210  3.7550  3.4290 -21.058  4.3210  3.7550  3.4290  1.1170  5609.7  60.297  11.166  32.563  30.921 
  5610.500 -32.189  4.6140  3.8470  3.4890 -28.836  4.6140  3.8470  3.4890  1.1145  5610.2  60.112  11.170  32.572  30.930 
  5611.000 -35.251  4.8500  3.9690  3.5500 -31.898  4.8500  3.9690  3.5500  1.1120  5610.7  59.927  11.175  32.580  30.940 
  5611.500 -37.342  5.0930  4.0610  3.6280 -33.988  5.0930  4.0610  3.6280  1.1095  5611.2  59.742  11.180  32.588  30.949 
  5612.000 -38.641  5.2220  4.1540  3.6340 -35.287  5.2220  4.1540  3.6340  1.1070  5611.7  59.557  11.185  32.597  30.958 
  5612.500 -40.228  5.3290  4.1680  3.6270 -36.873  5.3290  4.1680  3.6270  1.1045  5612.2  59.372  11.190  32.605  30.968 
  5613.000 -41.419  5.4070  4.1600  3.6040 -38.063  5.4070  4.1600  3.6040  1.1020  5612.7  59.187  11.195  32.613  30.977 
  5613.500 -42.285  5.5000  4.1310  3.5970 -38.929  5.5000  4.1310  3.5970  1.0995  5613.2  59.002  11.200  32.621  30.986 
  5614.000 -42.540  5.5640  4.0870  3.5750 -39.183  5.5640  4.0870  3.5750  1.0970  5613.7  58.817  11.205  32.630  30.996 
  5614.500 -42.579  5.5990  4.0150  3.5530 -39.221  5.5990  4.0150  3.5530  1.0945  5614.2  58.632  11.210  32.638  31.005 
