~Version Information
VERS.                     2.0: CWLS log ASCII Standard Version 2.00
WRAP.                      NO: One line per depth step
~Well Information Block
#MNEM.UNIT                               Data Type  Information
#---------                               ---------  -----------
STRT.FT                                   350.0000:
STOP.FT                                  7530.0000:
STEP.FT                                     0.5000:
NULL.                 -999.25                     :
COMP.                                             :COMPANY            
WELL.     CCMO 67-20                              :WELL               
FLD .                                             :FIELD              
CTRY.                                             :COUNTRY            
STAT.                                             :STATE              
LOC .                                             :LOCATION           
UWI .                                             :UNIQUE WELL ID     
SRVC.                                             :Service company    
DATE.                                             :LOG DATE           
~Curve Information
#MNEM.UNIT           API CODE  Curve Description
#---------           --------  -----------------
DEPT.FT                      :   1 DEPTH
SP  .MV                      :   2
AM16.OHMM                    :   3
AO10.OHMM                    :   4
AO19.OHMM                    :   5
SBL .MV                      :   6
RS  .OHMM                    :   7
RM  .OHMM                    :   8
RD  .OHMM                    :   9
DEVI.DEG                     :  10
TVD .FT                      :  11
AZIM.DEG                     :  12
NORT.FT                      :  13
EAST.FT                      :  14
OFFS.FT                      :  15
~A
# ...
  4640.000 -16.641  4.7680  7.9290  5.1800 -14.533  4.7680  7.9290  5.1800  0.8668  4639.9  63.597  0.6230  15.098  11.117 
  4640.500 -15.703  4.6540  7.3420  4.6500 -13.594  4.6540  7.3420  4.6500  0.8693  4640.4  63.642  0.6264  15.105  11.124 
  4641.000 -15.701  4.6400  6.2890  4.4720 -13.591  4.6400  6.2890  4.4720  0.8718  4640.9  63.687  0.6297  15.112  11.131 
  4641.500 -16.311  4.6910  6.1310  4.4690 -14.201  4.6910  6.1310  4.4690  0.8743  4641.4  63.732  0.6331  15.119  11.138 
  4642.000 -18.506  4.7770  6.0600  4.4660 -16.395  4.7770  6.0600  4.4660  0.8768  4641.9  63.777  0.6365  15.126  11.146 
  4642.500 -20.664  4.8710  6.0390  4.4730 -18.552  4.8710  6.0390  4.4730  0.8793  4642.4  63.822  0.6399  15.133  11.153 
  4643.000 -20.698  4.9430  6.0470  4.4950 -18.586  4.9430  6.0470  4.4950  0.8818  4642.9  63.867  0.6433  15.139  11.160 
  4643.500 -20.012  5.0510  6.1190  4.5460 -17.899  5.0510  6.1190  4.5460  0.8843  4643.4  63.912  0.6466  15.146  11.167 
  4644.000 -19.903  5.1160  6.2270  4.6530 -17.790  5.1160  6.2270  4.6530  0.8868  4643.9  63.957  0.6500  15.153  11.175 
  4644.500 -21.017  5.1880  6.4710  4.8620 -18.903  5.1880  6.4710  4.8620  0.8893  4644.4  64.002  0.6534  15.160  11.182 
  4645.000 -22.203  5.1880  6.7290  5.0920 -20.088  5.1880  6.7290  5.0920  0.8918  4644.9  64.047  0.6569  15.167  11.189 
  4645.500 -22.741  4.9380  6.9020  5.2930 -20.626  4.9380  6.9020  5.2930  0.8943  4645.4  64.092  0.6603  15.174  11.197 
  4646.000 -22.595  4.7020  7.0100  5.4150 -20.479  4.7020  7.0100  5.4150  0.8968  4645.9  64.137  0.6637  15.181  11.204 
  4646.500 -21.190  4.4870  7.0390  5.5010 -19.073  4.4870  7.0390  5.5010  0.8993  4646.4  64.182  0.6671  15.188  11.212 
  4647.000 -17.732  4.2580  6.9460  5.3660 -15.615  4.2580  6.9460  5.3660  0.9018  4646.9  64.227  0.6705  15.196  11.219 
  4647.500 -15.642  4.1080  6.6530  5.0220 -13.524  4.1080  6.6530  5.0220  0.9043  4647.4  64.272  0.6739  15.203  11.226 
  4648.000 -13.588  3.9870  6.2090  4.5280 -11.469  3.9870  6.2090  4.5280  0.9068  4647.9  64.317  0.6774  15.210  11.234 
  4648.500 -11.967  3.9440  5.7070  4.4140 -9.8478  3.9440  5.7070  4.4140  0.9094  4648.4  64.362  0.6808  15.217  11.241 
  4649.000 -11.533  3.9520  5.3140  4.3780 -9.4131  3.9520  5.3140  4.3780  0.9119  4648.9  64.407  0.6842  15.224  11.249 
  4649.500 -11.315  4.0380  4.8840  4.4000 -9.1945  4.0380  4.8840  4.4000  0.9144  4649.4  64.452  0.6877  15.231  11.256 
  4650.000 -11.133  4.2320  4.7050  4.4870 -9.0118  4.2320  4.7050  4.4870  0.9169  4649.9  64.497  0.6911  15.239  11.264 
  4650.500 -11.350  4.5040  4.7270  4.6510 -9.2282  4.5040  4.7270  4.6510  0.9194  4650.4  64.542  0.6946  15.246  11.272 
  4651.000 -11.963  4.7330  4.9340  4.8880 -9.8406  4.7330  4.9340  4.8880  0.9219  4650.9  64.587  0.6980  15.253  11.279 
  4651.500 -15.781  5.1060  5.2130  5.2530 -13.658  5.1060  5.2130  5.2530  0.9244  4651.4  64.632  0.7015  15.260  11.287 
  4652.000 -21.938  5.5790  5.4350  5.6040 -19.814  5.5790  5.4350  5.6040  0.9269  4651.9  64.677  0.7049  15.268  11.294 
  4652.500 -24.999  6.3170  5.7430  5.9910 -22.875  6.3170  5.7430  5.9910  0.9294  4652.4  64.722  0.7084  15.275  11.302 
  4653.000 -28.852  6.8610  5.9650  6.3060 -26.727  6.8610  5.9650  6.3060  0.9319  4652.9  64.767  0.7119  15.282  11.310 
  4653.500 -31.841  7.2700  6.2020  6.5420 -29.715  7.2700  6.2020  6.5420  0.9344  4653.4  64.812  0.7153  15.290  11.317 
  4654.000 -34.578  7.6990  6.4310  6.7780 -32.452  7.6990  6.4310  6.7780  0.9369  4653.9  64.857  0.7188  15.297  11.325 
  4654.500 -36.631  8.0790  6.5670  7.0080 -34.504  8.0790  6.5670  7.0080  0.9394  4654.4  64.902  0.7223  15.305  11.333 
  4655.000 -38.252  8.5230  6.7390  7.1860 -36.124  8.5230  6.7390  7.1860  0.9419  4654.9  64.947  0.7258  15.312  11.340 
  4655.500 -38.686  8.6520  6.8600  7.3010 -36.558  8.6520  6.8600  7.3010  0.9444  4655.4  64.992  0.7293  15.319  11.348 
  4656.000 -38.183  8.6450  6.9320  7.3940 -36.054  8.6450  6.9320  7.3940  0.9469  4655.9  65.037  0.7327  15.327  11.356 
  4656.500 -37.716  8.3080  6.9820  7.4730 -35.587  8.3080  6.9820  7.4730  0.9494  4656.4  65.082  0.7362  15.334  11.364 
  4657.000 -37.357  7.9350  6.9810  7.3500 -35.227  7.9350  6.9810  7.3500  0.9519  4656.9  65.127  0.7397  15.342  11.371 
  4657.500 -36.890  7.7120  6.9020  7.1570 -34.759  7.7120  6.9020  7.1570  0.9544  4657.4  65.172  0.7432  15.350  11.379 
  4658.000 -36.603  7.6040  6.7590  6.9700 -34.472  7.6040  6.7590  6.9700  0.9569  4657.9  65.217  0.7467  15.357  11.387 
  4658.500 -36.676  7.5900  6.4150  6.7760 -34.544  7.5900  6.4150  6.7760  0.9594  4658.4  65.262  0.7502  15.365  11.395 
  4659.000 -36.750  7.6260  6.0560  6.5540 -34.617  7.6260  6.0560  6.5540  0.9619  4658.9  65.307  0.7537  15.372  11.403 
  4659.500 -36.823  7.7690  5.8190  6.3320 -34.690  7.7690  5.8190  6.3320  0.9644  4659.4  65.352  0.7572  15.380  11.411 
  4660.000 -37.076  7.9480  5.7550  6.1880 -34.942  7.9480  5.7550  6.1880  0.9669  4659.9  65.397  0.7608  15.388  11.419 
  4660.500 -38.229  8.0980  5.7900  6.1660 -36.094  8.0980  5.7900  6.1660  0.9694  4660.4  65.442  0.7643  15.395  11.427 
  4661.000 -39.562  8.2200  5.8540  6.2450 -37.427  8.2200  5.8540  6.2450  0.9719  4660.9  65.487  0.7678  15.403  11.435 
  4661.500 -40.571  8.3700  5.9330  6.3520 -38.435  8.3700  5.9330  6.3520  0.9744  4661.4  65.532  0.7713  15.411  11.443 
  4662.000 -40.932  8.5060  6.0620  6.4240 -38.795  8.5060  6.0620  6.4240  0.9769  4661.9  65.577  0.7748  15.419  11.450 
  4662.500 -40.250  8.6200  6.1910  6.3950 -38.113  8.6200  6.1910  6.3950  0.9794  4662.4  65.622  0.7784  15.426  11.458 
  4663.000 -39.783  8.7490  6.3770  6.2870 -37.645  8.7490  6.3770  6.2870  0.9819  4662.9  65.667  0.7819  15.434  11.467 
  4663.500 -39.064  8.8210  6.5200  6.1940 -36.926  8.8210  6.5200  6.1940  0.9844  4663.4  65.712  0.7854  15.442  11.475 
  4664.000 -38.525  8.8560  6.8140  6.0930 -36.386  8.8560  6.8140  6.0930  0.9869  4663.9  65.757  0.7890  15.450  11.483 
  4664.500 -37.986  8.8270  7.1290  6.1290 -35.846  8.8270  7.1290  6.1290  0.9894  4664.4  65.802  0.7925  15.458  11.491 
  4665.000 -36.979  8.7340  7.3940  6.2150 -34.839  8.7340  7.3940  6.2150  0.9919  4664.9  65.847  0.7961  15.466  11.499 
  4665.500 -35.612  8.5120  7.6370  6.2930 -33.471  8.5120  7.6370  6.2930  0.9944  4665.4  65.892  0.7996  15.474  11.507 
  4666.000 -33.813  8.0740  7.8520  6.3500 -31.671  8.0740  7.8520  6.3500  0.9969  4665.9  65.937  0.8031  15.481  11.515 
  4666.500 -31.654  7.4070  8.0090  6.4000 -29.512  7.4070  8.0090  6.4000  0.9994  4666.4  65.981  0.8067  15.489  11.523 
  4667.000 -29.100  6.8770  8.0810  6.3430 -26.957  6.8770  8.0810  6.3430  1.0019  4666.9  66.026  0.8102  15.497  11.531 
  4667.500 -26.077  6.3100  8.0660  6.1350 -23.933  6.3100  8.0660  6.1350  1.0044  4667.4  66.071  0.8138  15.505  11.539 
  4668.000 -22.478  5.6870  7.7080  5.8330 -20.334  5.6870  7.7080  5.8330  1.0069  4667.9  66.116  0.8174  15.513  11.548 
  4668.500 -19.599  5.1420  7.0980  5.2740 -17.454  5.1420  7.0980  5.2740  1.0094  4668.4  66.161  0.8209  15.522  11.556 
  4669.000 -16.792  4.7260  6.6470  4.8230 -14.646  4.7260  6.6470  4.8230  1.0119  4668.9  66.206  0.8245  15.530  11.564 
  4669.500 -14.669  4.3030  6.0510  4.4140 -12.523  4.3030  6.0510  4.4140  1.0144  4669.4  66.251  0.8280  15.538  11.572 
  4670.000 -12.762  3.9230  5.5420  4.1480 -10.615  3.9230  5.5420  4.1480  1.0169  4669.9  66.296  0.8316  15.546  11.581 
  4670.500 -11.251  3.7000  5.1260  3.8610 -9.1036  3.7000  5.1260  3.8610  1.0194  4670.4  66.341  0.8352  15.554  11.589 
  4671.000 -10.389  3.6070  4.8900  3.6530 -8.2409  3.6070  4.8900  3.6530  1.0219  4670.9  66.386  0.8388  15.562  11.597 
  4671.500 -9.8140  3.6350  4.7100  3.6030 -7.6653  3.6350  4.7100  3.6030  1.0244  4671.4  66.431  0.8423  15.570  11.606 
  4672.000 -9.3830  3.6640  4.6810  3.8540 -7.2336  3.6640  4.6810  3.8540  1.0269  4671.9  66.476  0.8459  15.579  11.614 
