~Version Information
VERS.                     2.0: CWLS log ASCII Standard Version 2.00
WRAP.                      NO: One line per depth step
~Well Information Block
#MNEM.UNIT                               Data Type  Information
#---------                               ---------  -----------
STRT.FT                                   350.0000:
STOP.FT                                  7530.0000:
STEP.FT                                     0.5000:
NULL.                 -999.25                     :
COMP.                                             :COMPANY            
WELL.     CCMO 67-20                              :WELL               
FLD .                                             :FIELD              
CTRY.                                             :COUNTRY            
STAT.                                             :STATE              
LOC .                                             :LOCATION           
UWI .                                             :UNIQUE WELL ID     
SRVC.                                             :Service company    
DATE.                                             :LOG DATE           
~Curve Information
#MNEM.UNIT           API CODE  Curve Description
#---------           --------  -----------------
DEPT.FT                      :   1 DEPTH
SP  .MV                      :   2
AM16.OHMM                    :   3
AO10.OHMM                    :   4
AO19.OHMM                    :   5
SBL .MV                      :   6
RS  .OHMM                    :   7
RM  .OHMM                    :   8
RD  .OHMM                    :   9
DEVI.DEG                     :  10
TVD .FT                      :  11
AZIM.DEG                     :  12
NORT.FT                      :  13
EAST.FT                      :  14
OFFS.FT                      :  15
~A
# ...
  6557.500 -16.483  1.5710  1.7650  1.5570 -5.9024  1.5710  1.7650  1.5570  0.8333  6557.1  167.12  9.1144  39.385  34.295 
  6558.000 -16.089  1.5630  1.7500  1.5390 -5.5009  1.5630  1.7500  1.5390  0.8333  6557.6  167.10  9.1073  39.387  34.291 
  6558.500 -15.623  1.5630  1.7420  1.5200 -5.0275  1.5630  1.7420  1.5200  0.8333  6558.1  167.07  9.1002  39.389  34.287 
  6559.000 -15.698  1.5630  1.7350  1.5060 -5.0950  1.5630  1.7350  1.5060  0.8333  6558.6  167.05  9.0931  39.390  34.283 
  6559.500 -17.573  1.5630  1.7240  1.4910 -6.9626  1.5630  1.7240  1.4910  0.8333  6559.1  167.02  9.0860  39.392  34.279 
  6560.000 -16.856  1.5690  1.7130  1.4760 -6.2381  1.5690  1.7130  1.4760  0.8333  6559.6  167.00  9.0790  39.394  34.275 
  6560.500 -16.570  1.5720  1.6980  1.4680 -5.9447  1.5720  1.6980  1.4680  0.8333  6560.1  166.97  9.0719  39.395  34.271 
  6561.000 -16.717  1.5760  1.6830  1.4640 -6.0842  1.5760  1.6830  1.4640  0.8333  6560.6  166.95  9.0648  39.397  34.268 
  6561.500 -17.007  1.5790  1.6680  1.4600 -6.3668  1.5790  1.6680  1.4600  0.8333  6561.1  166.92  9.0577  39.399  34.264 
  6562.000 -17.515  1.5820  1.6530  1.4450 -6.8674  1.5820  1.6530  1.4450  0.8333  6561.6  166.90  9.0506  39.400  34.260 
  6562.500 -17.876  1.5890  1.6420  1.4450 -7.2209  1.5890  1.6420  1.4450  0.8333  6562.1  166.87  9.0435  39.402  34.256 
  6563.000 -18.311  1.5950  1.6310  1.4440 -7.6485  1.5950  1.6310  1.4440  0.8333  6562.6  166.85  9.0365  39.403  34.252 
  6563.500 -18.854  1.6090  1.6310  1.4370 -8.1840  1.6090  1.6310  1.4370  0.8333  6563.1  166.82  9.0294  39.405  34.248 
  6564.000 -19.288  1.6230  1.6300  1.4370 -8.6106  1.6230  1.6300  1.4370  0.8333  6563.6  166.80  9.0223  39.407  34.245 
  6564.500 -19.596  1.6370  1.6300  1.4370 -8.9111  1.6370  1.6300  1.4370  0.8333  6564.1  166.77  9.0152  39.408  34.241 
  6565.000 -19.903  1.6400  1.6330  1.4320 -9.2107  1.6400  1.6330  1.4320  0.8333  6564.6  166.75  9.0081  39.410  34.237 
  6565.500 -20.880  1.6430  1.6360  1.4280 -10.180  1.6430  1.6360  1.4280  0.8333  6565.1  166.72  9.0011  39.412  34.233 
  6566.000 -20.811  1.6500  1.6470  1.4270 -10.104  1.6500  1.6470  1.4270  0.8333  6565.6  166.70  8.9940  39.413  34.229 
  6566.500 -19.913  1.6490  1.6570  1.4270 -9.1984  1.6490  1.6570  1.4270  0.8333  6566.1  166.67  8.9869  39.415  34.225 
  6567.000 -19.520  1.6490  1.6670  1.4270 -8.7979  1.6490  1.6670  1.4270  0.8333  6566.6  166.65  8.9798  39.417  34.222 
  6567.500 -19.414  1.6520  1.6770  1.4380 -8.6845  1.6520  1.6770  1.4380  0.8333  6567.1  166.62  8.9728  39.418  34.218 
  6568.000 -19.380  1.6560  1.6770  1.4480 -8.6430  1.6560  1.6770  1.4480  0.8333  6567.6  166.60  8.9657  39.420  34.214 
  6568.500 -19.347  1.6630  1.6690  1.4540 -8.6026  1.6630  1.6690  1.4540  0.8333  6568.1  166.57  8.9586  39.422  34.210 
  6569.000 -19.385  1.6690  1.6760  1.4610 -8.6331  1.6690  1.6760  1.4610  0.8333  6568.6  166.55  8.9515  39.424  34.206 
  6569.500 -19.388  1.6690  1.6790  1.4680 -8.6287  1.6690  1.6790  1.4680  0.8333  6569.1  166.52  8.9445  39.425  34.203 
  6570.000 -19.427  1.6680  1.6830  1.4750 -8.6603  1.6680  1.6830  1.4750  0.8333  6569.6  166.50  8.9374  39.427  34.199 
  6570.500 -19.537  1.6680  1.6970  1.4810 -8.7628  1.6680  1.6970  1.4810  0.8333  6570.1  166.47  8.9303  39.429  34.195 
  6571.000 -19.646  1.6670  1.7100  1.4880 -8.8644  1.6670  1.7100  1.4880  0.8333  6570.6  166.45  8.9233  39.430  34.191 
  6571.500 -20.874  1.6600  1.7240  1.4940 -10.085  1.6600  1.7240  1.4940  0.8333  6571.1  166.42  8.9162  39.432  34.187 
  6572.000 -22.137  1.6590  1.7270  1.5010 -11.340  1.6590  1.7270  1.5010  0.8333  6571.6  166.40  8.9091  39.434  34.184 
  6572.500 -22.968  1.6480  1.7310  1.5080 -12.164  1.6480  1.7310  1.5080  0.8333  6572.1  166.37  8.9021  39.435  34.180 
  6573.000 -24.159  1.6370  1.7300  1.5110 -13.348  1.6370  1.7300  1.5110  0.8333  6572.6  166.35  8.8950  39.437  34.176 
  6573.500 -25.170  1.6290  1.7400  1.5150 -14.351  1.6290  1.7400  1.5150  0.8333  6573.1  166.32  8.8879  39.439  34.172 
  6574.000 -25.893  1.6140  1.7510  1.5140 -15.067  1.6140  1.7510  1.5140  0.8333  6573.6  166.30  8.8809  39.441  34.168 
  6574.500 -26.904  1.6070  1.7570  1.5170 -16.070  1.6070  1.7570  1.5170  0.8333  6574.1  166.27  8.8738  39.442  34.165 
  6575.000 -27.950  1.5990  1.7570  1.5210 -17.109  1.5990  1.7570  1.5210  0.8333  6574.6  166.25  8.8667  39.444  34.161 
  6575.500 -27.556  1.5950  1.7710  1.5270 -16.707  1.5950  1.7710  1.5270  0.8333  6575.1  166.22  8.8597  39.446  34.157 
  6576.000 -26.875  1.5920  1.7780  1.5340 -16.019  1.5920  1.7780  1.5340  0.8333  6575.6  166.20  8.8526  39.448  34.153 
  6576.500 -24.572  1.5870  1.7770  1.5550 -13.708  1.5870  1.7770  1.5550  0.8333  6576.1  166.17  8.8455  39.449  34.150 
  6577.000 -23.926  1.5830  1.7840  1.5610 -13.055  1.5830  1.7840  1.5610  0.8333  6576.6  166.15  8.8385  39.451  34.146 
  6577.500 -24.541  1.5760  1.7910  1.5680 -13.663  1.5760  1.7910  1.5680  0.8333  6577.1  166.12  8.8314  39.453  34.142 
  6578.000 -24.616  1.5680  1.7970  1.5720 -13.730  1.5680  1.7970  1.5720  0.8333  6577.6  166.10  8.8244  39.455  34.138 
  6578.500 -23.646  1.5670  1.8040  1.5750 -12.753  1.5670  1.8040  1.5750  0.8333  6578.1  166.07  8.8173  39.456  34.135 
  6579.000 -22.964  1.5670  1.8250  1.5930 -12.063  1.5670  1.8250  1.5930  0.8333  6578.6  166.05  8.8102  39.458  34.131 
  6579.500 -23.615  1.5670  1.8360  1.6100 -12.707  1.5670  1.8360  1.6100  0.8333  6579.1  166.02  8.8032  39.460  34.127 
  6580.000 -23.149  1.5700  1.8460  1.6380 -12.233  1.5700  1.8460  1.6380  0.8333  6579.6  166.00  8.7961  39.462  34.123 
  6580.500 -22.755  1.5730  1.8670  1.6520 -11.832  1.5730  1.8670  1.6520  0.8333  6580.1  165.97  8.7891  39.463  34.120 
  6581.000 -22.361  1.5720  1.9240  1.6580 -11.430  1.5720  1.9240  1.6580  0.8333  6580.6  165.95  8.7820  39.465  34.116 
  6581.500 -23.228  1.5650  1.9490  1.6650 -12.290  1.5650  1.9490  1.6650  0.8333  6581.1  165.92  8.7750  39.467  34.112 
  6582.000 -23.771  1.5610  1.9730  1.6790 -12.826  1.5610  1.9730  1.6790  0.8333  6581.6  165.90  8.7679  39.469  34.108 
  6582.500 -23.269  1.5570  2.0090  1.6860 -12.316  1.5570  2.0090  1.6860  0.8333  6582.1  165.87  8.7609  39.470  34.105 
  6583.000 -22.227  1.5530  2.0440  1.6960 -11.267  1.5530  2.0440  1.6960  0.8333  6582.6  165.85  8.7538  39.472  34.101 
  6583.500 -21.114  1.5490  2.0870  1.7070 -10.146  1.5490  2.0870  1.7070  0.8333  6583.1  165.82  8.7468  39.474  34.097 
  6584.000 -21.657  1.5480  2.1010  1.7130 -10.682  1.5480  2.1010  1.7130  0.8333  6583.6  165.80  8.7397  39.476  34.093 
  6584.500 -21.911  1.5480  2.0860  1.7200 -10.928  1.5480  2.0860  1.7200  0.8333  6584.1  165.77  8.7327  39.478  34.090 
  6585.000 -20.977  1.5470  2.0720  1.7270 -9.9869  1.5470  2.0720  1.7270  0.8333  6584.6  165.75  8.7256  39.479  34.086 
  6585.500 -20.223  1.5470  2.0210  1.7300 -9.2255  1.5470  2.0210  1.7300  0.8333  6585.1  165.72  8.7186  39.481  34.082 
  6586.000 -19.865  1.5490  1.9700  1.7330 -8.8600  1.5490  1.9700  1.7330  0.8333  6585.6  165.70  8.7115  39.483  34.079 
  6586.500 -19.759  1.5510  1.9090  1.7440 -8.7466  1.5510  1.9090  1.7440  0.8333  6586.1  165.67  8.7045  39.485  34.075 
  6587.000 -19.474  1.5530  1.8470  1.7540 -8.4542  1.5530  1.8470  1.7540  0.8333  6586.6  165.65  8.6974  39.487  34.071 
  6587.500 -18.937  1.5560  1.8180  1.7530 -7.9097  1.5560  1.8180  1.7530  0.8333  6587.1  165.62  8.6904  39.488  34.067 
  6588.000 -18.506  1.5600  1.8100  1.7600 -7.4713  1.5600  1.8100  1.7600  0.8333  6587.6  165.60  8.6834  39.490  34.064 
  6588.500 -18.005  1.5630  1.8100  1.7600 -6.9628  1.5630  1.8100  1.7600  0.8333  6588.1  165.57  8.6763  39.492  34.060 
  6589.000 -19.305  1.5660  1.8100  1.7600 -8.2554  1.5660  1.8100  1.7600  0.8333  6588.6  165.55  8.6693  39.494  34.056 
  6589.500 -19.703  1.5730  1.8060  1.7520 -8.6459  1.5730  1.8060  1.7520  0.8333  6589.1  165.52  8.6622  39.496  34.053 
