~Version Information
VERS.                     2.0: CWLS log ASCII Standard Version 2.00
WRAP.                      NO: One line per depth step
~Well Information Block
#MNEM.UNIT                               Data Type  Information
#---------                               ---------  -----------
STRT.FT                                   350.0000:
STOP.FT                                  7530.0000:
STEP.FT                                     0.5000:
NULL.                 -999.25                     :
COMP.                                             :COMPANY            
WELL.     CCMO 67-20                              :WELL               
FLD .                                             :FIELD              
CTRY.                                             :COUNTRY            
STAT.                                             :STATE              
LOC .                                             :LOCATION           
UWI .                                             :UNIQUE WELL ID     
SRVC.                                             :Service company    
DATE.                                             :LOG DATE           
~Curve Information
#MNEM.UNIT           API CODE  Curve Description
#---------           --------  -----------------
DEPT.FT                      :   1 DEPTH
SP  .MV                      :   2
AM16.OHMM                    :   3
AO10.OHMM                    :   4
AO19.OHMM                    :   5
SBL .MV                      :   6
RS  .OHMM                    :   7
RM  .OHMM                    :   8
RD  .OHMM                    :   9
DEVI.DEG                     :  10
TVD .FT                      :  11
AZIM.DEG                     :  12
NORT.FT                      :  13
EAST.FT                      :  14
OFFS.FT                      :  15
~A
# ...
  1780.000 -57.628  9.2510  8.3690  7.8990 -32.721  9.2510  8.3690  7.8990  0.2998  1780.0  160.40 -0.9316  1.1409  0.1480 
  1780.500 -56.515  8.7560  8.7280  7.8490 -31.575  8.7560  8.7280  7.8490  0.3006  1780.5  160.41 -0.9341  1.1418  0.1469 
  1781.000 -54.073  7.8600  8.9430  7.6990 -29.101  7.8600  8.9430  7.6990  0.3015  1781.0  160.43 -0.9366  1.1427  0.1457 
  1781.500 -52.099  7.1790  9.0720  7.4410 -27.094  7.1790  9.0720  7.4410  0.3023  1781.5  160.44 -0.9390  1.1435  0.1446 
  1782.000 -49.622  6.4910  8.9720  7.1900 -24.585  6.4910  8.9720  7.1900  0.3031  1782.0  160.46 -0.9415  1.1444  0.1435 
  1782.500 -47.539  5.9030  8.7430  6.8960 -22.469  5.9030  8.7430  6.8960  0.3040  1782.5  160.47 -0.9440  1.1453  0.1423 
  1783.000 -47.072  5.6020  8.5210  6.4450 -21.970  5.6020  8.5210  6.4450  0.3048  1783.0  160.49 -0.9465  1.1462  0.1412 
  1783.500 -46.173  5.3230  8.2850  5.9570 -21.038  5.3230  8.2850  5.9570  0.3056  1783.5  160.50 -0.9491  1.1471  0.1400 
  1784.000 -44.521  5.0430  7.9760  5.5850 -19.354  5.0430  7.9760  5.5850  0.3064  1784.0  160.52 -0.9516  1.1480  0.1389 
  1784.500 -42.439  4.7500  7.6900  5.1830 -17.239  4.7500  7.6900  5.1830  0.3073  1784.5  160.53 -0.9541  1.1489  0.1377 
  1785.000 -40.572  4.4770  7.3170  4.9330 -15.339  4.4770  7.3170  4.9330  0.3081  1785.0  160.55 -0.9566  1.1498  0.1366 
  1785.500 -38.525  4.1760  7.1170  4.6460 -13.260  4.1760  7.1170  4.6460  0.3089  1785.5  160.56 -0.9592  1.1507  0.1354 
  1786.000 -36.694  4.0760  6.8450  4.3950 -11.396  4.0760  6.8450  4.3950  0.3098  1786.0  160.58 -0.9617  1.1516  0.1342 
  1786.500 -35.832  3.9470  6.6220  4.1810 -10.502  3.9470  6.6220  4.1810  0.3106  1786.5  160.59 -0.9643  1.1525  0.1331 
  1787.000 -35.364  3.8620  6.3220  4.0020 -10.001  3.8620  6.3220  4.0020  0.3114  1787.0  160.61 -0.9668  1.1534  0.1319 
  1787.500 -35.004  3.8050  6.0280  3.8150 -9.6087  3.8050  6.0280  3.8150  0.3123  1787.5  160.62 -0.9694  1.1543  0.1307 
  1788.000 -34.787  3.7760  5.8850  3.7370 -9.3591  3.7760  5.8850  3.7370  0.3131  1788.0  160.64 -0.9720  1.1552  0.1295 
  1788.500 -34.714  3.7690  5.8060  3.7590 -9.2535  3.7690  5.8060  3.7590  0.3139  1788.5  160.65 -0.9746  1.1561  0.1283 
  1789.000 -34.784  3.8270  5.8490  3.7950 -9.2910  3.8270  5.8490  3.7950  0.3147  1789.0  160.67 -0.9772  1.1570  0.1272 
  1789.500 -35.034  3.8850  5.8710  3.8880 -9.5084  3.8850  5.8710  3.8880  0.3156  1789.5  160.68 -0.9798  1.1579  0.1260 
  1790.000 -35.535  4.0070  5.9360  4.0180 -9.9769  4.0070  5.9360  4.0180  0.3164  1790.0  160.70 -0.9824  1.1588  0.1248 
  1790.500 -36.107  4.1000  6.0220  4.3260 -10.516  4.1000  6.0220  4.3260  0.3172  1790.5  160.71 -0.9850  1.1597  0.1236 
  1791.000 -36.895  4.1870  6.2230  4.6420 -11.272  4.1870  6.2230  4.6420  0.3181  1791.0  160.73 -0.9876  1.1607  0.1224 
  1791.500 -38.149  4.2370  6.4890  4.8790 -12.493  4.2370  6.4890  4.8790  0.3189  1791.5  160.74 -0.9902  1.1616  0.1211 
  1792.000 -39.476  4.3020  6.6540  5.1730 -13.788  4.3020  6.6540  5.1730  0.3197  1792.0  160.76 -0.9929  1.1625  0.1199 
  1792.500 -40.084  4.3520  6.8050  5.4960 -14.363  4.3520  6.8050  5.4960  0.3206  1792.5  160.77 -0.9955  1.1634  0.1187 
  1793.000 -39.760  4.3890  6.8920  5.7910 -14.007  4.3890  6.8920  5.7910  0.3214  1793.0  160.79 -0.9982  1.1643  0.1175 
  1793.500 -38.861  4.3750  6.8990  5.9130 -13.075  4.3750  6.8990  5.9130  0.3222  1793.5  160.80 -1.0008  1.1653  0.1163 
  1794.000 -37.604  4.2670  6.7490  6.0350 -11.785  4.2670  6.7490  6.0350  0.3230  1794.0  160.82 -1.0035  1.1662  0.1150 
  1794.500 -37.244  4.2100  6.4120  6.0280 -11.393  4.2100  6.4120  6.0280  0.3239  1794.5  160.83 -1.0061  1.1671  0.1138 
  1795.000 -37.350  4.2100  5.9890  5.9210 -11.466  4.2100  5.9890  5.9210  0.3247  1795.0  160.85 -1.0088  1.1680  0.1126 
  1795.500 -37.492  4.2470  5.7460  5.8850 -11.576  4.2470  5.7460  5.8850  0.3255  1795.5  160.86 -1.0115  1.1690  0.1113 
  1796.000 -37.598  4.3330  5.5670  5.9000 -11.649  4.3330  5.5670  5.9000  0.3264  1796.0  160.88 -1.0142  1.1699  0.1101 
  1796.500 -37.848  4.4120  5.4450  5.9580 -11.867  4.4120  5.4450  5.9580  0.3272  1796.5  160.89 -1.0169  1.1708  0.1089 
  1797.000 -38.241  4.5060  5.3730  6.0370 -12.227  4.5060  5.3730  6.0370  0.3280  1797.0  160.91 -1.0196  1.1718  0.1076 
  1797.500 -38.706  4.6570  5.2950  6.1520 -12.659  4.6570  5.2950  6.1520  0.3289  1797.5  160.92 -1.0223  1.1727  0.1063 
  1798.000 -39.207  4.8430  5.2450  6.1950 -13.128  4.8430  5.2450  6.1950  0.3297  1798.0  160.94 -1.0250  1.1737  0.1051 
  1798.500 -40.641  5.0730  5.2380  6.3250 -14.529  5.0730  5.2380  6.3250  0.3305  1798.5  160.95 -1.0278  1.1746  0.1038 
  1799.000 -41.752  5.3100  5.2310  6.5040 -15.608  5.3100  5.2310  6.5040  0.3313  1799.0  160.97 -1.0305  1.1755  0.1026 
  1799.500 -43.687  5.6690  5.2740  6.7480 -17.510  5.6690  5.2740  6.7480  0.3322  1799.5  160.98 -1.0332  1.1765  0.1013 
  1800.000 -46.628  5.9850  5.4970  7.1140 -20.419  5.9850  5.4970  7.1140  0.3330  1800.0  161.00 -1.0360  1.1774  0.1000 
  1800.500 -51.327  6.2500  5.8490  7.5310 -25.085  6.2500  5.8490  7.5310  0.3322  1800.5  161.81 -1.0387  1.1783  0.0987 
  1801.000 -55.559  6.7810  6.2290  7.9830 -29.285  6.7810  6.2290  7.9830  0.3313  1801.0  162.62 -1.0415  1.1792  0.0974 
  1801.500 -58.428  7.4340  6.5880  8.3920 -32.121  7.4340  6.5880  8.3920  0.3305  1801.5  163.43 -1.0443  1.1800  0.0960 
  1802.000 -60.256  7.9290  6.9330  8.7290 -33.916  7.9290  6.9330  8.7290  0.3297  1802.0  164.24 -1.0470  1.1808  0.0946 
  1802.500 -61.761  8.3100  7.2050  8.9730 -35.389  8.3100  7.2050  8.9730  0.3289  1802.5  165.05 -1.0498  1.1815  0.0931 
  1803.000 -62.980  8.6690  7.3780  9.2530 -36.575  8.6690  7.3780  9.2530  0.3280  1803.0  165.86 -1.0526  1.1822  0.0917 
  1803.500 -63.983  8.9920  7.6150  9.4610 -37.546  8.9920  7.6150  9.4610  0.3272  1803.5  166.67 -1.0554  1.1829  0.0902 
  1804.000 -64.340  9.2650  7.8160  9.6200 -37.870  9.2650  7.8160  9.6200  0.3264  1804.0  167.48 -1.0581  1.1835  0.0887 
  1804.500 -64.590  9.5010  7.9600  9.7350 -38.088  9.5010  7.9600  9.7350  0.3255  1804.5  168.29 -1.0609  1.1841  0.0871 
  1805.000 -64.768  9.7030  8.0240  9.8210 -38.233  9.7030  8.0240  9.8210  0.3247  1805.0  169.10 -1.0637  1.1846  0.0855 
  1805.500 -64.767  9.8250  8.0390  9.8790 -38.200  9.8250  8.0390  9.8790  0.3239  1805.5  169.91 -1.0665  1.1851  0.0839 
  1806.000 -64.621  9.8970  7.9600  9.9080 -38.021  9.8970  7.9600  9.9080  0.3230  1806.0  170.72 -1.0693  1.1856  0.0822 
  1806.500 -64.513  9.9830  7.9110  9.8790 -37.880  9.9830  7.9110  9.8790  0.3222  1806.5  171.53 -1.0720  1.1860  0.0806 
  1807.000 -64.296  10.077  7.9540  9.7500 -37.631  10.077  7.9540  9.7500  0.3214  1807.0  172.34 -1.0748  1.1864  0.0789 
  1807.500 -64.115  10.070  7.9900  9.6140 -37.417  10.070  7.9900  9.6140  0.3206  1807.5  173.15 -1.0776  1.1867  0.0771 
  1808.000 -63.898  10.027  8.0480  9.4140 -37.168  10.027  8.0480  9.4140  0.3197  1808.0  173.96 -1.0804  1.1870  0.0754 
  1808.500 -63.610  10.020  8.0980  9.1770 -36.847  10.020  8.0980  9.1770  0.3189  1808.5  174.77 -1.0831  1.1872  0.0736 
  1809.000 -63.429  10.020  8.1630  9.0410 -36.634  10.020  8.1630  9.0410  0.3181  1809.0  175.58 -1.0859  1.1875  0.0718 
  1809.500 -63.428  10.057  8.3070  8.9700 -36.600  10.057  8.3070  8.9700  0.3172  1809.5  176.39 -1.0887  1.1876  0.0700 
  1810.000 -63.605  10.107  8.5150  8.9060 -36.745  10.107  8.5150  8.9060  0.3164  1810.0  177.20 -1.0914  1.1878  0.0681 
  1810.500 -64.071  10.208  8.7590  8.8990 -37.178  10.208  8.7590  8.8990  0.3156  1810.5  178.01 -1.0942  1.1879  0.0662 
  1811.000 -64.715  10.265  9.0960  8.9060 -37.789  10.265  9.0960  8.9060  0.3147  1811.0  178.82 -1.0969  1.1879  0.0643 
  1811.500 -65.539  10.352  9.4700  8.9210 -38.581  10.352  9.4700  8.9210  0.3139  1811.5  179.63 -1.0997  1.1879  0.0624 
  1812.000 -65.752  10.395  10.015  8.9640 -38.761  10.395  10.015  8.9640  0.3131  1812.0  180.44 -1.1024  1.1879  0.0605 
