~Version Information
VERS.                     2.0: CWLS log ASCII Standard Version 2.00
WRAP.                      NO: One line per depth step
~Well Information Block
#MNEM.UNIT                               Data Type  Information
#---------                               ---------  -----------
STRT.FT                                   350.0000:
STOP.FT                                  7530.0000:
STEP.FT                                     0.5000:
NULL.                 -999.25                     :
COMP.                                             :COMPANY            
WELL.     CCMO 67-20                              :WELL               
FLD .                                             :FIELD              
CTRY.                                             :COUNTRY            
STAT.                                             :STATE              
LOC .                                             :LOCATION           
UWI .                                             :UNIQUE WELL ID     
SRVC.                                             :Service company    
DATE.                                             :LOG DATE           
~Curve Information
#MNEM.UNIT           API CODE  Curve Description
#---------           --------  -----------------
DEPT.FT                      :   1 DEPTH
SP  .MV                      :   2
AM16.OHMM                    :   3
AO10.OHMM                    :   4
AO19.OHMM                    :   5
SBL .MV                      :   6
RS  .OHMM                    :   7
RM  .OHMM                    :   8
RD  .OHMM                    :   9
DEVI.DEG                     :  10
TVD .FT                      :  11
AZIM.DEG                     :  12
NORT.FT                      :  13
EAST.FT                      :  14
OFFS.FT                      :  15
~A
# ...
  2722.500 -43.829  9.6890  15.105  14.769 -30.983  9.6890  15.105  14.769  0.0749  2722.5  324.22  1.4459  2.4022  2.7210 
  2723.000 -43.860  9.6750  14.798  14.634 -31.017  9.6750  14.798  14.634  0.0766  2723.0  323.43  1.4465  2.4018  2.7211 
  2723.500 -43.134  9.6680  14.490  14.405 -30.294  9.6680  14.490  14.405  0.0783  2723.5  322.63  1.4470  2.4014  2.7212 
  2724.000 -42.698  9.6400  14.276  14.477 -29.861  9.6400  14.276  14.477  0.0799  2724.0  321.84  1.4476  2.4009  2.7213 
  2724.500 -41.865  9.5620  14.212  14.679 -29.031  9.5620  14.212  14.679  0.0816  2724.5  321.04  1.4481  2.4005  2.7214 
  2725.000 -40.709  9.3690  14.241  14.808 -27.878  9.3690  14.241  14.808  0.0833  2725.0  320.25  1.4487  2.4000  2.7214 
  2725.500 -39.192  8.9820  14.285  14.995 -26.364  8.9820  14.285  14.995  0.0849  2725.5  319.45  1.4492  2.3995  2.7215 
  2726.000 -38.001  8.4020  14.335  15.146 -25.176  8.4020  14.335  15.146  0.0866  2726.0  318.66  1.4498  2.3990  2.7215 
  2726.500 -35.693  7.8080  14.350  15.269 -22.871  7.8080  14.350  15.269  0.0882  2726.5  317.86  1.4504  2.3985  2.7216 
  2727.000 -33.493  7.0420  14.143  15.134 -20.673  7.0420  14.143  15.134  0.0899  2727.0  317.07  1.4509  2.3980  2.7216 
  2727.500 -30.574  5.5380  13.842  14.962 -17.757  5.5380  13.842  14.962  0.0916  2727.5  316.27  1.4515  2.3974  2.7216 
  2728.000 -24.993  4.6210  13.370  14.089 -12.179  4.6210  13.370  14.089  0.0932  2728.0  315.48  1.4521  2.3969  2.7216 
  2728.500 -23.081  4.2630  12.446  13.179 -10.270  4.2630  12.446  13.179  0.0949  2728.5  314.68  1.4527  2.3963  2.7216 
  2729.000 -22.140  4.0200  11.214  11.875 -9.3323  4.0200  11.214  11.875  0.0966  2729.0  313.89  1.4533  2.3957  2.7216 
  2729.500 -21.092  3.7700  7.9470  6.9170 -8.2873  3.7700  7.9470  6.9170  0.0982  2729.5  313.09  1.4539  2.3950  2.7216 
  2730.000 -20.619  3.6340  5.7770  6.4810 -7.8172  3.6340  5.7770  6.4810  0.0999  2730.0  312.30  1.4544  2.3944  2.7215 
  2730.500 -20.469  3.6060  5.4910  6.1090 -7.6702  3.6060  5.4910  6.1090  0.1016  2730.5  311.50  1.4550  2.3937  2.7215 
  2731.000 -20.392  3.6500  5.2690  5.9090 -7.5961  3.6500  5.2690  5.9090  0.1032  2731.0  310.71  1.4556  2.3930  2.7214 
  2731.500 -20.352  3.7430  5.5200  6.1030 -7.5591  3.7430  5.5200  6.1030  0.1049  2731.5  309.91  1.4562  2.3923  2.7213 
  2732.000 -20.311  3.8370  5.8430  6.5770 -7.5211  3.8370  5.8430  6.5770  0.1066  2732.0  309.12  1.4568  2.3916  2.7212 
  2732.500 -20.341  3.9160  6.1090  6.8350 -7.5540  3.9160  6.1090  6.8350  0.1082  2732.5  308.32  1.4574  2.3909  2.7211 
  2733.000 -20.948  4.0130  6.4680  7.1660 -8.1640  4.0130  6.4680  7.1660  0.1099  2733.0  307.53  1.4580  2.3901  2.7210 
  2733.500 -21.771  4.1110  6.7470  7.5390 -8.9899  4.1110  6.7470  7.5390  0.1116  2733.5  306.73  1.4585  2.3893  2.7209 
  2734.000 -22.774  4.1970  7.0560  7.7540 -9.9959  4.1970  7.0560  7.7540  0.1132  2734.0  305.94  1.4591  2.3885  2.7207 
  2734.500 -23.992  4.2550  7.3500  7.9130 -11.217  4.2550  7.3500  7.9130  0.1149  2734.5  305.14  1.4597  2.3877  2.7205 
  2735.000 -23.951  4.2840  7.4940  8.0490 -11.179  4.2840  7.4940  8.0490  0.1166  2735.0  304.35  1.4603  2.3869  2.7203 
  2735.500 -23.766  4.1270  7.5450  8.0930 -10.997  4.1270  7.5450  8.0930  0.1182  2735.5  303.55  1.4608  2.3860  2.7201 
  2736.000 -22.753  4.0200  7.4230  7.7790 -9.9867  4.0200  7.4230  7.7790  0.1199  2736.0  302.76  1.4614  2.3851  2.7199 
  2736.500 -21.633  4.0210  7.1370  7.4500 -8.8697  4.0210  7.1370  7.4500  0.1215  2736.5  301.96  1.4620  2.3842  2.7197 
  2737.000 -20.475  4.1140  6.7870  7.0920 -7.7146  4.1140  6.7870  7.0920  0.1232  2737.0  301.17  1.4625  2.3833  2.7194 
  2737.500 -19.860  4.2580  6.5010  6.7840 -7.1026  4.2580  6.5010  6.7840  0.1249  2737.5  300.37  1.4631  2.3824  2.7191 
  2738.000 -19.567  4.3010  6.2940  6.6060 -6.8126  4.3010  6.2940  6.6060  0.1265  2738.0  299.58  1.4636  2.3814  2.7189 
  2738.500 -19.957  4.4170  6.1290  6.5490 -7.2055  4.4170  6.1290  6.5490  0.1282  2738.5  298.78  1.4642  2.3804  2.7185 
  2739.000 -20.168  4.5180  5.9000  6.6360 -7.4195  4.5180  5.9000  6.6360  0.1299  2739.0  297.99  1.4647  2.3794  2.7182 
  2739.500 -20.559  4.6110  5.7720  6.9800 -7.8134  4.6110  5.7720  6.9800  0.1315  2739.5  297.19  1.4652  2.3784  2.7179 
  2740.000 -21.021  4.7260  5.9010  7.3610 -8.2784  4.7260  5.9010  7.3610  0.1332  2740.0  296.40  1.4657  2.3774  2.7175 
  2740.500 -21.701  4.8560  5.8380  7.6980 -8.9614  4.8560  5.8380  7.6980  0.1349  2740.5  295.60  1.4662  2.3763  2.7171 
  2741.000 -22.702  4.9350  5.7450  7.7990 -9.9653  4.9350  5.7450  7.7990  0.1365  2741.0  294.81  1.4667  2.3752  2.7167 
  2741.500 -23.705  5.0650  5.6740  7.8640 -10.971  5.0650  5.6740  7.8640  0.1382  2741.5  294.01  1.4672  2.3741  2.7163 
  2742.000 -25.139  5.1370  5.6310  7.9510 -12.408  5.1370  5.6310  7.9510  0.1399  2742.0  293.22  1.4677  2.3730  2.7158 
  2742.500 -27.364  5.1950  5.6820  8.0230 -14.636  5.1950  5.6820  8.0230  0.1415  2742.5  292.42  1.4682  2.3719  2.7153 
  2743.000 -29.195  5.2090  5.7900  8.1170 -16.470  5.2090  5.7900  8.1170  0.1432  2743.0  291.63  1.4686  2.3707  2.7148 
  2743.500 -31.492  5.1240  5.9840  8.1820 -18.770  5.1240  5.9840  8.1820  0.1449  2743.5  290.83  1.4691  2.3695  2.7143 
  2744.000 -32.495  4.9600  6.1350  8.2470 -19.776  4.9600  6.1350  8.2470  0.1465  2744.0  290.04  1.4695  2.3683  2.7138 
  2744.500 -31.734  4.7020  6.2140  8.2120 -19.018  4.7020  6.2140  8.2120  0.1482  2744.5  289.24  1.4700  2.3671  2.7132 
  2745.000 -30.254  4.4380  6.1790  8.0770 -17.541  4.4380  6.1790  8.0770  0.1499  2745.0  288.45  1.4704  2.3659  2.7126 
  2745.500 -25.644  4.2660  5.8570  7.5110 -12.934  4.2660  5.8570  7.5110  0.1515  2745.5  287.65  1.4708  2.3646  2.7120 
  2746.000 -21.933  4.1300  5.4630  6.7810 -9.2259  4.1300  5.4630  6.7810  0.1532  2746.0  286.86  1.4712  2.3633  2.7114 
  2746.500 -19.265  4.0450  4.9910  6.2730 -6.5609  4.0450  4.9910  6.2730  0.1548  2746.5  286.06  1.4715  2.3620  2.7107 
  2747.000 -18.253  3.9880  4.5180  6.0160 -5.5518  3.9880  4.5180  6.0160  0.1565  2747.0  285.27  1.4719  2.3607  2.7101 
  2747.500 -17.816  3.9740  4.2750  5.7870 -5.1178  3.9740  4.2750  5.7870  0.1582  2747.5  284.47  1.4722  2.3594  2.7094 
  2748.000 -17.560  3.9600  4.0540  5.6440 -4.8647  3.9600  4.0540  5.6440  0.1598  2748.0  283.68  1.4726  2.3580  2.7086 
  2748.500 -17.194  3.9320  3.9180  5.4800 -4.5017  3.9320  3.9180  5.4800  0.1615  2748.5  282.88  1.4729  2.3566  2.7079 
  2749.000 -16.973  3.9260  3.8830  5.3730 -4.2837  3.9260  3.8830  5.3730  0.1632  2749.0  282.09  1.4732  2.3552  2.7071 
  2749.500 -16.788  3.9370  3.8620  5.2020 -4.1016  3.9370  3.8620  5.2020  0.1648  2749.5  281.29  1.4735  2.3538  2.7063 
  2750.000 -16.712  3.9480  3.8760  4.9090 -4.0286  3.9480  3.8760  4.9090  0.1665  2750.0  280.50  1.4737  2.3524  2.7055 
  2750.500 -16.926  3.9920  3.9210  4.6010 -4.2455  3.9920  3.9210  4.6010  0.1682  2750.5  279.70  1.4740  2.3510  2.7046 
  2751.000 -17.320  4.1150  3.9930  4.5000 -4.6425  4.1150  3.9930  4.5000  0.1698  2751.0  278.91  1.4742  2.3495  2.7038 
  2751.500 -17.822  4.2880  4.0300  4.4290 -5.1474  4.2880  4.0300  4.4290  0.1715  2751.5  278.11  1.4744  2.3480  2.7029 
  2752.000 -18.611  4.5250  4.2390  4.4500 -5.9394  4.5250  4.2390  4.4500  0.1732  2752.0  277.32  1.4746  2.3465  2.7019 
  2752.500 -19.473  5.0130  4.4330  4.5650 -6.8044  5.0130  4.4330  4.5650  0.1748  2752.5  276.52  1.4748  2.3450  2.7010 
  2753.000 -20.587  5.4510  4.6770  4.7660 -7.9213  5.4510  4.6770  4.7660  0.1765  2753.0  275.73  1.4749  2.3435  2.7000 
  2753.500 -22.276  5.8100  5.0650  5.0670 -9.6133  5.8100  5.0650  5.0670  0.1782  2753.5  274.93  1.4751  2.3419  2.6990 
  2754.000 -24.721  6.2060  5.4960  5.3460 -12.061  6.2060  5.4960  5.3460  0.1798  2754.0  274.14  1.4752  2.3403  2.6980 
  2754.500 -27.093  6.4570  5.8050  5.6620 -14.436  6.4570  5.8050  5.6620  0.1815  2754.5  273.34  1.4753  2.3388  2.6969 
