~Version Information
VERS.                     2.0: CWLS log ASCII Standard Version 2.00
WRAP.                      NO: One line per depth step
~Well Information Block
#MNEM.UNIT                               Data Type  Information
#---------                               ---------  -----------
STRT.FT                                   350.0000:
STOP.FT                                  7530.0000:
STEP.FT                                     0.5000:
NULL.                 -999.25                     :
COMP.                                             :COMPANY            
WELL.     CCMO 67-20                              :WELL               
FLD .                                             :FIELD              
CTRY.                                             :COUNTRY            
STAT.                                             :STATE              
LOC .                                             :LOCATION           
UWI .                                             :UNIQUE WELL ID     
SRVC.                                             :Service company    
DATE.                                             :LOG DATE           
~Curve Information
#MNEM.UNIT           API CODE  Curve Description
#---------           --------  -----------------
DEPT.FT                      :   1 DEPTH
SP  .MV                      :   2
AM16.OHMM                    :   3
AO10.OHMM                    :   4
AO19.OHMM                    :   5
SBL .MV                      :   6
RS  .OHMM                    :   7
RM  .OHMM                    :   8
RD  .OHMM                    :   9
DEVI.DEG                     :  10
TVD .FT                      :  11
AZIM.DEG                     :  12
NORT.FT                      :  13
EAST.FT                      :  14
OFFS.FT                      :  15
~A
# ...
  3697.500 -31.121  8.0000  7.5700  9.2720 -24.044  8.0000  7.5700  9.2720  0.5833  3697.4  73.949  3.2072  7.2386  7.3863 
  3698.000 -33.250  8.6730  7.8270  9.6800 -26.176  8.6730  7.8270  9.6800  0.5833  3697.9  73.959  3.2086  7.2435  7.3908 
  3698.500 -35.091  9.1950  7.9980  9.8940 -28.020  9.1950  7.9980  9.8940  0.5833  3698.4  73.969  3.2100  7.2484  7.3952 
  3699.000 -36.824  9.6600  8.0470  10.058 -29.756  9.6600  8.0470  10.058  0.5833  3698.9  73.979  3.2114  7.2533  7.3997 
  3699.500 -37.836  10.025  8.0610  10.186 -30.771  10.025  8.0610  10.186  0.5833  3699.4  73.989  3.2128  7.2582  7.4041 
  3700.000 -39.209  10.404  8.0740  10.264 -32.147  10.404  8.0740  10.264  0.5833  3699.9  73.999  3.2142  7.2631  7.4086 
  3700.500 -39.932  10.748  8.0880  10.299 -32.873  10.748  8.0880  10.299  0.5825  3700.4  74.004  3.2156  7.2680  7.4130 
  3701.000 -41.016  11.019  8.1020  10.313 -33.960  11.019  8.1020  10.313  0.5816  3700.9  74.009  3.2170  7.2729  7.4175 
  3701.500 -41.847  11.076  8.1160  10.377 -34.794  11.076  8.1160  10.377  0.5808  3701.4  74.014  3.2184  7.2777  7.4219 
  3702.000 -42.210  11.147  8.1290  10.463 -35.160  11.147  8.1290  10.463  0.5800  3701.9  74.019  3.2198  7.2826  7.4263 
  3702.500 -42.177  11.218  8.1360  10.562 -35.130  11.218  8.1360  10.562  0.5791  3702.4  74.024  3.2212  7.2875  7.4307 
  3703.000 -42.000  11.290  8.1430  10.691 -34.956  11.290  8.1430  10.691  0.5783  3702.9  74.029  3.2226  7.2923  7.4352 
  3703.500 -41.895  11.361  8.1850  10.855 -34.854  11.361  8.1850  10.855  0.5775  3703.4  74.034  3.2240  7.2971  7.4396 
  3704.000 -41.790  11.561  8.2560  10.948 -34.752  11.561  8.2560  10.948  0.5766  3703.9  74.039  3.2254  7.3020  7.4440 
  3704.500 -41.757  11.789  8.3130  11.062 -34.721  11.789  8.3130  11.062  0.5758  3704.4  74.044  3.2268  7.3068  7.4484 
  3705.000 -42.192  12.083  8.3480  11.133 -35.159  12.083  8.3480  11.133  0.5750  3704.9  74.049  3.2281  7.3116  7.4527 
  3705.500 -43.023  12.390  8.4340  11.147 -35.993  12.390  8.4340  11.147  0.5741  3705.4  74.054  3.2295  7.3165  7.4571 
  3706.000 -43.927  12.633  8.5760  11.161 -36.900  12.633  8.5760  11.161  0.5733  3705.9  74.059  3.2309  7.3213  7.4615 
  3706.500 -44.542  12.912  9.0490  11.167 -37.518  12.912  9.0490  11.167  0.5725  3706.4  74.064  3.2323  7.3261  7.4659 
  3707.000 -44.923  13.084  9.9010  11.174 -37.902  13.084  9.9010  11.174  0.5716  3706.9  74.069  3.2336  7.3309  7.4702 
  3707.500 -45.303  13.241  10.596  11.166 -38.285  13.241  10.596  11.166  0.5708  3707.4  74.074  3.2350  7.3357  7.4746 
  3708.000 -45.632  13.341  11.513  11.158 -38.617  13.341  11.513  11.158  0.5700  3707.9  74.079  3.2364  7.3404  7.4789 
  3708.500 -45.743  13.362  12.050  11.129 -38.731  13.362  12.050  11.129  0.5691  3708.4  74.084  3.2377  7.3452  7.4833 
  3709.000 -45.818  13.397  12.623  11.028 -38.809  13.397  12.623  11.028  0.5683  3708.9  74.089  3.2391  7.3500  7.4876 
  3709.500 -45.928  13.547  13.525  10.898 -38.922  13.547  13.525  10.898  0.5675  3709.4  74.094  3.2404  7.3548  7.4919 
  3710.000 -45.968  13.754  14.235  10.826 -38.965  13.754  14.235  10.826  0.5666  3709.9  74.099  3.2418  7.3595  7.4962 
  3710.500 -45.899  13.858  14.786  10.797 -38.899  13.858  14.786  10.797  0.5658  3710.4  74.104  3.2431  7.3643  7.5006 
  3711.000 -45.793  13.961  15.158  10.804 -38.796  13.961  15.158  10.804  0.5650  3710.9  74.109  3.2445  7.3690  7.5049 
  3711.500 -45.544  14.039  15.573  10.882 -38.550  14.039  15.573  10.882  0.5641  3711.4  74.114  3.2458  7.3737  7.5092 
  3712.000 -44.827  14.046  15.974  10.974 -37.836  14.046  15.974  10.974  0.5633  3711.9  74.119  3.2472  7.3785  7.5135 
  3712.500 -44.253  14.045  16.396  11.117 -37.265  14.045  16.396  11.117  0.5625  3712.4  74.124  3.2485  7.3832  7.5178 
  3713.000 -43.751  14.245  16.883  11.253 -36.766  14.245  16.883  11.253  0.5616  3712.9  74.129  3.2499  7.3879  7.5220 
  3713.500 -43.106  14.388  17.377  11.396 -36.124  14.388  17.377  11.396  0.5608  3713.4  74.134  3.2512  7.3926  7.5263 
  3714.000 -42.209  14.610  17.957  11.531 -35.230  14.610  17.957  11.531  0.5600  3713.9  74.139  3.2525  7.3973  7.5306 
  3714.500 -41.995  14.738  18.573  11.753 -35.019  14.738  18.573  11.753  0.5591  3714.4  74.144  3.2539  7.4020  7.5348 
  3715.000 -41.422  14.852  19.239  11.975 -34.449  14.852  19.239  11.975  0.5583  3714.9  74.149  3.2552  7.4067  7.5391 
  3715.500 -41.100  14.952  19.755  12.332 -34.130  14.952  19.755  12.332  0.5575  3715.4  74.154  3.2565  7.4114  7.5433 
  3716.000 -40.778  14.930  20.012  12.719 -33.811  14.930  20.012  12.719  0.5566  3715.9  74.159  3.2579  7.4160  7.5476 
  3716.500 -40.062  14.894  20.033  12.926 -33.098  14.894  20.033  12.926  0.5558  3716.4  74.164  3.2592  7.4207  7.5518 
  3717.000 -39.777  14.864  20.054  13.219 -32.815  14.864  20.054  13.219  0.5550  3716.9  74.169  3.2605  7.4254  7.5560 
  3717.500 -39.563  14.699  20.061  13.470 -32.604  14.699  20.061  13.470  0.5541  3717.4  74.174  3.2618  7.4300  7.5603 
  3718.000 -39.099  14.326  20.064  13.706 -32.143  14.326  20.064  13.706  0.5533  3717.9  74.179  3.2631  7.4347  7.5645 
  3718.500 -38.885  14.046  20.067  13.884 -31.932  14.046  20.067  13.884  0.5525  3718.4  74.184  3.2645  7.4393  7.5687 
  3719.000 -38.419  13.622  20.080  14.063 -31.469  13.622  20.080  14.063  0.5516  3718.9  74.189  3.2658  7.4439  7.5729 
  3719.500 -38.152  12.984  20.094  14.098 -31.205  12.984  20.094  14.098  0.5508  3719.4  74.194  3.2671  7.4486  7.5771 
  3720.000 -37.884  12.610  20.094  13.940 -30.940  12.610  20.094  13.940  0.5500  3719.9  74.199  3.2684  7.4532  7.5813 
  3720.500 -37.491  12.316  20.086  13.868 -30.550  12.316  20.086  13.868  0.5491  3720.4  74.204  3.2697  7.4578  7.5855 
  3721.000 -36.954  11.914  20.092  13.759 -30.016  11.914  20.092  13.759  0.5483  3720.9  74.209  3.2710  7.4624  7.5896 
  3721.500 -36.273  11.576  20.085  13.745 -29.338  11.576  20.085  13.745  0.5475  3721.4  74.214  3.2723  7.4670  7.5938 
  3722.000 -35.807  11.124  20.077  13.823 -28.875  11.124  20.077  13.823  0.5466  3721.9  74.219  3.2736  7.4716  7.5980 
  3722.500 -34.946  10.787  19.940  13.923 -28.017  10.787  19.940  13.923  0.5458  3722.4  74.224  3.2749  7.4762  7.6021 
  3723.000 -34.697  10.163  19.710  13.972 -27.771  10.163  19.710  13.972  0.5450  3722.9  74.229  3.2762  7.4807  7.6063 
  3723.500 -34.627  9.7820  19.394  14.000 -27.704  9.7820  19.394  14.000  0.5441  3723.4  74.234  3.2775  7.4853  7.6104 
  3724.000 -33.586  9.3090  19.100  13.835 -26.666  9.3090  19.100  13.835  0.5433  3723.9  74.239  3.2787  7.4899  7.6146 
  3724.500 -32.688  8.7770  18.770  11.813 -25.771  8.7770  18.770  11.813  0.5425  3724.4  74.244  3.2800  7.4944  7.6187 
  3725.000 -30.133  8.4040  18.231  11.046 -23.219  8.4040  18.231  11.046  0.5416  3724.9  74.249  3.2813  7.4990  7.6228 
  3725.500 -26.714  7.8800  17.786  10.601 -19.803  7.8800  17.786  10.601  0.5408  3725.4  74.254  3.2826  7.5035  7.6269 
  3726.000 -23.979  7.4350  16.904  10.148 -17.071  7.4350  16.904  10.148  0.5400  3725.9  74.259  3.2839  7.5081  7.6310 
  3726.500 -22.469  6.9980  15.814  9.9760 -15.564  6.9980  15.814  9.9760  0.5391  3726.4  74.264  3.2852  7.5126  7.6351 
  3727.000 -23.409  6.5170  14.201  10.025 -16.507  6.5170  14.201  10.025  0.5383  3726.9  74.269  3.2864  7.5171  7.6392 
  3727.500 -24.493  6.2010  12.989  10.068 -17.594  6.2010  12.989  10.068  0.5375  3727.4  74.274  3.2877  7.5216  7.6433 
  3728.000 -25.253  5.8130  12.501  9.9310 -18.357  5.8130  12.501  9.9310  0.5366  3727.9  74.279  3.2890  7.5261  7.6474 
  3728.500 -25.039  5.5900  11.920  9.4860 -18.146  5.5900  11.920  9.4860  0.5358  3728.4  74.284  3.2902  7.5306  7.6515 
  3729.000 -24.069  5.4320  11.295  9.0130 -17.178  5.4320  11.295  9.0130  0.5350  3728.9  74.289  3.2915  7.5351  7.6556 
  3729.500 -19.677  5.3030  10.693  8.5460 -12.789  5.3030  10.693  8.5460  0.5341  3729.4  74.294  3.2928  7.5396  7.6596 
