~Version Information
VERS.                     2.0: CWLS log ASCII Standard Version 2.00
WRAP.                      NO: One line per depth step
~Well Information Block
#MNEM.UNIT                               Data Type  Information
#---------                               ---------  -----------
STRT.FT                                   350.0000:
STOP.FT                                  7530.0000:
STEP.FT                                     0.5000:
NULL.                 -999.25                     :
COMP.                                             :COMPANY            
WELL.     CCMO 67-20                              :WELL               
FLD .                                             :FIELD              
CTRY.                                             :COUNTRY            
STAT.                                             :STATE              
LOC .                                             :LOCATION           
UWI .                                             :UNIQUE WELL ID     
SRVC.                                             :Service company    
DATE.                                             :LOG DATE           
~Curve Information
#MNEM.UNIT           API CODE  Curve Description
#---------           --------  -----------------
DEPT.FT                      :   1 DEPTH
SP  .MV                      :   2
AM16.OHMM                    :   3
AO10.OHMM                    :   4
AO19.OHMM                    :   5
SBL .MV                      :   6
RS  .OHMM                    :   7
RM  .OHMM                    :   8
RD  .OHMM                    :   9
DEVI.DEG                     :  10
TVD .FT                      :  11
AZIM.DEG                     :  12
NORT.FT                      :  13
EAST.FT                      :  14
OFFS.FT                      :  15
~A
   350.000 -999.25  0.0650 -999.25 -999.25 -999.25  0.0650 -999.25 -999.25  0.1461  350.00  272.50  0.2179 -0.3575 -0.0987 
   350.500 -999.25  0.0500 -999.25 -999.25 -999.25  0.0500 -999.25 -999.25  0.1463  350.50  272.38  0.2180 -0.3588 -0.0996 
   351.000 -999.25  0.0350 -999.25 -999.25 -999.25  0.0350 -999.25 -999.25  0.1465  351.00  272.25  0.2180 -0.3601 -0.1004 
   351.500 -999.25  0.0060 -999.25 -999.25 -999.25  0.0060 -999.25 -999.25  0.1468  351.50  272.13  0.2181 -0.3613 -0.1013 
   352.000 -999.25  0.0090 -999.25 -999.25 -999.25  0.0090 -999.25 -999.25  0.1470  352.00  272.00  0.2181 -0.3626 -0.1022 
   352.500 -999.25  0.0130 -999.25 -999.25 -999.25  0.0130 -999.25 -999.25  0.1472  352.50  271.88  0.2182 -0.3639 -0.1031 
   353.000 -999.25  0.0480 -999.25 -999.25 -999.25  0.0480 -999.25 -999.25  0.1474  353.00  271.75  0.2182 -0.3652 -0.1039 
   353.500 -999.25  0.0620 -999.25 -999.25 -999.25  0.0620 -999.25 -999.25  0.1476  353.50  271.63  0.2182 -0.3665 -0.1048 
   354.000  0.4230  0.0690 -999.25 -999.25  26.423  0.0690 -999.25 -999.25  0.1478  354.00  271.50  0.2183 -0.3678 -0.1057 
   354.500 -5.4720  0.0760 -999.25 -999.25  20.528  0.0760 -999.25 -999.25  0.1480  354.50  271.38  0.2183 -0.3691 -0.1066 
   355.000 -8.8880  0.1910 -999.25 -999.25  17.112  0.1910 -999.25 -999.25  0.1482  355.00  271.25  0.2183 -0.3704 -0.1075 
   355.500 -11.872  0.5430  0.0180 -999.25  14.128  0.5430  0.0180 -999.25  0.1484  355.50  271.13  0.2184 -0.3717 -0.1084 
   356.000 -13.922  3.1750  0.0180 -999.25  12.078  3.1750  0.0180 -999.25  0.1486  356.00  271.00  0.2184 -0.3730 -0.1093 
   356.500 -16.834  4.2030  0.0170  0.0210  9.1660  4.2030  0.0170  0.0210  0.1488  356.50  270.88  0.2184 -0.3742 -0.1102 
   357.000 -18.021  6.0220  0.0170  0.0930  7.9790  6.0220  0.0170  0.0930  0.1490  357.00  270.75  0.2184 -0.3755 -0.1111 
   357.500 -18.382  8.8050  0.0170  0.1280  7.6180  8.8050  0.0170  0.1280  0.1493  357.50  270.63  0.2184 -0.3769 -0.1120 
   358.000 -18.491  12.192  0.0160  0.1640  7.5090  12.192  0.0160  0.1640  0.1495  358.00  270.50  0.2184 -0.3782 -0.1129 
   358.500 -18.743  14.011  0.0160  0.1710  7.2570  14.011  0.0160  0.1710  0.1497  358.50  270.38  0.2185 -0.3795 -0.1138 
   359.000 -18.960  16.111  0.0160  0.1850  7.0400  16.111  0.0160  0.1850  0.1499  359.00  270.25  0.2185 -0.3808 -0.1148 
   359.500 -19.176  17.218  0.0150  0.1880  6.8240  17.218  0.0150  0.1880  0.1501  359.50  270.13  0.2185 -0.3821 -0.1157 
   360.000 -19.609  19.843  0.0150  0.1910  6.3910  19.843  0.0150  0.1910  0.1503  360.00  270.00  0.2185 -0.3834 -0.1166 
   360.500 -20.329  22.658  0.0150  0.1950  5.6710  22.658  0.0150  0.1950  0.1505  360.50  269.88  0.2185 -0.3847 -0.1176 
   361.000 -21.228  23.518  0.0140  0.1980  4.7720  23.518  0.0140  0.1980  0.1507  361.00  269.75  0.2185 -0.3860 -0.1185 
   361.500 -22.020  24.377  0.0140  0.1980  3.9800  24.377  0.0140  0.1980  0.1509  361.50  269.63  0.2184 -0.3873 -0.1194 
   362.000 -22.488  25.237  0.0140  0.1970  3.5120  25.237  0.0140  0.1970  0.1511  362.00  269.50  0.2184 -0.3887 -0.1204 
   362.500 -23.352  25.737  0.0130  0.2040  2.6480  25.737  0.0130  0.2040  0.1513  362.50  269.38  0.2184 -0.3900 -0.1213 
   363.000 -23.856  26.381  0.0130  0.1970  2.1440  26.381  0.0130  0.1970  0.1516  363.00  269.25  0.2184 -0.3913 -0.1223 
   363.500 -24.648  26.522  0.0130  0.1960  1.3520  26.522  0.0130  0.1960  0.1518  363.50  269.13  0.2184 -0.3926 -0.1232 
   364.000 -25.439  26.662  0.0130  0.1960  0.5610  26.662  0.0130  0.1960  0.1520  364.00  269.00  0.2184 -0.3939 -0.1242 
   364.500 -25.980  26.803  0.0120  0.1990  0.0200  26.803  0.0120  0.1990  0.1522  364.50  268.88  0.2183 -0.3953 -0.1251 
   365.000 -26.843  26.728  0.0120  0.2020 -0.8430  26.728  0.0120  0.2020  0.1524  365.00  268.75  0.2183 -0.3966 -0.1261 
   365.500 -27.168  26.581  0.0120  0.1950 -1.1680  26.581  0.0120  0.1950  0.1526  365.50  268.63  0.2183 -0.3979 -0.1270 
   366.000 -27.564  26.290  1.8380  0.1910 -1.5640  26.290  1.8380  0.1910  0.1528  366.00  268.50  0.2182 -0.3993 -0.1280 
   366.500 -27.924  25.999  3.0960  0.1870 -1.9240  25.999  3.0960  0.1870  0.1530  366.50  268.38  0.2182 -0.4006 -0.1290 
   367.000 -28.069  25.492  4.2900  0.1830 -2.0690  25.492  4.2900  0.1830  0.1532  367.00  268.25  0.2182 -0.4019 -0.1300 
   367.500 -28.178  24.914  11.848  0.1790 -2.1780  24.914  11.848  0.1790  0.1534  367.50  268.13  0.2181 -0.4033 -0.1309 
   368.000 -28.359  24.191  13.322  0.1720 -2.3590  24.191  13.322  0.1720  0.1536  368.00  268.00  0.2181 -0.4046 -0.1319 
   368.500 -28.468  23.397  17.421  0.1640 -2.4680  23.397  17.421  0.1640  0.1538  368.50  267.88  0.2180 -0.4060 -0.1329 
   369.000 -28.361  22.962  19.204  0.1640 -2.3610  22.962  19.204  0.1640  0.1541  369.00  267.75  0.2180 -0.4073 -0.1339 
   369.500 -28.218  22.528  19.995  0.1710 -2.2180  22.528  19.995  0.1710  0.1543  369.50  267.63  0.2179 -0.4087 -0.1349 
   370.000 -28.039  22.380  20.912  0.1700 -2.0390  22.380  20.912  0.1700  0.1545  370.00  267.50  0.2179 -0.4100 -0.1359 
   370.500 -27.789  22.377  21.829  0.1560 -1.7890  22.377  21.829  0.1560  0.1547  370.50  267.38  0.2178 -0.4113 -0.1369 
   371.000 -28.113  22.734  22.747  0.1550 -2.1130  22.734  22.747  0.1550  0.1549  371.00  267.25  0.2177 -0.4127 -0.1379 
   371.500 -28.977  23.090  23.664  0.1550 -2.9770  23.090  23.664  0.1550  0.1551  371.50  267.13  0.2177 -0.4140 -0.1389 
   372.000 -29.841  23.446  24.582  0.1510 -3.8410  23.446  24.582  0.1510  0.1553  372.00  267.00  0.2176 -0.4154 -0.1399 
   372.500 -30.956  23.946  25.499  0.1470 -4.9560  23.946  25.499  0.1470  0.1555  372.50  266.88  0.2175 -0.4168 -0.1409 
   373.000 -31.819  25.022  26.417  0.1250 -5.8190  25.022  26.417  0.1250  0.1557  373.00  266.75  0.2174 -0.4181 -0.1419 
   373.500 -32.791  25.666  27.334  0.1110 -6.7910  25.666  27.334  0.1110  0.1559  373.50  266.63  0.2174 -0.4195 -0.1429 
   374.000 -33.690  26.886  28.252  0.0960 -7.6900  26.886  28.252  0.0960  0.1561  374.00  266.50  0.2173 -0.4208 -0.1439 
   374.500 -34.230  27.314  34.433  0.0450 -8.2300  27.314  34.433  0.0450  0.1564  374.50  266.38  0.2172 -0.4222 -0.1450 
   375.000 -34.771  27.886  39.968  0.3400 -8.7710  27.886  39.968  0.3400  0.1566  375.00  266.25  0.2171 -0.4236 -0.1460 
   375.500 -35.275  28.530  41.259  0.6920 -9.2750  28.530  41.259  0.6920  0.1568  375.50  266.13  0.2170 -0.4249 -0.1470 
   376.000 -35.599  28.886  42.118  1.3030 -9.5990  28.886  42.118  1.3030  0.1570  376.00  266.00  0.2169 -0.4263 -0.1481 
   376.500 -35.996  29.458  42.978  8.5010 -9.9960  29.458  42.978  8.5010  0.1572  376.50  265.88  0.2168 -0.4277 -0.1491 
   377.000 -36.176  29.671  43.802  10.148 -10.176  29.671  43.802  10.148  0.1574  377.00  265.75  0.2167 -0.4290 -0.1501 
   377.500 -36.393  30.027  44.626  11.183 -10.393  30.027  44.626  11.183  0.1576  377.50  265.63  0.2166 -0.4304 -0.1512 
   378.000 -36.610  30.168  45.270  19.820 -10.610  30.168  45.270  19.820  0.1578  378.00  265.50  0.2165 -0.4318 -0.1522 
   378.500 -36.683  30.308  45.483  29.337 -10.683  30.308  45.483  29.337  0.1580  378.50  265.38  0.2164 -0.4331 -0.1533 
   379.000 -36.791  30.305  45.695  35.303 -10.791  30.305  45.695  35.303  0.1582  379.00  265.25  0.2163 -0.4345 -0.1543 
   379.500 -36.900  30.230  45.908  39.183 -10.900  30.230  45.908  39.183  0.1584  379.50  265.13  0.2162 -0.4359 -0.1554 
   380.000 -36.973  30.011  45.976  42.704 -10.973  30.011  45.976  42.704  0.1587  380.00  265.00  0.2160 -0.4373 -0.1564 
   380.500 -36.866  29.576  46.117  45.937 -10.866  29.576  46.117  45.937  0.1589  380.50  264.88  0.2159 -0.4387 -0.1575 
   381.000 -36.184  28.638  45.970  47.300 -10.184  28.638  45.970  47.300  0.1591  381.00  264.75  0.2158 -0.4400 -0.1586 
   381.500 -35.754  26.765  45.247  48.807 -9.7540  26.765  45.247  48.807  0.1593  381.50  264.63  0.2157 -0.4414 -0.1596 
   382.000 -35.971  26.186  44.094  48.229 -9.9710  26.186  44.094  48.229  0.1595  382.00  264.50  0.2155 -0.4428 -0.1607 
