~Version Information
VERS.                     2.0: CWLS log ASCII Standard Version 2.00
WRAP.                      NO: One line per depth step
~Well Information Block
#MNEM.UNIT                               Data Type  Information
#---------                               ---------  -----------
STRT.FT                                   350.0000:
STOP.FT                                  7530.0000:
STEP.FT                                     0.5000:
NULL.                 -999.25                     :
COMP.                                             :COMPANY            
WELL.     CCMO 67-20                              :WELL               
FLD .                                             :FIELD              
CTRY.                                             :COUNTRY            
STAT.                                             :STATE              
LOC .                                             :LOCATION           
UWI .                                             :UNIQUE WELL ID     
SRVC.                                             :Service company    
DATE.                                             :LOG DATE           
~Curve Information
#MNEM.UNIT           API CODE  Curve Description
#---------           --------  -----------------
DEPT.FT                      :   1 DEPTH
SP  .MV                      :   2
AM16.OHMM                    :   3
AO10.OHMM                    :   4
AO19.OHMM                    :   5
SBL .MV                      :   6
RS  .OHMM                    :   7
RM  .OHMM                    :   8
RD  .OHMM                    :   9
DEVI.DEG                     :  10
TVD .FT                      :  11
AZIM.DEG                     :  12
NORT.FT                      :  13
EAST.FT                      :  14
OFFS.FT                      :  15
~A
# ...
  7012.500 -24.285  1.7940  2.0530  1.3500 -9.7587  1.7940  2.0530  1.3500  1.1041  7012.0  194.62  2.1905  38.787  28.975 
  7013.000 -23.966  1.8650  2.0230  1.3990 -9.4478  1.8650  2.0230  1.3990  1.1050  7012.5  194.57  2.1812  38.784  28.967 
  7013.500 -23.754  1.9220  2.0010  1.4600 -9.2439  1.9220  2.0010  1.4600  1.1058  7013.0  194.51  2.1718  38.782  28.959 
  7014.000 -23.542  1.9500  1.9930  1.5200 -9.0400  1.9500  1.9930  1.5200  1.1066  7013.5  194.46  2.1625  38.779  28.950 
  7014.500 -23.473  2.0000  1.9920  1.7200 -8.9791  2.0000  1.9920  1.7200  1.1075  7014.0  194.40  2.1531  38.777  28.942 
  7015.000 -23.621  2.0450  1.9990  1.8270 -9.1352  2.0450  1.9990  1.8270  1.1083  7014.5  194.35  2.1438  38.775  28.934 
  7015.500 -23.913  2.0910  2.0050  1.9620 -9.4353  2.0910  2.0050  1.9620  1.1091  7015.0  194.29  2.1344  38.772  28.925 
  7016.000 -25.107  2.1980  2.0120  2.0690 -10.637  2.1980  2.0120  2.0690  1.1100  7015.5  194.24  2.1250  38.770  28.917 
  7016.500 -26.191  2.2470  2.0180  2.1970 -11.729  2.2470  2.0180  2.1970  1.1108  7016.0  194.18  2.1156  38.768  28.909 
  7017.000 -27.347  2.2680  2.0600  2.2680 -12.894  2.2680  2.0600  2.2680  1.1116  7016.5  194.13  2.1062  38.765  28.900 
  7017.500 -28.396  2.2450  2.0880  2.3250 -13.951  2.2450  2.0880  2.3250  1.1125  7017.0  194.07  2.0968  38.763  28.892 
  7018.000 -29.228  2.1870  2.0940  2.3310 -14.791  2.1870  2.0940  2.3310  1.1133  7017.5  194.02  2.0873  38.760  28.884 
  7018.500 -29.772  2.1720  2.1080  2.2940 -15.343  2.1720  2.1080  2.2940  1.1141  7018.0  193.96  2.0779  38.758  28.875 
  7019.000 -30.317  2.1580  2.0930  2.2720 -15.896  2.1580  2.0930  2.2720  1.1150  7018.5  193.91  2.0685  38.756  28.867 
  7019.500 -30.753  2.1570  2.0350  2.2280 -16.340  2.1570  2.0350  2.2280  1.1158  7019.0  193.85  2.0590  38.753  28.859 
  7020.000 -31.154  2.1770  1.9330  2.1990 -16.749  2.1770  1.9330  2.1990  1.1166  7019.5  193.80  2.0496  38.751  28.850 
  7020.500 -31.519  2.2050  1.8970  2.1620 -17.122  2.2050  1.8970  2.1620  1.1175  7020.0  193.74  2.0401  38.749  28.842 
  7021.000 -31.883  2.4190  1.8890  2.1040 -17.494  2.4190  1.8890  2.1040  1.1183  7020.5  193.69  2.0306  38.746  28.834 
  7021.500 -32.175  2.5050  1.8880  2.0640 -17.794  2.5050  1.8880  2.0640  1.1191  7021.0  193.63  2.0211  38.744  28.825 
  7022.000 -32.539  2.6400  1.9520  2.0240 -18.167  2.6400  1.9520  2.0240  1.1200  7021.5  193.58  2.0116  38.742  28.817 
  7022.500 -32.830  2.7900  2.0300  2.1450 -18.466  2.7900  2.0300  2.1450  1.1208  7022.0  193.52  2.0021  38.740  28.809 
  7023.000 -33.231  2.8900  2.1010  2.2870 -18.875  2.8900  2.1010  2.2870  1.1216  7022.5  193.47  1.9926  38.737  28.800 
  7023.500 -33.559  2.9610  2.2650  2.4150 -19.211  2.9610  2.2650  2.4150  1.1225  7023.0  193.41  1.9831  38.735  28.792 
  7024.000 -34.032  3.0320  2.3930  2.5010 -19.692  3.0320  2.3930  2.5010  1.1233  7023.5  193.36  1.9735  38.733  28.784 
  7024.500 -34.684  3.0520  2.5000  2.5500 -20.352  3.0520  2.5000  2.5500  1.1241  7024.0  193.30  1.9640  38.731  28.775 
  7025.000 -36.092  3.0230  2.5640  2.5920 -21.768  3.0230  2.5640  2.5920  1.1250  7024.5  193.25  1.9544  38.728  28.767 
  7025.500 -37.214  2.6710  2.5270  2.4840 -22.898  2.6710  2.5270  2.4840  1.1258  7025.0  193.19  1.9449  38.726  28.759 
  7026.000 -37.397  2.4980  2.4260  2.3970 -23.089  2.4980  2.4260  2.3970  1.1266  7025.5  193.14  1.9353  38.724  28.750 
  7026.500 -36.428  2.3680  2.3570  2.2600 -22.128  2.3680  2.3570  2.2600  1.1275  7026.0  193.08  1.9257  38.722  28.742 
  7027.000 -33.732  2.2740  2.2880  2.1090 -19.441  2.2740  2.2880  2.1090  1.1283  7026.5  193.03  1.9161  38.719  28.734 
  7027.500 -30.638  2.2160  2.1580  2.0360 -16.355  2.2160  2.1580  2.0360  1.1291  7027.0  192.97  1.9065  38.717  28.725 
  7028.000 -28.841  2.1720  2.0930  2.0350 -14.566  2.1720  2.0930  2.0350  1.1300  7027.5  192.92  1.8969  38.715  28.717 
  7028.500 -27.550  2.1530  2.0850  2.0530 -13.283  2.1530  2.0850  2.0530  1.1308  7028.0  192.86  1.8873  38.713  28.709 
  7029.000 -26.943  2.1350  2.0840  2.0700 -12.684  2.1350  2.0840  2.0700  1.1316  7028.5  192.81  1.8776  38.711  28.700 
  7029.500 -27.161  2.1120  2.0800  2.0910 -12.910  2.1120  2.0800  2.0910  1.1325  7029.0  192.75  1.8680  38.708  28.692 
  7030.000 -27.958  2.0900  2.1830  2.1120 -13.715  2.0900  2.1830  2.1120  1.1333  7029.5  192.70  1.8584  38.706  28.683 
  7030.500 -28.359  2.0670  2.2040  2.1180 -14.124  2.0670  2.2040  2.1180  1.1341  7030.0  192.64  1.8487  38.704  28.675 
  7031.000 -28.614  2.0520  2.2030  2.1170 -14.387  2.0520  2.2030  2.1170  1.1350  7030.5  192.59  1.8390  38.702  28.667 
  7031.500 -28.260  2.0520  2.1950  2.1090 -14.041  2.0520  2.1950  2.1090  1.1358  7031.0  192.53  1.8294  38.700  28.658 
  7032.000 -27.795  2.0440  2.1940  2.1010 -13.584  2.0440  2.1940  2.1010  1.1366  7031.5  192.48  1.8197  38.698  28.650 
  7032.500 -27.079  2.0280  2.2220  2.0860 -12.877  2.0280  2.2220  2.0860  1.1375  7032.0  192.42  1.8100  38.695  28.642 
  7033.000 -26.722  2.0280  2.2500  2.0740 -12.528  2.0280  2.2500  2.0740  1.1383  7032.5  192.37  1.8003  38.693  28.633 
  7033.500 -25.719  2.0270  2.2920  2.0630 -11.533  2.0270  2.2920  2.0630  1.1391  7033.0  192.31  1.7906  38.691  28.625 
  7034.000 -25.398  2.0260  2.3350  2.0510 -11.220  2.0260  2.3350  2.0510  1.1400  7033.5  192.26  1.7808  38.689  28.617 
  7034.500 -25.581  2.0250  2.3840  2.0400 -11.411  2.0250  2.3840  2.0400  1.1408  7034.0  192.20  1.7711  38.687  28.608 
  7035.000 -25.765  2.0210  2.3900  2.0240 -11.603  2.0210  2.3900  2.0240  1.1416  7034.5  192.15  1.7614  38.685  28.600 
  7035.500 -25.948  2.0170  2.3030  2.0170 -11.794  2.0170  2.3030  2.0170  1.1425  7035.0  192.09  1.7516  38.683  28.591 
  7036.000 -26.494  2.0160  2.2240  2.0010 -12.348  2.0160  2.2240  2.0010  1.1433  7035.5  192.04  1.7419  38.681  28.583 
  7036.500 -27.651  2.0150  2.1580  1.9860 -13.513  2.0150  2.1580  1.9860  1.1441  7036.0  191.98  1.7321  38.679  28.575 
  7037.000 -29.168  2.0180  2.1430  1.9930 -15.038  2.0180  2.1430  1.9930  1.1450  7036.5  191.93  1.7223  38.677  28.566 
  7037.500 -30.396  2.0210  2.1430  1.9990 -16.275  2.0210  2.1430  1.9990  1.1458  7037.0  191.87  1.7125  38.675  28.558 
  7038.000 -31.012  2.0630  2.1490  2.0480 -16.899  2.0630  2.1490  2.0480  1.1466  7037.5  191.82  1.7027  38.672  28.550 
  7038.500 -31.628  2.0910  2.1480  2.0830 -17.523  2.0910  2.1480  2.0830  1.1475  7038.0  191.76  1.6929  38.670  28.541 
  7039.000 -31.596  2.1620  2.1470  2.1010 -17.499  2.1620  2.1470  2.1010  1.1483  7038.5  191.71  1.6831  38.668  28.533 
  7039.500 -30.376  2.2110  2.1320  2.1180 -16.287  2.2110  2.1320  2.1180  1.1491  7039.0  191.65  1.6733  38.666  28.524 
  7040.000 -29.552  2.1890  2.1170  2.1170 -15.471  2.1890  2.1170  2.1170  1.1500  7039.5  191.60  1.6635  38.664  28.516 
  7040.500 -29.702  2.1450  2.1020  2.0590 -15.629  2.1450  2.1020  2.0590  1.1508  7040.0  191.54  1.6536  38.662  28.508 
  7041.000 -29.777  2.1220  2.0580  1.9570 -15.712  2.1220  2.0580  1.9570  1.1516  7040.5  191.49  1.6438  38.660  28.499 
  7041.500 -29.853  2.1080  2.0280  1.8990 -15.796  2.1080  2.0280  1.8990  1.1525  7041.0  191.43  1.6339  38.658  28.491 
  7042.000 -28.668  2.1930  2.0210  1.8560 -14.619  2.1930  2.0210  1.8560  1.1533  7041.5  191.38  1.6241  38.656  28.483 
  7042.500 -27.700  2.2990  2.0200  1.8120 -13.660  2.2990  2.0200  1.8120  1.1541  7042.0  191.32  1.6142  38.654  28.474 
  7043.000 -27.380  2.3850  2.1050  1.8970 -13.348  2.3850  2.1050  1.8970  1.1550  7042.5  191.27  1.6043  38.652  28.466 
  7043.500 -28.933  2.4560  2.2400  1.9390 -14.909  2.4560  2.2400  1.9390  1.1558  7043.0  191.21  1.5944  38.650  28.457 
  7044.000 -29.477  2.4830  2.2900  1.9820 -15.461  2.4830  2.2900  1.9820  1.1566  7043.5  191.16  1.5845  38.649  28.449 
  7044.500 -29.985  2.4110  2.2960  2.0880 -15.977  2.4110  2.2960  2.0880  1.1575  7044.0  191.10  1.5746  38.647  28.441 
