~Version Information
VERS.                     2.0: CWLS log ASCII Standard Version 2.00
WRAP.                      NO: One line per depth step
~Well Information Block
#MNEM.UNIT                               Data Type  Information
#---------                               ---------  -----------
STRT.FT                                   350.0000:
STOP.FT                                  7530.0000:
STEP.FT                                     0.5000:
NULL.                 -999.25                     :
COMP.                                             :COMPANY            
WELL.     CCMO 67-20                              :WELL               
FLD .                                             :FIELD              
CTRY.                                             :COUNTRY            
STAT.                                             :STATE              
LOC .                                             :LOCATION           
UWI .                                             :UNIQUE WELL ID     
SRVC.                                             :Service company    
DATE.                                             :LOG DATE           
~Curve Information
#MNEM.UNIT           API CODE  Curve Description
#---------           --------  -----------------
DEPT.FT                      :   1 DEPTH
SP  .MV                      :   2
AM16.OHMM                    :   3
AO10.OHMM                    :   4
AO19.OHMM                    :   5
SBL .MV                      :   6
RS  .OHMM                    :   7
RM  .OHMM                    :   8
RD  .OHMM                    :   9
DEVI.DEG                     :  10
TVD .FT                      :  11
AZIM.DEG                     :  12
NORT.FT                      :  13
EAST.FT                      :  14
OFFS.FT                      :  15
~A
# ...
  4152.500 -38.901  7.6220  4.6680  5.1740 -34.516  7.6220  4.6680  5.1740  0.8250  4152.4  147.25  0.8290  11.409  8.6535 
  4153.000 -40.812  8.1090  4.7330  5.3170 -36.430  8.1090  4.7330  5.3170  0.8234  4152.9  147.30  0.8229  11.413  8.6519 
  4153.500 -42.255  8.5600  4.7680  5.3590 -37.876  8.5600  4.7680  5.3590  0.8217  4153.4  147.35  0.8169  11.417  8.6504 
  4154.000 -42.941  8.8890  4.8040  5.4670 -38.565  8.8890  4.8040  5.4670  0.8200  4153.9  147.40  0.8109  11.420  8.6489 
  4154.500 -43.050  9.1330  4.8540  5.5810 -38.677  9.1330  4.8540  5.5810  0.8184  4154.4  147.45  0.8048  11.424  8.6473 
  4155.000 -42.945  9.3330  4.9110  5.6200 -38.575  9.3330  4.9110  5.6200  0.8167  4154.9  147.50  0.7988  11.428  8.6458 
  4155.500 -42.838  9.4620  4.9750  5.6600 -38.471  9.4620  4.9750  5.6600  0.8150  4155.4  147.55  0.7928  11.432  8.6442 
  4156.000 -42.731  9.6620  5.0460  5.8100 -38.367  9.6620  5.0460  5.8100  0.8134  4155.9  147.60  0.7868  11.436  8.6427 
  4156.500 -42.733  9.7370  5.1100  5.8740 -38.372  9.7370  5.1100  5.8740  0.8117  4156.4  147.65  0.7808  11.440  8.6411 
  4157.000 -42.807  9.8120  5.2250  5.9600 -38.449  9.8120  5.2250  5.9600  0.8100  4156.9  147.70  0.7749  11.443  8.6396 
  4157.500 -42.916  9.9200  5.3610  5.9880 -38.561  9.9200  5.3610  5.9880  0.8084  4157.4  147.75  0.7689  11.447  8.6380 
  4158.000 -43.242  9.9770  5.4540  5.9370 -38.890  9.9770  5.4540  5.9370  0.8067  4157.9  147.80  0.7629  11.451  8.6365 
  4158.500 -43.496  10.076  5.5460  5.8940 -39.147  10.076  5.5460  5.8940  0.8050  4158.4  147.85  0.7570  11.455  8.6349 
  4159.000 -43.966  10.141  5.6320  5.8510 -39.620  10.141  5.6320  5.8510  0.8034  4158.9  147.90  0.7511  11.458  8.6333 
  4159.500 -44.507  10.341  5.7750  5.7930 -40.164  10.341  5.7750  5.7930  0.8017  4159.4  147.95  0.7451  11.462  8.6318 
  4160.000 -45.121  10.585  5.9330  5.8070 -40.781  10.585  5.9330  5.8070  0.8000  4159.9  148.00  0.7392  11.466  8.6302 
  4160.500 -45.447  10.850  6.1120  5.8210 -41.110  10.850  6.1120  5.8210  0.7984  4160.4  148.05  0.7333  11.469  8.6286 
  4161.000 -45.305  11.043  6.5130  5.8350 -40.971  11.043  6.5130  5.8350  0.7967  4160.9  148.10  0.7274  11.473  8.6270 
  4161.500 -45.019  11.272  6.9860  5.8640 -40.688  11.272  6.9860  5.8640  0.7950  4161.4  148.15  0.7215  11.477  8.6255 
  4162.000 -44.480  11.444  7.5160  5.8780 -40.152  11.444  7.5160  5.8780  0.7934  4161.9  148.20  0.7156  11.480  8.6239 
  4162.500 -43.797  11.544  7.9170  5.8920 -39.472  11.544  7.9170  5.8920  0.7917  4162.4  148.25  0.7097  11.484  8.6223 
  4163.000 -43.150  11.615  8.3180  5.8910 -38.828  11.615  8.3180  5.8910  0.7900  4162.9  148.30  0.7039  11.488  8.6207 
  4163.500 -42.143  11.679  8.5760  5.8910 -37.823  11.679  8.5760  5.8910  0.7884  4163.4  148.35  0.6980  11.491  8.6191 
  4164.000 -41.280  11.686  8.8190  5.8770 -36.963  11.686  8.8190  5.8770  0.7867  4163.9  148.40  0.6922  11.495  8.6175 
  4164.500 -40.309  11.141  8.9980  5.8190 -35.995  11.141  8.9980  5.8190  0.7850  4164.4  148.45  0.6863  11.498  8.6159 
  4165.000 -39.194  10.833  9.2270  5.7400 -34.883  10.833  9.2270  5.7400  0.7834  4164.9  148.50  0.6805  11.502  8.6144 
  4165.500 -38.044  10.481  9.4280  5.5820 -33.736  10.481  9.4280  5.5820  0.7817  4165.4  148.55  0.6747  11.506  8.6128 
  4166.000 -37.325  10.151  9.5990  5.5030 -33.020  10.151  9.5990  5.5030  0.7800  4165.9  148.60  0.6689  11.509  8.6112 
  4166.500 -36.462  9.8280  9.7210  5.3740 -32.160  9.8280  9.7210  5.3740  0.7784  4166.4  148.65  0.6631  11.513  8.6096 
  4167.000 -35.670  9.3840  9.7420  5.2510 -31.371  9.3840  9.7420  5.2510  0.7767  4166.9  148.70  0.6573  11.516  8.6079 
  4167.500 -34.880  8.9320  9.6840  5.1080 -30.584  8.9320  9.6840  5.1080  0.7750  4167.4  148.75  0.6515  11.520  8.6063 
  4168.000 -34.197  8.2580  9.6190  5.0430 -29.904  8.2580  9.6190  5.0430  0.7734  4167.9  148.80  0.6457  11.523  8.6047 
  4168.500 -33.334  7.7490  9.5760  5.0710 -29.044  7.7490  9.5760  5.0710  0.7717  4168.4  148.85  0.6400  11.527  8.6031 
  4169.000 -32.723  7.3320  9.4970  5.1070 -28.436  7.3320  9.4970  5.1070  0.7700  4168.9  148.90  0.6342  11.530  8.6015 
  4169.500 -31.248  6.9950  9.4040  5.1350 -26.964  6.9950  9.4040  5.1350  0.7684  4169.4  148.95  0.6285  11.534  8.5999 
  4170.000 -28.872  6.6080  9.3100  5.1560 -24.591  6.6080  9.3100  5.1560  0.7667  4169.9  149.00  0.6227  11.537  8.5983 
  4170.500 -23.038  6.3850  9.1590  4.9480 -18.760  6.3850  9.1590  4.9480  0.7650  4170.4  149.05  0.6170  11.540  8.5966 
  4171.000 -21.743  6.2630  8.8080  4.7400 -17.468  6.2630  8.8080  4.7400  0.7634  4170.9  149.10  0.6113  11.544  8.5950 
  4171.500 -20.844  6.2130  8.4490  4.5250 -16.572  6.2130  8.4490  4.5250  0.7617  4171.4  149.15  0.6056  11.547  8.5934 
  4172.000 -20.197  6.3630  7.9970  4.4390 -15.928  6.3630  7.9970  4.4390  0.7600  4171.9  149.20  0.5999  11.551  8.5918 
  4172.500 -21.388  6.4780  7.5030  4.5530 -17.122  6.4780  7.5030  4.5530  0.7584  4172.4  149.25  0.5942  11.554  8.5901 
  4173.000 -22.542  6.6640  7.1730  4.7610 -18.279  6.6640  7.1730  4.7610  0.7567  4172.9  149.30  0.5885  11.557  8.5885 
  4173.500 -24.345  6.9430  6.9430  5.0680 -20.085  6.9430  6.9430  5.0680  0.7550  4173.4  149.35  0.5829  11.561  8.5869 
  4174.000 -25.607  7.3370  7.0430  5.3260 -21.350  7.3370  7.0430  5.3260  0.7534  4173.9  149.40  0.5772  11.564  8.5852 
  4174.500 -27.194  7.7950  7.2360  5.7490 -22.940  7.7950  7.2360  5.7490  0.7517  4174.4  149.45  0.5716  11.567  8.5836 
  4175.000 -29.393  8.2820  7.4580  6.1210 -25.142  8.2820  7.4580  6.1210  0.7500  4174.9  149.50  0.5659  11.571  8.5820 
  4175.500 -30.583  8.7120  7.8730  6.3790 -26.334  8.7120  7.8730  6.3790  0.7484  4175.4  149.55  0.5603  11.574  8.5803 
  4176.000 -31.665  9.0920  8.1740  6.7160 -27.419  9.0920  8.1740  6.7160  0.7467  4175.9  149.60  0.5547  11.577  8.5787 
  4176.500 -33.396  9.4640  8.4320  6.9880 -29.153  9.4640  8.4320  6.9880  0.7450  4176.4  149.65  0.5491  11.581  8.5770 
  4177.000 -34.947  9.7220  8.6830  7.2380 -30.707  9.7220  8.6830  7.2380  0.7434  4176.9  149.70  0.5435  11.584  8.5754 
  4177.500 -36.389  10.066  8.9690  7.4320 -32.152  10.066  8.9690  7.4320  0.7417  4177.4  149.75  0.5379  11.587  8.5737 
  4178.000 -38.444  10.259  9.2480  7.6250 -34.210  10.259  9.2480  7.6250  0.7400  4177.9  149.80  0.5323  11.590  8.5721 
  4178.500 -39.814  10.517  9.3480  7.8540 -35.583  10.517  9.3480  7.8540  0.7384  4178.4  149.85  0.5267  11.594  8.5704 
  4179.000 -40.933  10.774  9.5630  8.1330 -36.705  10.774  9.5630  8.1330  0.7367  4178.9  149.90  0.5212  11.597  8.5688 
  4179.500 -41.871  10.989  9.7780  8.3410 -37.646  10.989  9.7780  8.3410  0.7350  4179.4  149.95  0.5156  11.600  8.5671 
  4180.000 -42.846  11.125  9.9350  8.5410 -38.624  11.125  9.9350  8.5410  0.7334  4179.9  150.00  0.5101  11.603  8.5655 
  4180.500 -43.243  11.275  10.071  8.6980 -39.024  11.275  10.071  8.6980  0.7317  4180.4  150.05  0.5045  11.607  8.5638 
  4181.000 -43.641  11.368  10.121  8.7980 -39.425  11.368  10.121  8.7980  0.7300  4180.9  150.10  0.4990  11.610  8.5622 
  4181.500 -44.039  11.382  10.106  8.8490 -39.826  11.382  10.106  8.8490  0.7284  4181.4  150.15  0.4935  11.613  8.5605 
  4182.000 -44.617  11.368  10.042  8.9700 -40.407  11.368  10.042  8.9700  0.7267  4181.9  150.20  0.4880  11.616  8.5588 
  4182.500 -45.015  11.353  9.9050  9.1490 -40.808  11.353  9.9050  9.1490  0.7250  4182.4  150.25  0.4825  11.619  8.5572 
  4183.000 -45.268  11.339  9.7690  9.1990 -41.064  11.339  9.7690  9.1990  0.7234  4182.9  150.30  0.4770  11.622  8.5555 
  4183.500 -45.594  11.309  9.7110  9.3350 -41.393  11.309  9.7110  9.3350  0.7217  4183.4  150.35  0.4715  11.625  8.5538 
  4184.000 -45.596  11.288  9.8470  9.4130 -41.398  11.288  9.8470  9.4130  0.7200  4183.9  150.40  0.4661  11.629  8.5522 
  4184.500 -45.507  11.280  10.062  9.4780 -41.312  11.280  10.062  9.4780  0.7184  4184.4  150.45  0.4606  11.632  8.5505 
