~Version Information
VERS.                     2.0: CWLS log ASCII Standard Version 2.00
WRAP.                      NO: One line per depth step
~Well Information Block
#MNEM.UNIT                               Data Type  Information
#---------                               ---------  -----------
STRT.FT                                    26.0000:
STOP.FT                                  3500.0000:
STEP.FT                                     0.5000:
NULL.                 -999.25                     :
COMP.                                             :COMPANY            
WELL.     SANTIAGO A 72-30                        :WELL               
FLD .                                             :FIELD              
CTRY.                                             :COUNTRY            
STAT.                                             :STATE              
LOC .                                             :LOCATION           
UWI .                                             :UNIQUE WELL ID     
SRVC.                                             :Service company    
DATE.                                             :LOG DATE           
~Curve Information
#MNEM.UNIT           API CODE  Curve Description
#---------           --------  -----------------
DEPT.FT                      :   1 DEPTH
SP  .MV                      :   2
ILD .OHMM                    :   3
ILM .OHMM                    :   4
SFLU.OHMM                    :   5
CALI.IN                      :   6
GR  .GAPI                    :   7
NPHI.DECI                    :   8
DPHI.DECI                    :   9
DRHO.G/C3                    :  10
RHOB.G/C3                    :  11
SBL .MV                      :  12
RS  .OHMM                    :  13
RM  .OHMM                    :  14
RD  .OHMM                    :  15
ROBS.G/C3                    :  16
CALS.IN                      :  17
DRHS.G/C3                    :  18
GRS .GAPI                    :  19
NPHS.DECI                    :  20
SFLU.OHMM                    :  21
ILMC.OHMM                    :  22
ILDC.OHMM                    :  23
ROBC.G/C3                    :  24
GRC .GAPI                    :  25
NPHC.DECI                    :  26
~A
# ...
  2800.000 -51.708  2.4840  2.5240  2.8110  10.025  79.874  0.4430  0.4400  0.0090  2.6352 -8.1974  2.8110  2.5240  2.4840  2.6440  10.056  0.0036  83.018  0.4561  3.0629  2.5362  2.4828  2.6518  87.421  0.4420 
  2800.500 -51.214  2.5190  2.5610  2.8890  10.034  83.444  0.4840  0.4350  0.0090  2.6352 -7.7025  2.8890  2.5610  2.5190  2.6507  10.062 -0.0004  85.615  0.4866  3.1476  2.5736  2.5178  2.6585  90.176  0.4762 
  2801.000 -50.561  2.5370  2.5800  2.9640  10.050  85.906  0.4920  0.4320  0.0060  2.6401 -7.0486  2.9640  2.5800  2.5370  2.6533  10.065 -0.0020  87.520  0.4859  3.2287  2.5929  2.5357  2.6611  92.189  0.4754 
  2801.500 -49.909  2.5550  2.5980  3.0400  10.062  87.734  0.4730  0.4310  0.0010  2.6484 -6.3957  3.0400  2.5980  2.5550  2.6501  10.067 -0.0001  90.749  0.4694  3.3109  2.6111  2.5537  2.6580  95.598  0.4570 
  2802.000 -48.723  2.5880  2.6740  2.8150  10.063  91.146  0.4620  0.4320 -0.0020  2.6533 -5.2088  2.8150  2.6740  2.5880  2.6443  10.058  0.0034  97.456  0.4617  3.0674  2.6878  2.5867  2.6521  102.63  0.4483 
  2802.500 -48.111  2.5830  2.7230  2.4630  10.067  98.279  0.4610  0.4370 -0.0020  2.6533 -4.5959  2.4630  2.7230  2.5830  2.6425  10.039  0.0045  101.16  0.4643  2.6862  2.7371  2.5817  2.6502  106.47  0.4512 
  2803.000 -48.052  2.7530  2.7730  2.2350  10.067  101.53  0.4710  0.4470  0.0020  2.6467 -4.5360  2.2350  2.7730  2.7530  2.6482  10.021  0.0011  103.78  0.4831  2.4391  2.7875  2.7515  2.6557  109.16  0.4723 
  2803.500 -48.690  2.9230  2.9170  2.1860  10.048  104.07  0.5080  0.4560  0.0050  2.6418 -5.1731  2.1860  2.9170  2.9230  2.6589  10.008 -0.0054  103.38  0.5116  2.3856  2.9329  2.9213  2.6664  108.69  0.5042 
  2804.000 -49.484  3.0870  2.9760  2.3900  10.029  103.29  0.5190  0.4620  0.0040  2.6434 -5.9662  2.3900  2.9760  3.0870  2.6351  10.002  0.0090  96.896  0.5031  2.6056  2.9925  3.0851  2.6425  101.85  0.4947 
  2804.500 -50.856  3.1660  3.0920  2.7560  10.013  96.094  0.4710  0.4460 -0.0020  2.6533 -7.3373  2.7560  3.0920  3.1660  2.5893  10.002  0.0368  84.271  0.4438  3.0003  3.1098  3.1640  2.5967  88.582  0.4282 
  2805.000 -51.969  3.2480  3.2180  3.1480  10.002  82.803  0.3890  0.4070 -0.0090  2.6648 -8.4494  3.1480  3.2180  3.2480  2.5781  10.002  0.0435  79.567  0.3860  3.4229  3.2373  3.2459  2.5856  83.639  0.3636 
  2805.500 -52.527  3.0960  3.3190  3.5310  10.002  79.169  0.3800  0.3650  0.0280  2.6038 -9.0065  3.5310  3.3190  3.0960  2.6010  9.9917  0.0297  79.600  0.3793  3.8346  3.3394  3.0940  2.6083  83.644  0.3561 
  2806.000 -52.260  3.1070  3.3060  3.6750  10.002  79.653  0.3780  0.3560  0.0460  2.5741 -8.7386  3.6750  3.3060  3.1070  2.6284  9.9721  0.0131  80.366  0.3938  3.9879  3.3260  3.1050  2.6356  84.393  0.3723 
  2806.500 -51.993  3.1410  3.1460  3.4470  10.003  80.452  0.4250  0.4090  0.0410  2.5824 -8.4707  3.4470  3.1460  3.1410  2.6425  9.9600  0.0045  80.035  0.4372  3.7416  3.1639  3.1390  2.6496  84.011  0.4208 
  2807.000 -52.017  3.1400  3.0720  3.1570  9.9800  79.985  0.4610  0.4570  0.0180  2.6203 -8.4938  3.1570  3.0720  3.1400  2.6516  9.9624 -0.0010  79.284  0.4661  3.4297  3.0891  3.1380  2.6588  83.230  0.4532 
  2807.500 -52.952  3.1400  3.0520  2.9020  9.9640  79.201  0.4760  0.4880  0.0080  2.6368 -9.4279  2.9020  3.0520  3.1400  2.6558  9.9750 -0.0035  78.358  0.4712  3.1560  3.0690  3.1380  2.6630  82.292  0.4590 
  2808.000 -53.439  3.0990  3.0320  2.8650  9.9560  78.259  0.4620  0.5030  0.0010  2.6484 -9.9140  2.8650  3.0320  3.0990  2.6566  9.9950 -0.0040  77.556  0.4599  3.1174  3.0490  3.0970  2.6640  81.505  0.4463 
  2808.500 -53.927  3.0670  3.0030  2.9980  9.9690  77.475  0.4560  0.5040 -0.0030  2.6550 -10.401  2.9980  3.0030  3.0670  2.6549  10.021 -0.0030  77.768  0.4560  3.2625  3.0200  3.0651  2.6625  81.799  0.4419 
  2809.000 -53.375  3.0360  2.9810  2.9540  9.9810  77.802  0.4560  0.4930 -0.0040  2.6566 -9.8482  2.9540  2.9810  3.0360  2.6508  10.042 -0.0005  78.377  0.4584  3.2164  2.9979  3.0342  2.6585  82.496  0.4447 
  2809.500 -52.524  2.9920  2.9370  2.7500  10.009  78.442  0.4630  0.4800 -0.0040  2.6566 -8.9963  2.7500  2.9370  2.9920  2.6484  10.060  0.0010  78.947  0.4720  2.9973  2.9536  2.9902  2.6562  83.144  0.4599 
  2810.000 -51.692  2.9480  2.9150  2.8470  10.033  79.003  0.4890  0.4740 -0.0020  2.6533 -8.1634  2.8470  2.9150  2.9480  2.6492  10.064  0.0005  78.102  0.4956  3.1023  2.9314  2.9463  2.6570  82.268  0.4863 
  2810.500 -51.208  2.8970  2.8670  2.9470  10.051  78.002  0.5080  0.4720  0.0010  2.6484 -7.6785  2.9470  2.8670  2.8970  2.6483  10.048  0.0010  73.104  0.5042  3.2092  2.8827  2.8953  2.6561  76.961  0.4959 
  2811.000 -50.723  2.8460  2.8460  3.2100  10.068  72.567  0.4970  0.4760  0.0010  2.6484 -7.1926  3.2100  2.8460  2.8460  2.6425  10.029  0.0045  71.449  0.4914  3.4917  2.8613  2.8444  2.6501  75.173  0.4816 
  2811.500 -50.945  2.7580  2.8250  3.1570  10.061  71.328  0.4810  0.4810  0.0000  2.6500 -7.4137  3.1570  2.8250  2.7580  2.6368  10.013  0.0080  76.144  0.4754  3.4334  2.8399  2.7565  2.6443  80.068  0.4636 
  2812.000 -51.602  2.7270  2.8040  2.9860  10.035  76.660  0.4650  0.4770  0.0020  2.6467 -8.0698  2.9860  2.8040  2.7270  2.6335  9.9949  0.0100  81.696  0.4608  3.2478  2.8185  2.7255  2.6408  85.854  0.4472 
  2812.500 -51.882  2.7050  2.7720  2.8240  10.024  82.229  0.4530  0.4730  0.0070  2.6385 -8.3489  2.8240  2.7720  2.7050  2.6302  9.9844  0.0120  85.192  0.4509  3.0726  2.7861  2.7035  2.6374  89.497  0.4362 
  2813.000 -51.734  2.6820  2.7360  2.5390  10.002  85.502  0.4470  0.4750  0.0090  2.6352 -8.2000  2.5390  2.7360  2.6820  2.6269  9.9836  0.0140  88.253  0.4466  2.7653  2.7497  2.6805  2.6341  92.711  0.4314 
  2813.500 -51.587  2.6570  2.7110  2.4250  9.9880  88.538  0.4460  0.4770  0.0110  2.6319 -8.0521  2.4250  2.7110  2.6570  2.6244  9.9911  0.0155  90.359  0.4460  2.6428  2.7246  2.6556  2.6317  94.947  0.4307 
  2814.000 -51.440  2.6660  2.7350  2.3550  9.9810  90.545  0.4460  0.4710  0.0130  2.6286 -7.9042  2.3550  2.7350  2.6660  2.6270  9.9986  0.0139  91.792  0.4482  2.5676  2.7489  2.6646  2.6344  96.477  0.4331 
  2814.500 -51.294  2.6760  2.7900  2.4040  9.9860  91.918  0.4520  0.4610  0.0150  2.6253 -7.7573  2.4040  2.7900  2.6760  2.6328  10.000  0.0104  88.776  0.4556  2.6206  2.8044  2.6745  2.6402  93.311  0.4415 
  2815.000 -51.147  2.7590  2.8440  2.4550  9.9960  88.462  0.4620  0.4650  0.0160  2.6236 -7.6094  2.4550  2.8440  2.7590  2.6317  9.9974  0.0111  84.814  0.4624  2.6755  2.8590  2.7575  2.6391  89.139  0.4490 
  2815.500 -51.000  2.8150  2.8990  2.8660  10.001  84.453  0.4630  0.4740  0.0120  2.6302 -7.4615  2.8660  2.8990  2.8150  2.6225  9.9965  0.0167  87.869  0.4564  3.1186  2.9146  2.8134  2.6299  92.347  0.4424 
  2816.000 -51.103  2.9670  3.0060  3.1630  9.9990  88.202  0.4450  0.4710  0.0090  2.6352 -7.5636  3.1630  3.0060  2.9670  2.6118  9.9939  0.0231  96.169  0.4432  3.4385  3.0227  2.9652  2.6192  101.06  0.4276 
  2816.500 -50.729  3.0220  3.1170  3.2980  9.9960  96.937  0.4400  0.4580  0.0130  2.6286 -7.1887  3.2980  3.1170  3.0220  2.6045  9.9915  0.0276  102.17  0.4426  3.5837  3.1349  3.0201  2.6118  107.36  0.4269 
  2817.000 -50.184  3.0770  3.1740  3.3650  9.9970  102.67  0.4470  0.4450  0.0200  2.6170 -6.6428  3.3650  3.1740  3.0770  2.6039  9.9888  0.0280  105.44  0.4540  3.6556  3.1926  3.0751  2.6112  110.79  0.4397 
  2817.500 -49.640  3.1220  3.2070  3.4200  9.9910  105.70  0.4660  0.4330  0.0260  2.6071 -6.0979  3.4200  3.2070  3.1220  2.6133  9.9865  0.0223  106.74  0.4760  3.7147  3.2259  3.1200  2.6206  112.14  0.4643 
  2818.000 -48.593  3.1670  3.2300  3.3270  9.9920  106.84  0.4930  0.4260  0.0290  2.6022 -5.0500  3.3270  3.2300  3.1670  2.6255  9.9854  0.0148  106.93  0.4963  3.6145  3.2492  3.1650  2.6328  112.34  0.4871 
  2818.500 -48.139  3.2040  3.2590  3.2370  9.9860  106.94  0.5020  0.4200  0.0270  2.6055 -4.5951  3.2370  3.2590  3.2040  2.6293  9.9808  0.0125  104.79  0.5001  3.5172  3.2785  3.2019  2.6366  110.07  0.4913 
