~Version Information
VERS.                     2.0: CWLS log ASCII Standard Version 2.00
WRAP.                      NO: One line per depth step
~Well Information Block
#MNEM.UNIT                               Data Type  Information
#---------                               ---------  -----------
STRT.FT                                    26.0000:
STOP.FT                                  3500.0000:
STEP.FT                                     0.5000:
NULL.                 -999.25                     :
COMP.                                             :COMPANY            
WELL.     SANTIAGO A 72-30                        :WELL               
FLD .                                             :FIELD              
CTRY.                                             :COUNTRY            
STAT.                                             :STATE              
LOC .                                             :LOCATION           
UWI .                                             :UNIQUE WELL ID     
SRVC.                                             :Service company    
DATE.                                             :LOG DATE           
~Curve Information
#MNEM.UNIT           API CODE  Curve Description
#---------           --------  -----------------
DEPT.FT                      :   1 DEPTH
SP  .MV                      :   2
ILD .OHMM                    :   3
ILM .OHMM                    :   4
SFLU.OHMM                    :   5
CALI.IN                      :   6
GR  .GAPI                    :   7
NPHI.DECI                    :   8
DPHI.DECI                    :   9
DRHO.G/C3                    :  10
RHOB.G/C3                    :  11
SBL .MV                      :  12
RS  .OHMM                    :  13
RM  .OHMM                    :  14
RD  .OHMM                    :  15
ROBS.G/C3                    :  16
CALS.IN                      :  17
DRHS.G/C3                    :  18
GRS .GAPI                    :  19
NPHS.DECI                    :  20
SFLU.OHMM                    :  21
ILMC.OHMM                    :  22
ILDC.OHMM                    :  23
ROBC.G/C3                    :  24
GRC .GAPI                    :  25
NPHC.DECI                    :  26
~A
# ...
  2572.000 -65.711  3.9820  4.1450  5.3680  9.8000  113.83  0.3930  0.4930 -0.0010  2.6517 -22.611  5.3680  4.1450  3.9820  2.6500  9.8097  0.0000  114.76  0.3934  5.7831  4.1731  3.9785  2.6560  119.86  0.3717 
  2572.500 -65.387  3.9920  4.1480  5.0250  9.8000  115.97  0.4130  0.4960  0.0000  2.6500 -22.286  5.0250  4.1480  3.9920  2.6540  9.8217 -0.0024  116.42  0.4060  5.4184  4.1764  3.9885  2.6601  121.64  0.3859 
  2573.000 -65.063  4.0120  4.1310  4.2770  9.8120  117.00  0.4320  0.5010  0.0000  2.6500 -21.961  4.2770  4.1310  4.0120  2.6523  9.7981 -0.0014  115.31  0.4254  4.6161  4.1587  4.0084  2.6582  120.37  0.4076 
  2573.500 -64.215  4.0000  4.1150  4.2910  9.8240  113.12  0.4340  0.5000 -0.0030  2.6550 -21.112  4.2910  4.1150  4.0000  2.6503  9.8301 -0.0002  113.09  0.4333  4.6346  4.1431  3.9965  2.6565  118.19  0.4164 
  2574.000 -63.802  3.9880  4.1290  4.4500  9.7920  113.04  0.4130  0.4930 -0.0010  2.6517 -20.698  4.4500  4.1290  3.9880  2.6513  9.8585 -0.0008  117.25  0.4202  4.8080  4.1579  3.9845  2.6577  122.65  0.4018 
  2574.500 -62.795  3.8090  4.0900  4.7860  9.8390  122.62  0.4260  0.4900  0.0000  2.6500 -19.690  4.7860  4.0900  3.8090  2.6503  9.8695 -0.0002  124.75  0.4215  5.1690  4.1186  3.8059  2.6568  130.55  0.4033 
  2575.000 -61.827  3.7180  4.0220  4.3830  9.8630  127.45  0.4310  0.4890 -0.0010  2.6517 -18.721  4.3830  4.0220  3.7180  2.6513  9.8677 -0.0008  128.57  0.4293  4.7373  4.0496  3.7150  2.6578  134.54  0.4120 
  2575.500 -61.196  3.6840  3.9560  3.3930  9.8710  129.98  0.4610  0.4910  0.0000  2.6500 -18.089  3.3930  3.9560  3.6840  2.6503  9.8572 -0.0002  127.85  0.4508  3.6753  3.9825  3.6811  2.6567  133.74  0.4360 
  2576.000 -61.041  3.6490  3.9220  3.3120  9.8670  125.15  0.4390  0.4890 -0.0010  2.6517 -17.933  3.3120  3.9220  3.6490  2.6514  9.8517 -0.0008  120.42  0.4464  3.5880  3.9479  3.6461  2.6577  125.94  0.4311 
  2576.500 -61.223  3.6610  3.8890  3.6610  9.8550  114.47  0.4150  0.4820  0.0000  2.6500 -18.115  3.6610  3.8890  3.6610  2.6557  9.8346 -0.0035  107.97  0.4231  3.9606  3.9142  3.6581  2.6619  112.85  0.4050 
  2577.000 -61.979  3.7280  3.8810  4.4340  9.8510  99.822  0.3770  0.4720 -0.0010  2.6517 -18.870  4.4340  3.8810  3.7280  2.6607  9.8220 -0.0065  98.731  0.3897  4.7867  3.9059  3.7249  2.6668  103.15  0.3677 
  2577.500 -62.875  3.8090  3.9010  4.8390  9.8310  97.368  0.3540  0.4620 -0.0040  2.6566 -19.765  4.8390  3.9010  3.8090  2.6656  9.8068 -0.0095  100.16  0.3617  5.2177  3.9259  3.8058  2.6716  104.59  0.3363 
  2578.000 -63.572  3.8570  3.9140  5.2620  9.8200  103.62  0.3530  0.4360 -0.0070  2.6616 -20.461  5.2620  3.9140  3.8570  2.6624  9.8007 -0.0075  106.73  0.3533  5.6686  3.9389  3.8537  2.6684  111.44  0.3269 
  2578.500 -63.933  3.9060  3.9200  4.9800  9.8040  110.59  0.3730  0.4250 -0.0100  2.6665 -20.821  4.9800  3.9200  3.9060  2.6561  9.8033 -0.0037  111.83  0.3664  5.3678  3.9451  3.9026  2.6621  116.77  0.3415 
  2579.000 -64.084  3.9480  3.9120  4.3650  9.8000  113.36  0.4290  0.4160 -0.0070  2.6616 -20.971  4.3650  3.9120  3.9480  2.6522  9.8329 -0.0013  113.43  0.4105  4.7141  3.9375  3.9446  2.6584  118.56  0.3910 
  2579.500 -64.236  3.9900  3.9030  3.7430  9.8040  113.52  0.4470  0.4140 -0.0030  2.6550 -21.122  3.7430  3.9030  3.9900  2.6544  10.001 -0.0027  113.73  0.4411  4.0636  3.9313  3.9868  2.6618  119.54  0.4252 
  2580.000 -64.338  3.9600  3.8950  3.5810  9.8390  113.99  0.4530  0.4210 -0.0010  2.6517 -21.223  3.5810  3.8950  3.9600  2.6591  10.287 -0.0055  115.64  0.4510  3.9138  3.9283  3.9573  2.6684  122.70  0.4365 
  2580.500 -64.440  3.9300  3.8940  3.5470  10.034  117.64  0.4440  0.4330 -0.0030  2.6550 -21.324  3.5470  3.8940  3.9300  2.6654  10.518 -0.0093  119.30  0.4469  3.8963  3.9314  3.9277  2.6763  127.52  0.4320 
  2581.000 -64.207  3.9110  3.9000  3.6320  10.339  121.30  0.4400  0.4400 -0.0060  2.6599 -21.090  3.6320  3.9000  3.9110  2.6596  10.488 -0.0058  121.91  0.4413  3.9868  3.9370  3.9087  2.6704  130.20  0.4257 
  2581.500 -64.349  3.8920  3.8990  3.7180  10.554  122.66  0.4380  0.4450 -0.0100  2.6665 -21.232  3.7180  3.8990  3.8920  2.6527  10.211 -0.0017  121.51  0.4386  4.0557  3.9310  3.8893  2.6616  128.61  0.4226 
  2582.000 -64.452  3.9400  3.8980  4.1250  10.475  120.14  0.4580  0.4420 -0.0050  2.6583 -21.334  4.1250  3.8980  3.9400  2.6503  9.9083 -0.0002  116.61  0.4516  4.4651  3.9246  3.9367  2.6570  122.20  0.4369 
  2582.500 -64.297  3.9610  3.8750  4.0860  10.159  112.39  0.4660  0.4410 -0.0010  2.6517 -21.178  4.0860  3.8750  3.9610  2.6514  9.7602 -0.0008  110.09  0.4634  4.4081  3.8987  3.9574  2.6571  114.78  0.4501 
  2583.000 -64.142  3.9530  3.8530  3.9600  9.8590  107.33  0.4380  0.4420  0.0000  2.6500 -21.022  3.9600  3.8530  3.9530  2.6586  9.7376 -0.0052  108.03  0.4469  4.2713  3.8761  3.9494  2.6641  112.54  0.4316 
  2583.500 -64.016  3.9450  3.8060  4.0240  9.7410  108.85  0.4260  0.4510 -0.0010  2.6517 -20.895  4.0240  3.8060  3.9450  2.6571  9.7412 -0.0043  111.28  0.4298  4.3399  3.8286  3.9414  2.6627  115.95  0.4125 
  2584.000 -63.890  3.8080  3.7600  4.2420  9.7370  114.17  0.4220  0.4600 -0.0060  2.6599 -20.768  4.2420  3.7600  3.8080  2.6469  9.7420  0.0019  115.62  0.4233  4.5727  3.7820  3.8047  2.6524  120.48  0.4051 
  2584.500 -63.398  3.7320  3.7050  4.2950  9.7420  117.35  0.4260  0.4710 -0.0040  2.6566 -20.275  4.2950  3.7050  3.7320  2.6409  9.7428  0.0055  118.26  0.4247  4.6293  3.7264  3.7288  2.6464  123.23  0.4068 
  2585.000 -63.005  3.6630  3.6430  3.8480  9.7420  119.34  0.4390  0.4740  0.0030  2.6451 -19.881  3.8480  3.6430  3.6630  2.6457  9.7438  0.0026  119.67  0.4349  4.1523  3.6637  3.6599  2.6512  124.70  0.4182 
  2585.500 -62.632  3.6350  3.6090  3.3060  9.7430  120.06  0.4450  0.4820  0.0060  2.6401 -19.507  3.3060  3.6090  3.6350  2.6551  9.7440 -0.0031  119.92  0.4431  3.5733  3.6293  3.6320  2.6607  124.96  0.4274 
  2586.000 -62.398  3.6640  3.6140  2.7940  9.7440  119.75  0.4460  0.4890  0.0020  2.6467 -19.272  2.7940  3.6140  3.6640  2.6650  9.7448 -0.0091  117.20  0.4457  3.0258  3.6344  3.6609  2.6706  122.13  0.4302 
  2586.500 -62.440  3.6940  3.7070  2.9830  9.7440  114.22  0.4340  0.5000 -0.0040  2.6566 -19.314  2.9830  3.7070  3.6940  2.6707  9.7450 -0.0126  109.39  0.4377  3.2281  3.7285  3.6909  2.6763  113.99  0.4213 
  2587.000 -63.296  3.8160  3.8930  3.5400  9.7450  103.79  0.4150  0.4980 -0.0100  2.6665 -20.169  3.5400  3.8930  3.8160  2.6644  9.7595 -0.0087  100.67  0.4208  3.8247  3.9169  3.8127  2.6701  104.96  0.4024 
  2587.500 -65.917  3.9420  4.0670  4.4640  9.7450  97.072  0.3930  0.4840 -0.0130  2.6715 -22.789  4.4640  4.0670  3.9420  2.6562  9.8770 -0.0037  91.037  0.3997  4.8251  4.0954  3.9387  2.6627  95.293  0.3788 
  2588.000 -67.426  4.0770  4.2320  5.7210  9.7620  84.101  0.3730  0.4750 -0.0080  2.6632 -24.297  5.7210  4.2320  4.0770  2.6507  9.9345 -0.0004  85.177  0.3791  6.1798  4.2640  4.0735  2.6577  89.332  0.3558 
  2588.500 -67.885  4.2160  4.3400  6.2780  9.8970  86.408  0.3640  0.4710 -0.0030  2.6550 -24.755  6.2780  4.3400  4.2160  2.6472  9.8607  0.0017  90.334  0.3667  6.7633  4.3720  4.2121  2.6536  94.506  0.3419 
  2589.000 -67.433  4.3630  4.3870  6.4030  9.9410  94.811  0.3620  0.4750  0.0000  2.6500 -24.302  6.4030  4.3870  4.3630  2.6481  9.7828  0.0011  99.635  0.3626  6.8825  4.4179  4.3587  2.6540  103.96  0.3373 
  2589.500 -66.386  4.3380  4.3860  5.9830  9.8470  105.11  0.3670  0.4840  0.0020  2.6467 -23.254  5.9830  4.3860  4.3380  2.6512  9.7583 -0.0007  109.50  0.3655  6.4307  4.4164  4.3337  2.6569  114.16  0.3405 
  2590.000 -65.913  4.2890  4.3130  4.9640  9.7720  114.47  0.3800  0.4980  0.0010  2.6484 -22.780  4.9640  4.3130  4.2890  2.6559  9.7655 -0.0036  118.59  0.3761  5.3457  4.3425  4.2848  2.6616  123.67  0.3524 
  2590.500 -65.124  4.1190  4.2420  3.7940  9.7560  123.25  0.4150  0.5010 -0.0010  2.6517 -21.990  3.7940  4.2420  4.1190  2.6637  9.7601 -0.0083  124.81  0.4046  4.0962  4.2704  4.1151  2.6694  130.13  0.3843 
