~Version Information
VERS.                     2.0: CWLS log ASCII Standard Version 2.00
WRAP.                      NO: One line per depth step
~Well Information Block
#MNEM.UNIT                               Data Type  Information
#---------                               ---------  -----------
STRT.FT                                    26.0000:
STOP.FT                                  3500.0000:
STEP.FT                                     0.5000:
NULL.                 -999.25                     :
COMP.                                             :COMPANY            
WELL.     SANTIAGO A 72-30                        :WELL               
FLD .                                             :FIELD              
CTRY.                                             :COUNTRY            
STAT.                                             :STATE              
LOC .                                             :LOCATION           
UWI .                                             :UNIQUE WELL ID     
SRVC.                                             :Service company    
DATE.                                             :LOG DATE           
~Curve Information
#MNEM.UNIT           API CODE  Curve Description
#---------           --------  -----------------
DEPT.FT                      :   1 DEPTH
SP  .MV                      :   2
ILD .OHMM                    :   3
ILM .OHMM                    :   4
SFLU.OHMM                    :   5
CALI.IN                      :   6
GR  .GAPI                    :   7
NPHI.DECI                    :   8
DPHI.DECI                    :   9
DRHO.G/C3                    :  10
RHOB.G/C3                    :  11
SBL .MV                      :  12
RS  .OHMM                    :  13
RM  .OHMM                    :  14
RD  .OHMM                    :  15
ROBS.G/C3                    :  16
CALS.IN                      :  17
DRHS.G/C3                    :  18
GRS .GAPI                    :  19
NPHS.DECI                    :  20
SFLU.OHMM                    :  21
ILMC.OHMM                    :  22
ILDC.OHMM                    :  23
ROBC.G/C3                    :  24
GRC .GAPI                    :  25
NPHC.DECI                    :  26
~A
# ...
  1888.000 -59.788  1.8420  1.8620  2.0890  10.549  131.34  0.5400  0.5590 -0.0030  2.6550 -17.209  2.0890  1.8620  1.8420  2.6530  10.922 -0.0018  123.36  0.5392  2.3158  1.8721  1.8416  2.6665  133.54  0.5357 
  1888.500 -59.483  1.8660  1.8940  2.1280  11.165  122.80  0.5440  0.5670 -0.0010  2.6517 -16.908  2.1280  1.8940  1.8660  2.6556  11.335 -0.0034  110.99  0.5437  2.3753  1.9062  1.8658  2.6718  121.64  0.5410 
  1889.000 -59.217  1.9090  1.9070  2.0950  11.447  110.14  0.5530  0.5670 -0.0050  2.6583 -16.646  2.0950  1.9070  1.9090  2.6642  11.287 -0.0086  109.42  0.5522  2.3364  1.9192  1.9087  2.6800  119.75  0.5505 
  1889.500 -59.341  1.9710  1.9200  2.0070  11.179  109.37  0.5460  0.5670 -0.0110  2.6682 -16.774  2.0070  1.9200  1.9710  2.6711  10.977 -0.0128  113.08  0.5466  2.2270  1.9310  1.9706  2.6850  122.61  0.5440 
  1890.000 -59.465  2.0030  1.9690  1.8910  10.840  113.36  0.5390  0.5720 -0.0140  2.6731 -16.902  1.8910  1.9690  2.0030  2.6741  10.945 -0.0146  117.85  0.5396  2.0973  1.9805  2.0026  2.6878  127.67  0.5361 
  1890.500 -59.972  2.0350  2.0210  1.8380  11.018  118.19  0.4770  0.5800 -0.0150  2.6748 -17.413  1.8380  2.0210  2.0350  2.6728  11.163 -0.0138  121.43  0.4824  2.0452  2.0341  2.0346  2.6879  132.41  0.4722 
  1891.000 -60.480  2.1060  2.0740  1.7740  11.264  121.68  0.4680  0.5780 -0.0130  2.6715 -17.925  1.7740  2.0740  2.1060  2.6705  11.329 -0.0124  123.01  0.4688  1.9786  2.0886  2.1057  2.6866  134.79  0.4570 
  1891.500 -61.061  2.1800  2.1610  1.7690  11.375  123.11  0.4720  0.5730 -0.0120  2.6698 -18.510  1.7690  2.1610  2.1800  2.6669  11.201 -0.0103  120.90  0.4716  1.9693  2.1762  2.1796  2.6822  131.98  0.4601 
  1892.000 -61.332  2.2710  2.2560  1.8050  11.077  120.73  0.4970  0.5710 -0.0090  2.6648 -18.785  1.8050  2.2560  2.2710  2.6658  10.928 -0.0096  113.90  0.4947  2.0014  2.2709  2.2704  2.6794  123.32  0.4858 
  1892.500 -61.565  2.3660  2.3540  2.0160  10.820  113.36  0.5090  0.5630 -0.0100  2.6665 -19.022  2.0160  2.3540  2.3660  2.6675  10.825 -0.0106  107.71  0.5079  2.2315  2.3696  2.3653  2.6804  116.25  0.5005 
  1893.000 -61.893  2.4600  2.4620  2.4030  10.828  107.25  0.4820  0.5570 -0.0110  2.6682 -19.354  2.4030  2.4620  2.4600  2.6663  11.012 -0.0099  100.08  0.4845  2.6679  2.4804  2.4594  2.6804  108.63  0.4745 
  1893.500 -62.106  2.5580  2.5080  2.9890  11.149  99.486  0.4600  0.5510 -0.0090  2.6648 -19.571  2.9890  2.5080  2.5580  2.6639  11.276 -0.0084  96.339  0.4621  3.3361  2.5290  2.5575  2.6797  105.40  0.4495 
  1894.000 -62.397  2.6260  2.6040  3.3490  11.371  96.076  0.4490  0.5470 -0.0080  2.6632 -19.866  3.3490  2.6040  2.6260  2.6623  11.423 -0.0074  87.234  0.4501  3.7504  2.6279  2.6256  2.6789  95.850  0.4361 
  1894.500 -62.208  2.6960  2.6430  3.4260  11.462  86.485  0.4450  0.5480 -0.0070  2.6616 -19.681  3.4260  2.6430  2.6960  2.6671  11.464 -0.0104  85.316  0.4454  3.8403  2.6679  2.6956  2.6841  93.857  0.4308 
  1895.000 -61.883  2.7650  2.6830  3.3730  11.466  85.216  0.4480  0.5490 -0.0130  2.6715 -19.360  3.3730  2.6830  2.7650  2.6752  11.479 -0.0152  94.187  0.4477  3.7819  2.7088  2.7646  2.6922  103.66  0.4334 
  1895.500 -61.317  2.7720  2.7110  3.1090  11.490  94.967  0.4640  0.5440 -0.0170  2.6781 -18.798  3.1090  2.7110  2.7720  2.6762  11.618 -0.0159  100.65  0.4624  3.4944  2.7386  2.7717  2.6941  111.22  0.4500 
  1896.000 -60.914  2.7330  2.6900  2.8920  11.719  101.15  0.4940  0.5400 -0.0150  2.6748 -18.399  2.8920  2.6900  2.7330  2.6738  11.792 -0.0144  106.46  0.4910  3.2602  2.7186  2.7328  2.6927  118.22  0.4821 
  1896.500 -59.953  2.6510  2.6700  2.7710  11.850  106.94  0.5150  0.5360 -0.0140  2.6731 -17.442  2.7710  2.6700  2.6510  2.6740  11.861 -0.0146  114.06  0.5128  3.1270  2.6988  2.6509  2.6933  126.91  0.5067 
  1897.000 -57.720  2.5400  2.5850  2.7080  11.870  114.71  0.5320  0.5420 -0.0150  2.6748 -15.213  2.7080  2.5850  2.5400  2.6784  11.663 -0.0172  125.89  0.5302  3.0440  2.6104  2.5398  2.6965  139.29  0.5261 
  1897.500 -56.461  2.3720  2.5030  2.6270  11.493  126.91  0.5230  0.5450 -0.0190  2.6813 -13.958  2.6270  2.5030  2.3720  2.6822  11.148 -0.0195  137.72  0.5239  2.9241  2.5230  2.3715  2.6972  150.10  0.5187 
  1898.000 -55.935  2.2840  2.3000  2.4340  10.859  138.72  0.4890  0.5470 -0.0200  2.6830 -13.436  2.4340  2.3000  2.2840  2.6776  10.801 -0.0168  145.68  0.4926  2.6920  2.3147  2.2834  2.6904  157.11  0.4834 
  1898.500 -55.592  2.2610  2.2760  2.1670  10.752  146.34  0.4650  0.5420 -0.0140  2.6731 -13.097  2.1670  2.2760  2.2610  2.6687  10.859 -0.0113  151.91  0.4676  2.3996  2.2908  2.2604  2.6818  164.12  0.4554 
  1899.000 -55.107  2.2960  2.2530  1.9730  10.950  152.44  0.4620  0.5410 -0.0090  2.6648 -12.616  1.9730  2.2530  2.2960  2.6604  10.971 -0.0063  152.87  0.4623  2.1890  2.2682  2.2954  2.6743  165.73  0.4496 
  1899.500 -54.583  2.3310  2.3790  1.8590  10.990  152.91  0.4640  0.5400 -0.0040  2.6566 -12.096  1.8590  2.3790  2.3310  2.6548  10.975 -0.0029  152.34  0.4638  2.0627  2.3959  2.3304  2.6687  165.17  0.4512 
  1900.000 -54.098  2.3710  2.4650  1.8230  10.962  152.28  0.4730  0.5440 -0.0020  2.6533 -11.615  1.8230  2.4650  2.3710  2.6542  11.065 -0.0025  138.58  0.4720  2.0255  2.4838  2.3705  2.6686  150.66  0.4604 
  1900.500 -54.145  2.5680  2.6110  1.9000  11.157  137.23  0.5410  0.5500 -0.0030  2.6550 -11.666  1.9000  2.6110  2.5680  2.6576  11.505 -0.0046  129.23  0.5334  2.1254  2.6356  2.5677  2.6747  142.34  0.5295 
  1901.000 -55.106  2.7900  2.8110  2.1650  11.819  128.43  0.5670  0.5470 -0.0060  2.6599 -12.631  2.1650  2.8110  2.7900  2.6616  11.929 -0.0070  113.54  0.5641  2.4408  2.8435  2.7899  2.6813  126.57  0.5642 
  1901.500 -55.850  2.9380  3.2210  2.7740  12.030  112.03  0.5640  0.5440 -0.0080  2.6632 -13.379  2.7740  3.2210  2.9380  2.6632  12.036 -0.0080  104.42  0.5643  3.1408  3.2651  2.9382  2.6835  116.74  0.5646 
  1902.000 -56.793  3.6560  3.5650  3.5650  12.042  103.64  0.5270  0.5430 -0.0080  2.6632 -14.326  3.5650  3.5650  3.6560  2.6615  11.999 -0.0070  93.300  0.5313  4.0423  3.6185  3.6560  2.6816  104.21  0.5275 
  1902.500 -58.209  4.4100  3.9450  4.4580  11.959  92.232  0.5000  0.5420 -0.0060  2.6599 -15.746  4.4580  3.9450  4.4100  2.6574  11.960 -0.0045  87.862  0.5032  5.0592  4.0099  4.4099  2.6772  98.025  0.4959 
  1903.000 -58.827  4.7480  4.6720  5.8790  11.960  87.405  0.4620  0.5380 -0.0030  2.6550 -16.368  5.8790  4.6720  4.7480  2.6541  11.857 -0.0025  87.841  0.4665  6.6677  4.7607  4.7477  2.6734  97.722  0.4547 
  1903.500 -59.444  5.0590  5.0680  6.6380  11.758  87.887  0.4330  0.5350 -0.0020  2.6533 -16.989  6.6380  5.0680  5.0590  2.6533  11.543 -0.0020  90.974  0.4365  7.4732  5.1629  5.0578  2.6707  100.31  0.4209 
  1904.000 -60.876  5.1290  5.1480  6.8930  11.334  91.304  0.4300  0.5330 -0.0020  2.6533 -18.425  6.8930  5.1480  5.1290  2.6525  11.228 -0.0015  98.608  0.4304  7.6975  5.2359  5.1269  2.6680  107.73  0.4139 
  1904.500 -61.143  5.0710  5.0880  6.6040  11.124  99.398  0.4390  0.5390 -0.0010  2.6517 -18.696  6.6040  5.0880  5.0710  2.6533  11.100 -0.0020  103.84  0.4379  7.3497  5.1699  5.0687  2.6680  113.01  0.4223 
  1905.000 -61.132  5.0380  5.0180  5.7870  11.077  104.32  0.4480  0.5520 -0.0030  2.6550 -18.689  5.7870  5.0180  5.0380  2.6582  11.050 -0.0050  108.75  0.4469  6.4316  5.0962  5.0356  2.6726  118.18  0.4323 
  1905.500 -60.444  4.9440  4.9500  4.6710  11.022  109.24  0.4600  0.5670 -0.0070  2.6616 -18.005  4.6710  4.9500  4.9440  2.6656  10.999 -0.0095  107.82  0.4585  5.1847  5.0246  4.9415  2.6797  116.99  0.4453 
  1906.000 -60.056  4.8950  4.8870  3.9390  10.975  107.67  0.4870  0.5690 -0.0120  2.6698 -17.621  3.9390  4.8870  4.8950  2.6698  10.948 -0.0120  103.04  0.4836  4.3672  4.9582  4.8924  2.6835  111.63  0.4734 
  1906.500 -59.984  4.8470  4.8260  3.7530  10.920  102.52  0.4790  0.5480 -0.0120  2.6698 -17.553  3.7530  4.8260  4.8470  2.6666  10.951 -0.0100  99.611  0.4800  4.1614  4.8955  4.8445  2.6803  107.92  0.4694 
