~Version Information
VERS.                     2.0: CWLS log ASCII Standard Version 2.00
WRAP.                      NO: One line per depth step
~Well Information Block
#MNEM.UNIT                               Data Type  Information
#---------                               ---------  -----------
STRT.FT                                    26.0000:
STOP.FT                                  3500.0000:
STEP.FT                                     0.5000:
NULL.                 -999.25                     :
COMP.                                             :COMPANY            
WELL.     SANTIAGO A 72-30                        :WELL               
FLD .                                             :FIELD              
CTRY.                                             :COUNTRY            
STAT.                                             :STATE              
LOC .                                             :LOCATION           
UWI .                                             :UNIQUE WELL ID     
SRVC.                                             :Service company    
DATE.                                             :LOG DATE           
~Curve Information
#MNEM.UNIT           API CODE  Curve Description
#---------           --------  -----------------
DEPT.FT                      :   1 DEPTH
SP  .MV                      :   2
ILD .OHMM                    :   3
ILM .OHMM                    :   4
SFLU.OHMM                    :   5
CALI.IN                      :   6
GR  .GAPI                    :   7
NPHI.DECI                    :   8
DPHI.DECI                    :   9
DRHO.G/C3                    :  10
RHOB.G/C3                    :  11
SBL .MV                      :  12
RS  .OHMM                    :  13
RM  .OHMM                    :  14
RD  .OHMM                    :  15
ROBS.G/C3                    :  16
CALS.IN                      :  17
DRHS.G/C3                    :  18
GRS .GAPI                    :  19
NPHS.DECI                    :  20
SFLU.OHMM                    :  21
ILMC.OHMM                    :  22
ILDC.OHMM                    :  23
ROBC.G/C3                    :  24
GRC .GAPI                    :  25
NPHC.DECI                    :  26
~A
# ...
   995.000 -15.267  2.8590  2.8150  2.5660  15.617  58.434  0.5120  0.4070  0.0400  2.5840 -5.0030  2.5660  2.8150  2.8590  2.6286  14.819  0.0130  57.339  0.5120  3.0081  2.8566  2.8713  2.6620  66.860  0.4984 
   995.500 -15.436  2.8660  2.8220  2.5840  15.468  59.877  0.5180  0.4090  0.0320  2.5972 -5.2248  2.5840  2.8220  2.8660  2.6071  14.515  0.0260  58.564  0.5179  3.0173  2.8618  2.8770  2.6393  67.844  0.5048 
   996.000 -15.205  2.8730  2.8360  2.6020  15.199  59.893  0.5130  0.4110  0.0220  2.6137 -5.0466  2.6020  2.8360  2.8730  2.5824  14.603  0.0410  59.878  0.5126  3.0429  2.8768  2.8845  2.6149  69.499  0.4990 
   996.500 -15.012  2.8800  2.8450  2.6060  14.819  56.182  0.4970  0.4100  0.0130  2.6286 -4.9064  2.6060  2.8450  2.8800  2.5659  14.718  0.0510  59.563  0.4969  3.0527  2.8868  2.8920  2.5989  69.305  0.4817 
   997.000 -14.783  2.8860  2.8550  2.6100  14.515  52.789  0.4950  0.3970  0.0260  2.6071 -4.7302  2.6100  2.8550  2.8860  2.5576  14.719  0.0560  55.883  0.4960  3.0577  2.8971  2.8981  2.5906  65.024  0.4806 
   997.500 -14.592  2.8930  2.8690  2.5940  14.603  51.933  0.5170  0.3790  0.0410  2.5824 -4.5920  2.5940  2.8690  2.8930  2.5659  14.740  0.0510  52.714  0.5187  3.0390  2.9117  2.9052  2.5990  61.364  0.5057 
   998.000 -14.680  2.9000  2.8730  2.5840  14.718  52.821  0.5490  0.3720  0.0510  2.5659 -4.6608  2.5840  2.8730  2.9000  2.5626  14.923  0.0530  52.010  0.5498  3.0346  2.9170  2.9131  2.5964  60.780  0.5402 
   998.500 -14.809  2.9070  2.8770  2.5760  14.719  53.075  0.5620  0.3720  0.0560  2.5576 -4.7705  2.5760  2.8770  2.9070  2.5708  15.074  0.0480  52.843  0.5616  3.0311  2.9216  2.9209  2.6052  61.949  0.5532 
   999.000 -14.660  2.9130  2.8810  2.5680  14.740  52.218  0.5560  0.3790  0.0510  2.5659 -4.6023  2.5680  2.8810  2.9130  2.5890  15.174  0.0370  53.002  0.5559  3.0254  2.9256  2.9274  2.6237  62.265  0.5469 
   999.500 -14.510  2.9200  2.8860  2.5710  14.923  54.375  0.5550  0.3900  0.0530  2.5626 -4.4331  2.5710  2.8860  2.9200  2.6005  15.075  0.0300  52.400  0.5550  3.0250  2.9309  2.9340  2.6349  61.431  0.5459 
  1000.000 -14.797  2.9270  2.8840  2.5940  15.074  58.197  0.5550  0.4170  0.0480  2.5708 -4.7008  2.5940  2.8840  2.9270  2.6005  14.924  0.0300  54.695  0.5533  3.0469  2.9284  2.9404  2.6343  63.919  0.5440 
  1000.500 -15.447  2.9460  2.8830  2.6260  15.174  60.420  0.5380  0.4270  0.0370  2.5890 -5.3316  2.6260  2.8830  2.9460  2.5857  14.790  0.0390  58.381  0.5356  3.0803  2.9264  2.9589  2.6190  68.034  0.5245 
  1001.000 -15.538  2.9590  2.8760  2.6610  15.075  60.979  0.5170  0.4180  0.0300  2.6005 -5.4034  2.6610  2.8760  2.9590  2.5774  14.671  0.0440  60.466  0.5138  3.1178  2.9184  2.9715  2.6102  70.284  0.5003 
  1001.500 -15.307  2.9710  2.8750  2.6960  14.924  61.301  0.4910  0.4010  0.0300  2.6005 -5.1532  2.6960  2.8750  2.9710  2.5741  14.556  0.0460  61.005  0.4899  3.1553  2.9166  2.9830  2.6065  70.735  0.4739 
  1002.000 -16.116  2.9830  2.8730  2.7350  14.790  61.463  0.4830  0.3880  0.0390  2.5857 -5.9429  2.7350  2.8730  2.9830  2.5824  14.453  0.0410  61.314  0.4834  3.1979  2.9138  2.9947  2.6143  70.933  0.4667 
  1002.500 -16.646  2.9960  2.8660  2.7690  14.671  60.912  0.4860  0.3820  0.0440  2.5774 -6.4537  2.7690  2.8660  2.9960  2.5939  14.350  0.0340  61.419  0.4877  3.2342  2.9059  3.0073  2.6255  70.894  0.4713 
  1003.000 -16.896  2.9910  2.8550  2.8010  14.556  58.934  0.4970  0.3810  0.0460  2.5741 -6.6845  2.8010  2.8550  2.9910  2.5857  14.307  0.0390  60.755  0.4981  3.2709  2.8943  3.0020  2.6170  70.061  0.4829 
  1003.500 -16.386  2.9870  2.8430  2.8330  14.453  57.431  0.5040  0.3810  0.0410  2.5824 -6.1552  2.8330  2.8430  2.9870  2.5807  14.335  0.0420  58.816  0.5030  3.3110  2.8822  2.9981  2.6122  67.867  0.4883 
  1004.000 -15.639  2.9890  2.8310  2.8830  14.350  55.691  0.4980  0.3780  0.0340  2.5939 -5.3890  2.8830  2.8310  2.9890  2.5890  14.411  0.0370  57.296  0.4978  3.3755  2.8704  3.0005  2.6208  66.223  0.4826 
  1004.500 -15.009  2.9900  2.8250  2.8640  14.307  54.902  0.4970  0.3680  0.0390  2.5857 -4.7398  2.8640  2.8250  2.9900  2.5791  14.545  0.0430  55.630  0.4983  3.3592  2.8651  3.0021  2.6114  64.487  0.4832 
  1005.000 -14.142  2.9880  2.8190  2.8450  14.335  56.016  0.5040  0.3640  0.0420  2.5807 -3.8535  2.8450  2.8190  2.9880  2.5642  14.720  0.0520  54.987  0.5032  3.3449  2.8601  3.0010  2.5972  63.983  0.4886 
  1005.500 -13.790  2.9700  2.8170  2.7260  14.411  57.606  0.5000  0.3650  0.0370  2.5890 -3.4823  2.7260  2.8170  2.9700  2.5576  14.701  0.0560  56.136  0.5004  3.1986  2.8579  2.9827  2.5906  65.293  0.4855 
  1006.000 -13.364  2.9610  2.8160  2.6560  14.545  57.372  0.5020  0.3650  0.0430  2.5791 -3.0371  2.6560  2.8160  2.9610  2.5708  14.380  0.0480  57.588  0.5066  3.0988  2.8547  2.9721  2.6025  66.516  0.4923 
  1006.500 -13.133  2.9520  2.8150  2.5870  14.720  55.631  0.5230  0.3630  0.0520  2.5642 -2.7868  2.5870  2.8150  2.9520  2.5906  14.277  0.0360  57.243  0.5251  3.0108  2.8530  2.9626  2.6219  65.967  0.5127 
  1007.000 -13.144  2.9420  2.8160  2.5150  14.701  55.794  0.5320  0.3700  0.0560  2.5576 -2.7786  2.5150  2.8160  2.9420  2.5923  14.265  0.0350  55.643  0.5341  2.9233  2.8540  2.9525  2.6235  64.106  0.5227 
  1007.500 -13.352  2.9330  2.8170  2.5140  14.380  59.763  0.5410  0.3860  0.0480  2.5708 -2.9674  2.5140  2.8170  2.9330  2.5923  14.265  0.0350  56.083  0.5432  2.9221  2.8550  2.9434  2.6235  64.612  0.5327 
  1008.000 -13.283  2.9370  2.8260  2.5270  14.277  62.780  0.5500  0.3940  0.0360  2.5906 -2.8792  2.5270  2.8260  2.9370  2.5989  14.250  0.0310  59.980  0.5544  2.9372  2.8641  2.9474  2.6300  69.080  0.5451 
  1008.500 -13.295  2.9400  2.8290  2.5400  14.265  62.228  0.5670  0.3870  0.0350  2.5923 -2.8719  2.5400  2.8290  2.9400  2.6236  14.119  0.0160  62.741  0.5651  2.9475  2.8664  2.9498  2.6542  72.047  0.5569 
  1009.000 -13.303  2.9470  2.8330  2.5810  14.265  60.329  0.5600  0.3820  0.0350  2.5923 -2.8607  2.5810  2.8330  2.9470  2.6319  13.965  0.0110  62.094  0.5550  2.9904  2.8694  2.9561  2.6618  71.056  0.5457 
  1009.500 -13.353  2.9540  2.8370  2.6030  14.250  57.797  0.5420  0.3820  0.0310  2.5989 -2.8915  2.6030  2.8370  2.9540  2.6187  13.914  0.0190  60.152  0.5386  3.0145  2.8732  2.9629  2.6484  68.754  0.5275 
  1010.000 -13.684  2.9550  2.8410  2.6040  14.119  56.214  0.5300  0.3790  0.0160  2.6236 -3.2032  2.6040  2.8410  2.9550  2.6088  13.907  0.0250  57.688  0.5279  3.0154  2.8773  2.9639  2.6384  65.926  0.5157 
  1010.500 -14.133  2.9570  2.8420  2.6060  13.965  58.054  0.5230  0.3710  0.0110  2.6319 -3.6330  2.6060  2.8420  2.9570  2.6038  13.888  0.0280  56.340  0.5273  3.0170  2.8782  2.9658  2.6334  64.358  0.5150 
  1011.000 -14.703  2.9630  2.8440  2.6070  13.914  59.100  0.5370  0.3560  0.0190  2.6187 -4.1838  2.6070  2.8440  2.9630  2.6104  13.806  0.0240  58.125  0.5421  3.0147  2.8797  2.9715  2.6396  66.271  0.5313 
  1011.500 -14.953  2.9700  2.8580  2.6080  13.907  59.671  0.5530  0.3530  0.0250  2.6088 -4.4145  2.6080  2.8580  2.9700  2.6137  13.652  0.0220  59.138  0.5501  3.0092  2.8930  2.9778  2.6422  67.185  0.5401 
  1012.000 -15.083  2.9740  2.8620  2.6210  13.888  58.023  0.5440  0.3560  0.0280  2.6038 -4.5253  2.6210  2.8620  2.9740  2.6022  13.522  0.0290  59.562  0.5336  3.0190  2.8962  2.9812  2.6301  67.460  0.5218 
  1012.500 -15.172  2.9800  2.8660  2.6350  13.806  56.374  0.5130  0.3620  0.0240  2.6104 -4.5951  2.6350  2.8660  2.9800  2.5923  13.463  0.0350  57.915  0.5002  3.0330  2.8999  2.9869  2.6199  65.503  0.4849 
  1013.000 -15.262  2.9870  2.8690  2.6480  13.652  55.199  0.4760  0.3590  0.0220  2.6137 -4.6658  2.6480  2.8690  2.9870  2.5873  13.539  0.0380  56.298  0.4682  3.0518  2.9035  2.9943  2.6153  63.789  0.4496 
  1013.500 -15.273  2.9940  2.8780  2.6610  13.522  56.881  0.4540  0.3500  0.0290  2.6022 -4.6576  2.6610  2.8780  2.9940  2.6187  13.651  0.0190  55.307  0.4511  3.0722  2.9135  3.0019  2.6472  62.831  0.4307 
