~Version Information
VERS.                     2.0: CWLS log ASCII Standard Version 2.00
WRAP.                      NO: One line per depth step
~Well Information Block
#MNEM.UNIT                               Data Type  Information
#---------                               ---------  -----------
STRT.FT                                    26.0000:
STOP.FT                                  3500.0000:
STEP.FT                                     0.5000:
NULL.                 -999.25                     :
COMP.                                             :COMPANY            
WELL.     SANTIAGO A 72-30                        :WELL               
FLD .                                             :FIELD              
CTRY.                                             :COUNTRY            
STAT.                                             :STATE              
LOC .                                             :LOCATION           
UWI .                                             :UNIQUE WELL ID     
SRVC.                                             :Service company    
DATE.                                             :LOG DATE           
~Curve Information
#MNEM.UNIT           API CODE  Curve Description
#---------           --------  -----------------
DEPT.FT                      :   1 DEPTH
SP  .MV                      :   2
ILD .OHMM                    :   3
ILM .OHMM                    :   4
SFLU.OHMM                    :   5
CALI.IN                      :   6
GR  .GAPI                    :   7
NPHI.DECI                    :   8
DPHI.DECI                    :   9
DRHO.G/C3                    :  10
RHOB.G/C3                    :  11
SBL .MV                      :  12
RS  .OHMM                    :  13
RM  .OHMM                    :  14
RD  .OHMM                    :  15
ROBS.G/C3                    :  16
CALS.IN                      :  17
DRHS.G/C3                    :  18
GRS .GAPI                    :  19
NPHS.DECI                    :  20
SFLU.OHMM                    :  21
ILMC.OHMM                    :  22
ILDC.OHMM                    :  23
ROBC.G/C3                    :  24
GRC .GAPI                    :  25
NPHC.DECI                    :  26
~A
# ...
  3028.000 -52.116  5.3090  5.2180  4.6420  10.330  92.316  0.3980  0.4650 -0.0060  2.6599 -8.1952  4.6420  5.2180  5.3090  2.6644  10.232 -0.0087  90.869  0.3940  5.0591  5.2762  5.3039  2.6734  96.246  0.3726 
  3028.500 -51.803  5.3030  5.1600  4.0990  10.236  102.94  0.3940  0.4420 -0.0100  2.6665 -7.8813  4.0990  5.1600  5.3030  2.6541  10.218 -0.0025  100.17  0.3920  4.4692  5.2165  5.2979  2.6630  106.05  0.3704 
  3029.000 -51.706  5.2720  5.1200  3.7740  10.216  107.07  0.3920  0.4090 -0.0030  2.6550 -7.7834  3.7740  5.1200  5.2720  2.6486  10.223  0.0009  105.98  0.3940  4.1175  5.1758  5.2670  2.6575  112.22  0.3726 
  3029.500 -51.969  5.2700  5.2220  3.9700  10.228  108.65  0.3940  0.4030  0.0000  2.6500 -8.0455  3.9700  5.2220  5.2700  2.6404  10.183  0.0058  108.23  0.4000  4.3260  5.2787  5.2649  2.6490  114.45  0.3793 
  3030.000 -52.229  5.2590  5.3860  4.2390  10.201  105.88  0.4000  0.4010  0.0050  2.6418 -8.3046  4.2390  5.3860  5.2590  2.6306  10.090  0.0118  106.63  0.4050  4.6070  5.4432  5.2536  2.6386  112.42  0.3849 
  3030.500 -52.748  5.2580  5.4430  4.4650  10.093  102.71  0.4050  0.4020  0.0100  2.6335 -8.8227  4.4650  5.4430  5.2580  2.6138  10.074  0.0219  103.58  0.4150  4.8490  5.5008  5.2526  2.6217  109.14  0.3961 
  3031.000 -52.949  5.2330  5.1980  4.7020  10.074  102.08  0.4150  0.4120  0.0210  2.6154 -9.0228  4.7020  5.1980  5.2330  2.6044  10.071  0.0276  102.26  0.4290  5.1041  5.2506  5.2276  2.6123  107.73  0.4117 
  3031.500 -53.150  5.2080  5.0890  4.6710  10.074  110.16  0.4290  0.4130  0.0270  2.6055 -9.2229  4.6710  5.0890  5.2080  2.5991  10.053  0.0309  107.89  0.4440  5.0685  5.1389  5.2026  2.6069  113.61  0.4285 
  3032.000 -53.552  5.1200  4.9830  4.6400  10.054  112.86  0.4440  0.4160  0.0310  2.5989 -9.6240  4.6400  4.9830  5.1200  2.6010  10.048  0.0297  112.09  0.4490  5.0344  5.0307  5.1148  2.6087  118.01  0.4341 
  3032.500 -53.852  5.0590  4.8370  4.1190  10.050  108.50  0.4490  0.4320  0.0300  2.6005 -9.9231  4.1190  4.8370  5.0590  2.6038  10.033  0.0280  109.75  0.4260  4.4716  4.8815  5.0539  2.6114  115.49  0.4084 
  3033.000 -54.412  4.9980  4.7350  3.8660  10.034  104.70  0.4260  0.4380  0.0280  2.6038 -10.482  3.8660  4.7350  4.9980  2.6040  10.019  0.0279  105.80  0.4180  4.1978  4.7773  4.9930  2.6115  111.28  0.3994 
  3033.500 -54.634  4.8160  4.6350  3.6290  10.026  101.76  0.4180  0.4380  0.0280  2.6038 -10.703  3.6290  4.6350  4.8160  2.6063  9.9725  0.0265  102.63  0.4130  3.9384  4.6743  4.8112  2.6135  107.77  0.3938 
  3034.000 -54.775  4.6930  4.4430  3.4210  9.9750  99.861  0.4130  0.4380  0.0270  2.6055 -10.843  3.4210  4.4430  4.6930  2.6130  9.9512  0.0224  100.43  0.4100  3.7129  4.4786  4.6884  2.6201  105.39  0.3904 
  3034.500 -54.620  4.5810  4.3340  3.3930  9.9550  98.910  0.4100  0.4420  0.0230  2.6121 -10.687  3.3930  4.3340  4.5810  2.6201  9.9230  0.0181  99.196  0.4140  3.6805  4.3673  4.5766  2.6270  104.00  0.3949 
  3035.000 -54.326  4.4640  4.2270  3.3640  9.9230  98.117  0.4140  0.4610  0.0180  2.6203 -10.393  3.3640  4.2270  4.4640  2.6176  9.9243  0.0196  98.359  0.4270  3.6495  4.2587  4.4598  2.6244  103.12  0.4094 
  3035.500 -54.052  4.3580  4.1340  3.4000  9.9230  97.246  0.4270  0.4710  0.0190  2.6187 -10.118  3.4000  4.1340  4.3580  2.6079  9.9362  0.0255  97.514  0.4520  3.6891  4.1645  4.3540  2.6148  102.28  0.4374 
  3036.000 -54.490  4.2700  4.0430  3.5310  9.9350  95.027  0.4520  0.4710  0.0250  2.6088 -10.555  3.5310  4.0430  4.2700  2.6005  9.9462  0.0300  95.718  0.4740  3.8308  4.0724  4.2662  2.6075  100.43  0.4620 
  3036.500 -56.062  4.1840  3.9970  3.6810  9.9470  90.905  0.4740  0.4760  0.0300  2.6005 -12.126  3.6810  3.9970  4.1840  2.6013  9.9386  0.0295  92.203  0.4660  3.9913  4.0256  4.1803  2.6082  96.714  0.4531 
  3037.000 -56.719  4.1220  3.9740  3.7760  9.9390  87.894  0.4660  0.4870  0.0300  2.6005 -12.782  3.7760  3.9740  4.1220  2.6093  9.9343  0.0247  88.852  0.4440  4.0930  4.0022  4.1184  2.6163  93.186  0.4285 
  3037.500 -57.874  4.0940  3.9550  3.8580  9.9350  83.931  0.4440  0.4960  0.0250  2.6088 -13.936  3.8580  3.9550  4.0940  2.6162  9.9290  0.0205  85.206  0.4160  4.1806  3.9828  4.0905  2.6231  89.346  0.3971 
  3038.000 -57.985  4.0670  3.9360  3.8860  9.9270  80.998  0.4160  0.5030  0.0210  2.6154 -14.046  3.8860  3.9360  4.0670  2.6260  9.9525  0.0145  81.951  0.4110  4.2129  3.9640  4.0636  2.6331  86.002  0.3915 
  3038.500 -58.096  4.0140  3.8920  3.6910  9.9510  78.779  0.4110  0.5030  0.0150  2.6253 -14.156  3.6910  3.8920  4.0140  2.6359  9.9710  0.0086  79.508  0.4090  4.0050  3.9197  4.0107  2.6430  83.489  0.3893 
  3039.000 -57.852  3.9840  3.8690  3.3920  9.9710  79.968  0.4090  0.5020  0.0090  2.6352 -13.911  3.3920  3.8690  3.9840  2.6454  9.9694  0.0028  79.573  0.4150  3.6832  3.8963  3.9807  2.6526  83.553  0.3960 
  3039.500 -57.607  3.9540  3.8470  3.3060  9.9710  82.584  0.4150  0.5020  0.0030  2.6451 -13.665  3.3060  3.8470  3.9540  2.6497  9.9463  0.0002  81.707  0.4260  3.5888  3.8736  3.9507  2.6567  85.727  0.4083 
  3040.000 -57.454  3.9200  3.8180  3.3170  9.9470  85.358  0.4260  0.4950  0.0000  2.6500 -13.512  3.3170  3.8180  3.9200  2.6448  9.9354  0.0032  84.418  0.4370  3.5998  3.8440  3.9168  2.6517  88.540  0.4206 
  3040.500 -57.357  3.8870  3.8030  3.3740  9.9350  87.490  0.4370  0.4800  0.0030  2.6451 -13.414  3.3740  3.8030  3.8870  2.6391  9.9424  0.0066  86.761  0.4380  3.6617  3.8289  3.8838  2.6461  91.018  0.4217 
  3041.000 -56.647  3.8290  3.7880  3.4320  9.9420  85.262  0.4380  0.4620  0.0060  2.6401 -12.703  3.4320  3.7880  3.8290  2.6179  9.9505  0.0194  86.032  0.4460  3.7247  3.8139  3.8260  2.6250  90.277  0.4307 
  3041.500 -55.916  3.8070  3.7720  4.1710  9.9500  81.292  0.4460  0.4240  0.0180  2.6203 -11.971  4.1710  3.7720  3.8070  2.5643  9.9613  0.0520  82.677  0.4460  4.5201  3.7978  3.8040  2.5714  86.789  0.4307 
  3042.000 -55.146  3.7910  3.7750  5.4340  9.9610  77.876  0.4460  0.3350  0.0500  2.5675 -11.200  5.4340  3.7750  3.7910  2.4845  9.9690  0.1003  79.079  0.4240  5.8774  3.8010  3.7880  2.4917  83.033  0.4061 
  3042.500 -55.089  3.7980  3.7770  5.6560  9.9690  80.800  0.4240  0.2750  0.1000  2.4850 -11.142  5.6560  3.7770  3.7980  2.4710  9.9681  0.1085  79.760  0.3900  6.1155  3.8030  3.7950  2.4781  83.745  0.3680 
  3043.000 -55.031  3.8040  3.7900  5.6950  9.9680  85.548  0.3900  0.2740  0.1090  2.4701 -11.083  5.6950  3.7900  3.8040  2.4982  9.9720  0.0920  83.843  0.3770  6.1579  3.8162  3.8010  2.5054  88.044  0.3535 
  3043.500 -54.620  3.8160  3.7890  4.7170  9.9720  89.582  0.3770  0.3050  0.0920  2.4982 -10.671  4.7170  3.7890  3.8160  2.6005  9.9910  0.0300  88.120  0.3740  5.1103  3.8155  3.8130  2.6078  92.593  0.3501 
  3044.000 -54.128  3.8290  3.7880  3.5200  9.9910  88.385  0.3740  0.3690  0.0300  2.6005 -10.178  3.5200  3.7880  3.8290  2.6335  9.9950  0.0100  88.823  0.3930  3.8230  3.8146  3.8260  2.6409  93.345  0.3714 
  3044.500 -53.952  3.8310  3.7860  2.9960  9.9950  86.158  0.3930  0.4710  0.0100  2.6335 -10.001  2.9960  3.7860  3.8310  2.6484  10.002  0.0010  86.981  0.4250  3.2591  3.8127  3.8280  2.6558  91.430  0.4072 
  3045.000 -54.273  3.8340  3.7850  3.2110  10.002  84.961  0.4250  0.4890  0.0010  2.6484 -10.322  3.2110  3.7850  3.8340  2.6451  10.006  0.0030  85.407  0.4360  3.4911  3.8117  3.8310  2.6525  89.788  0.4195 
  3045.500 -54.475  3.8010  3.7220  3.4410  10.006  90.580  0.4360  0.4920  0.0030  2.6451 -10.523  3.4410  3.7220  3.8010  2.6434  10.017  0.0040  88.466  0.4300  3.7398  3.7480  3.7981  2.6509  93.039  0.4128 
  3046.000 -54.042  3.7690  3.6600  3.7000  10.017  96.834  0.4300  0.4910  0.0040  2.6434 -10.089  3.7000  3.6600  3.7690  2.6484  10.017  0.0010  94.460  0.4310  4.0188  3.6852  3.7661  2.6559  99.342  0.4139 
  3046.500 -53.568  3.7470  3.6590  3.6320  10.017  100.55  0.4310  0.4880  0.0010  2.6484 -9.6139  3.6320  3.6590  3.7470  2.6566  10.005 -0.0040  99.128  0.4530  3.9445  3.6840  3.7442  2.6640  104.21  0.4386 
