~Version Information
VERS.                     2.0: CWLS log ASCII Standard Version 2.00
WRAP.                      NO: One line per depth step
~Well Information Block
#MNEM.UNIT                               Data Type  Information
#---------                               ---------  -----------
STRT.FT                                    26.0000:
STOP.FT                                  3500.0000:
STEP.FT                                     0.5000:
NULL.                 -999.25                     :
COMP.                                             :COMPANY            
WELL.     SANTIAGO A 72-30                        :WELL               
FLD .                                             :FIELD              
CTRY.                                             :COUNTRY            
STAT.                                             :STATE              
LOC .                                             :LOCATION           
UWI .                                             :UNIQUE WELL ID     
SRVC.                                             :Service company    
DATE.                                             :LOG DATE           
~Curve Information
#MNEM.UNIT           API CODE  Curve Description
#---------           --------  -----------------
DEPT.FT                      :   1 DEPTH
SP  .MV                      :   2
ILD .OHMM                    :   3
ILM .OHMM                    :   4
SFLU.OHMM                    :   5
CALI.IN                      :   6
GR  .GAPI                    :   7
NPHI.DECI                    :   8
DPHI.DECI                    :   9
DRHO.G/C3                    :  10
RHOB.G/C3                    :  11
SBL .MV                      :  12
RS  .OHMM                    :  13
RM  .OHMM                    :  14
RD  .OHMM                    :  15
ROBS.G/C3                    :  16
CALS.IN                      :  17
DRHS.G/C3                    :  18
GRS .GAPI                    :  19
NPHS.DECI                    :  20
SFLU.OHMM                    :  21
ILMC.OHMM                    :  22
ILDC.OHMM                    :  23
ROBC.G/C3                    :  24
GRC .GAPI                    :  25
NPHC.DECI                    :  26
~A
# ...
  1679.000 -58.751  4.9910  4.6570  4.5160  10.767  129.83  0.4920  0.5240  0.0000  2.6500 -14.503  4.5160  4.6570  4.9910  2.6595  10.634 -0.0058  125.83  0.5108  4.9697  4.7136  4.9875  2.6712  135.00  0.5036 
  1679.500 -59.061  5.1810  4.8200  4.7310  10.693  120.33  0.4760  0.5340 -0.0030  2.6550 -14.817  4.7310  4.8200  5.1810  2.6584  10.520 -0.0051  115.90  0.4880  5.1914  4.8775  5.1770  2.6693  123.90  0.4781 
  1680.000 -59.372  5.3870  4.9880  4.8930  10.629  109.87  0.4610  0.5390 -0.0060  2.6599 -15.132  4.8930  4.9880  5.3870  2.6613  10.406 -0.0068  109.44  0.4723  5.3536  5.0463  5.3823  2.6715  116.57  0.4604 
  1680.500 -60.174  5.6020  5.4440  4.7210  10.511  108.86  0.4480  0.5390 -0.0050  2.6583 -15.938  4.7210  5.4440  5.6020  2.6706  10.325 -0.0125  108.63  0.4578  5.1562  5.5106  5.5967  2.6803  115.40  0.4441 
  1681.000 -60.401  6.1240  5.7040  4.2270  10.397  108.32  0.4420  0.5340 -0.0070  2.6616 -16.169  4.2270  5.7040  6.1240  2.6654  10.291 -0.0093  105.64  0.4465  4.6157  5.7759  6.1175  2.6748  112.11  0.4315 
  1681.500 -59.975  6.2750  5.8220  3.8830  10.319  102.07  0.4390  0.5190 -0.0130  2.6715 -15.747  3.8830  5.8220  6.2750  2.6513  10.285 -0.0008  99.147  0.4413  4.2416  5.8967  6.2682  2.6607  105.19  0.4256 
  1682.000 -60.023  6.3620  5.9570  3.7950  10.288  95.268  0.4220  0.4940 -0.0090  2.6648 -15.799  3.7950  5.9570  6.3620  2.6425  10.285  0.0045  94.488  0.4349  4.1460  6.0352  6.3550  2.6519  100.25  0.4185 
  1682.500 -60.292  6.3780  5.9420  3.9760  10.285  93.460  0.4030  0.4850  0.0000  2.6500 -16.072  3.9760  5.9420  6.3780  2.6388  10.290  0.0068  94.737  0.4175  4.3430  6.0200  6.3709  2.6482  100.53  0.3990 
  1683.000 -60.463  6.3720  5.7650  4.1130  10.285  96.409  0.4010  0.4860  0.0050  2.6418 -16.247  4.1130  5.7650  6.3720  2.6489  10.323  0.0007  100.14  0.4025  4.4953  5.8397  6.3651  2.6585  106.38  0.3822 
  1683.500 -60.494  6.3660  5.4820  4.0930  10.290  104.99  0.4130  0.5050  0.0070  2.6385 -16.282  4.0930  5.4820  6.3660  2.6545  10.456 -0.0027  107.07  0.4038  4.4872  5.5542  6.3597  2.6650  114.23  0.3837 
  1684.000 -60.304  6.3620  5.2420  4.0140  10.327  109.76  0.4370  0.5430  0.0000  2.6500 -16.096  4.0140  5.2420  6.3620  2.6609  10.567 -0.0066  110.98  0.4186  4.4121  5.3116  6.3561  2.6721  118.82  0.4003 
  1684.500 -59.957  6.3190  5.0780  3.9370  10.470  112.55  0.4710  0.5560 -0.0030  2.6550 -15.753  3.9370  5.0780  6.3190  2.6674  10.610 -0.0106  113.32  0.4448  4.3320  5.1446  6.3134  2.6790  121.49  0.4298 
  1685.000 -59.511  6.1540  5.0440  3.9410  10.578  114.31  0.4810  0.5680 -0.0070  2.6616 -15.311  3.9410  5.0440  6.1540  2.6726  10.611 -0.0137  115.37  0.4733  4.3365  5.1098  6.1487  2.6841  123.69  0.4616 
  1685.500 -59.185  5.7890  4.8940  3.9440  10.614  116.70  0.4840  0.5660 -0.0110  2.6682 -14.989  3.9440  4.8940  5.7890  2.6673  10.584 -0.0104  118.96  0.4817  4.3370  4.9551  5.7842  2.6786  127.43  0.4710 
  1686.000 -58.618  5.2890  4.6050  3.9860  10.611  121.79  0.4940  0.5550 -0.0140  2.6731 -14.426  3.9860  4.6050  5.2890  2.6592  10.553 -0.0056  123.77  0.4863  4.3800  4.6583  5.2849  2.6704  132.45  0.4761 
  1686.500 -58.409  4.8160  4.4510  3.9820  10.580  126.25  0.5040  0.5470 -0.0100  2.6665 -14.221  3.9820  4.4510  4.8160  2.6568  10.599 -0.0041  127.57  0.4962  4.3802  4.5018  4.8127  2.6683  136.71  0.4873 
  1687.000 -58.004  4.6840  4.2870  3.7800  10.549  129.20  0.5100  0.5410 -0.0050  2.6583 -13.820  3.7800  4.2870  4.6840  2.6595  10.676 -0.0058  130.23  0.5053  4.1659  4.3358  4.6811  2.6715  139.91  0.4976 
  1687.500 -57.240  4.5550  4.0930  3.5040  10.606  131.51  0.5140  0.5290 -0.0040  2.6566 -13.060  3.5040  4.0930  4.5550  2.6541  10.745 -0.0025  132.41  0.5109  3.8683  4.1388  4.5524  2.6666  142.55  0.5038 
  1688.000 -56.672  4.3740  3.9930  3.2670  10.686  133.51  0.5240  0.5160 -0.0060  2.6599 -12.496  3.2670  3.9930  4.3740  2.6504  10.720 -0.0003  134.05  0.5162  3.6053  4.0361  4.3715  2.6627  144.21  0.5098 
  1688.500 -56.506  4.3380  3.9740  3.2220  10.754  134.71  0.5440  0.4950 -0.0020  2.6533 -12.334  3.2220  3.9740  4.3380  2.6443  10.685  0.0035  133.43  0.5283  3.5531  4.0161  4.3355  2.6563  143.38  0.5234 
  1689.000 -56.295  4.3340  4.0220  3.3080  10.715  131.88  0.5390  0.4800  0.0000  2.6500 -12.127  3.3080  4.0220  4.3340  2.6334  10.726  0.0100  130.47  0.5429  3.6508  4.0659  4.3316  2.6457  140.39  0.5397 
  1689.500 -56.270  4.3250  4.0330  3.3950  10.680  128.80  0.5190  0.4640  0.0040  2.6434 -12.106  3.3950  4.0330  4.3250  2.6233  10.829  0.0162  127.54  0.5347  3.7548  4.0791  4.3228  2.6363  137.66  0.5306 
  1690.000 -56.244  4.3160  3.8640  3.6450  10.733  126.04  0.4680  0.4560  0.0110  2.6319 -12.084  3.6450  3.8640  4.3160  2.6191  10.967  0.0187  125.93  0.5082  4.0430  3.9087  4.3140  2.6330  136.51  0.5010 
  1690.500 -56.707  4.3290  3.7750  3.7280  10.844  125.81  0.4600  0.4510  0.0170  2.6220 -12.551  3.7280  3.7750  4.3290  2.6356  11.024  0.0087  127.27  0.4663  4.1402  3.8186  4.3271  2.6498  138.20  0.4541 
  1691.000 -57.233  4.3560  3.6710  3.5980  10.987  128.98  0.4660  0.4530  0.0190  2.6187 -13.081  3.5980  3.6710  4.3560  2.6525  10.983 -0.0015  130.01  0.4613  3.9923  3.7116  4.3540  2.6665  141.00  0.4484 
  1691.500 -57.481  4.3830  3.7610  3.3970  11.030  131.21  0.4760  0.4630  0.0070  2.6385 -13.333  3.3970  3.7610  4.3830  2.6619  10.864 -0.0072  131.87  0.4681  3.7598  3.8016  4.3808  2.6751  142.49  0.4559 
  1692.000 -57.233  4.3970  3.9270  3.4940  10.975  132.64  0.5000  0.4730 -0.0030  2.6550 -13.089  3.4940  3.9270  4.3970  2.6646  10.784 -0.0088  133.01  0.4809  3.8604  3.9699  4.3946  2.6773  143.37  0.4703 
  1692.500 -56.986  4.4000  3.9580  3.6260  10.844  133.43  0.4990  0.4730 -0.0080  2.6632 -12.846  3.6260  3.9580  4.4000  2.6579  10.750 -0.0048  132.10  0.4998  4.0031  4.0009  4.3975  2.6704  142.24  0.4914 
  1693.000 -56.997  4.4030  3.9610  3.7650  10.773  130.59  0.4830  0.4720 -0.0090  2.6648 -12.861  3.7650  3.9610  4.4030  2.6552  10.733 -0.0032  129.32  0.4958  4.1546  4.0037  4.4005  2.6676  139.17  0.4869 
  1693.500 -57.838  4.4110  3.9650  3.5800  10.746  127.89  0.4780  0.4710 -0.0040  2.6566 -13.706  3.5800  3.9650  4.4110  2.6536  10.721 -0.0022  126.81  0.4820  3.9499  4.0075  4.4085  2.6658  136.42  0.4715 
  1694.000 -58.170  4.4180  4.0050  3.3920  10.730  125.60  0.4810  0.4800 -0.0030  2.6550 -14.042  3.3920  4.0050  4.4180  2.6533  10.686 -0.0020  126.83  0.4786  3.7401  4.0477  4.4154  2.6653  136.30  0.4676 
  1694.500 -58.793  4.4400  4.0540  3.4400  10.719  128.22  0.5030  0.4900 -0.0020  2.6533 -14.669  3.4400  4.0540  4.4400  2.6533  10.558 -0.0020  129.12  0.4853  3.7825  4.0953  4.4371  2.6645  138.20  0.4751 
  1695.000 -59.220  4.4530  4.0870  3.5510  10.679  130.12  0.5090  0.4960 -0.0020  2.6533 -15.100  3.5510  4.0870  4.4530  2.6492  10.398  0.0005  129.82  0.5042  3.8906  4.1259  4.4498  2.6593  138.25  0.4961 
  1695.500 -59.530  4.4270  4.1280  3.6400  10.533  129.49  0.4870  0.5030 -0.0020  2.6533 -15.414  3.6400  4.1280  4.4270  2.6456  10.308  0.0026  128.74  0.5048  3.9797  4.1659  4.4236  2.6552  136.69  0.4967 
  1696.000 -59.979  4.4020  4.1600  3.6100  10.370  127.91  0.4670  0.5100  0.0010  2.6484 -15.867  3.6100  4.1600  4.4020  2.6464  10.273  0.0022  126.39  0.4832  3.9440  4.1977  4.3986  2.6557  134.05  0.4725 
  1696.500 -60.031  4.3280  4.1930  3.6520  10.295  124.75  0.4490  0.5130  0.0030  2.6451 -15.923  3.6520  4.1930  4.3280  2.6467  10.265  0.0020  123.87  0.4636  3.9889  4.2312  4.3247  2.6559  131.34  0.4506 
  1697.000 -60.084  4.2960  4.2680  3.8400  10.268  122.93  0.4420  0.5120  0.0020  2.6467 -15.980  3.8400  4.2680  4.2960  2.6494  10.274  0.0004  122.47  0.4477  4.1938  4.3078  4.2928  2.6587  129.89  0.4328 
  1697.500 -59.974  4.2630  4.2490  4.0750  10.264  121.98  0.4330  0.5120  0.0020  2.6467 -15.874  4.0750  4.2490  4.2630  2.6527  10.363 -0.0016  122.63  0.4403  4.4580  4.2903  4.2600  2.6626  130.44  0.4246 
