~Version Information
VERS.                     2.0: CWLS log ASCII Standard Version 2.00
WRAP.                      NO: One line per depth step
~Well Information Block
#MNEM.UNIT                               Data Type  Information
#---------                               ---------  -----------
STRT.FT                                    26.0000:
STOP.FT                                  3500.0000:
STEP.FT                                     0.5000:
NULL.                 -999.25                     :
COMP.                                             :COMPANY            
WELL.     SANTIAGO A 72-30                        :WELL               
FLD .                                             :FIELD              
CTRY.                                             :COUNTRY            
STAT.                                             :STATE              
LOC .                                             :LOCATION           
UWI .                                             :UNIQUE WELL ID     
SRVC.                                             :Service company    
DATE.                                             :LOG DATE           
~Curve Information
#MNEM.UNIT           API CODE  Curve Description
#---------           --------  -----------------
DEPT.FT                      :   1 DEPTH
SP  .MV                      :   2
ILD .OHMM                    :   3
ILM .OHMM                    :   4
SFLU.OHMM                    :   5
CALI.IN                      :   6
GR  .GAPI                    :   7
NPHI.DECI                    :   8
DPHI.DECI                    :   9
DRHO.G/C3                    :  10
RHOB.G/C3                    :  11
SBL .MV                      :  12
RS  .OHMM                    :  13
RM  .OHMM                    :  14
RD  .OHMM                    :  15
ROBS.G/C3                    :  16
CALS.IN                      :  17
DRHS.G/C3                    :  18
GRS .GAPI                    :  19
NPHS.DECI                    :  20
SFLU.OHMM                    :  21
ILMC.OHMM                    :  22
ILDC.OHMM                    :  23
ROBC.G/C3                    :  24
GRC .GAPI                    :  25
NPHC.DECI                    :  26
~A
# ...
  3256.000 -55.126  2.1230  1.9360  1.6330  10.290  104.91  0.4940  0.5230  0.0010  2.6484 -11.126  1.6330  1.9360  2.1230  2.6451  10.095  0.0030  104.98  0.5038  1.7905  1.9434  2.1221  2.6531  110.69  0.4955 
  3256.500 -54.989  2.1250  1.9390  1.6480  10.095  111.07  0.4910  0.5200  0.0030  2.6451 -10.989  1.6480  1.9390  2.1250  2.6418  9.9390  0.0050  104.22  0.4980  1.8028  1.9457  2.1241  2.6487  109.32  0.4889 
  3257.000 -54.676  2.1240  1.9530  1.7120  9.9390  113.97  0.4900  0.5220  0.0050  2.6418 -10.676  1.7120  1.9530  2.1240  2.6434  9.9580  0.0040  106.03  0.4927  1.8724  1.9599  2.1231  2.6505  111.29  0.4830 
  3257.500 -54.322  2.1270  1.9600  1.7790  9.9580  115.54  0.4870  0.5290  0.0040  2.6434 -10.322  1.7790  1.9600  2.1270  2.6451  10.004  0.0030  111.59  0.4906  1.9460  1.9671  2.1261  2.6525  117.30  0.4806 
  3258.000 -54.154  2.1310  1.9660  1.9310  10.004  115.28  0.4770  0.5360  0.0030  2.6451 -10.154  1.9310  1.9660  2.1310  2.6484  10.062  0.0010  114.25  0.4888  2.1121  1.9734  2.1301  2.6562  120.33  0.4786 
  3258.500 -53.986  2.1330  1.9730  1.9660  10.062  110.81  0.4720  0.5380  0.0010  2.6484 -9.9860  1.9660  1.9730  2.1330  2.6550  10.148 -0.0030  115.49  0.4829  2.1529  1.9809  2.1321  2.6634  121.99  0.4721 
  3259.000 -53.633  2.1340  1.9730  1.9270  10.148  107.30  0.4730  0.5400 -0.0030  2.6550 -9.6330  1.9270  1.9730  2.1340  2.6599  10.448 -0.0060  114.52  0.4750  2.1206  1.9822  2.1333  2.6704  122.14  0.4634 
  3259.500 -53.475  2.1340  1.9720  1.8420  10.448  106.64  0.4770  0.5320 -0.0060  2.6599 -9.4750  1.8420  1.9720  2.1340  2.6550  11.489 -0.0030  110.23  0.4724  2.0596  1.9860  2.1338  2.6720  121.35  0.4611 
  3260.000 -53.318  2.1340  1.9720  1.7610  11.489  113.12  0.4590  0.5230 -0.0030  2.6550 -9.3180  1.7610  1.9720  2.1340  2.6451  11.799  0.0030  107.19  0.4746  1.9773  1.9874  2.1339  2.6640  119.06  0.4638 
  3260.500 -53.072  2.1430  1.9720  1.7320  11.799  115.43  0.4500  0.5080  0.0030  2.6451 -9.0720  1.7320  1.9720  2.1430  2.6335  11.776  0.0100  107.67  0.4700  1.9438  1.9873  2.1429  2.6523  119.51  0.4586 
  3261.000 -52.826  2.1520  1.9730  1.7590  11.776  109.57  0.4470  0.4940  0.0100  2.6335 -8.8260  1.7590  1.9730  2.1520  2.6319  11.213  0.0110  113.48  0.4555  1.9585  1.9857  2.1516  2.6472  123.92  0.4421 
  3261.500 -52.931  2.1630  1.9750  1.7860  11.213  109.26  0.4650  0.4840  0.0110  2.6319 -8.9310  1.7860  1.9750  2.1630  2.6352  10.651  0.0090  114.53  0.4489  1.9723  1.9852  2.1624  2.6470  122.95  0.4343 
  3262.000 -53.011  2.1750  1.9810  1.8350  10.651  110.14  0.4770  0.4800  0.0090  2.6352 -9.0110  1.8350  1.9810  2.1750  2.6401  10.548  0.0060  109.52  0.4538  2.0231  1.9908  2.1743  2.6512  117.18  0.4397 
  3262.500 -53.053  2.1870  1.9920  1.8610  10.548  106.90  0.4540  0.4820  0.0060  2.6401 -9.0530  1.8610  1.9920  2.1870  2.6352  10.370  0.0090  109.39  0.4695  2.0460  2.0011  2.1862  2.6451  116.38  0.4572 
  3263.000 -53.134  2.2220  2.0060  1.8640  10.370  100.25  0.4270  0.4900  0.0090  2.6352 -9.1340  1.8640  2.0060  2.2220  2.6253  10.168  0.0150  109.68  0.4686  2.0429  2.0142  2.2211  2.6338  115.92  0.4561 
  3263.500 -53.235  2.2580  2.0210  1.8270  10.168  94.942  0.4180  0.4930  0.0150  2.6253 -9.2350  1.8270  2.0210  2.2580  2.6203  9.9790  0.0180  105.97  0.4442  1.9971  2.0285  2.2570  2.6275  111.31  0.4287 
  3264.000 -54.130  2.3290  2.1140  1.7940  9.9790  92.810  0.4120  0.4900  0.0180  2.6203 -10.130  1.7940  2.1140  2.3290  2.6170  9.8800  0.0200  99.528  0.4238  1.9585  2.1217  2.3278  2.6235  104.19  0.4058 
  3264.500 -55.184  2.4330  2.1850  1.8100  9.8800  95.275  0.4170  0.4730  0.0200  2.6170 -11.184  1.8100  2.1850  2.4330  2.6319  9.9750  0.0110  94.661  0.4159  1.9786  2.1937  2.4318  2.6391  99.414  0.3970 
  3265.000 -56.159  2.5980  2.2780  2.0370  9.9750  103.69  0.4190  0.4550  0.0110  2.6319 -12.159  2.0370  2.2780  2.5980  2.6269  10.372  0.0140  93.127  0.4137  2.2381  2.2899  2.5969  2.6369  99.084  0.3948 
  3265.500 -56.557  2.6990  2.3750  2.3450  10.372  105.04  0.4100  0.4250  0.0140  2.6269 -12.557  2.3450  2.3750  2.6990  2.5840  10.511  0.0400  96.327  0.4177  2.5804  2.3888  2.6979  2.5949  102.95  0.3993 
  3266.000 -55.450  2.7860  2.5110  2.6300  10.511  104.89  0.4010  0.3970  0.0400  2.5840 -11.450  2.6300  2.5110  2.7860  2.5741  10.401  0.0460  103.85  0.4160  2.8864  2.5256  2.7847  2.5842  110.60  0.3973 
  3266.500 -54.974  2.8760  2.6540  2.8970  10.401  100.78  0.4010  0.3970  0.0460  2.5741 -10.974  2.8970  2.6540  2.8760  2.5741  10.072  0.0460  105.02  0.4070  3.1568  2.6677  2.8744  2.5820  110.65  0.3871 
  3267.000 -54.441  3.0020  2.8700  3.1330  10.072  96.663  0.4130  0.4090  0.0460  2.5741 -10.441  3.1330  2.8700  3.0020  2.6038  9.9260  0.0280  104.42  0.4010  3.4013  2.8846  3.0001  2.6107  109.48  0.3803 
  3267.500 -54.046  3.1330  3.0140  3.2080  9.9260  96.908  0.4440  0.4710  0.0280  2.6038 -10.046  3.2080  3.0140  3.1330  2.6352  10.489  0.0090  100.32  0.4049  3.5233  3.0361  3.1315  2.6459  107.14  0.3850 
  3268.000 -53.632  3.2840  3.0690  2.9010  10.489  98.263  0.4530  0.5060  0.0090  2.6352 -9.6320  2.9010  3.0690  3.2840  2.6500  10.561  0.0000  96.689  0.4229  3.1922  3.0927  3.2824  2.6612  103.50  0.4051 
  3268.500 -53.356  3.3500  3.1080  2.6660  10.561  98.272  0.4490  0.4990  0.0000  2.6500 -9.3560  2.6660  3.1080  3.3500  2.6385  10.193  0.0070  97.050  0.4468  2.9140  3.1281  3.3479  2.6472  102.66  0.4318 
  3269.000 -53.121  3.4050  3.1760  2.4960  10.193  95.109  0.4180  0.4820  0.0070  2.6385 -9.1210  2.4960  3.1760  3.4050  2.6319  9.9710  0.0110  98.264  0.4518  2.7184  3.1944  3.4026  2.6390  103.18  0.4372 
  3269.500 -53.262  3.4610  3.2760  2.4330  9.9710  91.867  0.4070  0.4760  0.0110  2.6319 -9.2620  2.4330  3.2760  3.4610  2.6302  9.9670  0.0120  97.963  0.4396  2.6502  3.2955  3.4585  2.6374  102.85  0.4235 
  3270.000 -53.560  3.4980  3.3300  3.0890  9.9670  88.545  0.4020  0.4740  0.0120  2.6302 -9.5600  3.0890  3.3300  3.4980  2.6335  10.019  0.0100  94.803  0.4147  3.3605  3.3508  3.4955  2.6410  99.709  0.3957 
  3270.500 -53.859  3.5170  3.4090  3.4780  10.019  89.817  0.4080  0.4830  0.0100  2.6335 -9.8590  3.4780  3.4090  3.5170  2.6401  10.051  0.0060  91.565  0.4055  3.7824  3.4313  3.5146  2.6478  96.406  0.3855 
  3271.000 -54.050  3.5350  3.4080  3.6070  10.051  90.773  0.4370  0.4970  0.0060  2.6401 -10.050  3.6070  3.4080  3.5350  2.6418  10.079  0.0050  88.656  0.4037  3.9240  3.4307  3.5326  2.6497  93.430  0.3835 
  3271.500 -54.241  3.5220  3.3580  3.5540  10.079  91.649  0.4910  0.5070  0.0050  2.6418 -10.241  3.5540  3.3580  3.5220  2.6385  10.067  0.0070  89.897  0.4163  3.8657  3.3798  3.5196  2.6463  94.701  0.3975 
  3272.000 -54.918  3.5080  3.2310  3.4010  10.067  90.622  0.5130  0.5170  0.0070  2.6385 -10.918  3.4010  3.2310  3.5080  2.6352  10.024  0.0090  90.844  0.4521  3.6972  3.2507  3.5055  2.6427  95.561  0.4376 
  3272.500 -55.445  3.4820  3.1320  3.0470  10.024  89.913  0.5110  0.5170  0.0090  2.6352 -11.445  3.0470  3.1320  3.4820  2.6401  9.9960  0.0060  91.570  0.4971  3.3136  3.1502  3.4795  2.6475  96.235  0.4879 
  3273.000 -55.972  3.4570  3.0520  2.7050  9.9960  94.276  0.5040  0.5100  0.0060  2.6401 -11.972  2.7050  3.0520  3.4570  2.6517  9.9890 -0.0010  90.570  0.5125  2.9446  3.0692  3.4546  2.6590  95.162  0.5051 
  3273.500 -56.314  3.3930  2.9960  2.6510  9.9890  98.402  0.4850  0.4730 -0.0010  2.6517 -12.314  2.6510  2.9960  3.3930  2.6599  10.314 -0.0060  90.221  0.5091  2.9045  3.0160  3.3910  2.6695  95.813  0.5016 
  3274.000 -56.475  3.3550  3.0120  2.7700  10.314  99.992  0.4550  0.4560 -0.0060  2.6599 -12.475  2.7700  3.0120  3.3550  2.6352  10.481  0.0090  94.553  0.4991  3.0439  3.0339  3.3533  2.6458  100.95  0.4904 
  3274.500 -56.278  3.3180  3.0060  2.8930  10.481  101.18  0.4320  0.4020  0.0090  2.6352 -12.278  2.8930  3.0060  3.3180  2.6088  10.386  0.0250  98.503  0.4773  3.1724  3.0268  3.3162  2.6188  104.85  0.4660 
