~Version Information
VERS.                     2.0: CWLS log ASCII Standard Version 2.00
WRAP.                      NO: One line per depth step
~Well Information Block
#MNEM.UNIT                               Data Type  Information
#---------                               ---------  -----------
STRT.FT                                    26.0000:
STOP.FT                                  3500.0000:
STEP.FT                                     0.5000:
NULL.                 -999.25                     :
COMP.                                             :COMPANY            
WELL.     SANTIAGO A 72-30                        :WELL               
FLD .                                             :FIELD              
CTRY.                                             :COUNTRY            
STAT.                                             :STATE              
LOC .                                             :LOCATION           
UWI .                                             :UNIQUE WELL ID     
SRVC.                                             :Service company    
DATE.                                             :LOG DATE           
~Curve Information
#MNEM.UNIT           API CODE  Curve Description
#---------           --------  -----------------
DEPT.FT                      :   1 DEPTH
SP  .MV                      :   2
ILD .OHMM                    :   3
ILM .OHMM                    :   4
SFLU.OHMM                    :   5
CALI.IN                      :   6
GR  .GAPI                    :   7
NPHI.DECI                    :   8
DPHI.DECI                    :   9
DRHO.G/C3                    :  10
RHOB.G/C3                    :  11
SBL .MV                      :  12
RS  .OHMM                    :  13
RM  .OHMM                    :  14
RD  .OHMM                    :  15
ROBS.G/C3                    :  16
CALS.IN                      :  17
DRHS.G/C3                    :  18
GRS .GAPI                    :  19
NPHS.DECI                    :  20
SFLU.OHMM                    :  21
ILMC.OHMM                    :  22
ILDC.OHMM                    :  23
ROBC.G/C3                    :  24
GRC .GAPI                    :  25
NPHC.DECI                    :  26
~A
# ...
  2116.000 -57.360  6.0400  6.1960  5.4130  10.048  125.28  0.3980  0.4760  0.0000  2.6500 -15.080  5.4130  6.1960  6.0400  2.6492  10.045  0.0005  124.86  0.4081  5.8661  6.2697  6.0328  2.6569  131.44  0.3883 
  2116.500 -56.967  6.0600  6.3430  5.7900  10.041  124.42  0.3920  0.4740  0.0010  2.6484 -14.686  5.7900  6.3430  6.0600  2.6491  10.092  0.0005  124.35  0.3960  6.2793  6.4225  6.0529  2.6572  131.11  0.3748 
  2117.000 -55.820  5.9380  6.1930  6.3420  10.149  124.28  0.3910  0.4830  0.0000  2.6500 -13.538  6.3420  6.1930  5.9380  2.6508  10.293 -0.0005  125.22  0.3917  6.9106  6.2779  5.9319  2.6602  132.89  0.3701 
  2117.500 -55.129  5.8500  6.0240  6.5760  10.455  126.20  0.4210  0.4910 -0.0010  2.6517 -12.846  6.5760  6.0240  5.8500  2.6517  10.487 -0.0010  128.48  0.4007  7.2014  6.1127  5.8448  2.6624  137.20  0.3803 
  2118.000 -54.776  5.7120  5.7850  6.2240  10.523  130.89  0.4470  0.4940 -0.0010  2.6517 -12.493  6.2240  5.7850  5.7120  2.6501  10.422 -0.0001  132.86  0.4294  6.8056  5.8641  5.7068  2.6604  141.59  0.4124 
  2118.500 -54.759  5.5560  5.5760  5.5050  10.310  134.95  0.4520  0.4930  0.0010  2.6484 -12.475  5.5050  5.5760  5.5560  2.6460  10.211  0.0024  136.38  0.4486  5.9904  5.6417  5.5504  2.6548  144.35  0.4338 
  2119.000 -54.980  5.4840  5.4340  4.8520  10.101  137.90  0.4490  0.4950  0.0040  2.6434 -12.695  4.8520  5.4340  5.4840  2.6466  10.033  0.0021  138.79  0.4510  5.2608  5.4902  5.4780  2.6542  146.04  0.4364 
  2119.500 -55.141  5.3340  5.2760  4.4760  9.9590  139.74  0.4530  0.4980  0.0000  2.6500 -12.855  4.4760  5.2760  5.3340  2.6516  9.9576 -0.0010  139.63  0.4503  4.8473  5.3265  5.3281  2.6587  146.56  0.4355 
  2120.000 -55.302  5.2460  5.1890  4.9030  9.9560  139.52  0.4620  0.4990 -0.0020  2.6533 -13.015  4.9030  5.1890  5.2460  2.6549  9.9584 -0.0030  138.73  0.4559  5.3059  5.2379  5.2403  2.6620  145.62  0.4417 
  2120.500 -55.842  5.1220  5.1220  5.1690  9.9610  137.88  0.4470  0.4950 -0.0040  2.6566 -13.554  5.1690  5.1220  5.1220  2.6479  9.9658  0.0013  136.42  0.4573  5.5925  5.1699  5.1166  2.6550  143.22  0.4433 
  2121.000 -56.171  5.0090  5.0370  5.3500  9.9710  134.83  0.4330  0.4900  0.0070  2.6385 -13.882  5.3500  5.0370  5.0090  2.6361  9.9792  0.0084  133.74  0.4426  5.7887  5.0837  5.0039  2.6433  140.47  0.4269 
  2121.500 -56.501  4.8810  4.9710  5.2710  9.9880  132.56  0.4260  0.4870  0.0100  2.6335 -14.211  5.2710  4.9710  4.8810  2.6327  9.9967  0.0105  131.59  0.4308  5.7064  5.0170  4.8762  2.6401  138.29  0.4137 
  2122.000 -57.655  4.7480  4.8090  4.8890  10.006  130.53  0.4060  0.4910  0.0110  2.6319 -15.364  4.8890  4.8090  4.7480  2.6367  9.9895  0.0081  129.48  0.4198  5.2949  4.8518  4.7434  2.6440  136.05  0.4014 
  2122.500 -58.153  4.6870  4.6950  4.6780  9.9720  128.34  0.4020  0.5030  0.0050  2.6418 -15.862  4.6780  4.6950  4.6870  2.6450  9.9705  0.0030  126.43  0.4048  5.0658  4.7353  4.6825  2.6522  132.76  0.3846 
  2123.000 -58.453  4.6090  4.6220  4.3160  9.9690  124.33  0.4110  0.5140  0.0010  2.6484 -16.161  4.3160  4.6220  4.6090  2.6532  9.9969 -0.0019  122.08  0.4048  4.6798  4.6617  4.6047  2.6606  128.31  0.3846 
  2123.500 -58.377  4.5620  4.5500  4.2210  10.026  119.60  0.4450  0.5200 -0.0050  2.6583 -16.084  4.2210  4.5500  4.5620  2.6631  10.060 -0.0079  116.65  0.4214  4.5844  4.5900  4.5579  2.6709  122.85  0.4033 
  2124.000 -58.400  4.5150  4.4950  4.1360  10.095  113.37  0.4550  0.5220 -0.0110  2.6682 -16.106  4.1360  4.4950  4.5150  2.6714  10.131 -0.0130  110.61  0.4481  4.5002  4.5357  4.5111  2.6797  116.77  0.4331 
  2124.500 -59.097  4.4900  4.4410  4.0530  10.168  107.54  0.4370  0.5190 -0.0150  2.6748 -16.802  4.0530  4.4410  4.4900  2.6764  10.190 -0.0160  106.47  0.4495  4.4165  4.4821  4.4863  2.6851  112.61  0.4348 
  2125.000 -59.535  4.4640  4.4390  3.9570  10.213  105.27  0.4240  0.5140 -0.0170  2.6781 -17.239  3.9570  4.4390  4.4640  2.6740  10.220 -0.0145  105.77  0.4331  4.3155  4.4808  4.4604  2.6829  111.99  0.4164 
  2125.500 -60.173  4.4340  4.4380  4.0430  10.227  106.33  0.4140  0.5100 -0.0120  2.6698 -17.876  4.0430  4.4380  4.4340  2.6649  10.214 -0.0090  106.87  0.4210  4.4081  4.4796  4.4304  2.6738  113.13  0.4028 
  2126.000 -60.434  4.4050  4.4210  4.5350  10.201  107.48  0.4120  0.5100 -0.0060  2.6599 -18.136  4.5350  4.4210  4.4050  2.6583  10.192 -0.0050  107.42  0.4134  4.9383  4.4618  4.4014  2.6670  113.62  0.3943 
  2126.500 -60.357  4.3920  4.4120  4.8510  10.182  107.35  0.4150  0.5150 -0.0040  2.6566 -18.058  4.8510  4.4120  4.3920  2.6558  10.179 -0.0035  105.62  0.4129  5.2786  4.4523  4.3884  2.6644  111.67  0.3938 
  2127.000 -60.201  4.3790  4.3780  5.0030  10.176  103.65  0.4380  0.5160 -0.0030  2.6550 -17.901  5.0030  4.3780  4.3790  2.6566  10.173 -0.0040  103.48  0.4218  5.4421  4.4176  4.3754  2.6652  109.40  0.4038 
  2127.500 -59.868  4.3770  4.3850  4.7610  10.170  103.29  0.4420  0.5150 -0.0050  2.6583 -17.568  4.7610  4.3850  4.3770  2.6607  10.166 -0.0065  106.00  0.4392  5.1797  4.4245  4.3734  2.6693  112.03  0.4232 
  2128.000 -59.444  4.3920  4.4400  4.4080  10.163  109.11  0.4180  0.5150 -0.0080  2.6632 -17.143  4.4080  4.4400  4.3920  2.6649  10.166 -0.0090  111.45  0.4349  4.7980  4.4805  4.3884  2.6734  117.79  0.4184 
  2128.500 -59.020  4.3750  4.4800  4.3120  10.169  114.14  0.4120  0.5140 -0.0100  2.6665 -16.718  4.3120  4.4800  4.3750  2.6632  10.180 -0.0080  114.15  0.4162  4.6957  4.5216  4.3715  2.6718  120.70  0.3975 
  2129.000 -58.755  4.3150  4.5370  4.4140  10.190  114.17  0.4070  0.5020 -0.0060  2.6599 -16.452  4.4140  4.5370  4.3150  2.6574  10.199 -0.0045  111.54  0.4105  4.8083  4.5801  4.3116  2.6662  118.01  0.3911 
  2129.500 -58.491  4.2550  4.5770  4.5690  10.208  108.49  0.4090  0.4960 -0.0030  2.6550 -16.187  4.5690  4.5770  4.2550  2.6541  10.160 -0.0025  104.95  0.4076  4.9714  4.6200  4.2516  2.6626  110.90  0.3878 
  2130.000 -58.563  4.0710  4.5680  4.7030  10.114  100.83  0.4140  0.4930 -0.0020  2.6533 -16.258  4.7030  4.5680  4.0710  2.6541  10.048 -0.0025  99.670  0.4104  5.1023  4.6080  4.0677  2.6619  104.93  0.3909 
  2130.500 -58.636  4.0110  4.3860  4.8420  9.9840  98.312  0.4470  0.4940 -0.0030  2.6550 -16.330  4.8420  4.3860  4.0110  2.6583  10.017 -0.0050  98.429  0.4235  5.2479  4.4222  4.0078  2.6658  103.51  0.4055 
  2131.000 -58.937  4.0030  4.3060  4.8140  10.048  98.566  0.4680  0.5060 -0.0070  2.6616 -16.630  4.8140  4.3060  4.0030  2.6649  10.024 -0.0091  98.974  0.4530  5.2188  4.3410  3.9998  2.6725  104.11  0.4386 
  2131.500 -59.654  3.9800  4.2120  4.5220  10.002  99.454  0.4640  0.5230 -0.0110  2.6682 -17.346  4.5220  4.2120  3.9800  2.6682  9.9881 -0.0110  99.715  0.4669  4.9003  4.2448  3.9768  2.6755  104.77  0.4541 
  2132.000 -60.053  3.9710  4.1200  4.3990  9.9750  100.02  0.4550  0.5250 -0.0110  2.6682 -17.744  4.3990  4.1200  3.9710  2.6690  10.180 -0.0115  100.14  0.4615  4.7898  4.1552  3.9681  2.6776  105.88  0.4481 
  2132.500 -60.631  3.9630  4.0000  4.2480  10.372  100.28  0.4500  0.5220 -0.0120  2.6698 -18.322  4.2480  4.0000  3.9630  2.6732  10.964 -0.0141  99.272  0.4536  4.7114  4.0479  3.9614  2.6870  107.60  0.4398 
  2133.000 -60.951  3.9480  3.9690  4.4370  11.518  98.074  0.4510  0.5150 -0.0160  2.6764 -18.641  4.4370  3.9690  3.9480  2.6755  11.711 -0.0155  95.048  0.4503  5.0067  4.0301  3.9475  2.6939  105.31  0.4365 
  2133.500 -61.212  3.9400  3.9540  4.5550  11.891  91.432  0.4360  0.5060 -0.0150  2.6748 -18.901  4.5550  3.9540  3.9400  2.6713  11.939 -0.0129  94.069  0.4468  5.1676  4.0189  3.9399  2.6910  104.89  0.4327 
  2134.000 -61.175  3.9320  3.9500  4.6770  11.983  97.233  0.4260  0.5020 -0.0110  2.6682 -18.863  4.6770  3.9500  3.9320  2.6664  11.106 -0.0100  99.614  0.4332  5.2045  3.9993  3.9306  2.6812  108.43  0.4170 
  2134.500 -61.138  3.8800  3.9450  4.6840  10.300  102.48  0.4240  0.5000 -0.0090  2.6648 -18.825  4.6840  3.9450  3.8800  2.6648  10.329 -0.0090  103.57  0.4255  5.1165  3.9800  3.8774  2.6745  110.04  0.4079 
