~Version Information
VERS.                     2.0: CWLS log ASCII Standard Version 2.00
WRAP.                      NO: One line per depth step
~Well Information Block
#MNEM.UNIT                               Data Type  Information
#---------                               ---------  -----------
STRT.FT                                    26.0000:
STOP.FT                                  3500.0000:
STEP.FT                                     0.5000:
NULL.                 -999.25                     :
COMP.                                             :COMPANY            
WELL.     SANTIAGO A 72-30                        :WELL               
FLD .                                             :FIELD              
CTRY.                                             :COUNTRY            
STAT.                                             :STATE              
LOC .                                             :LOCATION           
UWI .                                             :UNIQUE WELL ID     
SRVC.                                             :Service company    
DATE.                                             :LOG DATE           
~Curve Information
#MNEM.UNIT           API CODE  Curve Description
#---------           --------  -----------------
DEPT.FT                      :   1 DEPTH
SP  .MV                      :   2
ILD .OHMM                    :   3
ILM .OHMM                    :   4
SFLU.OHMM                    :   5
CALI.IN                      :   6
GR  .GAPI                    :   7
NPHI.DECI                    :   8
DPHI.DECI                    :   9
DRHO.G/C3                    :  10
RHOB.G/C3                    :  11
SBL .MV                      :  12
RS  .OHMM                    :  13
RM  .OHMM                    :  14
RD  .OHMM                    :  15
ROBS.G/C3                    :  16
CALS.IN                      :  17
DRHS.G/C3                    :  18
GRS .GAPI                    :  19
NPHS.DECI                    :  20
SFLU.OHMM                    :  21
ILMC.OHMM                    :  22
ILDC.OHMM                    :  23
ROBC.G/C3                    :  24
GRC .GAPI                    :  25
NPHC.DECI                    :  26
~A
# ...
   520.000 -78.491  6.2789  5.7676  5.6246 -999.25  48.948  0.6560 -999.25 -999.25 -999.25 -1.8382  5.6246  5.7676  6.2789 -999.25 -999.25 -999.25  48.645  0.5708  5.6246  5.7676  6.2789 -999.25  48.645  0.5570 
   520.500 -78.291  6.2465  5.7250  5.1842 -999.25  49.159  0.6570 -999.25 -999.25 -999.25 -1.6560  5.1842  5.7250  6.2465 -999.25 -999.25 -999.25  49.114  0.6035  5.1842  5.7250  6.2465 -999.25  49.114  0.5928 
   521.000 -77.926  6.2423  5.7081  5.0517 -999.25  47.307  0.6330 -999.25 -999.25 -999.25 -1.3088  5.0517  5.7081  6.2423 -999.25 -999.25 -999.25  47.706  0.6360  5.0517  5.7081  6.2423 -999.25  47.706  0.6283 
   521.500 -77.827  6.2813  5.7543  5.0086 -999.25  45.375  0.6200 -999.25 -999.25 -999.25 -1.2276  5.0086  5.7543  6.2813 -999.25 -999.25 -999.25  45.792  0.6564  5.0086  5.7543  6.2813 -999.25  45.792  0.6507 
   522.000 -77.810  6.3542  5.8400  5.0032 -999.25  44.633  0.6150 -999.25 -999.25 -999.25 -1.2284  5.0032  5.8400  6.3542 -999.25 -999.25 -999.25  44.794  0.6475  5.0032  5.8400  6.3542 -999.25  44.794  0.6409 
   522.500 -78.113  6.4540  6.0661  5.1060 -999.25  44.526  0.6200 -999.25 -999.25 -999.25 -1.5492  5.1060  6.0661  6.4540 -999.25 -999.25 -999.25  44.549  0.6278  5.1060  6.0661  6.4540 -999.25  44.549  0.6194 
   523.000 -78.406  6.5839  6.4168  5.3217 -999.25  44.419  0.6130 -999.25 -999.25 -999.25 -1.8600  5.3217  6.4168  6.5839 -999.25 -999.25 -999.25  44.442  0.6180  5.3217  6.4168  6.5839 -999.25  44.442  0.6086 
   523.500 -79.100  6.7436  6.7421  5.6755 -999.25  43.836  0.5980 -999.25 -999.25 -999.25 -2.5718  5.6755  6.7421  6.7436 -999.25 -999.25 -999.25  43.964  0.6170  5.6755  6.7421  6.7436 -999.25  43.964  0.6075 
   524.000 -80.154  6.9279  7.0601  6.2062 -999.25  42.777  0.5820 -999.25 -999.25 -999.25 -3.6436  6.2062  7.0601  6.9279 -999.25 -999.25 -999.25  43.010  0.6172  6.2062  7.0601  6.9279 -999.25  43.010  0.6077 
   524.500 -81.005  7.1409  7.4555  7.1301 -999.25  40.924  0.5730 -999.25 -999.25 -999.25 -4.5124  7.1301  7.4555  7.1409 -999.25 -999.25 -999.25  41.332  0.6069  7.1301  7.4555  7.1409 -999.25  41.332  0.5965 
   525.000 -82.454  7.3840  7.9027  8.2189 -999.25  40.500  0.5550 -999.25 -999.25 -999.25 -5.9792  8.2189  7.9027  7.3840 -999.25 -999.25 -999.25  40.594  0.5915  8.2189  7.9027  7.3840 -999.25  40.594  0.5796 
   525.500 -83.704  7.6274  8.2687  9.0737 -999.25  40.869  0.5400 -999.25 -999.25 -999.25 -7.2470  9.0737  8.2687  7.6274 -999.25 -999.25 -999.25  40.787  0.5783  9.0737  8.2687  7.6274 -999.25  40.787  0.5652 
   526.000 -84.678  7.8798  8.5489  9.7607 -999.25  41.952  0.5290 -999.25 -999.25 -999.25 -8.2388  9.7607  8.5489  7.8798 -999.25 -999.25 -999.25  41.711  0.5656  9.7607  8.5489  7.8798 -999.25  41.711  0.5512 
   526.500 -85.093  8.0663  8.6958  10.162 -999.25  42.479  0.5320 -999.25 -999.25 -999.25 -8.6716  10.162  8.6958  8.0663 -999.25 -999.25 -999.25  42.361  0.5488  10.162  8.6958  8.0663 -999.25  42.361  0.5329 
   527.000 -85.507  8.1108  8.6639  10.268 -999.25  42.293  0.5510 -999.25 -999.25 -999.25 -9.1034  10.268  8.6639  8.1108 -999.25 -999.25 -999.25  42.335  0.5354  10.268  8.6639  8.1108 -999.25  42.335  0.5182 
   527.500 -85.569  7.9866  8.5434  10.239 -999.25  44.169  0.5930 -999.25 -999.25 -999.25 -9.1832  10.239  8.5434  7.9866 -999.25 -999.25 -999.25  43.747  0.5303  10.239  8.5434  7.9866 -999.25  43.747  0.5126 
   528.000 -83.654  7.8059  8.2456  8.9607 -999.25  45.093  0.5980 -999.25 -999.25 -999.25 -7.2860  8.9607  8.2456  7.8059 -999.25 -999.25 -999.25  44.885  0.5400  8.9607  8.2456  7.8059 -999.25  44.885  0.5232 
   528.500 -81.853  7.5191  7.6119  7.2782 -999.25  45.859  0.5930 -999.25 -999.25 -999.25 -5.5028  7.2782  7.6119  7.5191 -999.25 -999.25 -999.25  45.686  0.5687  7.2782  7.6119  7.5191 -999.25  45.686  0.5546 
   529.000 -79.862  7.1967  7.1178  6.0693 -999.25  46.783  0.6060 -999.25 -999.25 -999.25 -3.5297  6.0693  7.1178  7.1967 -999.25 -999.25 -999.25  46.573  0.5951  6.0693  7.1178  7.1967 -999.25  46.573  0.5836 
   529.500 -79.050  6.8524  6.8147  5.3922 -999.25  47.945  0.6410 -999.25 -999.25 -999.25 -2.7355  5.3922  6.8147  6.8524 -999.25 -999.25 -999.25  47.681  0.5959  5.3922  6.8147  6.8524 -999.25  47.681  0.5844 
   530.000 -78.595  6.5117  6.5836  5.1811 -999.25  48.869  0.6520 -999.25 -999.25 -999.25 -2.2983  5.1811  6.5836  6.5117 -999.25 -999.25 -999.25  48.658  0.5985  5.1811  6.5836  6.5117 -999.25  48.658  0.5873 
   530.500 -78.382  6.2254  6.3623  5.1917 -999.25  49.341  0.5700 -999.25 -999.25 -999.25 -2.1031  5.1917  6.3623  6.2254 -999.25 -999.25 -999.25  49.233  0.6210  5.1917  6.3623  6.2254 -999.25  49.233  0.6119 
   531.000 -78.444  5.9737  6.1506  5.2229 -999.25  49.576  0.5620 -999.25 -999.25 -999.25 -2.1829  5.2229  6.1506  5.9737 -999.25 -999.25 -999.25  49.522  0.6457  5.2229  6.1506  5.9737 -999.25  49.522  0.6390 
   531.500 -78.504  5.7511  5.9507  5.2459 -999.25  48.699  0.5550 -999.25 -999.25 -999.25 -2.2607  5.2459  5.9507  5.7511 -999.25 -999.25 -999.25  48.901  0.6166  5.2459  5.9507  5.7511 -999.25  48.901  0.6071 
   532.000 -78.605  5.6197  5.8114  5.0502 -999.25  47.188  0.5540 -999.25 -999.25 -999.25 -2.3795  5.0502  5.8114  5.6197 -999.25 -999.25 -999.25  47.537  0.5665  5.0502  5.8114  5.6197 -999.25  47.537  0.5523 
   532.500 -78.704  5.5931  5.7230  4.9506 -999.25  45.200  0.6080 -999.25 -999.25 -999.25 -2.4963  4.9506  5.7230  5.5931 -999.25 -999.25 -999.25  45.661  0.5590  4.9506  5.7230  5.5931 -999.25  45.661  0.5440 
   533.000 -78.850  5.7128  5.7577  4.9433 -999.25  43.530  0.6190 -999.25 -999.25 -999.25 -2.6601  4.9433  5.7577  5.7128 -999.25 -999.25 -999.25  43.919  0.5546  4.9433  5.7577  5.7128 -999.25  43.919  0.5392 
   533.500 -79.031  5.8797  5.9674  5.0245 -999.25  43.050  0.6250 -999.25 -999.25 -999.25 -2.8589  5.0245  5.9674  5.8797 -999.25 -999.25 -999.25  43.162  0.5777  5.0245  5.9674  5.8797 -999.25  43.162  0.5645 
   534.000 -79.524  6.1007  6.2245  5.2340 -999.25  43.046  0.6180 -999.25 -999.25 -999.25 -3.3697  5.2340  6.2245  6.1007 -999.25 -999.25 -999.25  43.047  0.6128  5.2340  6.2245  6.1007 -999.25  43.047  0.6030 
   534.500 -80.374  6.4538  6.5219  5.7421 -999.25  44.232  0.5790 -999.25 -999.25 -999.25 -4.2375  5.7421  6.5219  6.4538 -999.25 -999.25 -999.25  43.953  0.6217  5.7421  6.5219  6.4538 -999.25  43.953  0.6126 
   535.000 -82.340  6.8350  6.8408  6.8394 -999.25  44.546  0.5470 -999.25 -999.25 -999.25 -6.2213  6.8394  6.8408  6.8350 -999.25 -999.25 -999.25  44.472  0.6219  6.8394  6.8408  6.8350 -999.25  44.472  0.6129 
   535.500 -83.586  7.1587  7.1477  8.1478 -999.25  44.462  0.5430 -999.25 -999.25 -999.25 -7.4851  8.1478  7.1477  7.1587 -999.25 -999.25 -999.25  44.482  0.6006  8.1478  7.1477  7.1587 -999.25  44.482  0.5896 
   536.000 -85.431  7.4320  7.5322  9.1587 -999.25  44.458  0.5400 -999.25 -999.25 -999.25 -9.3479  9.1587  7.5322  7.4320 -999.25 -999.25 -999.25  44.459  0.5647  9.1587  7.5322  7.4320 -999.25  44.459  0.5502 
   536.500 -86.239  7.6863  7.8958  9.6922 -999.25  44.851  0.5660 -999.25 -999.25 -999.25 -10.174  9.6922  7.8958  7.6863 -999.25 -999.25 -999.25  44.758  0.5452  9.6922  7.8958  7.6863 -999.25  44.758  0.5289 
   537.000 -86.377  7.9327  8.2775  9.5757 -999.25  46.434  0.5820 -999.25 -999.25 -999.25 -10.330  9.5757  8.2775  7.9327 -999.25 -999.25 -999.25  46.056  0.5416  9.5757  8.2775  7.9327 -999.25  46.056  0.5250 
   537.500 -86.515  8.1626  8.5520  9.1095 -999.25  48.413  0.5860 -999.25 -999.25 -999.25 -10.485  9.1095  8.5520  8.1626 -999.25 -999.25 -999.25  47.939  0.5518  9.1095  8.5520  8.1626 -999.25  47.939  0.5361 
   538.000 -85.836  8.2939  8.7494  8.5405 -999.25  50.075  0.5850 -999.25 -999.25 -999.25 -9.8241  8.5405  8.7494  8.2939 -999.25 -999.25 -999.25  49.676  0.5733  8.5405  8.7494  8.2939 -999.25  49.676  0.5597 
   538.500 -85.755  8.3375  8.8603  8.1346 -999.25  49.357  0.5830 -999.25 -999.25 -999.25 -9.7609  8.1346  8.8603  8.3375 -999.25 -999.25 -999.25  49.530  0.5838  8.1346  8.8603  8.3375 -999.25  49.530  0.5712 
