~Version Information
VERS.                     2.0: CWLS log ASCII Standard Version 2.00
WRAP.                      NO: One line per depth step
~Well Information Block
#MNEM.UNIT                               Data Type  Information
#---------                               ---------  -----------
STRT.FT                                    26.0000:
STOP.FT                                  3500.0000:
STEP.FT                                     0.5000:
NULL.                 -999.25                     :
COMP.                                             :COMPANY            
WELL.     SANTIAGO A 72-30                        :WELL               
FLD .                                             :FIELD              
CTRY.                                             :COUNTRY            
STAT.                                             :STATE              
LOC .                                             :LOCATION           
UWI .                                             :UNIQUE WELL ID     
SRVC.                                             :Service company    
DATE.                                             :LOG DATE           
~Curve Information
#MNEM.UNIT           API CODE  Curve Description
#---------           --------  -----------------
DEPT.FT                      :   1 DEPTH
SP  .MV                      :   2
ILD .OHMM                    :   3
ILM .OHMM                    :   4
SFLU.OHMM                    :   5
CALI.IN                      :   6
GR  .GAPI                    :   7
NPHI.DECI                    :   8
DPHI.DECI                    :   9
DRHO.G/C3                    :  10
RHOB.G/C3                    :  11
SBL .MV                      :  12
RS  .OHMM                    :  13
RM  .OHMM                    :  14
RD  .OHMM                    :  15
ROBS.G/C3                    :  16
CALS.IN                      :  17
DRHS.G/C3                    :  18
GRS .GAPI                    :  19
NPHS.DECI                    :  20
SFLU.OHMM                    :  21
ILMC.OHMM                    :  22
ILDC.OHMM                    :  23
ROBC.G/C3                    :  24
GRC .GAPI                    :  25
NPHC.DECI                    :  26
~A
# ...
   292.000 -98.418  16.810  14.533  13.933 -999.25  42.301  0.5640 -999.25 -999.25 -999.25 -18.418  13.933  14.533  16.810 -999.25 -999.25 -999.25  42.301  0.5852  13.933  14.533  16.810 -999.25  42.301  0.5727 
   292.500 -98.246  16.385  14.016  13.744 -999.25  43.812  0.5400 -999.25 -999.25 -999.25 -18.246  13.744  14.016  16.385 -999.25 -999.25 -999.25  43.812  0.5742  13.744  14.016  16.385 -999.25  43.812  0.5607 
   293.000 -98.074  15.832  13.446  12.853 -999.25  45.085  0.5410 -999.25 -999.25 -999.25 -18.074  12.853  13.446  15.832 -999.25 -999.25 -999.25  45.085  0.5624  12.853  13.446  15.832 -999.25  45.085  0.5478 
   293.500 -98.014  15.148  12.932  11.430 -999.25  46.041  0.5400 -999.25 -999.25 -999.25 -18.014  11.430  12.932  15.148 -999.25 -999.25 -999.25  46.041  0.5401  11.430  12.932  15.148 -999.25  46.041  0.5233 
   294.000 -97.983  14.725  12.503  10.393 -999.25  46.204  0.5400 -999.25 -999.25 -999.25 -17.983  10.393  12.503  14.725 -999.25 -999.25 -999.25  46.204  0.5409  10.393  12.503  14.725 -999.25  46.204  0.5243 
   294.500 -97.951  14.507  12.377  10.143 -999.25  47.556  0.5620 -999.25 -999.25 -999.25 -17.951  10.143  12.377  14.507 -999.25 -999.25 -999.25  47.556  0.5400  10.143  12.377  14.507 -999.25  47.556  0.5232 
   295.000 -98.040  14.332  12.434  11.328 -999.25  48.671  0.6080 -999.25 -999.25 -999.25 -18.040  11.328  12.434  14.332 -999.25 -999.25 -999.25  48.671  0.5410  11.328  12.434  14.332 -999.25  48.671  0.5244 
   295.500 -98.128  14.072  12.384  11.928 -999.25  46.612  0.6220 -999.25 -999.25 -999.25 -18.128  11.928  12.384  14.072 -999.25 -999.25 -999.25  46.612  0.5640  11.928  12.384  14.072 -999.25  46.612  0.5495 
   296.000 -98.507  13.627  12.125  12.355 -999.25  44.792  0.6210 -999.25 -999.25 -999.25 -18.507  12.355  12.125  13.627 -999.25 -999.25 -999.25  44.792  0.6085  12.355  12.125  13.627 -999.25  44.792  0.5983 
   296.500 -98.633  13.214  11.764  12.663 -999.25  44.796  0.6000 -999.25 -999.25 -999.25 -18.633  12.663  11.764  13.214 -999.25 -999.25 -999.25  44.796  0.6220  12.663  11.764  13.214 -999.25  44.796  0.6130 
   297.000 -97.579  12.972  11.311  11.727 -999.25  44.958  0.5930 -999.25 -999.25 -999.25 -17.579  11.727  11.311  12.972 -999.25 -999.25 -999.25  44.958  0.6204  11.727  11.311  12.972 -999.25  44.958  0.6112 
   297.500 -97.000  12.932  10.856  10.397 -999.25  43.931  0.5930 -999.25 -999.25 -999.25 -17.000  10.397  10.856  12.932 -999.25 -999.25 -999.25  43.931  0.5998  10.397  10.856  12.932 -999.25  43.931  0.5887 
   298.000 -96.690  13.013  10.725  9.1168 -999.25  42.110  0.6080 -999.25 -999.25 -999.25 -16.690  9.1168  10.725  13.013 -999.25 -999.25 -999.25  42.110  0.5930  9.1168  10.725  13.013 -999.25  42.110  0.5812 
   298.500 -96.344  13.110  10.889  8.5440 -999.25  40.369  0.6450 -999.25 -999.25 -999.25 -16.344  8.5440  10.889  13.110 -999.25 -999.25 -999.25  40.369  0.5932  8.5440  10.889  13.110 -999.25  40.369  0.5815 
   299.000 -96.000  13.245  11.103  10.717 -999.25  39.183  0.6600 -999.25 -999.25 -999.25 -16.000  10.717  11.103  13.245 -999.25 -999.25 -999.25  39.183  0.6084  10.717  11.103  13.245 -999.25  39.183  0.5981 
   299.500 -95.579  13.484  11.423  12.099 -999.25  38.473  0.6670 -999.25 -999.25 -999.25 -15.579  12.099  11.423  13.484 -999.25 -999.25 -999.25  38.473  0.6451  12.099  11.423  13.484 -999.25  38.473  0.6383 
   300.000 -95.233  14.000  11.882  13.121 -999.25  38.080  0.6750 -999.25 -999.25 -999.25 -15.233  13.121  11.882  14.000 -999.25 -999.25 -999.25  38.080  0.6600  13.121  11.882  14.000 -999.25  38.080  0.6546 
   300.500 -95.089  15.028  12.532  13.888 -999.25  38.873  0.6780 -999.25 -999.25 -999.25 -15.089  13.888  12.532  15.028 -999.25 -999.25 -999.25  38.873  0.6670  13.888  12.532  15.028 -999.25  38.873  0.6623 
   301.000 -95.184  16.029  13.283  14.394 -999.25  39.191  0.6700 -999.25 -999.25 -999.25 -15.184  14.394  13.283  16.029 -999.25 -999.25 -999.25  39.191  0.6749  14.394  13.283  16.029 -999.25  39.191  0.6710 
   301.500 -95.434  16.731  13.848  14.846 -999.25  37.842  0.6480 -999.25 -999.25 -999.25 -15.434  14.846  13.848  16.731 -999.25 -999.25 -999.25  37.842  0.6780  14.846  13.848  16.731 -999.25  37.842  0.6743 
   302.000 -95.689  17.189  14.236  15.163 -999.25  36.810  0.6270 -999.25 -999.25 -999.25 -15.689  15.163  14.236  17.189 -999.25 -999.25 -999.25  36.810  0.6701  15.163  14.236  17.189 -999.25  36.810  0.6657 
   302.500 -95.551  16.548  14.144  15.258 -999.25  37.287  0.6230 -999.25 -999.25 -999.25 -15.551  15.258  14.144  16.548 -999.25 -999.25 -999.25  37.287  0.6485  15.258  14.144  16.548 -999.25  37.287  0.6420 
   303.000 -95.442  15.768  13.688  14.718 -999.25  38.397  0.6320 -999.25 -999.25 -999.25 -15.442  14.718  13.688  15.768 -999.25 -999.25 -999.25  38.397  0.6275  14.718  13.688  15.768 -999.25  38.397  0.6191 
   303.500 -95.334  15.237  12.569  13.312 -999.25  39.032  0.6730 -999.25 -999.25 -999.25 -15.334  13.312  12.569  15.237 -999.25 -999.25 -999.25  39.032  0.6231  13.312  12.569  15.237 -999.25  39.032  0.6142 
   304.000 -95.160  14.895  11.612  11.283 -999.25  38.556  0.6600 -999.25 -999.25 -999.25 -15.160  11.283  11.612  14.895 -999.25 -999.25 -999.25  38.556  0.6317  11.283  11.612  14.895 -999.25  38.556  0.6236 
   304.500 -95.092  15.101  11.317  9.7439 -999.25  38.477  0.6330 -999.25 -999.25 -999.25 -15.092  9.7439  11.317  15.101 -999.25 -999.25 -999.25  38.477  0.6714  9.7439  11.317  15.101 -999.25  38.477  0.6671 
   305.000 -95.023  15.464  11.699  9.2851 -999.25  39.825  0.6260 -999.25 -999.25 -999.25 -15.023  9.2851  11.699  15.464 -999.25 -999.25 -999.25  39.825  0.6606  9.2851  11.699  15.464 -999.25  39.825  0.6552 
   305.500 -94.904  15.564  12.119  11.492 -999.25  40.698  0.6210 -999.25 -999.25 -999.25 -14.904  11.492  12.119  15.564 -999.25 -999.25 -999.25  40.698  0.6343  11.492  12.119  15.564 -999.25  40.698  0.6265 
   306.000 -94.784  15.642  12.558  14.666 -999.25  40.857  0.6150 -999.25 -999.25 -999.25 -14.784  14.666  12.558  15.642 -999.25 -999.25 -999.25  40.857  0.6264  14.666  12.558  15.642 -999.25  40.857  0.6178 
   306.500 -94.685  15.808  13.051  16.034 -999.25  42.523  0.6090 -999.25 -999.25 -999.25 -14.685  16.034  13.051  15.808 -999.25 -999.25 -999.25  42.523  0.6213  16.034  13.051  15.808 -999.25  42.523  0.6122 
   307.000 -94.654  16.059  13.590  16.651 -999.25  43.871  0.6080 -999.25 -999.25 -999.25 -14.654  16.651  13.590  16.059 -999.25 -999.25 -999.25  43.871  0.6154  16.651  13.590  16.059 -999.25  43.871  0.6057 
   307.500 -94.623  16.273  13.536  16.886 -999.25  44.189  0.6150 -999.25 -999.25 -999.25 -14.623  16.886  13.536  16.273 -999.25 -999.25 -999.25  44.189  0.6094  16.886  13.536  16.273 -999.25  44.189  0.5992 
   308.000 -94.614  16.011  13.247  15.827 -999.25  44.427  0.6300 -999.25 -999.25 -999.25 -14.614  15.827  13.247  16.011 -999.25 -999.25 -999.25  44.427  0.6081  15.827  13.247  16.011 -999.25  44.427  0.5977 
   308.500 -94.546  15.335  12.682  13.310 -999.25  44.903  0.6380 -999.25 -999.25 -999.25 -14.546  13.310  12.682  15.335 -999.25 -999.25 -999.25  44.903  0.6145  13.310  12.682  15.335 -999.25  44.903  0.6048 
   309.000 -94.400  14.467  11.828  11.054 -999.25  45.299  0.6280 -999.25 -999.25 -999.25 -14.400  11.054  11.828  14.467 -999.25 -999.25 -999.25  45.299  0.6288  11.054  11.828  14.467 -999.25  45.299  0.6204 
   309.500 -94.260  13.634  11.052  9.6501 -999.25  45.299  0.6050 -999.25 -999.25 -999.25 -14.260  9.6501  11.052  13.634 -999.25 -999.25 -999.25  45.299  0.6373  9.6501  11.052  13.634 -999.25  45.299  0.6298 
   310.000 -94.276  12.947  10.638  8.8734 -999.25  44.506  0.5940 -999.25 -999.25 -999.25 -14.276  8.8734  10.638  12.947 -999.25 -999.25 -999.25  44.506  0.6289  8.8734  10.638  12.947 -999.25  44.506  0.6205 
   310.500 -94.446  12.783  10.453  8.7278 -999.25  44.189  0.5880 -999.25 -999.25 -999.25 -14.446  8.7278  10.453  12.783 -999.25 -999.25 -999.25  44.189  0.6072  8.7278  10.453  12.783 -999.25  44.189  0.5967 
