~Version Information
VERS.                     2.0: CWLS log ASCII Standard Version 2.00
WRAP.                      NO: One line per depth step
~Well Information Block
#MNEM.UNIT                               Data Type  Information
#---------                               ---------  -----------
STRT.FT                                    26.0000:
STOP.FT                                  3500.0000:
STEP.FT                                     0.5000:
NULL.                 -999.25                     :
COMP.                                             :COMPANY            
WELL.     SANTIAGO A 72-30                        :WELL               
FLD .                                             :FIELD              
CTRY.                                             :COUNTRY            
STAT.                                             :STATE              
LOC .                                             :LOCATION           
UWI .                                             :UNIQUE WELL ID     
SRVC.                                             :Service company    
DATE.                                             :LOG DATE           
~Curve Information
#MNEM.UNIT           API CODE  Curve Description
#---------           --------  -----------------
DEPT.FT                      :   1 DEPTH
SP  .MV                      :   2
ILD .OHMM                    :   3
ILM .OHMM                    :   4
SFLU.OHMM                    :   5
CALI.IN                      :   6
GR  .GAPI                    :   7
NPHI.DECI                    :   8
DPHI.DECI                    :   9
DRHO.G/C3                    :  10
RHOB.G/C3                    :  11
SBL .MV                      :  12
RS  .OHMM                    :  13
RM  .OHMM                    :  14
RD  .OHMM                    :  15
ROBS.G/C3                    :  16
CALS.IN                      :  17
DRHS.G/C3                    :  18
GRS .GAPI                    :  19
NPHS.DECI                    :  20
SFLU.OHMM                    :  21
ILMC.OHMM                    :  22
ILDC.OHMM                    :  23
ROBC.G/C3                    :  24
GRC .GAPI                    :  25
NPHC.DECI                    :  26
~A
# ...
    64.000 -33.201  326.93  509.12  96.338 -999.25  39.849  0.5950 -999.25 -999.25 -999.25  46.799  96.338  509.12  326.93 -999.25 -999.25 -999.25  39.849  0.5980  96.338  509.12  326.93 -999.25  39.849  0.5867 
    64.500 -37.584  1028.0  1039.1  95.405 -999.25  42.042  0.5980 -999.25 -999.25 -999.25  42.416  95.405  1039.1  1028.0 -999.25 -999.25 -999.25  42.042  0.5950  95.405  1039.1  1028.0 -999.25  42.042  0.5834 
    65.000 -41.392  1945.0  771.59  93.998 -999.25  44.158  0.5760 -999.25 -999.25 -999.25  38.608  93.998  771.59  1945.0 -999.25 -999.25 -999.25  44.158  0.5980  93.998  771.59  1945.0 -999.25  44.158  0.5867 
    65.500 -45.575  2085.9  87.355  91.663 -999.25  44.217  0.5570 -999.25 -999.25 -999.25  34.425  91.663  87.355  2085.9 -999.25 -999.25 -999.25  44.217  0.5760  91.663  87.355  2085.9 -999.25  44.217  0.5626 
    66.000 -49.931  670.66  46.629  90.012 -999.25  42.854  0.5540 -999.25 -999.25 -999.25  30.069  90.012  46.629  670.66 -999.25 -999.25 -999.25  42.854  0.5570  90.012  46.629  670.66 -999.25  42.854  0.5418 
    66.500 -52.968  135.48  44.795  90.352 -999.25  41.845  0.5600 -999.25 -999.25 -999.25  27.032  90.352  44.795  135.48 -999.25 -999.25 -999.25  41.845  0.5540  90.352  44.795  135.48 -999.25  41.845  0.5385 
    67.000 -55.341  94.024  47.958  91.617 -999.25  41.154  0.5440 -999.25 -999.25 -999.25  24.659  91.617  47.958  94.024 -999.25 -999.25 -999.25  41.154  0.5600  91.617  47.958  94.024 -999.25  41.154  0.5451 
    67.500 -58.588  78.709  50.773  93.151 -999.25  40.382  0.5320 -999.25 -999.25 -999.25  21.412  93.151  50.773  78.709 -999.25 -999.25 -999.25  40.382  0.5440  93.151  50.773  78.709 -999.25  40.382  0.5276 
    68.000 -61.863  95.580  50.100  94.166 -999.25  39.927  0.5080 -999.25 -999.25 -999.25  18.137  94.166  50.100  95.580 -999.25 -999.25 -999.25  39.927  0.5320  94.166  50.100  95.580 -999.25  39.927  0.5145 
    68.500 -65.225  111.97  48.498  94.755 -999.25  40.342  0.5010 -999.25 -999.25 -999.25  14.775  94.755  48.498  111.97 -999.25 -999.25 -999.25  40.342  0.5080  94.755  48.498  111.97 -999.25  40.342  0.4882 
    69.000 -68.077  118.18  46.275  91.596 -999.25  42.021  0.5080 -999.25 -999.25 -999.25  11.923  91.596  46.275  118.18 -999.25 -999.25 -999.25  42.021  0.5010  91.596  46.275  118.18 -999.25  42.021  0.4805 
    69.500 -70.700  123.96  45.231  87.156 -999.25  43.466  0.5020 -999.25 -999.25 -999.25  9.2998  87.156  45.231  123.96 -999.25 -999.25 -999.25  43.466  0.5080  87.156  45.231  123.96 -999.25  43.466  0.4882 
    70.000 -73.204  129.25  48.267  83.852 -999.25  44.989  0.4890 -999.25 -999.25 -999.25  6.7964  83.852  48.267  129.25 -999.25 -999.25 -999.25  44.989  0.5020  83.852  48.267  129.25 -999.25  44.989  0.4816 
    70.500 -75.586  123.93  50.888  82.590 -999.25  47.023  0.4800 -999.25 -999.25 -999.25  4.4138  82.590  50.888  123.93 -999.25 -999.25 -999.25  47.023  0.4890  82.590  50.888  123.93 -999.25  47.023  0.4674 
    71.000 -78.141  107.81  51.856  81.984 -999.25  48.349  0.4840 -999.25 -999.25 -999.25  1.8588  81.984  51.856  107.81 -999.25 -999.25 -999.25  48.349  0.4800  81.984  51.856  107.81 -999.25  48.349  0.4576 
    71.500 -81.325  89.128  48.229  77.308 -999.25  47.697  0.5020 -999.25 -999.25 -999.25 -1.3254  77.308  48.229  89.128 -999.25 -999.25 -999.25  47.697  0.4840  77.308  48.229  89.128 -999.25  47.697  0.4619 
    72.000 -84.410  73.939  40.853  65.584 -999.25  46.727  0.5220 -999.25 -999.25 -999.25 -4.4103  65.584  40.853  73.939 -999.25 -999.25 -999.25  46.727  0.5020  65.584  40.853  73.939 -999.25  46.727  0.4816 
    72.500 -87.353  63.808  35.691  54.026 -999.25  46.708  0.5410 -999.25 -999.25 -999.25 -7.3527  54.026  35.691  63.808 -999.25 -999.25 -999.25  46.708  0.5220  54.026  35.691  63.808 -999.25  46.708  0.5035 
    73.000 -91.400  56.247  32.064  45.089 -999.25  47.084  0.5790 -999.25 -999.25 -999.25 -11.400  45.089  32.064  56.247 -999.25 -999.25 -999.25  47.084  0.5410  45.089  32.064  56.247 -999.25  47.084  0.5243 
    73.500 -100.48  49.629  29.691  37.903 -999.25  47.458  0.5810 -999.25 -999.25 -999.25 -20.475  37.903  29.691  49.629 -999.25 -999.25 -999.25  47.458  0.5790  37.903  29.691  49.629 -999.25  47.458  0.5659 
    74.000 -99.782  43.552  28.089  32.270 -999.25  47.124  0.5720 -999.25 -999.25 -999.25 -19.782  32.270  28.089  43.552 -999.25 -999.25 -999.25  47.124  0.5810  32.270  28.089  43.552 -999.25  47.124  0.5681 
    74.500 -101.37  40.715  26.588  29.899 -999.25  46.402  0.5430 -999.25 -999.25 -999.25 -21.368  29.899  26.588  40.715 -999.25 -999.25 -999.25  46.402  0.5720  29.899  26.588  40.715 -999.25  46.402  0.5583 
    75.000 -105.03  40.188  25.336  30.931 -999.25  45.681  0.5120 -999.25 -999.25 -999.25 -25.033  30.931  25.336  40.188 -999.25 -999.25 -999.25  45.681  0.5430  30.931  25.336  40.188 -999.25  45.681  0.5265 
    75.500 -107.87  39.961  24.641  32.663 -999.25  48.121  0.5010 -999.25 -999.25 -999.25 -27.869  32.663  24.641  39.961 -999.25 -999.25 -999.25  48.121  0.5120  32.663  24.641  39.961 -999.25  48.121  0.4926 
    76.000 -109.83  39.653  24.617  33.880 -999.25  50.089  0.4950 -999.25 -999.25 -999.25 -29.832  33.880  24.617  39.653 -999.25 -999.25 -999.25  50.089  0.5010  33.880  24.617  39.653 -999.25  50.089  0.4805 
    76.500 -111.44  39.323  25.067  34.751 -999.25  49.842  0.5220 -999.25 -999.25 -999.25 -31.444  34.751  25.067  39.323 -999.25 -999.25 -999.25  49.842  0.4950  34.751  25.067  39.323 -999.25  49.842  0.4740 
    77.000 -112.70  39.187  25.546  35.387 -999.25  48.567  0.5410 -999.25 -999.25 -999.25 -32.704  35.387  25.546  39.187 -999.25 -999.25 -999.25  48.567  0.5220  35.387  25.546  39.187 -999.25  48.567  0.5035 
    77.500 -113.87  39.396  25.702  35.045 -999.25  46.580  0.5460 -999.25 -999.25 -999.25 -33.871  35.045  25.702  39.396 -999.25 -999.25 -999.25  46.580  0.5410  35.045  25.702  39.396 -999.25  46.580  0.5243 
    78.000 -114.87  39.835  24.933  33.623 -999.25  44.514  0.5700 -999.25 -999.25 -999.25 -34.868  33.623  24.933  39.835 -999.25 -999.25 -999.25  44.514  0.5460  33.623  24.933  39.835 -999.25  44.514  0.5298 
    78.500 -115.57  40.593  24.004  31.612 -999.25  44.188  0.6070 -999.25 -999.25 -999.25 -35.573  31.612  24.004  40.593 -999.25 -999.25 -999.25  44.188  0.5700  31.612  24.004  40.593 -999.25  44.188  0.5561 
    79.000 -116.21  42.303  24.328  29.876 -999.25  46.944  0.6050 -999.25 -999.25 -999.25 -36.210  29.876  24.328  42.303 -999.25 -999.25 -999.25  46.944  0.6070  29.876  24.328  42.303 -999.25  46.944  0.5966 
    79.500 -116.87  44.043  26.454  28.114 -999.25  48.121  0.5840 -999.25 -999.25 -999.25 -36.873  28.114  26.454  44.043 -999.25 -999.25 -999.25  48.121  0.6050  28.114  26.454  44.043 -999.25  48.121  0.5944 
    80.000 -117.57  45.489  29.048  28.569 -999.25  48.745  0.5740 -999.25 -999.25 -999.25 -37.569  28.569  29.048  45.489 -999.25 -999.25 -999.25  48.745  0.5840  28.569  29.048  45.489 -999.25  48.745  0.5714 
    80.500 -118.22  46.669  30.864  32.773 -999.25  47.548  0.5720 -999.25 -999.25 -999.25 -38.217  32.773  30.864  46.669 -999.25 -999.25 -999.25  47.548  0.5740  32.773  30.864  46.669 -999.25  47.548  0.5604 
    81.000 -118.95  47.595  32.444  37.840 -999.25  45.877  0.5790 -999.25 -999.25 -999.25 -38.945  37.840  32.444  47.595 -999.25 -999.25 -999.25  45.877  0.5720  37.840  32.444  47.595 -999.25  45.877  0.5583 
    81.500 -119.63  48.211  33.366  41.452 -999.25  44.128  0.5930 -999.25 -999.25 -999.25 -39.628  41.452  33.366  48.211 -999.25 -999.25 -999.25  44.128  0.5790  41.452  33.366  48.211 -999.25  44.128  0.5659 
    82.000 -120.35  48.483  33.575  42.649 -999.25  44.988  0.6000 -999.25 -999.25 -999.25 -40.355  42.649  33.575  48.483 -999.25 -999.25 -999.25  44.988  0.5930  42.649  33.575  48.483 -999.25  44.988  0.5812 
    82.500 -120.57  48.687  31.862  42.826 -999.25  46.076  0.5890 -999.25 -999.25 -999.25 -40.565  42.826  31.862  48.687 -999.25 -999.25 -999.25  46.076  0.6000  42.826  31.862  48.687 -999.25  46.076  0.5889 
