~Version Information
VERS.                     2.0: CWLS log ASCII Standard Version 2.00
WRAP.                      NO: One line per depth step
~Well Information Block
#MNEM.UNIT                               Data Type  Information
#---------                               ---------  -----------
STRT.FT                                    26.0000:
STOP.FT                                  3500.0000:
STEP.FT                                     0.5000:
NULL.                 -999.25                     :
COMP.                                             :COMPANY            
WELL.     SANTIAGO A 72-30                        :WELL               
FLD .                                             :FIELD              
CTRY.                                             :COUNTRY            
STAT.                                             :STATE              
LOC .                                             :LOCATION           
UWI .                                             :UNIQUE WELL ID     
SRVC.                                             :Service company    
DATE.                                             :LOG DATE           
~Curve Information
#MNEM.UNIT           API CODE  Curve Description
#---------           --------  -----------------
DEPT.FT                      :   1 DEPTH
SP  .MV                      :   2
ILD .OHMM                    :   3
ILM .OHMM                    :   4
SFLU.OHMM                    :   5
CALI.IN                      :   6
GR  .GAPI                    :   7
NPHI.DECI                    :   8
DPHI.DECI                    :   9
DRHO.G/C3                    :  10
RHOB.G/C3                    :  11
SBL .MV                      :  12
RS  .OHMM                    :  13
RM  .OHMM                    :  14
RD  .OHMM                    :  15
ROBS.G/C3                    :  16
CALS.IN                      :  17
DRHS.G/C3                    :  18
GRS .GAPI                    :  19
NPHS.DECI                    :  20
SFLU.OHMM                    :  21
ILMC.OHMM                    :  22
ILDC.OHMM                    :  23
ROBC.G/C3                    :  24
GRC .GAPI                    :  25
NPHC.DECI                    :  26
~A
# ...
  2344.000 -57.655  3.4370  3.2960  3.3870  9.8480  127.86  0.4750  0.5010 -0.0010  2.6517 -14.965  3.3870  3.2960  3.4370  2.6462  9.8410  0.0023  127.79  0.4562  3.6676  3.3142  3.4344  2.6525  133.61  0.4420 
  2344.500 -57.468  3.2530  3.0740  2.8470  9.8410  126.29  0.4790  0.5190  0.0020  2.6467 -14.777  2.8470  3.0740  3.2530  2.6436  9.8400  0.0039  126.23  0.4755  3.0884  3.0898  3.2507  2.6499  131.97  0.4637 
  2345.000 -57.282  3.0790  2.8110  2.6410  9.8410  124.88  0.4780  0.5290  0.0040  2.6434 -14.590  2.6410  2.8110  3.0790  2.6457  9.8325  0.0026  124.96  0.4789  2.8670  2.8241  3.0769  2.6520  130.60  0.4674 
  2345.500 -56.790  3.0230  2.7290  2.5930  9.8340  126.79  0.4810  0.5320  0.0030  2.6451 -14.097  2.5930  2.7290  3.0230  2.6507  9.8236 -0.0004  126.83  0.4783  2.8150  2.7413  3.0210  2.6568  132.52  0.4668 
  2346.000 -56.196  2.9680  2.7390  2.2730  9.8230  127.75  0.4900  0.5240  0.0000  2.6500 -13.502  2.2730  2.7390  2.9680  2.6542  9.8283 -0.0026  127.63  0.4819  2.4717  2.7514  2.9661  2.6604  133.38  0.4708 
  2346.500 -55.663  2.9840  2.8880  2.2900  9.8270  124.83  0.4970  0.5080 -0.0030  2.6550 -12.968  2.2900  2.8880  2.9840  2.6500  9.8366  0.0000  124.63  0.4906  2.4903  2.9019  2.9820  2.6562  130.28  0.4806 
  2347.000 -55.704  3.0000  3.0440  2.5550  9.8360  119.54  0.4820  0.4940  0.0000  2.6500 -13.009  2.5550  3.0440  3.0000  2.6500  9.8419  0.0000  119.12  0.4958  2.7751  3.0595  2.9980  2.6563  124.54  0.4864 
  2347.500 -57.154  3.1980  3.2810  3.0110  9.8400  108.47  0.4530  0.4880  0.0000  2.6500 -14.458  3.0110  3.2810  3.1980  2.6498  9.8554  0.0001  108.21  0.4801  3.2654  3.2992  3.1958  2.6561  113.19  0.4688 
  2348.000 -57.591  3.4960  3.5220  3.3410  9.8530  101.44  0.4030  0.4850  0.0000  2.6500 -14.894  3.3410  3.5220  3.4960  2.6491  9.8709  0.0006  100.94  0.4502  3.6206  3.5432  3.4934  2.6556  105.64  0.4354 
  2348.500 -58.028  3.6390  3.6430  3.9370  9.8690  87.675  0.3710  0.4830  0.0010  2.6484 -15.330  3.9370  3.6430  3.6390  2.6531  9.8832 -0.0018  87.481  0.4016  4.2610  3.6659  3.6362  2.6596  91.591  0.3809 
  2349.000 -58.784  3.7400  3.7680  5.0100  9.8820  82.145  0.3510  0.4880 -0.0020  2.6533 -16.085  5.0100  3.7680  3.7400  2.6506  9.8902 -0.0004  82.154  0.3703  5.4116  3.7926  3.7370  2.6573  86.033  0.3460 
  2349.500 -58.806  3.8440  3.9280  6.2710  9.8900  82.395  0.3530  0.4960 -0.0010  2.6517 -16.106  6.2710  3.9280  3.8440  2.6438  9.8953  0.0038  82.879  0.3510  6.7621  3.9548  3.8408  2.6504  86.807  0.3244 
  2350.000 -57.242  3.9170  3.9570  6.9200  9.8910  96.972  0.3650  0.4940  0.0030  2.6451 -14.541  6.9200  3.9570  3.9170  2.6365  9.9202  0.0082  96.983  0.3531  7.4612  3.9847  3.9138  2.6434  101.67  0.3268 
  2350.500 -55.816  3.9930  3.9780  6.5020  9.9190  108.38  0.3930  0.4900  0.0080  2.6368 -13.114  6.5020  3.9780  3.9930  2.6354  9.9301  0.0088  108.41  0.3650  7.0157  4.0061  3.9897  2.6423  113.68  0.3401 
  2351.000 -54.152  4.0210  3.9670  5.4660  9.9270  123.35  0.4270  0.4870  0.0090  2.6352 -11.449  5.4660  3.9670  4.0210  2.6368  9.9522  0.0080  123.40  0.3930  5.9092  3.9954  4.0176  2.6439  129.50  0.3714 
  2351.500 -52.251  3.9840  3.9560  4.3970  9.9470  141.25  0.4450  0.4770  0.0080  2.6368 -9.5474  4.3970  3.9560  3.9840  2.6365  9.9819  0.0082  141.31  0.4271  4.7652  3.9848  3.9808  2.6438  148.44  0.4095 
  2352.000 -50.251  3.9260  3.8760  3.3860  9.9800  157.64  0.4660  0.4620  0.0080  2.6368 -7.5465  3.3860  3.8760  3.9260  2.6346  9.9933  0.0093  157.69  0.4451  3.6786  3.9038  3.9229  2.6420  165.71  0.4297 
  2352.500 -49.044  3.8540  3.7990  3.0170  9.9920  167.15  0.4750  0.4530  0.0090  2.6352 -6.3386  3.0170  3.7990  3.8540  2.6319  9.9994  0.0110  167.16  0.4661  3.2815  3.8258  3.8510  2.6392  175.70  0.4532 
  2353.000 -48.471  3.6880  3.7230  3.1210  10.000  169.53  0.4790  0.4500  0.0110  2.6319 -5.7647  3.1210  3.7230  3.6880  2.6319  10.004  0.0110  169.52  0.4750  3.3939  3.7488  3.6852  2.6393  178.20  0.4632 
  2353.500 -47.957  3.6410  3.5560  3.2280  9.9960  167.96  0.4960  0.4490  0.0110  2.6319 -5.2498  3.2280  3.5560  3.6410  2.6321  10.048  0.0108  167.92  0.4791  3.5125  3.5802  3.6384  2.6398  176.78  0.4679 
  2354.000 -47.879  3.5950  3.5040  3.3880  10.044  162.98  0.5130  0.4520  0.0110  2.6319 -5.1709  3.3880  3.5040  3.5950  2.6341  10.072  0.0097  162.96  0.4962  3.6870  3.5278  3.5925  2.6419  171.69  0.4869 
  2354.500 -47.761  3.5980  3.5160  3.5550  10.068  160.85  0.5330  0.4570  0.0100  2.6335 -5.0520  3.5550  3.5160  3.5980  2.6368  10.090  0.0080  160.88  0.5132  3.8688  3.5403  3.5955  2.6448  169.60  0.5061 
  2355.000 -47.812  3.6000  3.5290  3.3160  10.089  163.63  0.5380  0.4620  0.0080  2.6368 -5.1021  3.3160  3.5290  3.6000  2.6362  10.090  0.0083  163.66  0.5331  3.6107  3.5535  3.5975  2.6443  172.53  0.5283 
  2355.500 -47.863  3.6460  3.5380  3.0930  10.093  166.40  0.5350  0.4590  0.0080  2.6368 -5.1522  3.0930  3.5380  3.6460  2.6341  10.076  0.0097  166.42  0.5380  3.3688  3.5624  3.6434  2.6420  175.37  0.5337 
  2356.000 -48.242  3.6930  3.5470  3.0370  10.078  167.92  0.5260  0.4500  0.0100  2.6335 -5.5303  3.0370  3.5470  3.6930  2.6377  10.065  0.0075  167.92  0.5349  3.3075  3.5713  3.6903  2.6455  176.88  0.5303 
  2356.500 -48.244  3.7260  3.5720  3.1090  10.066  168.24  0.5210  0.4480  0.0080  2.6368 -5.5314  3.1090  3.5720  3.7260  2.6429  10.057  0.0043  168.19  0.5259  3.3847  3.5966  3.7233  2.6507  177.12  0.5202 
  2357.000 -47.235  3.7290  3.5720  3.2250  10.059  164.61  0.5200  0.4530  0.0050  2.6418 -4.5216  3.2250  3.5720  3.7290  2.6486  10.046  0.0008  164.55  0.5210  3.5091  3.5964  3.7262  2.6564  173.22  0.5147 
  2357.500 -46.959  3.7320  3.5720  3.3440  10.047  160.98  0.5240  0.4630  0.0010  2.6484 -4.2446  3.3440  3.5720  3.7320  2.6497  10.036  0.0002  160.96  0.5201  3.6367  3.5963  3.7292  2.6574  169.38  0.5137 
  2358.000 -47.476  3.7110  3.5490  3.4940  10.040  159.79  0.5220  0.4710  0.0000  2.6500 -4.7607  3.4940  3.5490  3.7110  2.6489  10.014  0.0006  159.80  0.5240  3.7966  3.5726  3.7082  2.6564  168.05  0.5180 
  2358.500 -48.033  3.6940  3.5260  3.4740  10.020  160.44  0.5120  0.4780  0.0010  2.6484 -5.3169  3.4740  3.5260  3.6940  2.6519  9.9801 -0.0012  160.45  0.5218  3.7723  3.5488  3.6912  2.6592  168.54  0.5156 
  2359.000 -47.875  3.6760  3.4990  3.3770  9.9850  161.24  0.5090  0.4790 -0.0010  2.6517 -5.1580  3.3770  3.4990  3.6760  2.6524  9.9536 -0.0015  161.25  0.5119  3.6658  3.5211  3.6732  2.6595  169.23  0.5045 
  2359.500 -47.580  3.6490  3.4740  3.2820  9.9580  162.19  0.5140  0.4690 -0.0020  2.6533 -4.8621  3.2820  3.4740  3.6490  2.6465  9.9311  0.0021  162.31  0.5091  3.5619  3.4955  3.6462  2.6534  170.20  0.5014 
  2360.000 -47.284  3.6220  3.4220  3.0230  9.9340  167.98  0.5180  0.4470  0.0010  2.6484 -4.5652  3.0230  3.4220  3.6220  2.6388  9.9151  0.0068  168.04  0.5141  3.2823  3.4426  3.6192  2.6455  176.13  0.5069 
  2360.500 -47.028  3.6050  3.4090  2.8870  9.9180  171.06  0.5100  0.4430  0.0070  2.6385 -4.3083  2.8870  3.4090  3.6050  2.6401  9.9005  0.0060  171.18  0.5178  3.1352  3.4292  3.6022  2.6468  179.33  0.5110 
  2361.000 -47.010  3.5880  3.3970  2.8500  9.9020  176.68  0.4950  0.4400  0.0060  2.6401 -4.2894  2.8500  3.3970  3.5880  2.6395  9.8933  0.0064  176.71  0.5095  3.0950  3.4170  3.5853  2.6461  185.07  0.5018 
  2361.500 -47.210  3.4590  3.3750  2.8680  9.8940  177.86  0.4910  0.4390  0.0060  2.6401 -4.4885  2.8680  3.3750  3.4590  2.6359  9.8900  0.0086  177.84  0.4949  3.1141  3.3947  3.4564  2.6425  186.23  0.4854 
  2362.000 -47.964  3.4150  3.3530  2.8860  9.8900  176.67  0.4890  0.4410  0.0080  2.6368 -5.2416  2.8860  3.3530  3.4150  2.6312  9.8892  0.0114  176.31  0.4909  3.1334  3.3724  3.4125  2.6378  184.63  0.4810 
  2362.500 -49.036  3.3710  3.3280  2.9440  9.8900  161.79  0.4880  0.4500  0.0110  2.6319 -6.3127  2.9440  3.3280  3.3710  2.6292  9.8845  0.0126  161.58  0.4890  3.1954  3.3471  3.3686  2.6358  169.18  0.4788 
