~Version Information
VERS.                     2.0: CWLS log ASCII Standard Version 2.00
WRAP.                      NO: One line per depth step
~Well Information Block
#MNEM.UNIT                               Data Type  Information
#---------                               ---------  -----------
STRT.FT                                    26.0000:
STOP.FT                                  3500.0000:
STEP.FT                                     0.5000:
NULL.                 -999.25                     :
COMP.                                             :COMPANY            
WELL.     SANTIAGO A 72-30                        :WELL               
FLD .                                             :FIELD              
CTRY.                                             :COUNTRY            
STAT.                                             :STATE              
LOC .                                             :LOCATION           
UWI .                                             :UNIQUE WELL ID     
SRVC.                                             :Service company    
DATE.                                             :LOG DATE           
~Curve Information
#MNEM.UNIT           API CODE  Curve Description
#---------           --------  -----------------
DEPT.FT                      :   1 DEPTH
SP  .MV                      :   2
ILD .OHMM                    :   3
ILM .OHMM                    :   4
SFLU.OHMM                    :   5
CALI.IN                      :   6
GR  .GAPI                    :   7
NPHI.DECI                    :   8
DPHI.DECI                    :   9
DRHO.G/C3                    :  10
RHOB.G/C3                    :  11
SBL .MV                      :  12
RS  .OHMM                    :  13
RM  .OHMM                    :  14
RD  .OHMM                    :  15
ROBS.G/C3                    :  16
CALS.IN                      :  17
DRHS.G/C3                    :  18
GRS .GAPI                    :  19
NPHS.DECI                    :  20
SFLU.OHMM                    :  21
ILMC.OHMM                    :  22
ILDC.OHMM                    :  23
ROBC.G/C3                    :  24
GRC .GAPI                    :  25
NPHC.DECI                    :  26
~A
# ...
  3484.000 -46.890  1.6950  1.6860  1.7040  20.569  99.525  0.5400  0.5390 -0.0030  2.6550 -2.8900  1.7040  1.6860  1.6950  2.6517  20.406 -0.0010  101.86  0.5280  2.1415  1.7047  1.7136  2.6959  133.77  0.5271 
  3484.500 -46.201  1.6730  1.6790  1.6760  20.406  99.980  0.5650  0.5320 -0.0010  2.6517 -2.2010  1.6760  1.6790  1.6730  2.6352  20.369  0.0090  100.49  0.5320  2.1016  1.6976  1.6910  2.6794  131.91  0.5316 
  3485.000 -45.988  1.6540  1.6720  1.6240  20.369  103.92  0.5880  0.5270  0.0090  2.6352 -1.9880  1.6240  1.6720  1.6540  2.6236  20.597  0.0160  99.525  0.5400  2.0349  1.6903  1.6721  2.6678  131.03  0.5407 
  3485.500 -46.232  1.6380  1.6650  1.5500  20.597  106.03  0.6050  0.5220  0.0160  2.6236 -2.2320  1.5500  1.6650  1.6380  2.6170  20.806  0.0200  99.980  0.5650  1.9362  1.6830  1.6562  2.6612  131.98  0.5689 
  3486.000 -46.643  1.6280  1.6520  1.5020  20.806  105.93  0.6080  0.5160  0.0200  2.6170 -2.6430  1.5020  1.6520  1.6280  2.6088  20.433  0.0250  103.92  0.5880  1.8612  1.6700  1.6452  2.6530  136.52  0.5947 
  3486.500 -47.054  1.6180  1.6390  1.4690  20.433  100.93  0.6020  0.5100  0.0250  2.6088 -3.0540  1.4690  1.6390  1.6180  2.6038  19.384  0.0280  106.03  0.6050  1.7947  1.6573  1.6328  2.6476  137.32  0.6135 
  3487.000 -47.400  1.6130  1.6200  1.4570  19.384  100.20  0.5970  0.5070  0.0280  2.6038 -3.4000  1.4570  1.6200  1.6130  2.6022  19.023  0.0290  105.93  0.6080  1.7714  1.6380  1.6270  2.6456  136.48  0.6168 
  3487.500 -47.325  1.6080  1.6160  1.4420  19.023  100.81  0.5860  0.5080  0.0290  2.6022 -3.3250  1.4420  1.6160  1.6080  2.6121  19.568  0.0230  100.93  0.6020  1.7613  1.6336  1.6230  2.6560  131.05  0.6102 
  3488.000 -47.250  1.5980  1.6130  1.4270  19.568  106.41  0.5410  0.5150  0.0230  2.6121 -3.2500  1.4270  1.6130  1.5980  2.6236  20.176  0.0160  100.20  0.5970  1.7520  1.6302  1.6140  2.6678  131.18  0.6048 
  3488.500 -47.177  1.5970  1.6090  1.3930  20.176  111.53  0.5400  0.5360  0.0160  2.6236 -3.1770  1.3930  1.6090  1.5970  2.6302  20.496  0.0120  100.81  0.5860  1.7103  1.6260  1.6137  2.6744  132.55  0.5925 
  3489.000 -47.045  1.5950  1.6110  1.3910  20.496  114.36  0.5520  0.5420  0.0120  2.6302 -3.0450  1.3910  1.6110  1.5950  2.6434  20.653  0.0040  106.41  0.5410  1.7102  1.6279  1.6119  2.6876  140.19  0.5418 
  3489.500 -46.971  1.5930  1.6060  1.3890  20.653  112.60  0.5490  0.5540  0.0040  2.6434 -2.9710  1.3890  1.6060  1.5930  2.6451  20.731  0.0030  111.53  0.5400  1.7087  1.6228  1.6100  2.6893  147.09  0.5407 
  3490.000 -46.679  1.5860  1.6010  1.4720  20.731  103.64  0.5470  0.5800  0.0030  2.6451 -2.6790  1.4720  1.6010  1.5860  2.6434  20.379  0.0040  114.36  0.5520  1.8183  1.6179  1.6022  2.6876  150.13  0.5541 
  3490.500 -46.705  1.5850  1.5940  1.5090  20.379  100.47  0.5630  0.5940  0.0040  2.6434 -2.7050  1.5090  1.5940  1.5850  2.6500  19.409  0.0000  112.60  0.5490  1.8496  1.6112  1.5993  2.6938  145.87  0.5504 
  3491.000 -46.718  1.5870  1.5870  1.5670  19.409  100.47  0.5770  0.5840  0.0000  2.6500 -2.7180  1.5670  1.5870  1.5870  2.6566  16.106 -0.0040  103.64  0.5470  1.8543  1.6058  1.5949  2.6943  127.19  0.5471 
  3491.500 -46.732  1.5920  1.5890  1.5610  16.106  102.12  0.5710  0.5810 -0.0040  2.6566 -2.7320  1.5610  1.5890  1.5920  2.6500  16.007  0.0000  100.47  0.5630  1.8445  1.6079  1.5998  2.6875  123.07  0.5651 
  3492.000 -46.561  1.5910  1.5860  1.5320  16.007  104.89  0.5540  0.5800  0.0000  2.6500 -2.5610  1.5320  1.5860  1.5910  2.6451  17.498  0.0030  100.47  0.5770  1.8399  1.6041  1.6017  2.6862  126.38  0.5813 
  3492.500 -46.368  1.5880  1.5820  1.5030  17.498  107.81  0.5400  0.5790  0.0030  2.6451 -2.3680  1.5030  1.5820  1.5880  2.6500  19.519  0.0000  102.12  0.5710  1.8437  1.5989  1.6026  2.6939  132.51  0.5752 
  3493.000 -46.354  1.5870  1.5780  1.4640  19.519  103.22  0.5310  0.5880  0.0000  2.6500 -2.3540  1.4640  1.5780  1.5870  2.6533  19.847 -0.0020  104.89  0.5540  1.7968  1.5947  1.6022  2.6974  136.72  0.5562 
  3493.500 -46.657  1.5860  1.5750  1.4560  19.847  79.640  0.5210  0.5960 -0.0020  2.6533 -2.6570  1.4560  1.5750  1.5860  2.6500  19.875  0.0000  107.81  0.5400  1.7864  1.5916  1.6012  2.6941  140.58  0.5404 
  3494.000 -999.25  1.5850  1.5710  1.4470  19.875  66.028  0.5470  0.5890  0.0000  2.6500 -999.25  1.4470  1.5710  1.5850  2.6566  19.167 -0.0040  103.22  0.5310  1.7606  1.5879  1.5988  2.7002  133.26  0.5301 
  3494.500 -999.25 -999.25  1.5700  1.4380  19.167  7.1640  0.5640  0.5700 -0.0040  2.6566 -999.25  1.4380  1.5700 -999.25  2.6500  19.170  0.0000  79.640  0.5210  1.7485  1.5868 -999.25  2.6936  102.82  0.5188 
  3495.000 -999.25 -999.25 -999.25  1.4300  19.170  0.1180  0.6010  0.5560  0.0000  2.6500 -999.25  1.4300 -999.25 -999.25  2.6434  19.230  0.0040  66.028  0.5470  1.7387 -999.25 -999.25  2.6871  85.322  0.5481 
  3495.500 -999.25 -999.25 -999.25  1.4210  19.230  0.1930  0.6040  0.5440  0.0040  2.6434 -999.25  1.4210 -999.25 -999.25  2.6418  19.447  0.0050  7.1640  0.5640  1.7304 -999.25 -999.25  2.6856  9.2860  0.5673 
  3496.000 -999.25 -999.25 -999.25  1.4180  19.447  0.2680  0.5880  0.5440  0.0050  2.6418 -999.25  1.4180 -999.25 -999.25  2.6500  19.811  0.0000  0.1180  0.6010  1.7329 -999.25 -999.25  2.6941  0.1537  0.6092 
  3496.500 -999.25 -999.25 -999.25  1.4150  19.811  0.3430  0.5900  0.5560  0.0000  2.6500 -999.25  1.4150 -999.25 -999.25  2.6616  19.486 -0.0070  0.1930  0.6040  1.7229 -999.25 -999.25  2.7054  0.2503  0.6124 
  3497.000 -999.25 -999.25 -999.25  1.4170  19.486  0.4180  0.5430  0.5930 -0.0070  2.6616 -999.25  1.4170 -999.25 -999.25  2.6698  17.690 -0.0120  0.2680  0.5880  1.6933 -999.25 -999.25  2.7114  0.3382  0.5938 
  3497.500 -999.25 -999.25 -999.25  1.4180  17.690  0.4930  0.5370  0.6060 -0.0120  2.6698 -999.25  1.4180 -999.25 -999.25  2.6648  16.851 -0.0090  0.3430  0.5900  1.6795 -999.25 -999.25  2.7046  0.4267  0.5957 
  3498.000 -999.25 -999.25 -999.25  1.4280  16.851  0.5680  0.5320  0.5680 -0.0090  2.6648 -999.25  1.4280 -999.25 -999.25  2.6599  16.596 -0.0060  0.4180  0.5430  1.6877 -999.25 -999.25  2.6990  0.5177  0.5428 
  3498.500 -999.25 -999.25 -999.25  1.4380  16.596  4.8370  0.5180  0.5490 -0.0060  2.6599 -999.25  1.4380 -999.25 -999.25  2.6583  16.341 -0.0050  0.4930  0.5370  1.6957 -999.25 -999.25  2.6967  0.6077  0.5359 
  3499.000 -999.25 -999.25 -999.25 -999.25  16.341  11.084  0.5180  0.5190 -0.0050  2.6583 -999.25 -999.25 -999.25 -999.25  2.6566  16.085 -0.0040  0.5680  0.5320 -999.25 -999.25 -999.25  2.6943  0.6968  0.5302 
  3499.500 -999.25 -999.25 -999.25 -999.25  16.085  20.811  0.5380  0.5410 -0.0040  2.6566 -999.25 -999.25 -999.25 -999.25  2.6566  15.830 -0.0040  4.8370  0.5180 -999.25 -999.25 -999.25  2.6935  5.9050  0.5144 
  3500.000 -999.25 -999.25 -999.25 -999.25  15.830  24.367  0.5560  0.5660 -0.0040  2.6566 -999.25 -999.25 -999.25 -999.25 -999.25 -999.25 -999.25  11.084  0.5180 -999.25 -999.25 -999.25 -999.25  11.084  0.5101 
