~Version Information
VERS.                     2.0: CWLS log ASCII Standard Version 2.00
WRAP.                      NO: One line per depth step
~Well Information Block
#MNEM.UNIT                               Data Type  Information
#---------                               ---------  -----------
STRT.FT                                    26.0000:
STOP.FT                                  3500.0000:
STEP.FT                                     0.5000:
NULL.                 -999.25                     :
COMP.                                             :COMPANY            
WELL.     SANTIAGO A 72-30                        :WELL               
FLD .                                             :FIELD              
CTRY.                                             :COUNTRY            
STAT.                                             :STATE              
LOC .                                             :LOCATION           
UWI .                                             :UNIQUE WELL ID     
SRVC.                                             :Service company    
DATE.                                             :LOG DATE           
~Curve Information
#MNEM.UNIT           API CODE  Curve Description
#---------           --------  -----------------
DEPT.FT                      :   1 DEPTH
SP  .MV                      :   2
ILD .OHMM                    :   3
ILM .OHMM                    :   4
SFLU.OHMM                    :   5
CALI.IN                      :   6
GR  .GAPI                    :   7
NPHI.DECI                    :   8
DPHI.DECI                    :   9
DRHO.G/C3                    :  10
RHOB.G/C3                    :  11
SBL .MV                      :  12
RS  .OHMM                    :  13
RM  .OHMM                    :  14
RD  .OHMM                    :  15
ROBS.G/C3                    :  16
CALS.IN                      :  17
DRHS.G/C3                    :  18
GRS .GAPI                    :  19
NPHS.DECI                    :  20
SFLU.OHMM                    :  21
ILMC.OHMM                    :  22
ILDC.OHMM                    :  23
ROBC.G/C3                    :  24
GRC .GAPI                    :  25
NPHC.DECI                    :  26
~A
# ...
  1451.000 -61.352  2.5080  2.1100  2.1560  12.201  78.113  0.5830  0.6020 -0.0040  2.6566 -16.712  2.1560  2.1100  2.5080  2.6550  12.226 -0.0030  78.632  0.5922  2.4425  2.1298  2.5091  2.6763  88.368  0.5960 
  1451.500 -61.243  2.5670  2.1250  2.1280  12.221  76.852  0.6010  0.5970 -0.0030  2.6550 -16.523  2.1280  2.1250  2.5670  2.6550  12.230 -0.0030  77.796  0.6044  2.4105  2.1451  2.5682  2.6763  87.440  0.6097 
  1452.000 -60.894  2.6710  2.1400  2.1020  12.230  78.367  0.6080  0.5920 -0.0030  2.6550 -16.094  2.1020  2.1400  2.6710  2.6557  12.228 -0.0035  77.211  0.6017  2.3806  2.1604  2.6722  2.6771  86.778  0.6067 
  1452.500 -60.249  2.7440  2.2020  2.0440  12.230  83.053  0.5940  0.5870 -0.0030  2.6550 -15.369  2.0440  2.2020  2.7440  2.6559  12.225 -0.0036  79.411  0.5936  2.3139  2.2236  2.7453  2.6772  89.242  0.5976 
  1453.000 -59.524  2.8190  2.3420  2.0270  12.226  85.994  0.5930  0.5800 -0.0040  2.6566 -14.564  2.0270  2.3420  2.8190  2.6550  12.215 -0.0030  83.667  0.5945  2.2941  2.3664  2.8203  2.6762  93.999  0.5986 
  1453.500 -58.539  3.1090  2.5070  2.0090  12.223  88.222  0.5970  0.5670 -0.0030  2.6550 -13.499  2.0090  2.5070  3.1090  2.6550  12.169 -0.0030  86.427  0.6012  2.2718  2.5346  3.1102  2.6760  96.979  0.6061 
  1454.000 -57.737  3.3870  2.7590  1.9510  12.203  91.323  0.6090  0.5600 -0.0030  2.6550 -12.617  1.9510  2.7590  3.3870  2.6555  12.027 -0.0034  88.781  0.5997  2.2005  2.7912  3.3872  2.6758  99.235  0.6043 
  1454.500 -56.635  3.6890  3.1960  1.9770  12.113  94.502  0.5800  0.5550 -0.0030  2.6550 -11.435  1.9770  3.1960  3.6890  2.6577  11.807 -0.0047  91.851  0.5696  2.2225  3.2366  3.6887  2.6767  102.04  0.5704 
  1455.000 -55.793  4.5170  3.6750  2.1100  11.871  95.620  0.5440  0.5480 -0.0040  2.6566 -10.513  2.1100  3.6750  4.5170  2.6609  11.627 -0.0066  94.672  0.5435  2.3664  3.7260  4.5162  2.6788  104.64  0.5409 
  1455.500 -54.630  4.9160  4.2180  2.3610  11.677  92.932  0.5420  0.5300 -0.0060  2.6599 -9.2700  2.3610  4.2180  4.9160  2.6650  11.524 -0.0091  95.250  0.5416  2.6451  4.2831  4.9148  2.6823  104.97  0.5387 
  1456.000 -53.765  5.5300  5.0760  2.6850  11.511  85.328  0.5400  0.5050 -0.0080  2.6632 -8.3250  2.6850  5.0760  5.5300  2.6764  11.577 -0.0160  91.993  0.5388  3.0131  5.1722  5.5287  2.6940  101.53  0.5357 
  1456.500 -53.338  6.2320  5.6990  3.2540  11.559  72.809  0.5340  0.4930 -0.0120  2.6698 -7.8180  3.2540  5.6990  6.2320  2.7036  11.644 -0.0325  83.960  0.5276  3.6603  5.8232  6.2306  2.7216  92.846  0.5231 
  1457.000 -53.249  6.9990  6.0690  4.3460  11.631  65.919  0.4940  0.4630 -0.0280  2.6962 -7.6490  4.3460  6.0690  6.9990  2.7178  11.707 -0.0411  72.154  0.4890  4.9030  6.2128  6.9975  2.7361  79.932  0.4798 
  1457.500 -53.291  7.4140  6.5470  5.8900  11.691  59.347  0.4550  0.4200 -0.0480  2.7292 -7.6110  5.8900  6.5470  7.4140  2.6627  11.799 -0.0077  65.388  0.4464  6.6706  6.7194  7.4129  2.6816  72.624  0.4321 
  1458.000 -53.332  7.5700  6.7720  7.5410  11.771  50.553  0.3660  0.3600 -0.0130  2.6715 -7.5720  7.5410  6.7720  7.5700  2.6112  11.979  0.0235  58.761  0.3625  8.5926  6.9667  7.5699  2.6311  65.593  0.3383 
  1458.500 -53.438  7.6730  6.7150  9.6760  11.933  43.188  0.3130  0.2420  0.0180  2.6203 -7.5980  9.6760  6.7150  7.6730  2.5564  12.295  0.0567  50.167  0.3124  11.140  6.9239  7.6863  2.5781  56.484  0.2800 
  1459.000 -53.548  7.7810  6.6580  10.006  12.251  42.482  0.2950  0.2310  0.0560  2.5576 -7.6280  10.006  6.6580  7.7810  2.5482  12.600  0.0617  43.161  0.2950  11.617  6.8799  7.8088  2.5715  48.990  0.2615 
  1459.500 -53.596  7.8010  6.5120  9.5510  12.624  50.735  0.2960  0.2450  0.0620  2.5477 -7.5960  9.5510  6.5120  7.8010  2.5579  12.354  0.0558  42.681  0.2960  11.013  6.7113  7.8174  2.5799  48.132  0.2624 
  1460.000 -53.448  7.7530  6.6010  8.5060  12.367  64.777  0.3270  0.3330  0.0590  2.5527 -7.4520  8.5060  6.6010  7.7530  2.6324  12.170  0.0107  50.874  0.3269  9.7499  6.7961  7.7608  2.6534  57.087  0.2956 
  1460.500 -52.681  7.7020  6.8030  7.7290  12.176  75.481  0.3560  0.3680  0.0110  2.6319 -6.6890  7.7290  6.8030  7.7020  2.6451  12.032  0.0030  65.122  0.3559  8.8206  7.0025  7.7035  2.6653  72.801  0.3308 
  1461.000 -52.258  7.5970  6.7600  6.8330  12.034  83.965  0.4100  0.4550  0.0030  2.6451 -6.2700  6.8330  6.7600  7.5970  2.6485  11.893  0.0009  76.028  0.4096  7.7636  6.9492  7.5964  2.6680  84.665  0.3910 
  1461.500 -52.525  7.4000  6.4760  5.7630  11.895  90.387  0.4930  0.5420  0.0010  2.6484 -6.5410  5.7630  6.4760  7.4000  2.6568  11.785 -0.0041  84.586  0.4923  6.5237  6.6440  7.3988  2.6756  93.911  0.4836 
  1462.000 -52.814  7.2710  6.0150  5.2350  11.780  94.589  0.5410  0.5730 -0.0040  2.6566 -6.8340  5.2350  6.0150  7.2710  2.6614  11.903 -0.0069  90.929  0.5405  5.9396  6.1648  7.2705  2.6810  101.29  0.5378 
  1462.500 -53.058  6.9020  5.6470  4.5040  11.895  99.822  0.5560  0.5800 -0.0070  2.6616 -7.0820  4.5040  5.6470  6.9020  2.6596  12.023 -0.0058  95.433  0.5558  5.1193  5.7835  6.9029  2.6798  106.66  0.5550 
  1463.000 -53.131  5.9510  5.1780  4.1520  12.018  105.21  0.5430  0.5550 -0.0060  2.6599 -7.1589  4.1520  5.1780  5.9510  2.6576  12.086 -0.0046  100.87  0.5432  4.7227  5.2945  5.9533  2.6782  112.92  0.5409 
  1463.500 -53.160  5.5150  4.5290  3.7950  12.085  109.02  0.5420  0.5280 -0.0040  2.6566 -7.1919  3.7950  4.5290  5.5150  2.6669  12.092 -0.0103  106.07  0.5420  4.3139  4.6181  5.5171  2.6875  118.77  0.5396 
  1464.000 -53.786  4.9570  4.0550  3.5820  12.093  112.59  0.5410  0.5250 -0.0100  2.6665 -7.8219  3.5820  4.0550  4.9570  2.6696  12.074 -0.0119  109.94  0.5410  4.0682  4.1259  4.9584  2.6901  123.05  0.5385 
  1464.500 -54.390  4.5620  3.7940  3.4750  12.085  116.87  0.5400  0.5180 -0.0120  2.6698 -8.4299  3.4750  3.7940  4.5620  2.6660  11.989 -0.0097  113.83  0.5400  3.9386  3.8545  4.5620  2.6860  127.10  0.5373 
  1465.000 -54.779  4.5160  3.8810  3.5360  12.010  119.80  0.5820  0.5050 -0.0110  2.6682 -8.8229  3.5360  3.8810  4.5160  2.6528  11.856 -0.0017  117.82  0.5811  3.9971  3.9420  4.5157  2.6721  131.06  0.5833 
  1465.500 -55.088  4.6460  4.0590  3.6340  11.879  119.33  0.6100  0.4950 -0.0030  2.6550 -9.1359  3.6340  4.0590  4.6460  2.6421  11.699  0.0048  119.63  0.6094  4.0949  4.1227  4.6453  2.6604  132.50  0.6149 
  1466.000 -55.355  4.7700  4.3150  3.7330  11.752  115.04  0.6120  0.4920  0.0040  2.6434 -9.4069  3.7330  4.3150  4.7700  2.6349  11.416  0.0091  117.67  0.6120  4.1814  4.3808  4.7687  2.6516  129.27  0.6176 
  1466.500 -55.484  5.0520  4.6540  3.8920  11.491  108.31  0.5990  0.4910  0.0080  2.6368 -9.5399  3.8920  4.6540  5.0520  2.6273  11.120  0.0137  112.22  0.5993  4.3317  4.7230  5.0497  2.6422  122.21  0.6032 
  1467.000 -55.933  5.7880  5.2070  3.9750  11.158  101.41  0.5810  0.4950  0.0130  2.6286 -9.9929  3.9750  5.2070  5.7880  2.6249  11.169  0.0152  105.19  0.5815  4.4290  5.2951  5.7852  2.6400  114.72  0.5833 
  1467.500 -57.154  6.3120  5.4290  4.0140  11.003  93.876  0.5320  0.5050  0.0160  2.6236 -11.218  4.0140  5.4290  6.3120  2.6328  11.814  0.0104  97.763  0.5334  4.5372  5.5476  6.3112  2.6518  108.63  0.5298 
  1468.000 -57.916  7.0630  5.6600  4.0690  11.629  89.118  0.4970  0.5210  0.0130  2.6286 -11.984  4.0690  5.6600  7.0630  2.6469  12.763  0.0019  91.420  0.4981  4.6967  5.8259  7.0921  2.6711  104.21  0.4907 
  1468.500 -58.244  7.6730  6.0310  4.1250  12.276  84.124  0.4980  0.5310  0.0040  2.6434 -12.316  4.1250  6.0310  7.6730  2.6566  14.083 -0.0040  86.379  0.4980  4.8996  6.2791  7.7675  2.6870  101.65  0.4913 
  1469.000 -58.473  8.3980  6.3420  4.7260  13.865  81.269  0.5350  0.5420 -0.0030  2.6550 -12.549  4.7260  6.3420  8.3980  2.6610  14.618 -0.0067  82.466  0.5337  5.6973  6.6441  8.5409  2.6937  98.207  0.5317 
  1469.500 -58.662  9.2950  6.6310  5.4760  14.531  76.987  0.5420  0.5630 -0.0060  2.6599 -12.742  5.4760  6.6310  9.2950  2.6650  14.774 -0.0091  78.645  0.5417  6.6490  6.9707  9.4810  2.6983  93.970  0.5408 
