~Version Information
VERS.                     2.0: CWLS log ASCII Standard Version 2.00
WRAP.                      NO: One line per depth step
~Well Information Block
#MNEM.UNIT                               Data Type  Information
#---------                               ---------  -----------
STRT.FT                                    26.0000:
STOP.FT                                  3500.0000:
STEP.FT                                     0.5000:
NULL.                 -999.25                     :
COMP.                                             :COMPANY            
WELL.     SANTIAGO A 72-30                        :WELL               
FLD .                                             :FIELD              
CTRY.                                             :COUNTRY            
STAT.                                             :STATE              
LOC .                                             :LOCATION           
UWI .                                             :UNIQUE WELL ID     
SRVC.                                             :Service company    
DATE.                                             :LOG DATE           
~Curve Information
#MNEM.UNIT           API CODE  Curve Description
#---------           --------  -----------------
DEPT.FT                      :   1 DEPTH
SP  .MV                      :   2
ILD .OHMM                    :   3
ILM .OHMM                    :   4
SFLU.OHMM                    :   5
CALI.IN                      :   6
GR  .GAPI                    :   7
NPHI.DECI                    :   8
DPHI.DECI                    :   9
DRHO.G/C3                    :  10
RHOB.G/C3                    :  11
SBL .MV                      :  12
RS  .OHMM                    :  13
RM  .OHMM                    :  14
RD  .OHMM                    :  15
ROBS.G/C3                    :  16
CALS.IN                      :  17
DRHS.G/C3                    :  18
GRS .GAPI                    :  19
NPHS.DECI                    :  20
SFLU.OHMM                    :  21
ILMC.OHMM                    :  22
ILDC.OHMM                    :  23
ROBC.G/C3                    :  24
GRC .GAPI                    :  25
NPHC.DECI                    :  26
~A
# ...
   748.000 -58.380  3.1800  3.1000  3.0546 -999.25  38.318  0.6230 -999.25 -999.25 -999.25 -8.5422  3.0546  3.1000  3.1800 -999.25 -999.25 -999.25  37.363  0.6603  3.0546  3.1000  3.1800 -999.25  37.363  0.6549 
   748.500 -58.184  3.1540  3.0610  3.0280 -999.25  39.746  0.6220 -999.25 -999.25 -999.25 -8.4678  3.0280  3.0610  3.1540 -999.25 -999.25 -999.25  38.963  0.6784  3.0280  3.0610  3.1540 -999.25  38.963  0.6748 
   749.000 -57.987  3.1050  3.0480  2.9967 -999.25  41.253  0.6370 -999.25 -999.25 -999.25 -8.3924  2.9967  3.0480  3.1050 -999.25 -999.25 -999.25  40.426  0.6742  2.9967  3.0480  3.1050 -999.25  40.426  0.6702 
   749.500 -57.671  3.0550  3.0340  2.9636 -999.25  40.143  0.6430 -999.25 -999.25 -999.25 -8.1980  2.9636  3.0340  3.0550 -999.25 -999.25 -999.25  40.753  0.6476  2.9636  3.0340  3.0550 -999.25  40.753  0.6411 
   750.000 -57.647  3.0120  3.0080  2.9232 -999.25  38.239  0.6420 -999.25 -999.25 -999.25 -8.2956  2.9232  3.0080  3.0120 -999.25 -999.25 -999.25  39.287  0.6276  2.9232  3.0080  3.0120 -999.25  39.287  0.6191 
   750.500 -57.623  2.9820  2.9830  2.8390 -999.25  37.445  0.6370 -999.25 -999.25 -999.25 -8.3933  2.8390  2.9830  2.9820 -999.25 -999.25 -999.25  37.883  0.6228  2.8390  2.9830  2.9820 -999.25  37.883  0.6138 
   751.000 -57.302  2.9690  2.9520  2.8050 -999.25  38.000  0.6300 -999.25 -999.25 -999.25 -8.1939  2.8050  2.9520  2.9690 -999.25 -999.25 -999.25  37.694  0.6258  2.8050  2.9520  2.9690 -999.25  37.694  0.6172 
   751.500 -57.088  2.9560  2.9390  2.7610 -999.25  38.318  0.6190 -999.25 -999.25 -999.25 -8.1015  2.7610  2.9390  2.9560 -999.25 -999.25 -999.25  38.142  0.6386  2.7610  2.9390  2.9560 -999.25  38.142  0.6311 
   752.000 -57.004  2.9390  2.9260  2.7420 -999.25  37.842  0.6050 -999.25 -999.25 -999.25 -8.1391  2.7420  2.9260  2.9390 -999.25 -999.25 -999.25  38.105  0.6427  2.7420  2.9260  2.9390 -999.25  38.105  0.6357 
   752.500 -56.920  2.9230  2.9010  2.7220 -999.25  36.731  0.5680 -999.25 -999.25 -999.25 -8.1768  2.7220  2.9010  2.9230 -999.25 -999.25 -999.25  37.347  0.6406  2.7220  2.9010  2.9230 -999.25  37.347  0.6333 
   753.000 -56.596  2.9170  2.8760  2.7430 -999.25  35.303  0.5640 -999.25 -999.25 -999.25 -7.9744  2.7430  2.8760  2.9170 -999.25 -999.25 -999.25  36.095  0.6350  2.7430  2.8760  2.9170 -999.25  36.095  0.6272 
   753.500 -56.515  2.9110  2.8660  2.7710 -999.25  34.589  0.5760 -999.25 -999.25 -999.25 -8.0150  2.7710  2.8660  2.9110 -999.25 -999.25 -999.25  34.986  0.6267  2.7710  2.8660  2.9110 -999.25  34.986  0.6181 
   754.000 -56.435  2.9020  2.8560  2.8230 -999.25  36.810  0.5940 -999.25 -999.25 -999.25 -8.0566  2.8230  2.8560  2.9020 -999.25 -999.25 -999.25  35.575  0.6146  2.8230  2.8560  2.9020 -999.25  35.575  0.6049 
   754.500 -56.151  2.8830  2.8310  2.8370 -999.25  40.618  0.5920 -999.25 -999.25 -999.25 -7.8942  2.8370  2.8310  2.8830 -999.25 -999.25 -999.25  38.497  0.5931  2.8370  2.8310  2.8830 -999.25  38.497  0.5814 
   755.000 -55.932  2.8670  2.8260  2.8500 -999.25  41.491  0.5870 -999.25 -999.25 -999.25 -7.7969  2.8500  2.8260  2.8670 -999.25 -999.25 -999.25  41.004  0.5667  2.8500  2.8260  2.8670 -999.25  41.004  0.5524 
   755.500 -55.714  2.8520  2.8210  2.8360 -999.25  39.666  0.5920 -999.25 -999.25 -999.25 -7.7005  2.8360  2.8210  2.8520 -999.25 -999.25 -999.25  40.685  0.5681  2.8360  2.8210  2.8520 -999.25  40.685  0.5540 
   756.000 -55.349  2.8220  2.8070  2.8260 -999.25  36.572  0.6140 -999.25 -999.25 -999.25 -7.4571  2.8260  2.8070  2.8220 -999.25 -999.25 -999.25  38.302  0.5823  2.8260  2.8070  2.8220 -999.25  38.302  0.5695 
   756.500 -55.212  2.8100  2.7940  2.8150 -999.25  36.096  0.6240 -999.25 -999.25 -999.25 -7.4417  2.8150  2.7940  2.8100 -999.25 -999.25 -999.25  36.363  0.5933  2.8150  2.7940  2.8100 -999.25  36.363  0.5816 
   757.000 -55.275  2.7970  2.7820  2.8120 -999.25  36.016  0.6310 -999.25 -999.25 -999.25 -7.6264  2.8120  2.7820  2.7970 -999.25 -999.25 -999.25  36.061  0.5901  2.8120  2.7820  2.7970 -999.25  36.061  0.5781 
   757.500 -55.251  2.7730  2.7670  2.7520 -999.25  35.540  0.6330 -999.25 -999.25 -999.25 -7.7240  2.7520  2.7670  2.7730 -999.25 -999.25 -999.25  35.807  0.5889  2.7520  2.7670  2.7730 -999.25  35.807  0.5768 
   758.000 -55.227  2.7620  2.7530  2.7100 -999.25  35.064  0.6350 -999.25 -999.25 -999.25 -7.8216  2.7100  2.7530  2.7620 -999.25 -999.25 -999.25  35.332  0.6006  2.7100  2.7530  2.7620 -999.25  35.332  0.5895 
   758.500 -55.100  2.7520  2.7380  2.6530 -999.25  35.619  0.6420 -999.25 -999.25 -999.25 -7.8162  2.6530  2.7380  2.7520 -999.25 -999.25 -999.25  35.307  0.6180  2.6530  2.7380  2.7520 -999.25  35.307  0.6086 
   759.000 -55.019  2.7490  2.7290  2.6460 -999.25  36.968  0.6990 -999.25 -999.25 -999.25 -7.8568  2.6460  2.7290  2.7490 -999.25 -999.25 -999.25  36.208  0.6269  2.6460  2.7290  2.7490 -999.25  36.208  0.6183 
   759.500 -54.938  2.7470  2.7270  2.6430 -999.25  37.840  0.6990 -999.25 -999.25 -999.25 -7.8975  2.6430  2.7270  2.7470 -999.25 -999.25 -999.25  37.348  0.6318  2.6430  2.7270  2.7470 -999.25  37.348  0.6238 
   760.000 -54.654  2.7490  2.7250  2.6500 -999.25  37.999  0.6430 -999.25 -999.25 -999.25 -7.7351  2.6500  2.7250  2.7490 -999.25 -999.25 -999.25  37.909  0.6339  2.6500  2.7250  2.7490 -999.25  37.909  0.6260 
   760.500 -54.203  2.7510  2.7110  2.6500 -999.25  36.253  0.6180 -999.25 -999.25 -999.25 -7.4057  2.6500  2.7110  2.7510 -999.25 -999.25 -999.25  37.241  0.6381  2.6500  2.7110  2.7510 -999.25  37.241  0.6306 
   761.000 -53.748  2.7580  2.7150  2.6510 -999.25  35.218  0.6130 -999.25 -999.25 -999.25 -7.0723  2.6510  2.7150  2.7580 -999.25 -999.25 -999.25  35.804  0.6675  2.6510  2.7150  2.7580 -999.25  35.804  0.6629 
   761.500 -53.653  2.7660  2.7200  2.6690 -999.25  36.562  0.6200 -999.25 -999.25 -999.25 -7.0989  2.6690  2.7200  2.7660 -999.25 -999.25 -999.25  35.800  0.6990  2.6690  2.7200  2.7660 -999.25  35.800  0.6973 
   762.000 -53.769  2.7680  2.7300  2.6880 -999.25  37.749  0.6840 -999.25 -999.25 -999.25 -7.3366  2.6880  2.7300  2.7680 -999.25 -999.25 -999.25  37.075  0.6728  2.6880  2.7300  2.7680 -999.25  37.075  0.6686 
   762.500 -53.885  2.7700  2.7390  2.7010 -999.25  38.538  0.6900 -999.25 -999.25 -999.25 -7.5742  2.7010  2.7390  2.7700 -999.25 -999.25 -999.25  38.089  0.6311  2.7010  2.7390  2.7700 -999.25  38.089  0.6229 
   763.000 -53.969  2.7740  2.7520  2.7130 -999.25  37.026  0.6470 -999.25 -999.25 -999.25 -7.7798  2.7130  2.7520  2.7740 -999.25 -999.25 -999.25  37.887  0.6156  2.7130  2.7520  2.7740 -999.25  37.887  0.6060 
   763.500 -54.054  2.7790  2.7640  2.7390 -999.25  35.039  0.6060 -999.25 -999.25 -999.25 -7.9864  2.7390  2.7640  2.7790 -999.25 -999.25 -999.25  36.172  0.6165  2.7390  2.7640  2.7790 -999.25  36.172  0.6069 
   764.000 -53.976  2.7830  2.7840  2.7520 -999.25  33.448  0.5750 -999.25 -999.25 -999.25 -8.0301  2.7520  2.7840  2.7830 -999.25 -999.25 -999.25  34.356  0.6524  2.7520  2.7840  2.7830 -999.25  34.356  0.6463 
   764.500 -53.899  2.7850  2.8040  2.7640 -999.25  32.492  0.5740 -999.25 -999.25 -999.25 -8.0747  2.7640  2.8040  2.7850 -999.25 -999.25 -999.25  33.038  0.6871  2.7640  2.8040  2.7850 -999.25  33.038  0.6843 
   765.000 -53.813  2.7880  2.8250  2.7770 -999.25  32.171  0.5830 -999.25 -999.25 -999.25 -8.1103  2.7770  2.8250  2.7880 -999.25 -999.25 -999.25  32.355  0.6674  2.7770  2.8250  2.7880 -999.25  32.355  0.6627 
   765.500 -53.716  2.7900  2.8450  2.7970 -999.25  32.405  0.6000 -999.25 -999.25 -999.25 -8.1349  2.7970  2.8450  2.7900 -999.25 -999.25 -999.25  32.271  0.6250  2.7970  2.8450  2.7900 -999.25  32.271  0.6163 
   766.000 -53.462  2.7920  2.8580  2.8180 -999.25  33.194  0.6220 -999.25 -999.25 -999.25 -8.0025  2.8180  2.8580  2.7920 -999.25 -999.25 -999.25  32.741  0.5891  2.8180  2.8580  2.7920 -999.25  32.741  0.5770 
   766.500 -53.286  2.8040  2.8710  2.8500 -999.25  34.063  0.6610 -999.25 -999.25 -999.25 -7.9482  2.8500  2.8710  2.8040 -999.25 -999.25 -999.25  33.564  0.5744  2.8500  2.8710  2.8040 -999.25  33.564  0.5609 
