~Version Information
VERS.                     2.0: CWLS log ASCII Standard Version 2.00
WRAP.                      NO: One line per depth step
~Well Information Block
#MNEM.UNIT                               Data Type  Information
#---------                               ---------  -----------
STRT.FT                                    26.0000:
STOP.FT                                  3500.0000:
STEP.FT                                     0.5000:
NULL.                 -999.25                     :
COMP.                                             :COMPANY            
WELL.     SANTIAGO A 72-30                        :WELL               
FLD .                                             :FIELD              
CTRY.                                             :COUNTRY            
STAT.                                             :STATE              
LOC .                                             :LOCATION           
UWI .                                             :UNIQUE WELL ID     
SRVC.                                             :Service company    
DATE.                                             :LOG DATE           
~Curve Information
#MNEM.UNIT           API CODE  Curve Description
#---------           --------  -----------------
DEPT.FT                      :   1 DEPTH
SP  .MV                      :   2
ILD .OHMM                    :   3
ILM .OHMM                    :   4
SFLU.OHMM                    :   5
CALI.IN                      :   6
GR  .GAPI                    :   7
NPHI.DECI                    :   8
DPHI.DECI                    :   9
DRHO.G/C3                    :  10
RHOB.G/C3                    :  11
SBL .MV                      :  12
RS  .OHMM                    :  13
RM  .OHMM                    :  14
RD  .OHMM                    :  15
ROBS.G/C3                    :  16
CALS.IN                      :  17
DRHS.G/C3                    :  18
GRS .GAPI                    :  19
NPHS.DECI                    :  20
SFLU.OHMM                    :  21
ILMC.OHMM                    :  22
ILDC.OHMM                    :  23
ROBC.G/C3                    :  24
GRC .GAPI                    :  25
NPHC.DECI                    :  26
~A
# ...
  1223.000 -23.761  2.3210  2.2620  2.1650  12.106  56.547  0.5430  0.4300  0.0380  2.5873 -5.0879  2.1650  2.2620  2.3210  2.6242  11.546  0.0157  53.427  0.5286  2.4195  2.2750  2.3208  2.6416  57.504  0.5155 
  1223.500 -23.891  2.3160  2.2630  2.1720  11.984  54.424  0.5750  0.4260  0.0410  2.5824 -5.1987  2.1720  2.2630  2.3160  2.6054  11.544  0.0270  52.056  0.5146  2.4273  2.2761  2.3158  2.6228  56.026  0.5000 
  1224.000 -23.975  2.3130  2.2650  2.1790  11.723  52.774  0.5900  0.4390  0.0290  2.6022 -5.2635  2.1790  2.2650  2.3130  2.5876  11.762  0.0378  51.757  0.5069  2.4418  2.2790  2.3129  2.6063  56.043  0.4916 
  1224.500 -24.224  2.3100  2.2680  2.1740  11.577  51.600  0.5790  0.4500  0.0190  2.6187 -5.4932  2.1740  2.2680  2.3100  2.5812  12.139  0.0417  52.808  0.5087  2.4475  2.2836  2.3104  2.6020  57.766  0.4938 
  1225.000 -24.312  2.3070  2.2720  2.1460  11.554  51.854  0.5360  0.4560  0.0140  2.6269 -5.5620  2.1460  2.2720  2.3070  2.5866  12.465  0.0384  54.090  0.5170  2.4250  2.2890  2.3083  2.6092  59.678  0.5031 
  1225.500 -24.439  2.3040  2.2710  2.1370  11.539  53.376  0.5220  0.4540  0.0170  2.6220 -5.6698  2.1370  2.2710  2.3040  2.5999  12.614  0.0304  54.462  0.5275  2.4190  2.2887  2.3057  2.6233  60.320  0.5147 
  1226.000 -24.084  2.3030  2.2700  2.1520  11.548  54.502  0.5080  0.4470  0.0350  2.5923 -5.2955  2.1520  2.2700  2.3030  2.6083  12.629  0.0253  53.677  0.5359  2.4368  2.2877  2.3048  2.6318  59.473  0.5240 
  1226.500 -23.735  2.3020  2.2610  2.1710  11.929  54.439  0.5060  0.4400  0.0400  2.5840 -4.9273  2.1710  2.2610  2.3020  2.6065  12.620  0.0264  52.756  0.5317  2.4585  2.2785  2.3037  2.6300  58.438  0.5193 
  1227.000 -23.900  2.3010  2.2510  2.1870  12.299  53.265  0.5110  0.4390  0.0430  2.5791 -5.0731  2.1870  2.2510  2.3010  2.6058  12.599  0.0268  52.131  0.5124  2.4764  2.2683  2.3027  2.6291  57.715  0.4980 
  1227.500 -24.106  2.3000  2.2450  2.1840  12.589  52.489  0.5220  0.4480  0.0350  2.5923 -5.2598  2.1840  2.2450  2.3000  2.6110  12.543  0.0236  51.534  0.4969  2.4712  2.2620  2.3015  2.6341  56.973  0.4808 
  1228.000 -24.312  2.2960  2.2390  2.1810  12.633  51.949  0.5320  0.4540  0.0270  2.6055 -5.4466  2.1810  2.2390  2.2960  2.6117  12.064  0.0232  50.642  0.4924  2.4532  2.2539  2.2962  2.6321  55.288  0.4758 
  1228.500 -24.523  2.2910  2.2330  2.1640  12.626  51.330  0.5390  0.4540  0.0240  2.6104 -5.6384  2.1640  2.2330  2.2910  2.6064  11.810  0.0264  50.000  0.4943  2.4262  2.2468  2.2909  2.6254  54.212  0.4778 
  1229.000 -24.609  2.2860  2.2280  2.1480  12.615  50.316  0.5260  0.4520  0.0280  2.6038 -5.7052  2.1480  2.2280  2.2860  2.6008  12.282  0.0298  51.240  0.5001  2.4219  2.2436  2.2868  2.6224  56.264  0.4843 
  1229.500 -24.658  2.2810  2.2230  2.1310  12.588  49.855  0.5020  0.4580  0.0260  2.6071 -5.7349  2.1310  2.2230  2.2810  2.5937  12.684  0.0341  53.472  0.5314  2.4140  2.2402  2.2829  2.6175  59.329  0.5191 
  1230.000 -24.624  2.2760  2.2190  2.1190  12.513  51.853  0.4930  0.4610  0.0220  2.6137 -5.6817  2.1190  2.2190  2.2760  2.5885  12.790  0.0373  54.903  0.5504  2.4031  2.2366  2.2782  2.6129  61.081  0.5401 
  1230.500 -24.553  2.2700  2.2090  2.1030  11.769  54.165  0.4920  0.4540  0.0240  2.6104 -5.5915  2.1030  2.2090  2.2700  2.5852  12.828  0.0393  55.216  0.5397  2.3856  2.2265  2.2723  2.6098  61.486  0.5283 
  1231.000 -24.559  2.2630  2.2000  2.0980  11.837  55.207  0.4960  0.4510  0.0280  2.6038 -5.5782  2.0980  2.2000  2.2630  2.5777  12.748  0.0438  54.827  0.5275  2.3775  2.2171  2.2650  2.6019  60.931  0.5148 
  1231.500 -24.646  2.2570  2.2000  2.0980  12.563  55.219  0.5030  0.4470  0.0310  2.5989 -5.6460  2.0980  2.2000  2.2570  2.5678  12.448  0.0498  54.453  0.5160  2.3691  2.2159  2.2582  2.5903  60.053  0.5020 
  1232.000 -24.774  2.2500  2.1990  2.0970  12.758  54.676  0.5510  0.4440  0.0360  2.5906 -5.7548  2.0970  2.1990  2.2500  2.5621  12.183  0.0533  54.204  0.5079  2.3606  2.2138  2.2505  2.5832  59.363  0.4929 
  1232.500 -24.900  2.2430  2.1990  2.1110  12.810  54.371  0.5500  0.4400  0.0380  2.5873 -5.8615  2.1110  2.1990  2.2430  2.5566  12.197  0.0566  53.858  0.5072  2.3770  2.2139  2.2435  2.5778  59.007  0.4922 
  1233.000 -25.026  2.2420  2.2090  2.1220  12.838  54.144  0.5330  0.4380  0.0400  2.5840 -5.9683  2.1220  2.2090  2.2420  2.5543  12.169  0.0580  53.113  0.5155  2.3889  2.2239  2.2425  2.5753  58.148  0.5013 
  1233.500 -25.073  2.2410  2.2110  2.1410  12.696  53.760  0.5240  0.4390  0.0460  2.5741 -5.9961  2.1410  2.2110  2.2410  2.5663  11.946  0.0507  52.549  0.5276  2.4041  2.2251  2.2410  2.5860  57.187  0.5145 
  1234.000 -25.120  2.2430  2.2120  2.1520  12.308  52.900  0.5110  0.4380  0.0520  2.5642 -6.0238  2.1520  2.2120  2.2430  2.5834  11.727  0.0404  52.385  0.5397  2.4102  2.2252  2.2429  2.6019  56.669  0.5278 
  1234.500 -25.092  2.2450  2.2230  2.1630  12.114  52.438  0.5060  0.4370  0.0540  2.5609 -5.9766  2.1630  2.2230  2.2450  2.6000  11.734  0.0303  52.991  0.5601  2.4228  2.2364  2.2449  2.6185  57.335  0.5503 
  1235.000 -25.037  2.2480  2.2230  2.1660  12.242  52.369  0.5080  0.4360  0.0580  2.5543 -5.9024  2.1660  2.2230  2.2480  2.6188  11.806  0.0189  53.121  0.5515  2.4284  2.2366  2.2479  2.6378  57.590  0.5408 
  1235.500 -24.982  2.2510  2.2220  2.1660  12.131  53.173  0.5200  0.4410  0.0580  2.5543 -5.8282  2.1660  2.2220  2.2510  2.6320  11.785  0.0109  52.928  0.5224  2.4277  2.2355  2.2509  2.6508  57.347  0.5087 
  1236.000 -24.914  2.2540  2.2110  2.1730  11.851  53.107  0.5320  0.4440  0.0470  2.5725 -5.7409  2.1730  2.2110  2.2540  2.6193  11.824  0.0186  53.206  0.4955  2.4368  2.2246  2.2539  2.6384  57.709  0.4791 
  1236.500 -24.724  2.2570  2.2000  2.1760  11.665  52.880  0.5440  0.4410  0.0370  2.5890 -5.5317  2.1760  2.2000  2.2570  2.6029  12.258  0.0285  55.019  0.4810  2.4534  2.2152  2.2577  2.6244  60.376  0.4633 
  1237.000 -24.691  2.2610  2.1980  2.1630  11.768  53.289  0.5690  0.4380  0.0270  2.6055 -5.4795  2.1630  2.1980  2.2610  2.5931  12.706  0.0345  55.837  0.4827  2.4518  2.2149  2.2629  2.6170  61.988  0.4653 
  1237.500 -24.938  2.2580  2.1950  2.1230  11.825  55.442  0.5420  0.4420  0.0150  2.6253 -5.7072  2.1230  2.1950  2.2580  2.6010  12.959  0.0297  55.939  0.4884  2.4126  2.2128  2.2606  2.6262  62.496  0.4717 
  1238.000 -25.225  2.2550  2.2080  2.0840  11.766  55.929  0.5120  0.4500  0.0090  2.6352 -5.9750  2.0840  2.2080  2.2550  2.6206  13.053  0.0178  56.541  0.4839  2.3696  2.2264  2.2579  2.6463  63.316  0.4667 
  1238.500 -25.429  2.2550  2.2210  2.0680  11.850  55.941  0.4870  0.4530  0.0230  2.6121 -6.1598  2.0680  2.2210  2.2550  2.6222  12.047  0.0168  57.535  0.4735  2.3237  2.2356  2.2551  2.6425  62.783  0.4548 
  1239.000 -25.633  2.2560  2.2290  2.0600  12.441  56.667  0.4780  0.4500  0.0310  2.5989 -6.3445  2.0600  2.2290  2.2560  2.6132  11.621  0.0223  58.585  0.4686  2.3032  2.2420  2.2559  2.6311  63.188  0.4493 
  1239.500 -25.805  2.2570  2.2360  2.0670  12.822  57.709  0.4850  0.4490  0.0360  2.5906 -6.4973  2.0670  2.2360  2.2570  2.6104  11.778  0.0240  58.405  0.4750  2.3153  2.2497  2.2569  2.6292  63.270  0.4564 
  1240.000 -25.894  2.2620  2.2440  2.0810  13.017  58.751  0.4900  0.4630  0.0270  2.6055 -6.5671  2.0810  2.2440  2.2620  2.6128  11.956  0.0225  56.299  0.5243  2.3361  2.2585  2.2620  2.6326  61.283  0.5109 
  1240.500 -26.181  2.2670  2.2510  2.0960  13.068  58.343  0.4810  0.4690  0.0140  2.6269 -6.8348  2.0960  2.2510  2.2670  2.6101  12.033  0.0242  54.232  0.5461  2.3553  2.2659  2.2671  2.6303  59.157  0.5350 
  1241.000 -26.588  2.2690  2.2500  2.1460  11.632  55.953  0.4700  0.4650  0.0180  2.6203 -7.2226  2.1460  2.2500  2.2690  2.5966  12.031  0.0324  52.154  0.5420  2.4123  2.2649  2.2691  2.6168  56.888  0.5305 
  1241.500 -26.793  2.2710  2.2490  2.1970  11.616  53.958  0.4680  0.4620  0.0240  2.6104 -7.4084  2.1970  2.2490  2.2710  2.5812  11.904  0.0417  51.805  0.5228  2.4666  2.2634  2.2710  2.6008  56.313  0.5092 
