~V
VERS. 2.00: Ver 2.00
WRAP.   NO:        
~W
 STRT.FT 800:
 STOP.FT 5530:
 STEP.FT 0.5:
 NULL. -999.250000:
 COMP. TENNECO OIL COMPANY:Company
 WELL. SANTIAGO "B" 73-29:Well
 FLD. SANTIAGO:Field
 LOC. SEC 29 TWP 11N RGE 22W:Location
 STAT. CA:State
 SRVC. :Service Company
 SON. :Service Order #
 DATE. :Log Date
 UWI. :Unique Well ID
~C
 DEPT.FT :
 CALS.IN :
 GRC.GAPI :
 NPHC.PU-S :
 PHES. :
 PHIE. :
 PHIT. :
 PHTS. :
 PHZC. :
 RD.OHMM :
 ROBC.G/C3 :
 RS.OHMM :
 SBL.MV :
 VCLW. :
 VCWS. :
 VSHL. :
 VSHS. :
~P
~A
# ...
   4760.0000     10.4435    127.3302      0.3985      0.2546      0.2673      0.4102      0.4226      0.4158      3.6750      1.7252      3.5120    -13.8828      0.2859      0.2800      0.7327      0.7000
   4760.5000     10.4704    127.4296      0.3996      0.2543      0.2687      0.4140      0.4225      0.4158      3.6280      1.7347      3.5800    -13.8655      0.2907      0.2803      0.7313      0.7008
   4761.0000     10.4916    127.2750      0.3981      0.2570      0.2726      0.4162      0.4233      0.4166      3.5830      1.7389      4.0380    -14.0472      0.2873      0.2771      0.7274      0.6928
   4761.5000     10.4837    127.4930      0.3976      0.2686      0.2804      0.4153      0.4266      0.4203      3.3960      1.7357      4.0440    -14.8219      0.2698      0.2634      0.7196      0.6586
   4762.0000     10.4657    129.3566      0.3976      0.2682      0.2786      0.4148      0.4265      0.4202      3.3520      1.7352      3.9730    -14.8007      0.2724      0.2638      0.7214      0.6595
   4762.5000     10.4470    132.6843      0.4055      0.2680      0.2782      0.4189      0.4265      0.4201      3.3080      1.7345      3.5620    -14.7874      0.2815      0.2640      0.7218      0.6601
   4763.0000     10.4288    136.4584      0.4146      0.2826      0.2891      0.4242      0.4307      0.4248      3.1650      1.7309      3.2530    -15.7601      0.2701      0.2469      0.7109      0.6172
   4763.5000     10.3832    137.4367      0.4244      0.2941      0.3022      0.4305      0.4340      0.4284      3.1100      1.7188      3.2870    -16.5308      0.2567      0.2333      0.6978      0.5832
   4764.0000     10.3404    135.4729      0.4241      0.3027      0.3090      0.4288      0.4365      0.4312      3.0850      1.7091      3.2900    -17.1115      0.2395      0.2230      0.6910      0.5576
   4764.5000     10.3170    133.3794      0.4182      0.2876      0.2963      0.4227      0.4322      0.4264      3.0600      1.7087      3.2330    -16.1012      0.2529      0.2409      0.7037      0.6021
   4765.0000     10.3127    131.9701      0.4140      0.2845      0.2930      0.4209      0.4312      0.4254      3.0630      1.7162      3.2960    -15.8899      0.2558      0.2446      0.7070      0.6115
   4765.5000     10.3137    130.3624      0.4107      0.2960      0.3014      0.4215      0.4346      0.4291      3.0660      1.7281      3.3610    -16.6646      0.2400      0.2309      0.6986      0.5773
   4766.0000     10.2590    127.0641      0.4115      0.3106      0.3099      0.4215      0.4388      0.4337      3.0980      1.7269      3.2430    -17.6373      0.2231      0.2138      0.6837      0.5344
   4766.5000     10.1395    123.5679      0.4145      0.3251      0.3194      0.4208      0.4430      0.4383      3.1000      1.7033      3.4620    -18.6100      0.2029      0.1966      0.6218      0.4915
   4767.0000     10.0596    122.5992      0.4204      0.3278      0.3260      0.4226      0.4438      0.4392      3.1170      1.6758      3.5950    -18.7907      0.1933      0.1934      0.5922      0.4835
   4767.5000     10.0444    124.1136      0.4121      0.3128      0.3161      0.4134      0.4395      0.4344      3.1340      1.6635      3.6990    -17.7844      0.1944      0.2112      0.5958      0.5279
   4768.0000     10.0457    126.7697      0.4119      0.2829      0.2957      0.4115      0.4308      0.4249      3.1100      1.6672      3.4720    -15.7842      0.2317      0.2465      0.7043      0.6161
   4768.5000     10.0194    130.6512      0.4156      0.2678      0.2809      0.4129      0.4264      0.4200      3.1710      1.6774      3.0840    -14.7729      0.2639      0.2643      0.7191      0.6608
   4769.0000      9.9404    133.1583      0.4140      0.2735      0.2815      0.4119      0.4280      0.4218      3.2930      1.6848      2.9760    -15.1556      0.2608      0.2576      0.7185      0.6439
   4769.5000      9.9402    132.2771      0.4114      0.2643      0.2758      0.4123      0.4254      0.4189      3.4830      1.6903      3.2360    -14.5413      0.2731      0.2684      0.7242      0.6710
   4770.0000      9.9813    130.2628      0.4100      0.2582      0.2756      0.4170      0.4236      0.4170      3.5500      1.7020      3.8210    -14.1320      0.2827      0.2756      0.7244      0.6890
   4770.5000     10.0367    129.4103      0.4081      0.2727      0.2882      0.4217      0.4278      0.4216      3.6180      1.7203      4.3090    -15.1047      0.2670      0.2584      0.7118      0.6461
   4771.0000     10.0841    131.7649      0.4059      0.2666      0.2818      0.4249      0.4260      0.4196      3.7060      1.7439      4.2740    -14.6924      0.2862      0.2657      0.7182      0.6643
   4771.5000     10.0984    136.3818      0.4053      0.2456      0.2621      0.4245      0.4199      0.4129      3.7960      1.7539      3.7980    -13.2891      0.3248      0.2905      0.7379      0.7262
   4772.0000     10.0997    142.5939      0.4227      0.2305      0.2545      0.4390      0.4155      0.4081      3.8010      1.7651      3.4370    -12.2748      0.3691      0.3084      0.7455      0.7695
   4772.5000     10.1014    150.8468      0.4386      0.2244      0.2527      0.4525      0.4137      0.4062      3.7710      1.7702      3.4090    -11.8695      0.3997      0.3155      0.7473      0.7756
   4773.0000     10.1027    152.6136      0.4353      0.2035      0.2403      0.4518      0.4077      0.3995      3.7060      1.7723      3.5720    -10.4672      0.4230      0.3403      0.7597      0.7965
   4773.5000     10.1043    151.7719      0.4330      0.2239      0.2532      0.4483      0.4136      0.4060      3.6580      1.7596      3.9200    -11.8360      0.3902      0.3161      0.7468      0.7761
   4774.0000     10.1063    147.4122      0.4333      0.2561      0.2803      0.4446      0.4230      0.4163      3.6100      1.7328      4.2610    -13.9957      0.3287      0.2780      0.7197      0.6951
   4774.5000     10.1143    138.5836      0.4302      0.2647      0.2880      0.4375      0.4254      0.4190      3.4540      1.7085      4.0370    -14.5684      0.2991      0.2679      0.7120      0.6698
   4775.0000     10.1259    132.6790      0.4227      0.2704      0.2909      0.4282      0.4271      0.4208      3.3020      1.6974      3.8410    -14.9521      0.2747      0.2611      0.7091      0.6528
   4775.5000     10.1313    131.7285      0.4214      0.2908      0.3048      0.4251      0.4330      0.4274      3.1580      1.6882      3.6550    -16.3198      0.2405      0.2370      0.6952      0.5925
   4776.0000     10.1333    131.8931      0.4236      0.2906      0.3046      0.4253      0.4330      0.4273      3.0200      1.6853      3.4330    -16.3035      0.2413      0.2373      0.6954      0.5932
   4776.5000     10.1229    133.1804      0.4289      0.2814      0.2993      0.4306      0.4303      0.4243      2.9390      1.6943      3.3430    -15.6882      0.2625      0.2481      0.7007      0.6204
   4777.0000     10.1300    134.4118      0.4333      0.2842      0.3016      0.4370      0.4311      0.4252      2.8630      1.7148      3.2260    -15.8729      0.2708      0.2449      0.6984      0.6122
   4777.5000     10.1506    134.3335      0.4367      0.2662      0.2895      0.4413      0.4259      0.4195      2.7890      1.7291      3.1690    -14.6686      0.3035      0.2661      0.7105      0.6654
   4778.0000     10.2115    135.3405      0.4356      0.2275      0.2596      0.4405      0.4146      0.4071      2.7650      1.7365      3.1140    -12.0783      0.3619      0.3119      0.7404      0.7725
   4778.5000     10.2416    139.1283      0.4338      0.2272      0.2557      0.4382      0.4145      0.4070      2.7680      1.7357      3.0340    -12.0610      0.3649      0.3122      0.7443      0.7728
   4779.0000     10.1800    145.0436      0.4326      0.2565      0.2738      0.4360      0.4230      0.4164      2.7710      1.7279      3.0370    -14.0198      0.3244      0.2776      0.7262      0.6940
   4779.5000     10.1088    156.2150      0.4228      0.2680      0.2742      0.4258      0.4264      0.4201      2.8260      1.7128      3.1550    -14.7945      0.3032      0.2639      0.7258      0.6598
