~V
VERS. 2.00: Ver 2.00
WRAP.   NO:        
~W
 STRT.FT 800:
 STOP.FT 5530:
 STEP.FT 0.5:
 NULL. -999.250000:
 COMP. TENNECO OIL COMPANY:Company
 WELL. SANTIAGO "B" 73-29:Well
 FLD. SANTIAGO:Field
 LOC. SEC 29 TWP 11N RGE 22W:Location
 STAT. CA:State
 SRVC. :Service Company
 SON. :Service Order #
 DATE. :Log Date
 UWI. :Unique Well ID
~C
 DEPT.FT :
 CALS.IN :
 GRC.GAPI :
 NPHC.PU-S :
 PHES. :
 PHIE. :
 PHIT. :
 PHTS. :
 PHZC. :
 RD.OHMM :
 ROBC.G/C3 :
 RS.OHMM :
 SBL.MV :
 VCLW. :
 VCWS. :
 VSHL. :
 VSHS. :
~P
~A
# ...
   5480.0000      8.9830     58.8535      0.3322      0.4188      0.3631      0.3825      0.4594      0.4578     10.2950      1.8850     10.0160    -32.9140      0.0387      0.0677      0.1187      0.1692
   5480.5000      8.9730     59.4240      0.3301      0.4200      0.3567      0.3822      0.4598      0.4582      9.8280      1.8790      8.7220    -33.1170      0.0510      0.0662      0.1564      0.1656
   5481.0000      8.9710     59.4145      0.3290      0.4260      0.3614      0.3843      0.4615      0.4601      8.8790      1.8670      8.2500    -34.1250      0.0458      0.0591      0.1404      0.1478
   5481.5000      8.9700     59.4062      0.3344      0.4403      0.3679      0.3902      0.4656      0.4646      7.9480      1.8550      7.6620    -36.5150      0.0446      0.0422      0.1367      0.1056
   5482.0000      8.9890     59.8384      0.3376      0.4510      0.3894      0.4029      0.4687      0.4680      7.1810      1.8020      5.9220    -38.3060      0.0271      0.0296      0.0830      0.0740
   5482.5000      8.9880     60.0330      0.3398      0.4760      0.3872      0.4024      0.4760      0.4760      6.3690      1.8070      5.3020    -45.6520      0.0306      0.0000      0.0937      0.0000
   5483.0000      9.0070     60.7713      0.3387      0.4760      0.3765      0.3965      0.4760      0.4760      5.7550      1.8311      5.5480    -46.2540      0.0400      0.0000      0.1224      0.0000
   5483.5000      9.0060     61.4655      0.3333      0.4760      0.3493      0.3796      0.4760      0.4760      4.9660      1.8921      6.6010    -45.6690      0.0606      0.0000      0.1856      0.0000
   5484.0000      9.0050     61.2541      0.3290      0.4760      0.3358      0.3664      0.4760      0.4760      4.4450      1.9401      9.7900    -45.8770      0.0612      0.0000      0.1876      0.0000
   5484.5000      8.9840     60.9979      0.3290      0.4759      0.3279      0.3673      0.4759      0.4759      3.9440      1.9370      9.3460    -45.2950      0.0788      0.0000      0.2416      0.0000
   5485.0000      8.9240     60.4472      0.3290      0.4759      0.3396      0.3722      0.4759      0.4759      3.5310      1.9130      6.8990    -43.9170      0.0651      0.0000      0.1996      0.0000
   5485.5000      8.8830     59.9492      0.3258      0.4759      0.3552      0.3786      0.4759      0.4759      2.9910      1.8730      4.8650    -42.5380      0.0467      0.0000      0.1432      0.0000
   5486.0000      8.9020     59.5829      0.3205      0.4759      0.3783      0.3882      0.4759      0.4759      2.7020      1.8120      3.8660    -43.3400      0.0199      0.0000      0.0608      0.0000
   5486.5000      8.9400     59.6586      0.3141      0.4759      0.3727      0.3788      0.4759      0.4759      2.6760      1.7880      4.2740    -44.1450      0.0121      0.0000      0.0370      0.0000
   5487.0000      8.9190     60.0029      0.3057      0.4759      0.3697      0.3759      0.4759      0.4759      2.6990      1.7910      4.3510    -44.1530      0.0125      0.0000      0.0383      0.0000
   5487.5000      8.8390     60.0187      0.3036      0.4759      0.3742      0.3805      0.4759      0.4759      2.7730      1.7990      4.0040    -42.9760      0.0125      0.0000      0.0384      0.0000
   5488.0000      8.7790     60.6735      0.3078      0.4752      0.3758      0.3825      0.4757      0.4756      2.9020      1.8050      3.8930    -42.3910      0.0133      0.0008      0.0409      0.0019
   5488.5000      8.7380     62.1642      0.3098      0.4705      0.3773      0.3849      0.4743      0.4741      3.0370      1.8020      4.2650    -41.6080      0.0152      0.0063      0.0466      0.0157
   5489.0000      8.7170     62.9024      0.3109      0.4670      0.3741      0.3822      0.4733      0.4730      3.5800      1.7950      4.3810    -41.0210      0.0161      0.0104      0.0494      0.0261
   5489.5000      8.6960     62.6448      0.3088      0.4564      0.3743      0.3822      0.4702      0.4696      3.9580      1.7970      4.1440    -39.2470      0.0158      0.0230      0.0484      0.0574
   5490.0000      8.7150     62.2861      0.3119      0.4363      0.3791      0.3867      0.4643      0.4632      4.0300      1.8050      5.4050    -35.8880      0.0154      0.0467      0.0471      0.1167
   5490.5000      8.7340     61.5267      0.3151      0.4221      0.3742      0.3857      0.4602      0.4587      4.0270      1.8230      6.7950    -33.5190      0.0231      0.0634      0.0708      0.1585
   5491.0000      8.7430     60.3432      0.3279      0.4246      0.3746      0.3909      0.4609      0.4594      3.9880      1.8310      6.3110    -33.9260      0.0326      0.0605      0.0999      0.1513
   5491.5000      8.7530     59.5613      0.3268      0.4293      0.3748      0.3901      0.4622      0.4609      3.9130      1.8300      5.7540    -34.7280      0.0306      0.0549      0.0937      0.1372
   5492.0000      8.7720     59.0000      0.3225      0.4117      0.3748      0.3882      0.4571      0.4553      3.8760      1.8290      6.1890    -31.7700      0.0269      0.0757      0.0823      0.1894
   5492.5000      8.7900     59.2271      0.3194      0.4057      0.3764      0.3877      0.4554      0.4534      3.8730      1.8220      5.8540    -30.7840      0.0225      0.0827      0.0690      0.2068
   5493.0000      8.7890     59.6177      0.3172      0.3928      0.3763      0.3862      0.4516      0.4492      3.9070      1.8170      4.5670    -28.6140      0.0198      0.0980      0.0606      0.2450
   5493.5000      8.7880     59.8088      0.3215      0.3975      0.3786      0.3892      0.4530      0.4507      3.8330      1.8130      4.2800    -29.4140      0.0211      0.0924      0.0648      0.2309
   5494.0000      8.7870     60.3956      0.3268      0.4023      0.3819      0.3936      0.4543      0.4523      3.7620      1.8080      4.3970    -30.2150      0.0233      0.0867      0.0714      0.2168
   5494.5000      8.7860     60.3863      0.3332      0.4142      0.3861      0.3988      0.4578      0.4561      3.6580      1.8030      4.6870    -32.2130      0.0254      0.0726      0.0779      0.1815
   5495.0000      8.7950     60.1961      0.3364      0.4166      0.3843      0.3990      0.4585      0.4568      3.6230      1.8090      4.4330    -32.6170      0.0295      0.0698      0.0903      0.1744
   5495.5000      8.8040     59.8134      0.3364      0.4155      0.3799      0.3965      0.4581      0.4564      3.5220      1.8200      4.4310    -32.4290      0.0332      0.0711      0.1016      0.1777
   5496.0000      8.8620     59.1330      0.3322      0.4144      0.3547      0.3805      0.4578      0.4561      3.5200      1.8780      4.5520    -32.2450      0.0516      0.0724      0.1581      0.1810
   5496.5000      8.9210     58.8557      0.3290      0.4144      0.3330      0.3672      0.4578      0.4561      3.5180      1.9230      4.1500    -32.2550      0.0686      0.0723      0.2101      0.1808
   5497.0000      8.9390     58.2852      0.3258      0.4133      0.3147      0.3567      0.4575      0.4557      3.5160      1.9580      4.1480    -32.0640      0.0839      0.0737      0.2572      0.1842
   5497.5000      8.8390     58.2591      0.3204      0.4086      0.3231      0.3583      0.4561      0.4542      3.5460      1.9420      4.4210    -31.2810      0.0705      0.0792      0.2159      0.1980
   5498.0000      8.7790     58.3219      0.3194      0.4086      0.3343      0.3632      0.4561      0.4542      3.5450      1.9180      4.0310    -31.2890      0.0577      0.0791      0.1769      0.1978
   5498.5000      8.7380     58.6222      0.3225      0.4122      0.3380      0.3660      0.4571      0.4553      3.5760      1.9070      3.1160    -31.8930      0.0559      0.0749      0.1714      0.1872
   5499.0000      8.7280     58.7880      0.3257      0.4182      0.3461      0.3719      0.4588      0.4572      3.5730      1.8900      3.1720    -32.8940      0.0517      0.0678      0.1584      0.1695
   5499.5000      8.7170     58.9554      0.3300      0.4230      0.3814      0.3930      0.4602      0.4587      3.5710      1.8070      3.0000    -33.7010      0.0231      0.0621      0.0708      0.1553
