~V
VERS. 2.00: Ver 2.00
WRAP.   NO:        
~W
 STRT.FT 800:
 STOP.FT 5530:
 STEP.FT 0.5:
 NULL. -999.250000:
 COMP. TENNECO OIL COMPANY:Company
 WELL. SANTIAGO "B" 73-29:Well
 FLD. SANTIAGO:Field
 LOC. SEC 29 TWP 11N RGE 22W:Location
 STAT. CA:State
 SRVC. :Service Company
 SON. :Service Order #
 DATE. :Log Date
 UWI. :Unique Well ID
~C
 DEPT.FT :
 CALS.IN :
 GRC.GAPI :
 NPHC.PU-S :
 PHES. :
 PHIE. :
 PHIT. :
 PHTS. :
 PHZC. :
 RD.OHMM :
 ROBC.G/C3 :
 RS.OHMM :
 SBL.MV :
 VCLW. :
 VCWS. :
 VSHL. :
 VSHS. :
~P
~A
# ...
   4060.0000     10.5174     84.1871      0.3973      0.3963      0.3690      0.4139      0.4667      0.4639      3.1250      1.7364      3.5050    -25.8623      0.0898      0.1174      0.2752      0.2936
   4060.5000     10.5366     85.1843      0.4000      0.4081      0.3779      0.4160      0.4702      0.4677      3.1100      1.7402      3.3460    -27.8410      0.0762      0.1035      0.2336      0.2587
   4061.0000     10.5867     85.6236      0.4010      0.4199      0.3800      0.4187      0.4736      0.4715      3.0790      1.7449      3.4700    -29.8207      0.0773      0.0895      0.2369      0.2238
   4061.5000     10.6154     85.7264      0.3957      0.4246      0.3789      0.4174      0.4750      0.4730      3.1060      1.7530      3.5980    -30.6134      0.0772      0.0839      0.2365      0.2098
   4062.0000     10.6350     85.7771      0.3918      0.4247      0.3767      0.4149      0.4750      0.4730      3.1330      1.7571      3.3420    -30.6171      0.0764      0.0839      0.2341      0.2097
   4062.5000     10.6400     85.9687      0.3990      0.4176      0.3797      0.4197      0.4729      0.4707      3.1610      1.7542      3.4330    -29.4338      0.0800      0.0922      0.2451      0.2306
   4063.0000     10.6393     86.1757      0.4048      0.4129      0.3833      0.4254      0.4716      0.4692      3.1890      1.7549      3.6930    -28.6455      0.0841      0.0978      0.2579      0.2445
   4063.5000     10.6243     87.0569      0.4033      0.4141      0.3839      0.4276      0.4719      0.4696      3.3060      1.7628      3.9730    -28.8462      0.0873      0.0964      0.2676      0.2409
   4064.0000     10.6044     88.0570      0.4033      0.4165      0.3848      0.4313      0.4726      0.4704      3.3660      1.7741      4.0070    -29.2439      0.0929      0.0936      0.2846      0.2339
   4064.5000     10.5270     92.0388      0.4048      0.4153      0.3838      0.4347      0.4723      0.4700      3.4590      1.7820      3.8970    -29.0486      0.1018      0.0950      0.3119      0.2374
   4065.0000     10.4141     97.0556      0.4092      0.3988      0.3740      0.4401      0.4675      0.4647      3.5050      1.7905      3.7890    -26.2844      0.1322      0.1145      0.4051      0.2862
   4065.5000     10.3243    101.1938      0.4148      0.3799      0.3570      0.4458      0.4620      0.4587      3.5520      1.8028      3.7190    -23.1251      0.1776      0.1368      0.5442      0.3419
   4066.0000     10.2179    109.5791      0.4226      0.3259      0.3282      0.4486      0.4463      0.4415      3.6830      1.8081      3.7170    -18.3848      0.2408      0.2006      0.6718      0.5014
   4066.5000     10.0857    117.3672      0.4296      0.2965      0.3096      0.4516      0.4377      0.4320      3.7840      1.8124      3.8540    -16.4115      0.2840      0.2354      0.6904      0.5884
   4067.0000     10.0028    123.5977      0.4318      0.2788      0.2881      0.4500      0.4326      0.4264      3.8520      1.8222      3.9600    -15.2282      0.3239      0.2563      0.7119      0.6407
   4067.5000      9.9578    135.1800      0.4295      0.2759      0.2662      0.4423      0.4317      0.4255      3.9580      1.8441      4.0310    -15.0349      0.3523      0.2597      0.7338      0.6492
   4068.0000      9.9592    140.4767      0.4314      0.2612      0.2429      0.4377      0.4274      0.4208      4.0660      1.8658      4.1040    -14.0476      0.3897      0.2771      0.7571      0.6927
   4068.5000      9.9788    144.3174      0.4314      0.2258      0.2116      0.4342      0.4171      0.4095      4.1020      1.8801      4.1780    -11.6793      0.4453      0.3189      0.7884      0.7742
   4069.0000     10.0253    150.0804      0.4321      0.1963      0.1884      0.4296      0.4086      0.4001      4.1760      1.8983      4.2150     -9.7060      0.4823      0.3537      0.8116      0.8037
   4069.5000     10.0705    162.3669      0.4411      0.1698      0.1676      0.4275      0.4009      0.3916      4.2520      1.9224      4.2520     -7.9307      0.5197      0.3850      0.8324      0.8302
   4070.0000     10.1631    174.1336      0.4523      0.1433      0.1523      0.4296      0.3931      0.3831      4.2890      1.9332      3.9130     -6.1534      0.5546      0.4164      0.8477      0.8567
   4070.5000     10.2281    186.0418      0.4566      0.1197      0.1418      0.4325      0.3863      0.3756      4.3260      1.9313      3.8050     -4.5751      0.5815      0.4443      0.8582      0.8803
   4071.0000     10.2277    193.7327      0.4540      0.1227      0.1467      0.4363      0.3872      0.3766      4.3250      1.9151      3.7680     -4.7759      0.5791      0.4407      0.8533      0.8773
   4071.5000     10.2078    192.4557      0.4487      0.1316      0.1531      0.4366      0.3897      0.3794      4.3230      1.9046      3.7670     -5.3726      0.5668      0.4302      0.8469      0.8684
   4072.0000     10.2010    188.3499      0.4435      0.1434      0.1604      0.4360      0.3932      0.3832      4.3210      1.8968      3.8000     -6.1643      0.5512      0.4162      0.8396      0.8566
   4072.5000     10.2010    183.8723      0.4368      0.1730      0.1737      0.4343      0.4018      0.3926      4.3580      1.8895      3.8330     -8.1430      0.5212      0.3813      0.8263      0.8270
   4073.0000     10.1881    179.3552      0.4301      0.1996      0.1884      0.4344      0.4095      0.4011      4.3970      1.8764      3.9020     -9.9267      0.4920      0.3498      0.8116      0.8004
   4073.5000     10.1810    169.7208      0.4223      0.2085      0.2002      0.4347      0.4121      0.4039      4.4350      1.8598      3.9360    -10.5204      0.4688      0.3393      0.7998      0.7915
   4074.0000     10.1810    162.6200      0.4129      0.2292      0.2296      0.4377      0.4181      0.4105      4.3920      1.8307      4.2340    -11.9061      0.4161      0.3149      0.7704      0.7708
   4074.5000     10.1804    153.3069      0.4055      0.2528      0.2545      0.4363      0.4250      0.4181      4.3900      1.8181      4.3110    -13.4898      0.3636      0.2869      0.7455      0.7174
   4075.0000     10.1800    136.8909      0.3987      0.2661      0.2723      0.4340      0.4288      0.4223      4.3890      1.8121      4.2690    -14.3805      0.3234      0.2712      0.7277      0.6781
   4075.5000     10.1924    119.6114      0.3910      0.2794      0.2948      0.4312      0.4327      0.4266      4.3860      1.8054      4.0760    -15.2712      0.2728      0.2555      0.7052      0.6388
   4076.0000     10.2117    101.1375      0.3837      0.3001      0.3208      0.4273      0.4387      0.4332      4.3850      1.7977      3.9270    -16.6599      0.2130      0.2310      0.6529      0.5775
   4076.5000     10.2312     92.6536      0.3853      0.3149      0.3300      0.4231      0.4430      0.4379      4.2640      1.7868      3.7840    -17.6507      0.1863      0.2135      0.5709      0.5338
   4077.0000     10.2626     90.1019      0.3970      0.3326      0.3390      0.4269      0.4482      0.4436      4.2230      1.7765      3.7820    -18.8394      0.1757      0.1925      0.5385      0.4814
   4077.5000     10.3014     88.3278      0.4093      0.3533      0.3504      0.4328      0.4542      0.4502      4.0680      1.7660      3.9220    -20.2261      0.1647      0.1681      0.5046      0.4202
   4078.0000     10.3289     85.4894      0.4030      0.3708      0.3553      0.4258      0.4593      0.4557      3.9930      1.7559      4.0300    -21.6108      0.1409      0.1475      0.4317      0.3686
   4078.5000     10.3488     83.8891      0.3935      0.3802      0.3574      0.4138      0.4620      0.4587      3.8820      1.7406      3.9180    -23.1955      0.1128      0.1363      0.3456      0.3407
   4079.0000     10.3681     83.3095      0.3821      0.3921      0.3591      0.3999      0.4654      0.4625      3.7750      1.7260      3.8810    -25.1742      0.0815      0.1223      0.2497      0.3057
   4079.5000     10.3818     82.4471      0.3791      0.4003      0.3635      0.3959      0.4678      0.4651      3.6710      1.7230      3.8430    -26.5619      0.0648      0.1125      0.1986      0.2813
