~V
VERS. 2.00: Ver 2.00
WRAP.   NO:        
~W
 STRT.FT 800:
 STOP.FT 5530:
 STEP.FT 0.5:
 NULL. -999.250000:
 COMP. TENNECO OIL COMPANY:Company
 WELL. SANTIAGO "B" 73-29:Well
 FLD. SANTIAGO:Field
 LOC. SEC 29 TWP 11N RGE 22W:Location
 STAT. CA:State
 SRVC. :Service Company
 SON. :Service Order #
 DATE. :Log Date
 UWI. :Unique Well ID
~C
 DEPT.FT :
 CALS.IN :
 GRC.GAPI :
 NPHC.PU-S :
 PHES. :
 PHIE. :
 PHIT. :
 PHTS. :
 PHZC. :
 RD.OHMM :
 ROBC.G/C3 :
 RS.OHMM :
 SBL.MV :
 VCLW. :
 VCWS. :
 VSHL. :
 VSHS. :
~P
~A
# ...
   4940.0000      7.8933    121.5312      0.3615      0.2584      0.2524      0.3769      0.4229      0.4163      3.0100      1.7260      3.1230    -14.2110      0.2489      0.2742      0.7476      0.6855
   4940.5000      7.8920    117.6784      0.3655      0.2641      0.2647      0.3841      0.4246      0.4181      3.0970      1.7270      3.5210    -14.5958      0.2389      0.2674      0.7322      0.6686
   4941.0000      7.8731    114.8845      0.3771      0.3022      0.3004      0.3960      0.4357      0.4303      3.1270      1.7280      3.7240    -17.1495      0.1912      0.2224      0.5859      0.5559
   4941.5000      7.8517    113.4897      0.3881      0.2991      0.3059      0.4055      0.4347      0.4293      3.2460      1.7290      3.7600    -16.9372      0.1994      0.2261      0.6110      0.5653
   4942.0000      7.8128    114.3254      0.3906      0.2871      0.2982      0.4080      0.4312      0.4255      3.4020      1.7310      3.7970    -16.1339      0.2196      0.2403      0.6730      0.6007
   4942.5000      7.7718    115.7155      0.3812      0.2899      0.2952      0.4018      0.4321      0.4264      3.4680      1.7350      3.8350    -16.3226      0.2131      0.2370      0.6529      0.5924
   4943.0000      7.7219    116.7945      0.3638      0.2927      0.2898      0.3917      0.4329      0.4273      3.4700      1.7460      3.8030    -16.5113      0.2037      0.2336      0.6244      0.5841
   4943.5000      7.7028    118.5487      0.3633      0.2953      0.2899      0.3902      0.4336      0.4281      3.3780      1.7420      3.9120    -16.6830      0.2005      0.2306      0.6143      0.5765
   4944.0000      7.6806    120.3812      0.3710      0.2773      0.2780      0.3939      0.4284      0.4223      2.9720      1.7390      3.7050    -15.4797      0.2317      0.2518      0.7101      0.6296
   4944.5000      7.6460    121.3151      0.3819      0.2800      0.2821      0.3994      0.4292      0.4232      2.6890      1.7360      3.2610    -15.6624      0.2347      0.2486      0.7179      0.6215
   4945.0000      7.6313    121.0448      0.3894      0.2887      0.2897      0.4014      0.4317      0.4260      2.4780      1.7270      3.0040    -16.2471      0.2234      0.2383      0.6845      0.5957
   4945.5000      7.6332    119.4905      0.3946      0.2975      0.2965      0.3987      0.4342      0.4288      2.3690      1.7060      2.7680    -16.8318      0.2044      0.2280      0.6265      0.5699
   4946.0000      7.6343    114.8064      0.3970      0.3118      0.3050      0.3962      0.4384      0.4333      2.3270      1.6880      2.6710    -17.7906      0.1826      0.2111      0.5595      0.5276
   4946.5000      7.6345    108.2166      0.3970      0.3131      0.3103      0.3953      0.4388      0.4338      2.3080      1.6790      2.7470    -17.8823      0.1701      0.2094      0.5214      0.5236
   4947.0000      7.6254    105.2423      0.4078      0.3145      0.3198      0.4058      0.4392      0.4342      2.3100      1.6780      2.8000    -17.9750      0.1720      0.2078      0.5270      0.5195
   4947.5000      7.6117    103.7461      0.4147      0.2934      0.3162      0.4143      0.4330      0.4275      2.3320      1.6880      2.8800    -16.5577      0.1962      0.2328      0.6014      0.5820
   4948.0000      7.5754    102.3058      0.4099      0.3021      0.3198      0.4129      0.4356      0.4302      2.3990      1.7020      2.8820    -17.1404      0.1862      0.2225      0.5707      0.5563
   4948.5000      7.5373    100.8858      0.3993      0.3166      0.3197      0.4055      0.4398      0.4349      2.5140      1.7090      2.9110    -18.1151      0.1716      0.2053      0.5260      0.5133
   4949.0000      7.5064     99.8384      0.3891      0.2957      0.3074      0.3978      0.4337      0.4282      2.6340      1.7110      3.0500    -16.7148      0.1808      0.2300      0.5540      0.5751
   4949.5000      7.5048     99.1616      0.3675      0.2836      0.2899      0.3821      0.4302      0.4243      2.7090      1.7120      3.5360    -15.9035      0.1845      0.2444      0.5654      0.6109
   4950.0000      7.4868     99.7931      0.3618      0.2745      0.2822      0.3812      0.4275      0.4214      2.9450      1.7140      4.3690    -15.2952      0.1981      0.2551      0.6070      0.6377
   4950.5000      7.4691    102.4880      0.3560      0.2653      0.2744      0.3816      0.4249      0.4185      3.1720      1.7290      4.5370    -14.6799      0.2143      0.2659      0.6569      0.6648
   4951.0000      7.4546    108.4763      0.3544      0.2618      0.2705      0.3867      0.4239      0.4174      3.5790      1.7500      4.1060    -14.4486      0.2323      0.2700      0.7119      0.6751
   4951.5000      7.4465    111.9143      0.3567      0.2645      0.2752      0.3973      0.4246      0.4182      3.7510      1.7760      3.4530    -14.6254      0.2442      0.2669      0.7248      0.6673
   4952.0000      7.4373    109.2544      0.3642      0.2760      0.2920      0.4080      0.4280      0.4219      4.0780      1.7830      3.8610    -15.3961      0.2320      0.2533      0.7080      0.6333
   4952.5000      7.4254    105.4838      0.3706      0.3229      0.3237      0.4169      0.4416      0.4369      4.3940      1.7900      4.2350    -18.5388      0.1863      0.1979      0.5709      0.4946
   4953.0000      7.4239    103.9518      0.3784      0.3373      0.3320      0.4186      0.4458      0.4415      4.6070      1.7710      6.8980    -19.5035      0.1734      0.1808      0.5313      0.4521
   4953.5000      7.4104    105.0275      0.3767      0.3547      0.3320      0.4101      0.4508      0.4470      4.6540      1.7530      6.0730    -20.6662      0.1562      0.1603      0.4788      0.4008
   4954.0000      7.4122    108.1920      0.3604      0.3543      0.3216      0.3983      0.4507      0.4469      4.6170      1.7610      4.7460    -20.6449      0.1533      0.1607      0.4697      0.4017
   4954.5000      7.4136    111.9813      0.3546      0.3392      0.3093      0.3896      0.4463      0.4421      4.4550      1.7530      4.3340    -19.6296      0.1605      0.1786      0.4920      0.4465
   4955.0000      7.4166    116.5069      0.3578      0.3092      0.2957      0.3872      0.4376      0.4325      4.2210      1.7440      3.9950    -17.6213      0.1830      0.2140      0.5607      0.5351
   4955.5000      7.4198    123.7790      0.3672      0.2941      0.2878      0.3947      0.4332      0.4276      3.6490      1.7490      3.6490    -16.6070      0.2137      0.2319      0.6548      0.5798
   4956.0000      7.4234    129.6300      0.3832      0.2995      0.2952      0.4081      0.4348      0.4294      3.3780      1.7560      3.3640    -16.9737      0.2260      0.2255      0.6924      0.5637
   4956.5000      7.4256    134.2393      0.3796      0.3022      0.2916      0.4072      0.4356      0.4302      3.1270      1.7660      3.1010    -17.1504      0.2314      0.2223      0.7084      0.5559
   4957.0000      7.4301    140.1938      0.3773      0.2811      0.2729      0.4066      0.4294      0.4235      2.7050      1.7720      2.8850    -15.7401      0.2673      0.2472      0.7271      0.6181
   4957.5000      7.4413    143.5331      0.3847      0.2541      0.2558      0.4130      0.4216      0.4149      2.5400      1.7780      2.7840    -13.9299      0.3143      0.2792      0.7442      0.6980
   4958.0000      7.4535    142.2245      0.3943      0.2390      0.2481      0.4185      0.4172      0.4101      2.4730      1.7780      2.7120    -12.9186      0.3408      0.2970      0.7519      0.7426
   4958.5000      7.4665    139.5521      0.4019      0.2356      0.2492      0.4230      0.4162      0.4090      2.3440      1.7760      2.7640    -12.6953      0.3475      0.3010      0.7508      0.7524
   4959.0000      7.4815    136.8193      0.4073      0.2412      0.2567      0.4254      0.4178      0.4108      2.2820      1.7700      2.8980    -13.0670      0.3374      0.2944      0.7433      0.7360
   4959.5000      7.5024    130.5757      0.4078      0.2703      0.2817      0.4236      0.4263      0.4200      2.2230      1.7560      2.9550    -15.0167      0.2836      0.2600      0.7183      0.6500
