~V
VERS. 2.00: Ver 2.00
WRAP.   NO:        
~W
 STRT.FT 800:
 STOP.FT 5530:
 STEP.FT 0.5:
 NULL. -999.250000:
 COMP. TENNECO OIL COMPANY:Company
 WELL. SANTIAGO "B" 73-29:Well
 FLD. SANTIAGO:Field
 LOC. SEC 29 TWP 11N RGE 22W:Location
 STAT. CA:State
 SRVC. :Service Company
 SON. :Service Order #
 DATE. :Log Date
 UWI. :Unique Well ID
~C
 DEPT.FT :
 CALS.IN :
 GRC.GAPI :
 NPHC.PU-S :
 PHES. :
 PHIE. :
 PHIT. :
 PHTS. :
 PHZC. :
 RD.OHMM :
 ROBC.G/C3 :
 RS.OHMM :
 SBL.MV :
 VCLW. :
 VCWS. :
 VSHL. :
 VSHS. :
~P
~A
# ...
   3340.0000     10.2919   -999.2500   -999.2500      0.0000   -999.2500   -999.2500      0.2729      0.2473      2.3760   -999.2500      2.1680     -6.5240   -999.2500      0.5574   -999.2500      1.9752
   3340.5000     10.3116   -999.2500   -999.2500      0.0000   -999.2500   -999.2500      0.2727      0.2470      2.3980   -999.2500      2.2080     -6.3280   -999.2500      0.5587   -999.2500      1.9859
   3341.0000     10.3170   -999.2500   -999.2500      0.0000   -999.2500   -999.2500      0.2727      0.2470      2.3980   -999.2500      2.2070     -6.3300   -999.2500      0.5587   -999.2500      1.9858
   3341.5000     10.3170   -999.2500   -999.2500      0.0000   -999.2500   -999.2500      0.2720      0.2457      2.4080   -999.2500      2.1470     -5.5410   -999.2500      0.5642   -999.2500      2.0291
   3342.0000     10.2735   -999.2500   -999.2500      0.0000   -999.2500   -999.2500      0.2722      0.2460      2.4190   -999.2500      2.1070     -5.7410   -999.2500      0.5628   -999.2500      2.0181
   3342.5000     10.2281   -999.2500   -999.2500      0.0000   -999.2500   -999.2500      0.2725      0.2467      2.4410   -999.2500      2.1460     -6.1390   -999.2500      0.5600   -999.2500      1.9963
   3343.0000     10.2098   -999.2500   -999.2500      0.0000   -999.2500   -999.2500      0.2733      0.2480      2.4400   -999.2500      2.2060     -6.9320   -999.2500      0.5545   -999.2500      1.9528
   3343.5000     10.1998   -999.2500   -999.2500      0.0000   -999.2500   -999.2500      0.2734      0.2481      2.4400   -999.2500      2.1650     -7.0320   -999.2500      0.5538   -999.2500      1.9473
   3344.0000     10.1683   -999.2500   -999.2500      0.0000   -999.2500   -999.2500      0.2735      0.2483      2.4390   -999.2500      2.1060     -7.1330   -999.2500      0.5531   -999.2500      1.9417
   3344.5000     10.1570   -999.2500   -999.2500      0.0000   -999.2500   -999.2500      0.2735      0.2483      2.4390   -999.2500      2.1050     -7.1360   -999.2500      0.5530   -999.2500      1.9416
   3345.0000     10.1427   -999.2500   -999.2500      0.0000   -999.2500   -999.2500      0.2725      0.2467      2.4390   -999.2500      2.1050     -6.1490   -999.2500      0.5599   -999.2500      1.9957
   3345.5000     10.1227   -999.2500   -999.2500      0.0000   -999.2500   -999.2500      0.2723      0.2463      2.4380   -999.2500      2.1050     -5.9530   -999.2500      0.5613   -999.2500      2.0065
   3346.0000     10.1099   -999.2500   -999.2500      0.0000   -999.2500   -999.2500      0.2720      0.2457      2.4150   -999.2500      2.0850     -5.5590   -999.2500      0.5640   -999.2500      2.0281
   3346.5000     10.0999   -999.2500   -999.2500      0.0000   -999.2500   -999.2500      0.2716      0.2450      2.3930   -999.2500      2.1040     -5.1650   -999.2500      0.5668   -999.2500      2.0498
   3347.0000     10.1105   -999.2500   -999.2500      0.0000   -999.2500   -999.2500      0.2712      0.2444      2.3920   -999.2500      2.1040     -4.7720   -999.2500      0.5695   -999.2500      2.0713
   3347.5000     10.1443   -999.2500   -999.2500      0.0000   -999.2500   -999.2500      0.2712      0.2444      2.3920   -999.2500      2.1030     -4.7740   -999.2500      0.5695   -999.2500      2.0712
   3348.0000     10.1694   -999.2500   -999.2500      0.0000   -999.2500   -999.2500      0.2714      0.2447      2.3800   -999.2500      2.1030     -4.9730   -999.2500      0.5681   -999.2500      2.0603
   3348.5000     10.1750   -999.2500   -999.2500      0.0000   -999.2500   -999.2500      0.2716      0.2450      2.3690   -999.2500      2.1020     -5.1730   -999.2500      0.5667   -999.2500      2.0493
   3349.0000     10.1891   -999.2500   -999.2500      0.0000   -999.2500   -999.2500      0.2714      0.2447      2.3690   -999.2500      2.1210     -4.9770   -999.2500      0.5680   -999.2500      2.0601
   3349.5000     10.2224   -999.2500   -999.2500      0.0000   -999.2500   -999.2500      0.2712      0.2444      2.3680   -999.2500      2.1110     -4.7820   -999.2500      0.5694   -999.2500      2.0708
   3350.0000     10.2480   -999.2500   -999.2500      0.0000   -999.2500   -999.2500      0.2712      0.2444      2.3460   -999.2500      2.1010     -4.7840   -999.2500      0.5694   -999.2500      2.0707
   3350.5000     10.2953   -999.2500   -999.2500      0.0000   -999.2500   -999.2500      0.2712      0.2444      2.3460   -999.2500      2.0630     -4.7870   -999.2500      0.5694   -999.2500      2.0705
   3351.0000     10.3270   -999.2500   -999.2500      0.0000   -999.2500   -999.2500      0.2721      0.2460      2.3460   -999.2500      2.0440     -5.7810   -999.2500      0.5624   -999.2500      2.0159
   3351.5000     10.3602   -999.2500   -999.2500      0.0000   -999.2500   -999.2500      0.2729      0.2473      2.3350   -999.2500      2.0440     -6.5760   -999.2500      0.5569   -999.2500      1.9723
   3352.0000     10.3442   -999.2500   -999.2500      0.0000   -999.2500   -999.2500      0.2731      0.2476      2.3240   -999.2500      2.0430     -6.7780   -999.2500      0.5555   -999.2500      1.9612
   3352.5000     10.3320   -999.2500   -999.2500      0.0000   -999.2500   -999.2500      0.2730      0.2476      2.3240   -999.2500      2.0240     -6.7820   -999.2500      0.5554   -999.2500      1.9610
   3353.0000     10.3043   -999.2500   -999.2500      0.0000   -999.2500   -999.2500      0.2729      0.2473      2.3230   -999.2500      2.0430     -6.5880   -999.2500      0.5568   -999.2500      1.9716
   3353.5000     10.2644   -999.2500   -999.2500      0.0000   -999.2500   -999.2500      0.2729      0.2473      2.3130   -999.2500      2.1780     -6.5920   -999.2500      0.5567   -999.2500      1.9714
   3354.0000     10.2513   -999.2500   -999.2500      0.0000   -999.2500   -999.2500      0.2725      0.2467      2.3020   -999.2500      2.2390     -6.2000   -999.2500      0.5595   -999.2500      1.9929
   3354.5000     10.2097   -999.2500   -999.2500      0.0000   -999.2500   -999.2500      0.2730      0.2477      2.3020   -999.2500      2.1580     -6.7970   -999.2500      0.5553   -999.2500      1.9602
   3355.0000     10.1316   -999.2500   -999.2500      0.0000   -999.2500   -999.2500      0.2732      0.2480      2.3010   -999.2500      1.9870     -6.9990   -999.2500      0.5539   -999.2500      1.9491
   3355.5000     10.0315   -999.2500   -999.2500      0.0000   -999.2500   -999.2500      0.2734      0.2483      2.3010   -999.2500      1.9500     -7.2010   -999.2500      0.5525   -999.2500      1.9380
   3356.0000      9.9722   -999.2500   -999.2500      0.0000   -999.2500   -999.2500      0.2727      0.2470      2.3010   -999.2500      1.9860     -6.4140   -999.2500      0.5580   -999.2500      1.9812
   3356.5000      9.9126   -999.2500   -999.2500      0.0000   -999.2500   -999.2500      0.2719      0.2457      2.3010   -999.2500      2.0230     -5.6260   -999.2500      0.5634   -999.2500      2.0245
   3357.0000      9.8947   -999.2500   -999.2500      0.0000   -999.2500   -999.2500      0.2717      0.2454      2.3000   -999.2500      2.0600     -5.4330   -999.2500      0.5648   -999.2500      2.0350
   3357.5000      9.9735   -999.2500   -999.2500      0.0000   -999.2500   -999.2500      0.2712      0.2444      2.3000   -999.2500      2.0790     -4.8430   -999.2500      0.5689   -999.2500      2.0674
   3358.0000     10.0297   -999.2500   -999.2500      0.0000   -999.2500   -999.2500      0.2716      0.2451      2.3000   -999.2500      2.0600     -5.2420   -999.2500      0.5661   -999.2500      2.0455
   3358.5000     10.0196   -999.2500   -999.2500      0.0000   -999.2500   -999.2500      0.2725      0.2467      2.3000   -999.2500      2.0410     -6.2360   -999.2500      0.5592   -999.2500      1.9910
   3359.0000     10.0100   -999.2500   -999.2500      0.0000   -999.2500   -999.2500      0.2723      0.2464      2.3000   -999.2500      2.0220     -6.0420   -999.2500      0.5605   -999.2500      2.0016
   3359.5000     10.0100   -999.2500   -999.2500      0.0000   -999.2500   -999.2500      0.2723      0.2464      2.2990   -999.2500      2.0310     -6.0460   -999.2500      0.5605   -999.2500      2.0014
