~V
VERS. 2.00: Ver 2.00
WRAP.   NO:        
~W
 STRT.FT 800:
 STOP.FT 5530:
 STEP.FT 0.5:
 NULL. -999.250000:
 COMP. TENNECO OIL COMPANY:Company
 WELL. SANTIAGO "B" 73-29:Well
 FLD. SANTIAGO:Field
 LOC. SEC 29 TWP 11N RGE 22W:Location
 STAT. CA:State
 SRVC. :Service Company
 SON. :Service Order #
 DATE. :Log Date
 UWI. :Unique Well ID
~C
 DEPT.FT :
 CALS.IN :
 GRC.GAPI :
 NPHC.PU-S :
 PHES. :
 PHIE. :
 PHIT. :
 PHTS. :
 PHZC. :
 RD.OHMM :
 ROBC.G/C3 :
 RS.OHMM :
 SBL.MV :
 VCLW. :
 VCWS. :
 VSHL. :
 VSHS. :
~P
~A
# ...
   3700.0000     10.6240     74.6426      0.4126      0.0000      0.0000      0.3129      0.2668      0.2392      2.1950      2.0006      2.2350     -3.7718      0.6191      0.5729      1.5947      2.1263
   3700.5000     10.6041     75.4369      0.4239      0.0000      0.0000      0.3177      0.2669      0.2395      2.1950      1.9985      2.2870     -3.9775      0.6222      0.5715      1.5862      2.1150
   3701.0000     10.6234     76.4565      0.4362      0.0000      0.0000      0.3228      0.2668      0.2392      2.1740      1.9966      2.3400     -3.7862      0.6288      0.5728      1.5941      2.1255
   3701.5000     10.6439     76.2675      0.4338      0.0000      0.0000      0.3255      0.2666      0.2389      2.1350      1.9878      2.3610     -3.5949      0.6331      0.5742      1.6020      2.1360
   3702.0000     10.6809     75.6826      0.4261      0.0000      0.0000      0.3266      0.2665      0.2387      2.1150      1.9780      2.2550     -3.5006      0.6350      0.5748      1.6059      2.1411
   3702.5000     10.6718     75.4887      0.4189      0.0000      0.0000      0.3317      0.2664      0.2386      2.1150      1.9589      2.1340     -3.4063      0.6408      0.5755      1.6097      2.1463
   3703.0000     10.5931     75.4250      0.4207      0.0000      0.0000      0.3330      0.2666      0.2389      2.1140      1.9384      2.0760     -3.6141      0.6405      0.5740      1.6012      2.1349
   3703.5000     10.5346     74.8971      0.4294      0.0000      0.0000      0.3313      0.2668      0.2393      2.1530      1.9330      2.1140     -3.8178      0.6371      0.5726      1.5928      2.1237
   3704.0000     10.4971     73.7345      0.4329      0.0000      0.0000      0.3278      0.2671      0.2399      2.2130      1.9148      2.1140     -4.2215      0.6305      0.5698      1.5762      2.1016
   3704.5000     10.4757     73.1167      0.4302      0.0000      0.0000      0.3312      0.2668      0.2393      2.3600      1.9006      2.0190     -3.8322      0.6369      0.5725      1.5922      2.1229
   3705.0000     10.4598     72.7411      0.4233      0.0000      0.0000      0.3345      0.2664      0.2386      2.5870      1.8845      1.9820     -3.4429      0.6433      0.5752      1.6082      2.1443
   3705.5000     10.4641     70.7973      0.4139      0.0000      0.0000      0.3395      0.2658      0.2376      2.8350      1.8846      2.1130     -2.8566      0.6530      0.5793      1.6324      2.1765
   3706.0000     10.5015     68.8193      0.4039      0.0000      0.0000      0.3412      0.2657      0.2373      2.9950      1.9018      2.3380     -2.6663      0.6561      0.5806      1.6402      2.1869
   3706.5000     10.5632     68.5409      0.3919      0.0000      0.0000      0.3310      0.2668      0.2393      3.1070      1.9362      2.9140     -3.8580      0.6365      0.5723      1.5911      2.1215
   3707.0000     10.5619     69.2686      0.3698      0.0000      0.0000      0.1886      0.2671      0.2399      3.2230      2.2742      4.1290     -4.2597      0.4909      0.5695      1.5746      2.0995
   3707.5000     10.5132     70.5226      0.3456      0.0000      0.0000      0.1838      0.2673      0.2403      3.2820      2.2649      4.0910     -4.4644      0.4845      0.5680      1.5662      2.0882
   3708.0000     10.4679     71.7880      0.3354      0.0000      0.0000      0.1867      0.2671      0.2400      3.3120      2.2486      3.7320     -4.2741      0.4889      0.5694      1.5740      2.0987
   3708.5000     10.4643     73.0367      0.3289      0.0000      0.0000      0.1908      0.2671      0.2400      3.3120      2.2326      3.3730     -4.2809      0.4930      0.5693      1.5737      2.0983
   3709.0000     10.4838     74.1502      0.3312      0.0000      0.0000      0.1996      0.2672      0.2400      3.2810      2.2127      3.1630     -4.2866      0.5017      0.5693      1.5735      2.0980
   3709.5000     10.5033     75.1274      0.3377      0.0000      0.0000      0.2054      0.2673      0.2403      3.2510      2.2038      3.2210     -4.4913      0.5059      0.5678      1.5651      2.0868
   3710.0000     10.4923     76.3300      0.3453      0.0000      0.0000      0.2125      0.2679      0.2413      3.1910      2.1928      3.2810     -5.0900      0.5083      0.5637      1.5404      2.0539
   3710.5000     10.4512     77.4323      0.3536      0.0000      0.0000      0.2211      0.2681      0.2416      3.1050      2.1785      3.0480     -5.2947      0.5152      0.5622      1.5320      2.0426
   3711.0000     10.4101     78.0815      0.3593      0.0000      0.0000      0.2300      0.2679      0.2413      3.0480      2.1612      2.8580     -5.1044      0.5257      0.5635      1.5398      2.0531
   3711.5000     10.3924     78.4142      0.3557      0.0000      0.0000      0.2352      0.2677      0.2410      3.0200      2.1451      2.7800     -4.9111      0.5323      0.5649      1.5478      2.0637
   3712.0000     10.4039     77.9571      0.3571      0.0000      0.0000      0.2428      0.2675      0.2407      3.0200      2.1272      2.6800     -4.7178      0.5415      0.5662      1.5557      2.0743
   3712.5000     10.4366     76.7830      0.3620      0.0000      0.0000      0.2528      0.2668      0.2394      3.1320      2.1064      2.7290     -3.9375      0.5577      0.5717      1.5879      2.1172
   3713.0000     10.4637     75.9760      0.3587      0.0000      0.0000      0.2504      0.2672      0.2400      3.2790      2.1096      2.9640     -4.3392      0.5521      0.5689      1.5713      2.0951
   3713.5000     10.4835     76.0383      0.3534      0.0000      0.0000      0.2501      0.2670      0.2397      3.6940      2.1057      3.1310     -4.1479      0.5533      0.5702      1.5792      2.1056
   3714.0000     10.5178     76.5408      0.3456      0.0000      0.0000      0.2501      0.2659      0.2378      4.2780      2.0989      3.1310     -2.9697      0.5626      0.5784      1.6277      2.1703
   3714.5000     10.5426     76.5294      0.3330      0.0000      0.0000      0.2471      0.2655      0.2371      5.0460      2.0951      3.2180     -2.5804      0.5627      0.5811      1.6438      2.1917
   3715.0000     10.5780     75.1560      0.3034      0.0000      0.0000      0.2366      0.2653      0.2368      5.7900      2.0953      3.3380     -2.3901      0.5537      0.5824      1.6516      2.2021
   3715.5000     10.6172     73.1966      0.2848      0.0000      0.0000      0.2148      0.2660      0.2379      6.4640      2.1336      3.8310     -3.0878      0.5264      0.5776      1.6229      2.1638
   3716.0000     10.6580     72.1973      0.2724      0.0000      0.0000      0.1868      0.2666      0.2391      7.2160      2.1929      4.6450     -3.7855      0.4928      0.5727      1.5941      2.1255
   3716.5000     10.6631     72.1211      0.2613      0.0000      0.0000      0.1422      0.2674      0.2404      8.1290      2.2949      5.6830     -4.5832      0.4419      0.5671      1.5613      2.0817
   3717.0000     10.6802     72.4293      0.2533      0.0000      0.0000      0.1034      0.2679      0.2414      8.5890      2.3850      8.7480     -5.1829      0.3984      0.5629      1.5366      2.0488
   3717.5000     10.7370     73.1512      0.2479      0.0000      0.0000      0.1061      0.2681      0.2417      8.5100      2.3734      8.5100     -5.3876      0.3995      0.5615      1.5282      2.0375
   3718.0000     10.8350     74.4331      0.2472      0.0000      0.0000      0.1323      0.2685      0.2424      8.4320      2.3070      7.3470     -5.7893      0.4226      0.5587      1.5116      2.0155
   3718.5000     10.9357     75.6206      0.2490      0.0000      0.0000      0.1523      0.2690      0.2433      5.9480      2.2587      5.8400     -6.3880      0.4378      0.5545      1.4870      1.9826
   3719.0000     10.9754     76.2745      0.2570      0.0000      0.0000      0.1642      0.2692      0.2437      5.2790      2.2359      4.2350     -6.5927      0.4481      0.5531      1.4785      1.9714
   3719.5000     10.9375     76.5046      0.2733      0.0000      0.0000      0.1800      0.2694      0.2440      4.6420      2.2107      3.6230     -6.7955      0.4623      0.5517      1.4702      1.9603
