~V
VERS. 2.00: Ver 2.00
WRAP.   NO:        
~W
 STRT.FT 800:
 STOP.FT 5530:
 STEP.FT 0.5:
 NULL. -999.250000:
 COMP. TENNECO OIL COMPANY:Company
 WELL. SANTIAGO "B" 73-29:Well
 FLD. SANTIAGO:Field
 LOC. SEC 29 TWP 11N RGE 22W:Location
 STAT. CA:State
 SRVC. :Service Company
 SON. :Service Order #
 DATE. :Log Date
 UWI. :Unique Well ID
~C
 DEPT.FT :
 CALS.IN :
 GRC.GAPI :
 NPHC.PU-S :
 PHES. :
 PHIE. :
 PHIT. :
 PHTS. :
 PHZC. :
 RD.OHMM :
 ROBC.G/C3 :
 RS.OHMM :
 SBL.MV :
 VCLW. :
 VCWS. :
 VSHL. :
 VSHS. :
~P
~A
# ...
   4400.0000     10.4074    121.9142      0.4426      0.1008      0.1565      0.4268      0.3794      0.3682      4.3290      1.9242      3.7020     -3.0304      0.5408      0.4643      0.8435      0.8992
   4400.5000     10.4084    121.8987      0.4326      0.1152      0.1558      0.4176      0.3836      0.3728      4.4940      1.9348      3.8100     -4.4011      0.5235      0.4473      0.8442      0.8848
   4401.0000     10.4304    120.6362      0.4226      0.1385      0.1721      0.4194      0.3903      0.3803      4.7090      1.9125      4.0660     -5.9658      0.4946      0.4197      0.8279      0.8615
   4401.5000     10.4611    111.1219      0.4093      0.1707      0.2216      0.4326      0.3997      0.3905      5.0250      1.8442      4.4200     -8.1195      0.4219      0.3817      0.7784      0.8293
   4402.0000     10.5205     98.7531      0.3928      0.1941      0.2572      0.4308      0.4065      0.3980      5.4120      1.7926      4.4630     -9.6882      0.3474      0.3540      0.7428      0.8059
   4402.5000     10.5929     86.2460      0.3730      0.2293      0.2733      0.4116      0.4167      0.4092      5.8290      1.7762      4.4670    -12.0449      0.2765      0.3124      0.7267      0.7707
   4403.0000     10.6275     80.7010      0.3659      0.2586      0.2990      0.4134      0.4252      0.4186      6.0520      1.7887      4.5520    -14.0086      0.2287      0.2778      0.7007      0.6945
   4403.5000     10.6289     76.9124      0.3635      0.2967      0.3003      0.4012      0.4363      0.4307      6.0550      1.8688      5.3740    -16.5633      0.2018      0.2327      0.6183      0.5818
   4404.0000     10.6309     74.2635      0.3654      0.3289      0.3045      0.3978      0.4457      0.4410      5.8420      1.8896      5.9490    -18.7210      0.1867      0.1946      0.5721      0.4866
   4404.5000     10.6063     73.9107      0.3696      0.3434      0.3133      0.4019      0.4499      0.4456      5.8450      1.8819      5.5830    -19.6917      0.1771      0.1775      0.5427      0.4437
   4405.0000     10.5577     74.2612      0.3730      0.3519      0.3463      0.4073      0.4524      0.4484      6.2390      1.7604      4.8690    -20.2624      0.1220      0.1674      0.3738      0.4186
   4405.5000     10.5204     74.7216      0.3877      0.3576      0.3466      0.3979      0.4540      0.4502      6.6580      1.6928      4.0560    -20.6442      0.1027      0.1607      0.3146      0.4017
   4406.0000     10.4999     75.0263      0.4072      0.3514      0.3563      0.4161      0.4522      0.4482      6.7230      1.6947      4.0950    -20.2249      0.1197      0.1681      0.3669      0.4202
   4406.5000     10.4937     75.8102      0.4242      0.3600      0.3709      0.4338      0.4547      0.4509      6.0830      1.6940      4.6610    -20.8036      0.1258      0.1579      0.3856      0.3947
   4407.0000     10.4848     76.5436      0.4236      0.3733      0.3774      0.4321      0.4586      0.4552      5.6050      1.6865      4.6220    -22.3683      0.1094      0.1421      0.3352      0.3553
   4407.5000     10.4780     77.7181      0.4123      0.3779      0.3720      0.4187      0.4599      0.4567      5.2600      1.6774      4.2970    -23.1410      0.0933      0.1366      0.2860      0.3416
   4408.0000     10.4599     78.9748      0.4181      0.3802      0.3765      0.4237      0.4606      0.4574      4.8910      1.6756      4.2230    -23.5217      0.0944      0.1340      0.2894      0.3349
   4408.5000     10.4508     80.2227      0.4229      0.3766      0.3749      0.4270      0.4595      0.4562      4.6330      1.6745      3.9260    -22.9094      0.1041      0.1383      0.3191      0.3457
   4409.0000     10.4446     82.0546      0.4264      0.3681      0.3686      0.4291      0.4571      0.4535      4.3870      1.6735      3.7190    -21.4961      0.1210      0.1483      0.3707      0.3706
   4409.5000     10.4429     83.0195      0.4248      0.3612      0.3649      0.4283      0.4551      0.4513      4.3100      1.6734      3.8610    -20.8878      0.1267      0.1564      0.3882      0.3910
   4410.0000     10.4728     83.0254      0.4166      0.3491      0.3580      0.4220      0.4515      0.4474      4.3130      1.6707      4.2730    -20.0765      0.1279      0.1707      0.3920      0.4268
   4410.5000     10.5063     81.8094      0.3999      0.3488      0.3492      0.4060      0.4515      0.4474      4.6460      1.6640      4.5610    -20.0582      0.1135      0.1710      0.3480      0.4276
   4411.0000     10.5123     79.7855      0.3879      0.3515      0.3390      0.3930      0.4522      0.4482      4.9120      1.6570      4.5230    -20.2370      0.1079      0.1679      0.3308      0.4197
   4411.5000     10.4872     76.4174      0.3707      0.3557      0.3267      0.3772      0.4535      0.4496      5.4380      1.6647      4.3630    -20.5207      0.1012      0.1629      0.3100      0.4072
   4412.0000     10.4571     71.8961      0.3612      0.3600      0.3243      0.3708      0.4547      0.4509      5.9640      1.6726      4.6560    -20.8044      0.0929      0.1579      0.2848      0.3946
   4412.5000     10.4769     68.8747      0.3609      0.3709      0.3338      0.3731      0.4579      0.4544      6.7260      1.6826      4.8340    -21.9611      0.0787      0.1450      0.2412      0.3624
   4413.0000     10.5462     68.0467      0.3648      0.3755      0.3395      0.3748      0.4592      0.4558      7.5160      1.6769      4.7490    -22.7298      0.0707      0.1396      0.2167      0.3489
   4413.5000     10.5970     68.2591      0.3711      0.3753      0.3427      0.3783      0.4592      0.4558      7.8740      1.6691      4.5390    -22.7105      0.0711      0.1397      0.2180      0.3492
   4414.0000     10.6519     68.4686      0.3790      0.3741      0.3487      0.3853      0.4588      0.4554      8.1000      1.6615      4.8010    -22.4982      0.0733      0.1412      0.2247      0.3530
   4414.5000     10.6848     68.6520      0.3835      0.3716      0.3541      0.3927      0.4581      0.4546      7.9570      1.6775      4.7600    -22.0789      0.0774      0.1441      0.2371      0.3604
   4415.0000     10.6602     71.8135      0.3870      0.3679      0.3536      0.4009      0.4570      0.4534      7.2660      1.7021      4.5080    -21.4706      0.0946      0.1484      0.2900      0.3711
   4415.5000     10.6296     75.4659      0.3913      0.3607      0.3502      0.4045      0.4549      0.4511      6.7560      1.7052      4.2300    -20.8533      0.1086      0.1570      0.3330      0.3925
   4416.0000     10.6049     78.2603      0.4004      0.3634      0.3542      0.4135      0.4557      0.4520      6.2240      1.7119      4.1180    -21.0360      0.1187      0.1538      0.3637      0.3845
   4416.5000     10.5817     80.6701      0.4058      0.3631      0.3563      0.4196      0.4556      0.4519      5.6820      1.7156      4.2760    -21.0177      0.1267      0.1541      0.3882      0.3852
   4417.0000     10.5833     81.6931      0.4066      0.3569      0.3532      0.4179      0.4538      0.4499      5.1880      1.7081      4.0490    -20.6025      0.1294      0.1614      0.3965      0.4036
   4417.5000     10.5843     82.1188      0.4021      0.3419      0.3435      0.4114      0.4494      0.4451      4.8690      1.7066      3.5630    -19.5942      0.1357      0.1792      0.4157      0.4480
   4418.0000     10.5928     81.6624      0.4055      0.3179      0.3375      0.4160      0.4424      0.4374      4.5690      1.7203      3.3440    -17.9879      0.1569      0.2076      0.4809      0.5189
   4418.5000     10.6090     80.0575      0.4200      0.3058      0.3446      0.4376      0.4389      0.4336      4.3680      1.7589      3.5360    -17.1806      0.1859      0.2218      0.5698      0.5546
   4419.0000     10.6179     81.6200      0.4324      0.2877      0.3162      0.4476      0.4336      0.4278      4.2140      1.8339      3.8430    -15.9663      0.2628      0.2432      0.6838      0.6081
   4419.5000     10.6327     89.0316      0.4374      0.2816      0.3141      0.4539      0.4319      0.4258      4.1390      1.8238      4.1010    -15.5550      0.2797      0.2505      0.6859      0.6263
