~V
VERS. 2.00: Ver 2.00
WRAP.   NO:        
~W
 STRT.FT 800:
 STOP.FT 5530:
 STEP.FT 0.5:
 NULL. -999.250000:
 COMP. TENNECO OIL COMPANY:Company
 WELL. SANTIAGO "B" 73-29:Well
 FLD. SANTIAGO:Field
 LOC. SEC 29 TWP 11N RGE 22W:Location
 STAT. CA:State
 SRVC. :Service Company
 SON. :Service Order #
 DATE. :Log Date
 UWI. :Unique Well ID
~C
 DEPT.FT :
 CALS.IN :
 GRC.GAPI :
 NPHC.PU-S :
 PHES. :
 PHIE. :
 PHIT. :
 PHTS. :
 PHZC. :
 RD.OHMM :
 ROBC.G/C3 :
 RS.OHMM :
 SBL.MV :
 VCLW. :
 VCWS. :
 VSHL. :
 VSHS. :
~P
~A
# ...
   2980.0000     10.4200   -999.2500   -999.2500      0.0000   -999.2500   -999.2500      0.2756      0.2493      2.5370   -999.2500      2.1600     -5.4960   -999.2500      0.5681   -999.2500      2.0316
   2980.5000     10.4427   -999.2500   -999.2500      0.0000   -999.2500   -999.2500      0.2756      0.2493      2.5480   -999.2500      2.1600     -5.4980   -999.2500      0.5681   -999.2500      2.0315
   2981.0000     10.4724   -999.2500   -999.2500      0.0000   -999.2500   -999.2500      0.2758      0.2496      2.5960   -999.2500      2.1700     -5.6980   -999.2500      0.5667   -999.2500      2.0205
   2981.5000     10.5554   -999.2500   -999.2500      0.0000   -999.2500   -999.2500      0.2759      0.2499      2.6440   -999.2500      2.1800     -5.8970   -999.2500      0.5653   -999.2500      2.0096
   2982.0000     10.6851   -999.2500   -999.2500      0.0000   -999.2500   -999.2500      0.2760      0.2501      2.6560   -999.2500      2.2000     -5.9980   -999.2500      0.5646   -999.2500      2.0040
   2982.5000     10.7618   -999.2500   -999.2500      0.0000   -999.2500   -999.2500      0.2761      0.2502      2.6680   -999.2500      2.2100     -6.0980   -999.2500      0.5639   -999.2500      1.9985
   2983.0000     10.7595   -999.2500   -999.2500      0.0000   -999.2500   -999.2500      0.2763      0.2505      2.7050   -999.2500      2.2200     -6.2990   -999.2500      0.5625   -999.2500      1.9875
   2983.5000     10.7395   -999.2500   -999.2500      0.0000   -999.2500   -999.2500      0.2768      0.2515      2.7430   -999.2500      2.2620     -6.8940   -999.2500      0.5583   -999.2500      1.9548
   2984.0000     10.6887   -999.2500   -999.2500      0.0000   -999.2500   -999.2500      0.2768      0.2515      2.7940   -999.2500      2.3030     -6.8960   -999.2500      0.5583   -999.2500      1.9547
   2984.5000     10.6450   -999.2500   -999.2500      0.0000   -999.2500   -999.2500      0.2770      0.2518      2.8450   -999.2500      2.3900     -7.0960   -999.2500      0.5569   -999.2500      1.9438
   2985.0000     10.5591   -999.2500   -999.2500      0.0000   -999.2500   -999.2500      0.2776      0.2528      2.8980   -999.2500      2.4120     -7.6920   -999.2500      0.5528   -999.2500      1.9110
   2985.5000     10.4600   -999.2500   -999.2500      0.0000   -999.2500   -999.2500      0.2776      0.2528      2.9520   -999.2500      2.4340     -7.6930   -999.2500      0.5528   -999.2500      1.9110
   2986.0000     10.2708   -999.2500   -999.2500      0.0000   -999.2500   -999.2500      0.2776      0.2528      3.0070   -999.2500      2.4790     -7.6950   -999.2500      0.5527   -999.2500      1.9109
   2986.5000     10.1290   -999.2500   -999.2500      0.0000   -999.2500   -999.2500      0.2768      0.2515      3.0620   -999.2500      2.4910     -6.9060   -999.2500      0.5582   -999.2500      1.9542
   2987.0000     10.2368   -999.2500   -999.2500      0.0000   -999.2500   -999.2500      0.2772      0.2522      3.1190   -999.2500      2.5020     -7.3040   -999.2500      0.5554   -999.2500      1.9323
   2987.5000     10.5646   -999.2500   -999.2500      0.0000   -999.2500   -999.2500      0.2774      0.2525      3.1770   -999.2500      2.5720     -7.5040   -999.2500      0.5540   -999.2500      1.9214
   2988.0000     10.9550   -999.2500   -999.2500      0.0000   -999.2500   -999.2500      0.2776      0.2528      3.2360   -999.2500      2.5960     -7.7040   -999.2500      0.5527   -999.2500      1.9104
   2988.5000     11.1395   -999.2500   -999.2500      0.0000   -999.2500   -999.2500      0.2794      0.2561      3.4190   -999.2500      2.6200     -9.6840   -999.2500      0.5388   -999.2500      1.8017
   2989.0000     11.1082   -999.2500   -999.2500      0.0000   -999.2500   -999.2500      0.2777      0.2567      3.4830   -999.2500      2.7180    -10.0810   -999.2500      0.5340   -999.2500      1.7799
   2989.5000     10.9840   -999.2500   -999.2500      0.0000   -999.2500   -999.2500      0.2743      0.2574      3.5310   -999.2500      2.8190    -10.4790   -999.2500      0.5274   -999.2500      1.7580
   2990.0000     10.8904   -999.2500   -999.2500      0.0000   -999.2500   -999.2500      0.2709      0.2580      3.5800   -999.2500      2.9250    -10.8760   -999.2500      0.5209   -999.2500      1.7362
   2990.5000     10.7513   -999.2500   -999.2500      0.0000   -999.2500   -999.2500      0.2624      0.2596      3.7480   -999.2500      2.9520    -11.8680   -999.2500      0.5045   -999.2500      1.6818
   2991.0000     10.6083   -999.2500   -999.2500      0.0000   -999.2500   -999.2500      0.2623      0.2596      3.8180   -999.2500      2.9250    -11.8700   -999.2500      0.5045   -999.2500      1.6816
   2991.5000     10.5140   -999.2500   -999.2500      0.0000   -999.2500   -999.2500      0.2623      0.2596      3.8000   -999.2500      2.9250    -11.8710   -999.2500      0.5045   -999.2500      1.6816
   2992.0000     10.4199   -999.2500   -999.2500      0.0000   -999.2500   -999.2500      0.2623      0.2596      3.7830   -999.2500      2.8450    -11.8730   -999.2500      0.5044   -999.2500      1.6815
   2992.5000     10.3651   -999.2500   -999.2500      0.0000   -999.2500   -999.2500      0.2640      0.2593      3.7830   -999.2500      2.7430    -11.6780   -999.2500      0.5077   -999.2500      1.6922
   2993.0000     10.3408   -999.2500   -999.2500      0.0000   -999.2500   -999.2500      0.2674      0.2587      3.7830   -999.2500      2.7180    -11.2840   -999.2500      0.5141   -999.2500      1.7138
   2993.5000     10.3211   -999.2500   -999.2500      0.0000   -999.2500   -999.2500      0.2724      0.2577      3.7490   -999.2500      2.8720    -10.6930   -999.2500      0.5239   -999.2500      1.7463
   2994.0000     10.2714   -999.2500   -999.2500      0.0000   -999.2500   -999.2500      0.2794      0.2560      3.7140   -999.2500      2.9520     -9.7060   -999.2500      0.5386   -999.2500      1.8004
   2994.5000     10.2708   -999.2500   -999.2500      0.0000   -999.2500   -999.2500      0.2786      0.2547      3.6630   -999.2500      2.9520     -8.9160   -999.2500      0.5441   -999.2500      1.8438
   2995.0000     10.3337   -999.2500   -999.2500      0.0000   -999.2500   -999.2500      0.2781      0.2538      3.6130   -999.2500      2.9380     -8.3250   -999.2500      0.5483   -999.2500      1.8763
   2995.5000     10.3983   -999.2500   -999.2500      0.0000   -999.2500   -999.2500      0.2788      0.2551      3.5470   -999.2500      2.9250     -9.1180   -999.2500      0.5427   -999.2500      1.8327
   2996.0000     10.5157   -999.2500   -999.2500      0.0000   -999.2500   -999.2500      0.2792      0.2557      3.4830   -999.2500      2.8720     -9.5160   -999.2500      0.5399   -999.2500      1.8109
   2996.5000     10.6248   -999.2500   -999.2500      0.0000   -999.2500   -999.2500      0.2787      0.2549      3.4040   -999.2500      2.6930     -9.0230   -999.2500      0.5434   -999.2500      1.8380
   2997.0000     10.6363   -999.2500   -999.2500      0.0000   -999.2500   -999.2500      0.2782      0.2541      3.3260   -999.2500      2.5480     -8.5300   -999.2500      0.5468   -999.2500      1.8650
   2997.5000     10.5585   -999.2500   -999.2500      0.0000   -999.2500   -999.2500      0.2779      0.2534      3.2060   -999.2500      2.4790     -8.1370   -999.2500      0.5495   -999.2500      1.8866
   2998.0000     10.4589   -999.2500   -999.2500      0.0000   -999.2500   -999.2500      0.2779      0.2534      3.1480   -999.2500      2.4340     -8.1390   -999.2500      0.5495   -999.2500      1.8865
   2998.5000     10.3459   -999.2500   -999.2500      0.0000   -999.2500   -999.2500      0.2779      0.2534      3.0620   -999.2500      2.3680     -8.1410   -999.2500      0.5495   -999.2500      1.8864
   2999.0000     10.3424   -999.2500   -999.2500      0.0000   -999.2500   -999.2500      0.2771      0.2521      2.9790   -999.2500      2.3460     -7.3520   -999.2500      0.5550   -999.2500      1.9297
   2999.5000     10.4678   -999.2500   -999.2500      0.0000   -999.2500   -999.2500      0.2768      0.2516      2.9790   -999.2500      2.3460     -7.0570   -999.2500      0.5570   -999.2500      1.9459
