~V
VERS. 2.00: Ver 2.00
WRAP.   NO:        
~W
 STRT.FT 800:
 STOP.FT 5530:
 STEP.FT 0.5:
 NULL. -999.250000:
 COMP. TENNECO OIL COMPANY:Company
 WELL. SANTIAGO "B" 73-29:Well
 FLD. SANTIAGO:Field
 LOC. SEC 29 TWP 11N RGE 22W:Location
 STAT. CA:State
 SRVC. :Service Company
 SON. :Service Order #
 DATE. :Log Date
 UWI. :Unique Well ID
~C
 DEPT.FT :
 CALS.IN :
 GRC.GAPI :
 NPHC.PU-S :
 PHES. :
 PHIE. :
 PHIT. :
 PHTS. :
 PHZC. :
 RD.OHMM :
 ROBC.G/C3 :
 RS.OHMM :
 SBL.MV :
 VCLW. :
 VCWS. :
 VSHL. :
 VSHS. :
~P
~A
# ...
   3520.0000     10.2199     71.2554      0.4188      0.0000      0.0000      0.3001      0.2720      0.2471      2.1590      1.9546      2.1200     -7.4630      0.5771      0.5490      1.4427      1.9236
   3520.5000     10.1567     71.3172      0.4120      0.0000      0.0000      0.2966      0.2724      0.2477      2.1580      1.9552      2.1190     -7.8650      0.5705      0.5462      1.4261      1.9015
   3521.0000     10.1366     71.2712      0.4120      0.0000      0.0000      0.2966      0.2724      0.2478      2.1580      1.9629      2.0990     -7.8700      0.5704      0.5462      1.4259      1.9013
   3521.5000     10.1725     71.1449      0.4165      0.0000      0.0000      0.3016      0.2718      0.2468      2.1580      1.9654      2.0800     -7.2830      0.5800      0.5503      1.4501      1.9335
   3522.0000     10.2709     70.9539      0.4244      0.0000      0.0000      0.3067      0.2713      0.2458      2.1370      1.9646      2.0600     -6.6960      0.5897      0.5543      1.4743      1.9657
   3522.5000     10.3220     70.6498      0.4289      0.0000      0.0000      0.2981      0.2722      0.2474      2.1170      1.9621      2.0790     -7.6900      0.5733      0.5474      1.4334      1.9111
   3523.0000     10.3118     70.4151      0.4345      0.0000      0.0000      0.2947      0.2726      0.2481      2.1070      1.9558      2.0790     -8.0920      0.5667      0.5446      1.4168      1.8891
   3523.5000     10.2912     70.3681      0.4390      0.0000      0.0000      0.3082      0.2711      0.2455      2.0980      1.9463      2.0790     -6.5160      0.5927      0.5556      1.4817      1.9756
   3524.0000     10.2711     70.7422      0.4480      0.0000      0.0000      0.3132      0.2705      0.2445      2.0590      1.9338      2.0210     -5.9290      0.6023      0.5597      1.5059      2.0078
   3524.5000     10.2405     71.7228      0.4524      0.0000      0.0000      0.3081      0.2711      0.2455      2.0400      1.9262      1.9660     -6.5280      0.5925      0.5555      1.4812      1.9749
   3525.0000     10.1801     72.4209      0.4490      0.0000      0.0000      0.3080      0.2711      0.2455      2.0210      1.9302      1.9660     -6.5350      0.5924      0.5554      1.4809      1.9746
   3525.5000     10.1206     72.9074      0.4445      0.0000      0.0000      0.3063      0.2713      0.2458      2.0110      1.9376      1.9650     -6.7380      0.5890      0.5540      1.4726      1.9634
   3526.0000     10.1108     72.2560      0.4356      0.0000      0.0000      0.2961      0.2724      0.2478      2.0020      1.9501      1.9650     -7.9290      0.5694      0.5457      1.4235      1.8980
   3526.5000     10.1298     71.6734      0.4490      0.0000      0.0000      0.2910      0.2729      0.2488      1.9650      1.9541      1.9650     -8.5280      0.5595      0.5415      1.3988      1.8651
   3527.0000     10.1385     69.1796      0.4692      0.0000      0.0000      0.2943      0.2726      0.2481      1.9640      1.9489      1.9650     -8.1400      0.5659      0.5442      1.4148      1.8864
   3527.5000     10.1485     68.5740      0.4658      0.0000      0.0000      0.2976      0.2722      0.2475      1.9640      1.9490      1.9550     -7.7510      0.5723      0.5469      1.4308      1.9078
   3528.0000     10.2101     68.9221      0.4625      0.0000      0.0000      0.2993      0.2720      0.2472      1.9640      1.9544      1.9460     -7.5590      0.5755      0.5483      1.4387      1.9183
   3528.5000     10.3085     69.1432      0.4525      0.0000      0.0000      0.3060      0.2713      0.2459      1.9630      1.9467      1.9280     -6.7740      0.5884      0.5537      1.4711      1.9614
   3529.0000     10.4286     69.4109      0.4357      0.0000      0.0000      0.3076      0.2711      0.2455      1.9450      1.9331      1.9100     -6.5810      0.5916      0.5551      1.4790      1.9720
   3529.5000     10.5345     69.4337      0.4391      0.0000      0.0000      0.3076      0.2711      0.2456      1.9360      1.9278      1.9090     -6.5870      0.5915      0.5550      1.4788      1.9717
   3530.0000     10.6079     68.7437      0.4448      0.0000      0.0000      0.3041      0.2715      0.2462      1.9270      1.9290      1.9270     -6.9880      0.5849      0.5522      1.4623      1.9497
   3530.5000     10.6772     68.4668      0.4516      0.0000      0.0000      0.3058      0.2713      0.2459      1.9260      1.9322      1.9260     -6.7970      0.5880      0.5535      1.4701      1.9602
   3531.0000     10.7956     70.8598      0.4505      0.0000      0.0000      0.3108      0.2707      0.2449      1.9260      1.9316      1.9260     -6.2100      0.5977      0.5576      1.4943      1.9924
   3531.5000     10.9201     72.6339      0.4506      0.0000      0.0000      0.3209      0.2696      0.2430      1.9250      1.9280      1.9080     -5.0300      0.6172      0.5659      1.5429      2.0572
   3532.0000     10.9851     75.1454      0.4472      0.0000      0.0000      0.3276      0.2689      0.2417      1.9430      1.9220      1.8900     -4.2450      0.6301      0.5713      1.5752      2.1003
   3532.5000     11.0243     76.5269      0.4529      0.0000      0.0000      0.3293      0.2687      0.2414      1.9610      1.9174      1.8810     -4.0530      0.6332      0.5727      1.5831      2.1108
   3533.0000     11.0865     77.1025      0.4585      0.0000      0.0000      0.3157      0.2702      0.2440      1.9600      1.9187      1.8720     -5.6400      0.6071      0.5616      1.5178      2.0237
   3533.5000     11.0962     76.6930      0.4596      0.0000      0.0000      0.3072      0.2711      0.2456      1.9600      1.9245      1.8890     -6.6350      0.5907      0.5546      1.4768      1.9691
   3534.0000     10.9749     75.7673      0.4618      0.0000      0.0000      0.3054      0.2713      0.2459      1.9590      1.9266      1.9060     -6.8400      0.5873      0.5532      1.4684      1.9578
   3534.5000     10.7608     74.4155      0.4729      0.0000      0.0000      0.3071      0.2711      0.2456      1.9590      1.9283      1.9060     -6.6470      0.5905      0.5546      1.4763      1.9684
   3535.0000     10.6042     73.2023      0.4672      0.0000      0.0000      0.3036      0.2715      0.2463      1.9410      1.9319      1.9050     -7.0490      0.5839      0.5517      1.4597      1.9463
   3535.5000     10.5281     71.9657      0.4616      0.0000      0.0000      0.3019      0.2717      0.2466      1.9400      1.9357      1.9050     -7.2520      0.5806      0.5503      1.4514      1.9352
   3536.0000     10.4914     72.0931      0.4515      0.0000      0.0000      0.3001      0.2718      0.2469      1.9400      1.9408      1.9220     -7.4560      0.5772      0.5489      1.4430      1.9240
   3536.5000     10.4830     71.8626      0.4470      0.0000      0.0000      0.2984      0.2720      0.2472      1.9580      1.9500      1.9220     -7.6590      0.5739      0.5475      1.4346      1.9128
   3537.0000     10.4824     70.5895      0.4481      0.0000      0.0000      0.3051      0.2713      0.2460      1.9570      1.9557      1.9390     -6.8740      0.5868      0.5529      1.4670      1.9559
   3537.5000     10.4820     71.2250      0.4537      0.0000      0.0000      0.3034      0.2715      0.2463      1.9750      1.9502      1.9390     -7.0780      0.5834      0.5515      1.4586      1.9447
   3538.0000     10.4814     71.6464      0.4481      0.0000      0.0000      0.2982      0.2720      0.2473      1.9930      1.9435      1.9560     -7.6770      0.5736      0.5473      1.4339      1.9118
   3538.5000     10.4560     71.5895      0.4413      0.0000      0.0000      0.2965      0.2722      0.2476      2.0200      1.9390      1.9740     -7.8800      0.5702      0.5459      1.4255      1.9007
   3539.0000     10.4655     71.6102      0.4436      0.0000      0.0000      0.2998      0.2718      0.2469      2.0480      1.9331      1.9740     -7.4910      0.5766      0.5486      1.4415      1.9221
   3539.5000     10.5174     71.7294      0.4436      0.0000      0.0000      0.3066      0.2711      0.2457      2.0280      1.9278      1.9730     -6.7070      0.5895      0.5541      1.4738      1.9651
