~V
VERS. 2.00: Ver 2.00
WRAP.   NO:        
~W
 STRT.FT 800:
 STOP.FT 5530:
 STEP.FT 0.5:
 NULL. -999.250000:
 COMP. TENNECO OIL COMPANY:Company
 WELL. SANTIAGO "B" 73-29:Well
 FLD. SANTIAGO:Field
 LOC. SEC 29 TWP 11N RGE 22W:Location
 STAT. CA:State
 SRVC. :Service Company
 SON. :Service Order #
 DATE. :Log Date
 UWI. :Unique Well ID
~C
 DEPT.FT :
 CALS.IN :
 GRC.GAPI :
 NPHC.PU-S :
 PHES. :
 PHIE. :
 PHIT. :
 PHTS. :
 PHZC. :
 RD.OHMM :
 ROBC.G/C3 :
 RS.OHMM :
 SBL.MV :
 VCLW. :
 VCWS. :
 VSHL. :
 VSHS. :
~P
~A
# ...
   2800.0000      9.8580   -999.2500   -999.2500      0.0000   -999.2500   -999.2500      0.2797      0.2551      1.9170   -999.2500      1.9890     -7.9490   -999.2500      0.5528   -999.2500      1.8969
   2800.5000      9.8580   -999.2500   -999.2500      0.0000   -999.2500   -999.2500      0.2798      0.2554      1.8990   -999.2500      1.9890     -8.1480   -999.2500      0.5514   -999.2500      1.8860
   2801.0000      9.8577   -999.2500   -999.2500      0.0000   -999.2500   -999.2500      0.2798      0.2554      1.8820   -999.2500      1.9980     -8.1510   -999.2500      0.5514   -999.2500      1.8858
   2801.5000      9.8570   -999.2500   -999.2500      0.0000   -999.2500   -999.2500      0.2795      0.2548      1.8910   -999.2500      2.0070     -7.7570   -999.2500      0.5541   -999.2500      1.9075
   2802.0000      9.8570   -999.2500   -999.2500      0.0000   -999.2500   -999.2500      0.2789      0.2538      1.8990   -999.2500      1.9980     -7.1660   -999.2500      0.5583   -999.2500      1.9399
   2802.5000      9.8570   -999.2500   -999.2500      0.0000   -999.2500   -999.2500      0.2784      0.2528      1.8990   -999.2500      1.9890     -6.5740   -999.2500      0.5624   -999.2500      1.9724
   2803.0000      9.8570   -999.2500   -999.2500      0.0000   -999.2500   -999.2500      0.2772      0.2508      1.9170   -999.2500      1.9890     -5.3890   -999.2500      0.5706   -999.2500      2.0375
   2803.5000      9.8567   -999.2500   -999.2500      0.0000   -999.2500   -999.2500      0.2771      0.2505      1.9170   -999.2500      1.9890     -5.1930   -999.2500      0.5720   -999.2500      2.0482
   2804.0000      9.8560   -999.2500   -999.2500      0.0000   -999.2500   -999.2500      0.2769      0.2502      1.9170   -999.2500      1.9890     -4.9980   -999.2500      0.5734   -999.2500      2.0589
   2804.5000      9.8530   -999.2500   -999.2500      0.0000   -999.2500   -999.2500      0.2769      0.2502      1.9170   -999.2500      1.9980     -4.9990   -999.2500      0.5733   -999.2500      2.0589
   2805.0000      9.8430   -999.2500   -999.2500      0.0000   -999.2500   -999.2500      0.2776      0.2515      1.9170   -999.2500      2.0070     -5.7920   -999.2500      0.5678   -999.2500      2.0153
   2805.5000      9.8301   -999.2500   -999.2500      0.0000   -999.2500   -999.2500      0.2774      0.2512      1.9170   -999.2500      2.0070     -5.5970   -999.2500      0.5692   -999.2500      2.0260
   2806.0000      9.8391   -999.2500   -999.2500      0.0000   -999.2500   -999.2500      0.2770      0.2505      1.8990   -999.2500      2.0160     -5.2030   -999.2500      0.5719   -999.2500      2.0477
   2806.5000      9.9005   -999.2500   -999.2500      0.0000   -999.2500   -999.2500      0.2772      0.2508      1.8910   -999.2500      2.0250     -5.4030   -999.2500      0.5705   -999.2500      2.0367
   2807.0000      9.9140   -999.2500   -999.2500      0.0000   -999.2500   -999.2500      0.2774      0.2512      1.8820   -999.2500      2.0250     -5.6030   -999.2500      0.5691   -999.2500      2.0257
   2807.5000      9.9082   -999.2500   -999.2500      0.0000   -999.2500   -999.2500      0.2773      0.2510      1.8730   -999.2500      2.0250     -5.5050   -999.2500      0.5698   -999.2500      2.0311
   2808.0000      9.8940   -999.2500   -999.2500      0.0000   -999.2500   -999.2500      0.2772      0.2508      1.8650   -999.2500      2.0250     -5.4080   -999.2500      0.5705   -999.2500      2.0364
   2808.5000      9.8940   -999.2500   -999.2500      0.0000   -999.2500   -999.2500      0.2776      0.2515      1.8650   -999.2500      2.0250     -5.8060   -999.2500      0.5677   -999.2500      2.0146
   2809.0000      9.8940   -999.2500   -999.2500      0.0000   -999.2500   -999.2500      0.2779      0.2521      1.8650   -999.2500      2.0070     -6.2030   -999.2500      0.5649   -999.2500      1.9928
   2809.5000      9.8912   -999.2500   -999.2500      0.0000   -999.2500   -999.2500      0.2776      0.2515      1.8650   -999.2500      1.9890     -5.8100   -999.2500      0.5676   -999.2500      2.0144
   2810.0000      9.8812   -999.2500   -999.2500      0.0000   -999.2500   -999.2500      0.2778      0.2518      1.8480   -999.2500      1.9700     -6.0100   -999.2500      0.5662   -999.2500      2.0034
   2810.5000      9.8737   -999.2500   -999.2500      0.0000   -999.2500   -999.2500      0.2776      0.2515      1.8480   -999.2500      1.9520     -5.8140   -999.2500      0.5676   -999.2500      2.0141
   2811.0000      9.8730   -999.2500   -999.2500      0.0000   -999.2500   -999.2500      0.2770      0.2505      1.8480   -999.2500      1.9340     -5.2230   -999.2500      0.5717   -999.2500      2.0466
   2811.5000      9.8758   -999.2500   -999.2500      0.0000   -999.2500   -999.2500      0.2776      0.2515      1.8480   -999.2500      1.9340     -5.8180   -999.2500      0.5676   -999.2500      2.0139
   2812.0000      9.8857   -999.2500   -999.2500      0.0000   -999.2500   -999.2500      0.2783      0.2528      1.8480   -999.2500      1.9700     -6.6110   -999.2500      0.5620   -999.2500      1.9704
   2812.5000      9.9037   -999.2500   -999.2500      0.0000   -999.2500   -999.2500      0.2783      0.2528      1.8480   -999.2500      2.0070     -6.6140   -999.2500      0.5620   -999.2500      1.9702
   2813.0000      9.9372   -999.2500   -999.2500      0.0000   -999.2500   -999.2500      0.2785      0.2531      1.8310   -999.2500      1.9520     -6.8130   -999.2500      0.5606   -999.2500      1.9593
   2813.5000      9.9510   -999.2500   -999.2500      0.0000   -999.2500   -999.2500      0.2794      0.2547      1.8310   -999.2500      1.9170     -7.8050   -999.2500      0.5537   -999.2500      1.9048
   2814.0000      9.9510   -999.2500   -999.2500      0.0000   -999.2500   -999.2500      0.2792      0.2544      1.8310   -999.2500      1.9080     -7.6090   -999.2500      0.5551   -999.2500      1.9156
   2814.5000      9.9510   -999.2500   -999.2500      0.0000   -999.2500   -999.2500      0.2792      0.2544      1.8310   -999.2500      1.8990     -7.6110   -999.2500      0.5550   -999.2500      1.9155
   2815.0000      9.9510   -999.2500   -999.2500      0.0000   -999.2500   -999.2500      0.2792      0.2544      1.8140   -999.2500      1.8480     -7.6120   -999.2500      0.5550   -999.2500      1.9154
   2815.5000      9.9510   -999.2500   -999.2500      0.0000   -999.2500   -999.2500      0.2798      0.2554      1.8140   -999.2500      1.8310     -8.2080   -999.2500      0.5509   -999.2500      1.8827
   2816.0000      9.9457   -999.2500   -999.2500      0.0000   -999.2500   -999.2500      0.2794      0.2547      1.8140   -999.2500      1.8310     -7.8140   -999.2500      0.5536   -999.2500      1.9043
   2816.5000      9.9281   -999.2500   -999.2500      0.0000   -999.2500   -999.2500      0.2792      0.2544      1.7970   -999.2500      1.8650     -7.6180   -999.2500      0.5550   -999.2500      1.9151
   2817.0000      9.9174   -999.2500   -999.2500      0.0000   -999.2500   -999.2500      0.2790      0.2541      1.7970   -999.2500      1.8650     -7.4220   -999.2500      0.5563   -999.2500      1.9258
   2817.5000      9.9100   -999.2500   -999.2500      0.0000   -999.2500   -999.2500      0.2792      0.2544      1.7970   -999.2500      1.8820     -7.6220   -999.2500      0.5549   -999.2500      1.9149
   2818.0000      9.9203   -999.2500   -999.2500      0.0000   -999.2500   -999.2500      0.2790      0.2541      1.7970   -999.2500      1.8990     -7.4260   -999.2500      0.5563   -999.2500      1.9256
   2818.5000      9.9600   -999.2500   -999.2500      0.0000   -999.2500   -999.2500      0.2788      0.2537      1.7970   -999.2500      1.8990     -7.2300   -999.2500      0.5576   -999.2500      1.9364
   2819.0000     10.0091   -999.2500   -999.2500      0.0000   -999.2500   -999.2500      0.2781      0.2524      1.7970   -999.2500      1.8820     -6.4420   -999.2500      0.5631   -999.2500      1.9797
   2819.5000     10.0880   -999.2500   -999.2500      0.0000   -999.2500   -999.2500      0.2780      0.2523      1.7970   -999.2500      1.8650     -6.3440   -999.2500      0.5638   -999.2500      1.9850
