~V
VERS. 2.00: Ver 2.00
WRAP.   NO:        
~W
 STRT.FT 800:
 STOP.FT 5530:
 STEP.FT 0.5:
 NULL. -999.250000:
 COMP. TENNECO OIL COMPANY:Company
 WELL. SANTIAGO "B" 73-29:Well
 FLD. SANTIAGO:Field
 LOC. SEC 29 TWP 11N RGE 22W:Location
 STAT. CA:State
 SRVC. :Service Company
 SON. :Service Order #
 DATE. :Log Date
 UWI. :Unique Well ID
~C
 DEPT.FT :
 CALS.IN :
 GRC.GAPI :
 NPHC.PU-S :
 PHES. :
 PHIE. :
 PHIT. :
 PHTS. :
 PHZC. :
 RD.OHMM :
 ROBC.G/C3 :
 RS.OHMM :
 SBL.MV :
 VCLW. :
 VCWS. :
 VSHL. :
 VSHS. :
~P
~A
# ...
   5300.0000      8.5078     98.3404      0.4135      0.1702      0.2074      0.4193      0.3908      0.3820      3.1680      1.8901      3.4410     -8.9098      0.4238      0.3678      0.7926      0.8298
   5300.5000      8.5405     95.6515      0.4179      0.1706      0.2033      0.4165      0.3910      0.3821      3.1960      1.9092      3.5360     -8.9419      0.4264      0.3672      0.7967      0.8294
   5301.0000      8.5594     96.2849      0.4224      0.1593      0.1970      0.4168      0.3876      0.3785      3.1950      1.9170      3.5670     -8.1820      0.4396      0.3806      0.8030      0.8407
   5301.5000      8.5717     97.9814      0.4303      0.1569      0.2002      0.4228      0.3869      0.3777      3.2230      1.9111      3.5000     -8.0211      0.4452      0.3835      0.7998      0.8431
   5302.0000      8.5738     99.8899      0.4359      0.1543      0.2052      0.4296      0.3862      0.3769      3.2220      1.8985      3.4360     -7.8521      0.4488      0.3864      0.7948      0.8457
   5302.5000      8.5829    102.3456      0.4348      0.1518      0.2080      0.4329      0.3854      0.3761      3.1910      1.8832      3.2200     -7.6862      0.4497      0.3894      0.7920      0.8482
   5303.0000      8.5946    103.5982      0.4348      0.1523      0.2140      0.4375      0.3856      0.3763      3.1900      1.8666      3.1320     -7.7213      0.4469      0.3887      0.7860      0.8477
   5303.5000      8.6124    103.6861      0.4281      0.1528      0.2175      0.4368      0.3857      0.3764      3.1750      1.8538      3.0180     -7.7524      0.4387      0.3882      0.7825      0.8472
   5304.0000      8.6382    100.8525      0.4191      0.1829      0.2271      0.4303      0.3944      0.3860      3.1600      1.8582      3.0730     -9.7674      0.4063      0.3526      0.7729      0.8171
   5304.5000      8.6768     98.7909      0.4191      0.2188      0.2331      0.4219      0.4049      0.3974      3.1580      1.8874      3.1870    -12.1785      0.3775      0.3101      0.7669      0.7752
   5305.0000      8.7226     97.6376      0.4203      0.2578      0.2490      0.4137      0.4162      0.4099      3.1860      1.9205      3.5240    -14.7906      0.3295      0.2640      0.7510      0.6600
   5305.5000      8.7660     95.1157      0.4192      0.2672      0.2606      0.4160      0.4189      0.4128      3.2140      1.9124      3.5880    -15.4177      0.3108      0.2529      0.7394      0.6323
   5306.0000      8.7852     88.6976      0.4136      0.2588      0.2746      0.4243      0.4165      0.4102      3.1690      1.8730      3.4890    -14.8558      0.2994      0.2628      0.7254      0.6571
   5306.5000      8.8039     83.4586      0.4013      0.2474      0.2996      0.4331      0.4132      0.4065      3.1250      1.8160      3.4250    -14.0958      0.2670      0.2763      0.7004      0.6906
   5307.0000      8.8221     82.5549      0.3946      0.2449      0.2982      0.4296      0.4124      0.4057      2.9830      1.8150      3.4550    -13.9309      0.2628      0.2792      0.7018      0.6979
   5307.5000      8.8326     85.7053      0.3957      0.2454      0.3006      0.4319      0.4126      0.4059      2.8220      1.8068      3.3140    -13.9640      0.2626      0.2786      0.6994      0.6964
   5308.0000      8.8316     88.9091      0.4103      0.2725      0.3236      0.4418      0.4204      0.4145      2.7190      1.7977      3.1790    -15.7801      0.2365      0.2465      0.6764      0.6163
   5308.5000      8.8135     90.9820      0.4203      0.2907      0.3357      0.4466      0.4257      0.4203      2.6690      1.7965      2.8990    -17.0021      0.2218      0.2250      0.6643      0.5624
   5309.0000      8.7720     93.0722      0.4237      0.2824      0.3213      0.4452      0.4233      0.4176      2.6320      1.8125      2.8190    -16.4412      0.2478      0.2349      0.6787      0.5871
   5309.5000      8.7395     94.8946      0.4248      0.2680      0.3010      0.4411      0.4191      0.4130      2.5950      1.8290      2.8440    -15.4833      0.2801      0.2518      0.6990      0.6294
   5310.0000      8.7349     96.1503      0.4281      0.2478      0.2868      0.4431      0.4132      0.4066      2.5940      1.8278      2.8690    -14.1284      0.3125      0.2757      0.7132      0.6892
   5310.5000      8.7890     97.3102      0.4304      0.2483      0.2966      0.4495      0.4133      0.4067      2.6410      1.8105      2.9210    -14.1635      0.3059      0.2751      0.7034      0.6876
   5311.0000      8.9238     98.6064      0.4327      0.2502      0.2922      0.4482      0.4139      0.4073      2.7630      1.8201      2.9470    -14.2915      0.3121      0.2728      0.7078      0.6820
   5311.5000      9.0748     99.5840      0.4294      0.2521      0.2779      0.4389      0.4144      0.4079      2.8920      1.8463      2.9730    -14.4186      0.3219      0.2706      0.7221      0.6764
   5312.0000      9.1937    100.4203      0.4261      0.2556      0.2681      0.4309      0.4154      0.4090      3.0550      1.8677      2.9990    -14.6567      0.3255      0.2664      0.7319      0.6659
   5312.5000      9.2839    101.6660      0.4295      0.2502      0.2606      0.4298      0.4138      0.4073      3.1690      1.8774      2.9980    -14.2928      0.3384      0.2728      0.7394      0.6819
   5313.0000      9.3033    102.9195      0.4217      0.2447      0.2470      0.4211      0.4122      0.4055      3.2860      1.8924      3.0530    -13.9298      0.3481      0.2792      0.7530      0.6980
   5313.5000      9.2717    103.2484      0.4183      0.2363      0.2353      0.4162      0.4098      0.4029      3.5020      1.9040      3.1370    -13.3679      0.3617      0.2891      0.7647      0.7227
   5314.0000      9.2505    101.4219      0.4217      0.2043      0.2112      0.4157      0.4005      0.3926      3.5660      1.9167      3.4050    -11.2210      0.4089      0.3270      0.7888      0.7957
   5314.5000      9.2700     98.8107      0.4284      0.1722      0.1978      0.4168      0.3911      0.3824      3.7310      1.9307      3.9430     -9.0711      0.4381      0.3649      0.8022      0.8278
   5315.0000      9.3087     97.3033      0.4183      0.1401      0.1748      0.4054      0.3818      0.3721      3.9420      1.9486      3.6960     -6.9242      0.4613      0.4028      0.8252      0.8599
   5315.5000      9.3782     99.3730      0.3982      0.1080      0.1499      0.3913      0.3724      0.3619      4.1250      1.9575      3.3400     -4.7772      0.4829      0.4407      0.8501      0.8920
   5316.0000      9.3812    103.7131      0.3915      0.1410      0.1605      0.3899      0.3820      0.3724      4.2380      1.9523      3.5930     -6.9903      0.4589      0.4016      0.8395      0.8590
   5316.5000      9.3320    105.6620      0.3971      0.1770      0.1832      0.3990      0.3925      0.3839      4.2760      1.9349      4.0840     -9.4014      0.4315      0.3591      0.8168      0.8230
   5317.0000      9.3214    108.7655      0.4049      0.1716      0.1920      0.4105      0.3909      0.3821      4.2750      1.9106      4.1020     -9.0385      0.4369      0.3655      0.8080      0.8284
   5317.5000      9.4200    111.9118      0.4173      0.1602      0.1997      0.4244      0.3876      0.3785      4.3120      1.8893      4.1200     -8.2785      0.4494      0.3789      0.8003      0.8398
   5318.0000      9.6318    112.9451      0.4263      0.1637      0.2001      0.4266      0.3886      0.3796      4.2320      1.8959      3.7560     -8.5096      0.4531      0.3748      0.7999      0.8363
   5318.5000      9.7104    113.6891      0.4096      0.1671      0.1923      0.4152      0.3896      0.3807      4.1160      1.9000      3.6870     -8.7407      0.4458      0.3708      0.8077      0.8329
   5319.0000      9.6347    115.5883      0.3983      0.1528      0.1851      0.4099      0.3854      0.3761      3.9300      1.8963      3.6200     -7.7828      0.4497      0.3877      0.8149      0.8472
   5319.5000      9.5452    117.2231      0.3972      0.1148      0.1734      0.4115      0.3743      0.3639      3.7870      1.8891      3.5850     -5.2389      0.4762      0.4325      0.8266      0.8852
