~V
VERS. 2.00: Ver 2.00
WRAP.   NO:        
~W
 STRT.FT 800:
 STOP.FT 5530:
 STEP.FT 0.5:
 NULL. -999.250000:
 COMP. TENNECO OIL COMPANY:Company
 WELL. SANTIAGO "B" 73-29:Well
 FLD. SANTIAGO:Field
 LOC. SEC 29 TWP 11N RGE 22W:Location
 STAT. CA:State
 SRVC. :Service Company
 SON. :Service Order #
 DATE. :Log Date
 UWI. :Unique Well ID
~C
 DEPT.FT :
 CALS.IN :
 GRC.GAPI :
 NPHC.PU-S :
 PHES. :
 PHIE. :
 PHIT. :
 PHTS. :
 PHZC. :
 RD.OHMM :
 ROBC.G/C3 :
 RS.OHMM :
 SBL.MV :
 VCLW. :
 VCWS. :
 VSHL. :
 VSHS. :
~P
~A
# ...
   3880.0000     10.6826     68.4278      0.3229      0.2626      0.0914      0.2646      0.4286      0.4220     14.1170      2.2580      9.5140    -14.0660      0.3464      0.2768      0.9086      0.6919
   3880.5000     10.7214     68.2935      0.3347      0.2745      0.1174      0.2809      0.4321      0.4258     13.8570      2.2243      9.5110    -14.8637      0.3270      0.2627      0.8826      0.6567
   3881.0000     10.7603     69.2192      0.3486      0.2864      0.2235      0.3574      0.4356      0.4296     13.2340      2.0062      8.9180    -15.6614      0.2679      0.2486      0.7765      0.6216
   3881.5000     10.7774     74.7319      0.3685      0.2983      0.3225      0.4161      0.4390      0.4334     12.0710      1.8305      7.2200    -16.4592      0.1872      0.2345      0.5737      0.5864
   3882.0000     10.7425     83.7031      0.4027      0.3043      0.3410      0.4393      0.4407      0.4353     10.2300      1.7903      5.6340    -16.8589      0.1966      0.2275      0.6024      0.5687
   3882.5000     10.6689     96.1102      0.4577      0.3221      0.3516      0.4726      0.4459      0.4410      9.3320      1.7779      5.2340    -18.0516      0.2420      0.2064      0.6484      0.5161
   3883.0000     10.5910    102.6013      0.4708      0.3015      0.3435      0.4817      0.4399      0.4344      8.3570      1.7744      5.2820    -16.6743      0.2763      0.2307      0.6565      0.5769
   3883.5000     10.5647    104.3869      0.4033      0.3045      0.3263      0.4344      0.4408      0.4354      7.4840      1.7755      5.3780    -16.8790      0.2163      0.2271      0.6629      0.5678
   3884.0000     10.5774    105.3078      0.3873      0.3135      0.3267      0.4304      0.4434      0.4382      6.7020      1.7934      5.4770    -17.4797      0.2074      0.2165      0.6357      0.5414
   3884.5000     10.6162    106.2773      0.3816      0.3121      0.3243      0.4290      0.4430      0.4378      6.2840      1.8026      5.4260    -17.3854      0.2094      0.2182      0.6417      0.5455
   3885.0000     10.6420    108.5913      0.3710      0.3107      0.3175      0.4216      0.4426      0.4373      6.1120      1.8069      5.3750    -17.2921      0.2081      0.2198      0.6378      0.5496
   3885.5000     10.6288    112.0430      0.3690      0.2813      0.2914      0.4178      0.4341      0.4280      6.0000      1.8170      5.5240    -15.3258      0.2528      0.2545      0.7086      0.6364
   3886.0000     10.5693    116.1902      0.3825      0.2608      0.2686      0.4208      0.4281      0.4214      5.9990      1.8347      5.5240    -13.9485      0.3044      0.2789      0.7314      0.6971
   3886.5000     10.4826    119.7046      0.3958      0.2373      0.2400      0.4226      0.4213      0.4139      6.0530      1.8561      5.6250    -12.3752      0.3652      0.3066      0.7600      0.7627
   3887.0000     10.4797    124.6154      0.4053      0.2138      0.2140      0.4239      0.4144      0.4064      6.0520      1.8732      5.7280    -10.8000      0.4199      0.3344      0.7860      0.7862
   3887.5000     10.6035    129.9753      0.4182      0.1843      0.1919      0.4255      0.4059      0.3970      6.0510      1.8941      5.7270     -8.8297      0.4671      0.3692      0.8081      0.8157
   3888.0000     10.7039    149.7660      0.4279      0.1579      0.1661      0.4239      0.3982      0.3886      6.0500      1.9177      5.6220     -7.0584      0.5156      0.4004      0.8339      0.8421
   3888.5000     10.7201    159.4243      0.4359      0.1255      0.1452      0.4223      0.3888      0.3782      6.0490      1.9365      5.3690     -4.8911      0.5543      0.4387      0.8548      0.8745
   3889.0000     10.7297    169.5574      0.4447      0.1126      0.1362      0.4247      0.3850      0.3741      5.9920      1.9433      5.1270     -3.9088      0.5771      0.4540      0.8638      0.8874
   3889.5000     10.7417    188.8226      0.4508      0.1107      0.1314      0.4281      0.3844      0.3735      5.9370      1.9423      4.9410     -3.7185      0.5935      0.4563      0.8686      0.8893
   3890.0000     10.7488    195.9418      0.4459      0.1107      0.1287      0.4263      0.3844      0.3735      5.8820      1.9394      4.8950     -3.7262      0.5952      0.4562      0.8713      0.8893
   3890.5000     10.7340    197.1121      0.4324      0.1088      0.1222      0.4186      0.3839      0.3729      5.8270      1.9398      4.7610     -3.5349      0.5930      0.4584      0.8778      0.8912
   3891.0000     10.7337    196.6692      0.4198      0.1030      0.1096      0.4082      0.3822      0.3710      5.7720      1.9511      4.7600     -2.9476      0.5972      0.4653      0.8904      0.8970
   3891.5000     10.7358    196.0416      0.4113      0.1011      0.0974      0.3974      0.3816      0.3704      5.6660      1.9695      4.7590     -2.7563      0.6001      0.4676      0.9026      0.8989
   3892.0000     10.7455    194.9351      0.4063      0.0972      0.0923      0.3937      0.3805      0.3692      5.6130      1.9734      4.7590     -2.3680      0.6028      0.4721      0.9077      0.9028
   3892.5000     10.7465    193.6646      0.4037      0.1012      0.0946      0.3926      0.3817      0.3704      5.5610      1.9722      4.7580     -2.7698      0.5961      0.4674      0.9054      0.8988
   3893.0000     10.7157    192.2045      0.4109      0.0954      0.0957      0.3976      0.3800      0.3686      5.5100      1.9681      4.7130     -2.1845      0.6038      0.4743      0.9043      0.9046
   3893.5000     10.6717    191.5184      0.4189      0.0895      0.0961      0.4025      0.3783      0.3667      5.4080      1.9659      4.6690     -1.5972      0.6128      0.4812      0.9039      0.9105
   3894.0000     10.6919    190.5805      0.4202      0.0896      0.0968      0.4031      0.3783      0.3667      5.3830      1.9661      4.6680     -1.6039      0.6126      0.4811      0.9032      0.9104
   3894.5000     10.7344    189.8914      0.4192      0.0916      0.0973      0.4021      0.3789      0.3674      5.3570      1.9672      4.6250     -1.8076      0.6098      0.4787      0.9027      0.9084
   3895.0000     10.6389    189.1368      0.4181      0.0897      0.0972      0.4024      0.3783      0.3668      5.3070      1.9646      4.6240     -1.6173      0.6104      0.4810      0.9028      0.9103
   3895.5000     10.4660    190.5378      0.4159      0.0839      0.0945      0.4026      0.3766      0.3649      5.2570      1.9603      4.6030     -1.0310      0.6162      0.4879      0.9055      0.9161
   3896.0000     10.4311    193.1486      0.4165      0.0918      0.1002      0.4041      0.3789      0.3674      5.2570      1.9562      4.5810     -1.8287      0.6078      0.4785      0.8998      0.9082
   3896.5000     10.5877    195.2514      0.4214      0.0919      0.1027      0.4080      0.3789      0.3674      5.1120      1.9541      4.6220     -1.8344      0.6105      0.4784      0.8973      0.9081
   3897.0000     10.7736    197.8163      0.4374      0.0939      0.1098      0.4175      0.3795      0.3681      5.1120      1.9510      4.5780     -2.0381      0.6153      0.4760      0.8902      0.9061
   3897.5000     10.9783    198.7071      0.4433      0.1038      0.1209      0.4233      0.3824      0.3712      5.1110      1.9426      4.5360     -3.0328      0.6047      0.4643      0.8791      0.8962
   3898.0000     10.9121    196.4547      0.4355      0.1098      0.1314      0.4255      0.3841      0.3732      5.1570      1.9217      4.4940     -3.6336      0.5883      0.4573      0.8686      0.8902
   3898.5000     10.6993    191.2012      0.4336      0.1059      0.1422      0.4331      0.3830      0.3719      5.2520      1.8929      4.3710     -3.2443      0.5819      0.4618      0.8578      0.8941
   3899.0000     10.5415    185.3145      0.4363      0.1187      0.1654      0.4442      0.3867      0.3760      5.3480      1.8601      4.2910     -4.4380      0.5577      0.4467      0.8346      0.8813
   3899.5000     10.5260    180.6213      0.4406      0.1395      0.1886      0.4547      0.3928      0.3826      5.4460      1.8338      4.4500     -5.8277      0.5321      0.4222      0.8114      0.8605
