~V
VERS. 2.00: Ver 2.00
WRAP.   NO:        
~W
 STRT.FT 800:
 STOP.FT 5530:
 STEP.FT 0.5:
 NULL. -999.250000:
 COMP. TENNECO OIL COMPANY:Company
 WELL. SANTIAGO "B" 73-29:Well
 FLD. SANTIAGO:Field
 LOC. SEC 29 TWP 11N RGE 22W:Location
 STAT. CA:State
 SRVC. :Service Company
 SON. :Service Order #
 DATE. :Log Date
 UWI. :Unique Well ID
~C
 DEPT.FT :
 CALS.IN :
 GRC.GAPI :
 NPHC.PU-S :
 PHES. :
 PHIE. :
 PHIT. :
 PHTS. :
 PHZC. :
 RD.OHMM :
 ROBC.G/C3 :
 RS.OHMM :
 SBL.MV :
 VCLW. :
 VCWS. :
 VSHL. :
 VSHS. :
~P
~A
# ...
   5120.0000      7.6107    133.1653      0.4113      0.2480      0.2582      0.4050      0.4172      0.4104      2.3920      1.6990      2.4370    -13.7768      0.2935      0.2819      0.7418      0.7047
   5120.5000      7.6195    132.5870      0.4091      0.2514      0.2617      0.4056      0.4181      0.4115      2.3910      1.7020      2.5970    -14.0019      0.2878      0.2779      0.7383      0.6948
   5121.0000      7.6288    131.8813      0.4045      0.2488      0.2591      0.4028      0.4174      0.4106      2.3910      1.7010      2.7690    -13.8269      0.2874      0.2810      0.7409      0.7025
   5121.5000      7.6277    130.5707      0.3984      0.2491      0.2575      0.3989      0.4175      0.4107      2.3900      1.7050      2.8190    -13.8520      0.2829      0.2806      0.7425      0.7014
   5122.0000      7.6175    126.7175      0.3933      0.2465      0.2547      0.3955      0.4167      0.4099      2.3900      1.7130      2.6670    -13.6791      0.2816      0.2836      0.7453      0.7090
   5122.5000      7.6170    121.1765      0.3872      0.2262      0.2422      0.3954      0.4108      0.4034      2.4100      1.7310      2.6910    -12.3162      0.3062      0.3077      0.7578      0.7691
   5123.0000      7.6165    119.2717      0.3805      0.1999      0.2378      0.4146      0.4031      0.3950      2.4090      1.7880      2.7650    -10.5572      0.3536      0.3387      0.7622      0.8001
   5123.5000      7.6207    119.3063      0.3824      0.1825      0.2205      0.4144      0.3980      0.3894      2.4300      1.8340      2.7890     -9.3933      0.3878      0.3592      0.7795      0.8175
   5124.0000      7.6302    120.7731      0.3908      0.1710      0.2101      0.4160      0.3947      0.3857      2.4410      1.8450      2.6880     -8.6234      0.4119      0.3728      0.7899      0.8290
   5124.5000      7.6345    123.0126      0.3940      0.1566      0.1948      0.4135      0.3905      0.3811      2.4520      1.8610      2.6140     -7.6575      0.4374      0.3899      0.8052      0.8434
   5125.0000      7.6439    126.2098      0.3958      0.1451      0.1679      0.4041      0.3871      0.3775      2.4620      1.8990      2.5890     -6.8896      0.4724      0.4034      0.8321      0.8549
   5125.5000      7.6734    132.0723      0.4038      0.1425      0.1551      0.4025      0.3864      0.3766      2.4720      1.9210      2.6360     -6.7186      0.4948      0.4064      0.8449      0.8575
   5126.0000      7.7642    135.3488      0.4109      0.1399      0.1519      0.4046      0.3856      0.3758      2.4710      1.9280      2.6840     -6.5457      0.5054      0.4095      0.8481      0.8601
   5126.5000      7.8609    137.7506      0.4091      0.1344      0.1447      0.4017      0.3840      0.3740      2.4700      1.9370      2.8610     -6.1738      0.5141      0.4161      0.8553      0.8656
   5127.0000      7.9047    139.5909      0.4053      0.1465      0.1689      0.4144      0.3875      0.3779      2.4460      1.8890      3.0780     -6.9899      0.4911      0.4016      0.8311      0.8535
   5127.5000      7.9343    141.0631      0.4025      0.1913      0.2170      0.4286      0.4005      0.3922      2.4460      1.8300      3.0760     -9.9919      0.4231      0.3487      0.7830      0.8087
   5128.0000      7.9685    142.8649      0.3991      0.2272      0.2426      0.4292      0.4109      0.4036      2.4450      1.8160      2.9380    -12.3930      0.3733      0.3063      0.7574      0.7658
   5128.5000      8.0076    143.1730      0.3916      0.2305      0.2451      0.4248      0.4119      0.4046      2.4660      1.8110      2.6790    -12.6161      0.3594      0.3024      0.7549      0.7559
   5129.0000      8.0413    141.4238      0.3793      0.2249      0.2410      0.4188      0.4103      0.4028      2.4650      1.8060      2.6780    -12.2442      0.3556      0.3089      0.7590      0.7723
   5129.5000      8.0704    136.0934      0.3646      0.2164      0.2286      0.4002      0.4078      0.4001      2.4870      1.7810      2.7010    -11.6773      0.3432      0.3189      0.7714      0.7836
   5130.0000      8.0946    128.9689      0.3617      0.2227      0.2327      0.3923      0.4096      0.4021      2.4860      1.7690      2.7260    -12.0963      0.3191      0.3115      0.7673      0.7773
   5130.5000      8.1141    117.8932      0.3662      0.2319      0.2437      0.3882      0.4123      0.4051      2.4860      1.7530      2.6990    -12.7164      0.2890      0.3006      0.7563      0.7515
   5131.0000      8.1326    118.0985      0.3711      0.2234      0.2439      0.3993      0.4098      0.4023      2.5540      1.7700      2.6740    -12.1465      0.3107      0.3106      0.7561      0.7766
   5131.5000      8.1410    118.7301      0.3793      0.2090      0.2394      0.4097      0.4056      0.3977      2.6000      1.7800      2.7470    -11.1806      0.3407      0.3277      0.7606      0.7910
   5132.0000      8.1458    117.8283      0.3837      0.1975      0.2376      0.4140      0.4022      0.3940      2.6720      1.7810      2.9290    -10.4146      0.3528      0.3412      0.7624      0.8025
   5132.5000      8.1554    114.2165      0.3859      0.1890      0.2380      0.4156      0.3997      0.3913      2.7700      1.7780      3.2390     -9.8427      0.3551      0.3513      0.7620      0.8110
   5133.0000      8.1648    113.3522      0.3906      0.1982      0.2456      0.4216      0.4024      0.3943      2.8470      1.7840      3.2670    -10.4648      0.3521      0.3403      0.7544      0.8018
   5133.5000      8.1744    114.0674      0.3997      0.2104      0.2569      0.4333      0.4059      0.3981      2.9250      1.7970      3.2360    -11.2799      0.3527      0.3260      0.7431      0.7896
   5134.0000      8.1838    113.9693      0.4092      0.2226      0.2619      0.4371      0.4095      0.4020      2.9790      1.8090      3.0340    -12.0980      0.3503      0.3115      0.7381      0.7774
   5134.5000      8.1934    113.0635      0.4181      0.2171      0.2520      0.4383      0.4079      0.4002      3.0610      1.8230      2.8970    -11.7290      0.3725      0.3180      0.7480      0.7829
   5135.0000      8.1969    114.0501      0.4265      0.2055      0.2376      0.4396      0.4045      0.3966      3.0600      1.8370      2.8960    -10.9591      0.4041      0.3316      0.7624      0.7945
   5135.5000      8.1960    116.6941      0.4331      0.1852      0.2278      0.4440      0.3986      0.3900      3.0870      1.8430      3.1730     -9.5962      0.4323      0.3557      0.7722      0.8148
   5136.0000      8.1960    119.0634      0.4308      0.1441      0.2277      0.4518      0.3866      0.3769      3.0850      1.8120      3.2010     -6.8463      0.4482      0.4042      0.7723      0.8559
   5136.5000      8.1955    123.7133      0.4213      0.1504      0.2307      0.4440      0.3885      0.3789      3.0560      1.7860      3.1130     -7.2703      0.4265      0.3967      0.7693      0.8496
   5137.0000      8.1945    126.6725      0.4124      0.1685      0.2304      0.4283      0.3937      0.3847      2.9720      1.7590      3.0550     -8.4844      0.3957      0.3753      0.7696      0.8315
   5137.5000      8.1935    132.6678      0.4070      0.1985      0.2344      0.4235      0.4024      0.3943      2.9710      1.7630      2.9710    -10.4915      0.3782      0.3399      0.7656      0.8015
   5138.0000      8.1930    137.3970      0.4061      0.2254      0.2476      0.4242      0.4102      0.4028      2.9420      1.7690      2.9160    -12.2976      0.3531      0.3080      0.7524      0.7700
   5138.5000      8.1925    140.5568      0.4078      0.2376      0.2524      0.4188      0.4138      0.4067      2.9420      1.7480      2.9420    -13.1157      0.3327      0.2936      0.7476      0.7339
   5139.0000      8.1975    141.5970      0.4039      0.2232      0.2414      0.4156      0.4096      0.4021      2.9670      1.7410      3.1360    -12.1497      0.3485      0.3106      0.7586      0.7765
   5139.5000      8.2069    139.5228      0.3943      0.2147      0.2358      0.4161      0.4071      0.3994      2.9670      1.7610      3.3120    -11.5798      0.3605      0.3207      0.7642      0.7853
