~V
VERS. 2.00: Ver 2.00
WRAP.   NO:        
~W
 STRT.FT 800:
 STOP.FT 5530:
 STEP.FT 0.5:
 NULL. -999.250000:
 COMP. TENNECO OIL COMPANY:Company
 WELL. SANTIAGO "B" 73-29:Well
 FLD. SANTIAGO:Field
 LOC. SEC 29 TWP 11N RGE 22W:Location
 STAT. CA:State
 SRVC. :Service Company
 SON. :Service Order #
 DATE. :Log Date
 UWI. :Unique Well ID
~C
 DEPT.FT :
 CALS.IN :
 GRC.GAPI :
 NPHC.PU-S :
 PHES. :
 PHIE. :
 PHIT. :
 PHTS. :
 PHZC. :
 RD.OHMM :
 ROBC.G/C3 :
 RS.OHMM :
 SBL.MV :
 VCLW. :
 VCWS. :
 VSHL. :
 VSHS. :
~P
~A
# ...
   3160.0000     10.2939   -999.2500   -999.2500      0.0000   -999.2500   -999.2500      0.2733      0.2465      2.1600   -999.2500      2.0820     -4.9420   -999.2500      0.5702   -999.2500      2.0620
   3160.5000     10.2836   -999.2500   -999.2500      0.0000   -999.2500   -999.2500      0.2736      0.2472      2.1800   -999.2500      2.0820     -5.3450   -999.2500      0.5674   -999.2500      2.0399
   3161.0000     10.3069   -999.2500   -999.2500      0.0000   -999.2500   -999.2500      0.2755      0.2505      2.2200   -999.2500      2.0820     -7.3320   -999.2500      0.5535   -999.2500      1.9308
   3161.5000     10.3509   -999.2500   -999.2500      0.0000   -999.2500   -999.2500      0.2753      0.2501      2.2200   -999.2500      2.0820     -7.1420   -999.2500      0.5548   -999.2500      1.9412
   3162.0000     10.4146   -999.2500   -999.2500      0.0000   -999.2500   -999.2500      0.2746      0.2489      2.2410   -999.2500      2.0820     -6.3580   -999.2500      0.5603   -999.2500      1.9843
   3162.5000     10.4925   -999.2500   -999.2500      0.0000   -999.2500   -999.2500      0.2747      0.2492      2.2610   -999.2500      2.1010     -6.5640   -999.2500      0.5589   -999.2500      1.9730
   3163.0000     10.5607   -999.2500   -999.2500      0.0000   -999.2500   -999.2500      0.2747      0.2492      2.2820   -999.2500      2.1010     -6.5720   -999.2500      0.5588   -999.2500      1.9725
   3163.5000     10.5996   -999.2500   -999.2500      0.0000   -999.2500   -999.2500      0.2748      0.2492      2.2820   -999.2500      2.1010     -6.5800   -999.2500      0.5587   -999.2500      1.9721
   3164.0000     10.6238   -999.2500   -999.2500      0.0000   -999.2500   -999.2500      0.2742      0.2482      2.2820   -999.2500      2.1010     -5.9940   -999.2500      0.5628   -999.2500      2.0042
   3164.5000     10.5958   -999.2500   -999.2500      0.0000   -999.2500   -999.2500      0.2742      0.2482      2.2820   -999.2500      2.1010     -6.0020   -999.2500      0.5627   -999.2500      2.0038
   3165.0000     10.5459   -999.2500   -999.2500      0.0000   -999.2500   -999.2500      0.2744      0.2486      2.2820   -999.2500      2.1010     -6.2080   -999.2500      0.5613   -999.2500      1.9925
   3165.5000     10.4839   -999.2500   -999.2500      0.0000   -999.2500   -999.2500      0.2748      0.2492      2.2820   -999.2500      2.1010     -6.6110   -999.2500      0.5585   -999.2500      1.9704
   3166.0000     10.3936   -999.2500   -999.2500      0.0000   -999.2500   -999.2500      0.2748      0.2492      2.2820   -999.2500      2.1010     -6.6200   -999.2500      0.5584   -999.2500      1.9699
   3166.5000     10.3290   -999.2500   -999.2500      0.0000   -999.2500   -999.2500      0.2749      0.2496      2.2610   -999.2500      2.1010     -6.8250   -999.2500      0.5570   -999.2500      1.9586
   3167.0000     10.2585   -999.2500   -999.2500      0.0000   -999.2500   -999.2500      0.2744      0.2486      2.2510   -999.2500      2.1010     -6.2400   -999.2500      0.5611   -999.2500      1.9907
   3167.5000     10.2092   -999.2500   -999.2500      0.0000   -999.2500   -999.2500      0.2742      0.2483      2.2410   -999.2500      2.1010     -6.0490   -999.2500      0.5624   -999.2500      2.0012
   3168.0000     10.1431   -999.2500   -999.2500      0.0000   -999.2500   -999.2500      0.2744      0.2486      2.2310   -999.2500      2.1010     -6.2550   -999.2500      0.5610   -999.2500      1.9899
   3168.5000     10.1314   -999.2500   -999.2500      0.0000   -999.2500   -999.2500      0.2748      0.2493      2.2200   -999.2500      2.1010     -6.6590   -999.2500      0.5581   -999.2500      1.9677
   3169.0000     10.1527   -999.2500   -999.2500      0.0000   -999.2500   -999.2500      0.2751      0.2499      2.2200   -999.2500      2.1010     -7.0620   -999.2500      0.5553   -999.2500      1.9456
   3169.5000     10.1816   -999.2500   -999.2500      0.0000   -999.2500   -999.2500      0.2755      0.2506      2.2200   -999.2500      2.1010     -7.4650   -999.2500      0.5525   -999.2500      1.9235
   3170.0000     10.2218   -999.2500   -999.2500      0.0000   -999.2500   -999.2500      0.2761      0.2516      2.2200   -999.2500      2.1010     -8.0680   -999.2500      0.5483   -999.2500      1.8904
   3170.5000     10.2886   -999.2500   -999.2500      0.0000   -999.2500   -999.2500      0.2761      0.2516      2.2200   -999.2500      2.1010     -8.0750   -999.2500      0.5482   -999.2500      1.8900
   3171.0000     10.3175   -999.2500   -999.2500      0.0000   -999.2500   -999.2500      0.2763      0.2519      2.2200   -999.2500      2.1010     -8.2810   -999.2500      0.5468   -999.2500      1.8787
   3171.5000     10.3532   -999.2500   -999.2500      0.0000   -999.2500   -999.2500      0.2765      0.2523      2.2200   -999.2500      2.1010     -8.4870   -999.2500      0.5454   -999.2500      1.8674
   3172.0000     10.4032   -999.2500   -999.2500      0.0000   -999.2500   -999.2500      0.2763      0.2519      2.2200   -999.2500      2.1010     -8.2970   -999.2500      0.5467   -999.2500      1.8778
   3172.5000     10.4222   -999.2500   -999.2500      0.0000   -999.2500   -999.2500      0.2759      0.2513      2.2200   -999.2500      2.1010     -7.9090   -999.2500      0.5494   -999.2500      1.8991
   3173.0000     10.4412   -999.2500   -999.2500      0.0000   -999.2500   -999.2500      0.2757      0.2510      2.2200   -999.2500      2.1210     -7.7190   -999.2500      0.5507   -999.2500      1.9095
   3173.5000     10.4601   -999.2500   -999.2500      0.0000   -999.2500   -999.2500      0.2755      0.2507      2.2200   -999.2500      2.1210     -7.5290   -999.2500      0.5520   -999.2500      1.9200
   3174.0000     10.4577   -999.2500   -999.2500      0.0000   -999.2500   -999.2500      0.2748      0.2494      2.2200   -999.2500      2.1210     -6.7460   -999.2500      0.5575   -999.2500      1.9630
   3174.5000     10.3862   -999.2500   -999.2500      0.0000   -999.2500   -999.2500      0.2746      0.2491      2.2200   -999.2500      2.1010     -6.5560   -999.2500      0.5588   -999.2500      1.9734
   3175.0000     10.3666   -999.2500   -999.2500      0.0000   -999.2500   -999.2500      0.2755      0.2507      2.2200   -999.2500      2.1010     -7.5530   -999.2500      0.5518   -999.2500      1.9187
   3175.5000     10.4255   -999.2500   -999.2500      0.0000   -999.2500   -999.2500      0.2755      0.2507      2.2200   -999.2500      2.1010     -7.5610   -999.2500      0.5518   -999.2500      1.9182
   3176.0000     10.4718   -999.2500   -999.2500      0.0000   -999.2500   -999.2500      0.2754      0.2504      2.2200   -999.2500      2.1110     -7.3720   -999.2500      0.5531   -999.2500      1.9286
   3176.5000     10.4666   -999.2500   -999.2500      0.0000   -999.2500   -999.2500      0.2754      0.2504      2.2200   -999.2500      2.1210     -7.3790   -999.2500      0.5530   -999.2500      1.9282
   3177.0000     10.4498   -999.2500   -999.2500      0.0000   -999.2500   -999.2500      0.2750      0.2497      2.2200   -999.2500      2.1210     -6.9910   -999.2500      0.5557   -999.2500      1.9495
   3177.5000     10.4611   -999.2500   -999.2500      0.0000   -999.2500   -999.2500      0.2748      0.2494      2.2200   -999.2500      2.1400     -6.8020   -999.2500      0.5570   -999.2500      1.9599
   3178.0000     10.5280   -999.2500   -999.2500      0.0000   -999.2500   -999.2500      0.2745      0.2488      2.2200   -999.2500      2.1400     -6.4140   -999.2500      0.5597   -999.2500      1.9812
   3178.5000     10.6139   -999.2500   -999.2500      0.0000   -999.2500   -999.2500      0.2745      0.2488      2.2410   -999.2500      2.1400     -6.4210   -999.2500      0.5597   -999.2500      1.9808
   3179.0000     10.6170   -999.2500   -999.2500      0.0000   -999.2500   -999.2500      0.2745      0.2488      2.2410   -999.2500      2.1600     -6.4290   -999.2500      0.5596   -999.2500      1.9804
   3179.5000     10.4860   -999.2500   -999.2500      0.0000   -999.2500   -999.2500      0.2748      0.2495      2.2610   -999.2500      2.1600     -6.8330   -999.2500      0.5568   -999.2500      1.9582
