~V
VERS. 2.00: Ver 2.00
WRAP.   NO:        
~W
 STRT.FT 800:
 STOP.FT 5530:
 STEP.FT 0.5:
 NULL. -999.250000:
 COMP. TENNECO OIL COMPANY:Company
 WELL. SANTIAGO "B" 73-29:Well
 FLD. SANTIAGO:Field
 LOC. SEC 29 TWP 11N RGE 22W:Location
 STAT. CA:State
 SRVC. :Service Company
 SON. :Service Order #
 DATE. :Log Date
 UWI. :Unique Well ID
~C
 DEPT.FT :
 CALS.IN :
 GRC.GAPI :
 NPHC.PU-S :
 PHES. :
 PHIE. :
 PHIT. :
 PHTS. :
 PHZC. :
 RD.OHMM :
 ROBC.G/C3 :
 RS.OHMM :
 SBL.MV :
 VCLW. :
 VCWS. :
 VSHL. :
 VSHS. :
~P
~A
# ...
   4580.0000     11.3303    136.3891      0.5069      0.2068      0.2748      0.5058      0.4095      0.4013      4.3850      1.7800      3.9270    -10.6146      0.4621      0.3377      0.7252      0.7932
   4580.5000     11.2655    132.6585      0.4900      0.2214      0.2808      0.4928      0.4137      0.4060      4.5540      1.7489      3.8610    -11.5893      0.4240      0.3205      0.7192      0.7786
   4581.0000     11.2556    127.2040      0.4799      0.2358      0.2906      0.4828      0.4179      0.4106      4.7280      1.7424      3.7580    -12.5520      0.3845      0.3035      0.7094      0.7587
   4581.5000     11.2885    120.6078      0.4710      0.2445      0.2932      0.4759      0.4204      0.4133      4.9090      1.7598      3.6920    -13.1347      0.3654      0.2932      0.7068      0.7330
   4582.0000     11.3768    120.9123      0.4643      0.2648      0.3039      0.4725      0.4263      0.4199      5.0490      1.7709      3.8340    -14.5014      0.3371      0.2691      0.6961      0.6727
   4582.5000     11.3996    119.4634      0.4486      0.2823      0.3159      0.4623      0.4314      0.4254      5.1950      1.7635      4.3630    -15.6691      0.2927      0.2485      0.6841      0.6212
   4583.0000     11.4486    112.6615      0.4329      0.3056      0.3338      0.4491      0.4382      0.4329      5.2950      1.7459      4.7420    -17.2338      0.2306      0.2209      0.6662      0.5522
   4583.5000     11.6330    110.8498      0.4173      0.3201      0.3324      0.4329      0.4424      0.4375      5.3980      1.7262      4.7470    -18.2045      0.2010      0.2037      0.6160      0.5094
   4584.0000     11.8366    106.4213      0.4140      0.3317      0.3367      0.4270      0.4457      0.4412      5.4510      1.7109      4.6210    -18.9773      0.1807      0.1901      0.5537      0.4753
   4584.5000     12.1282    105.9458      0.4164      0.3462      0.3422      0.4278      0.4499      0.4458      5.5580      1.7072      4.4180    -19.9480      0.1714      0.1730      0.5251      0.4325
   4585.0000     12.2780    106.1444      0.4165      0.3458      0.3411      0.4269      0.4498      0.4457      5.5110      1.7069      4.1860    -19.9247      0.1718      0.1734      0.5264      0.4335
   4585.5000     12.1048    104.0870      0.4074      0.3455      0.3365      0.4160      0.4498      0.4456      5.3180      1.6948      4.0380    -19.9064      0.1591      0.1737      0.4876      0.4343
   4586.0000     11.8046     99.7006      0.3904      0.3571      0.3323      0.3974      0.4531      0.4493      5.2240      1.6796      4.0030    -20.6831      0.1302      0.1600      0.3990      0.4000
   4586.5000     11.7776    100.7137      0.3859      0.3680      0.3320      0.3927      0.4563      0.4528      5.1310      1.6732      4.1560    -21.6538      0.1213      0.1472      0.3717      0.3679
   4587.0000     12.0346    104.3014      0.3849      0.3690      0.3302      0.3923      0.4566      0.4531      4.8620      1.6800      3.9740    -21.8285      0.1242      0.1459      0.3805      0.3648
   4587.5000     12.2322    109.5273      0.3884      0.3622      0.3254      0.3978      0.4546      0.4509      4.5650      1.6967      3.7300    -21.0222      0.1447      0.1540      0.4433      0.3851
   4588.0000     12.5419    116.0292      0.3964      0.3471      0.3213      0.4101      0.4502      0.4461      4.3230      1.7249      3.5000    -20.0129      0.1776      0.1718      0.5442      0.4296
   4588.5000     13.1524    121.0293      0.4124      0.3320      0.3228      0.4309      0.4458      0.4413      4.0210      1.7599      3.3150    -19.0046      0.2162      0.1896      0.6627      0.4741
   4589.0000     13.5339    126.7457      0.4475      0.3199      0.3232      0.4613      0.4423      0.4374      3.8780      1.7897      3.0830    -18.1933      0.2762      0.2039      0.6768      0.5099
   4589.5000     13.4436    130.8199      0.4688      0.3166      0.3216      0.4750      0.4413      0.4364      3.6400      1.8028      2.9750    -17.9731      0.3068      0.2078      0.6784      0.5196
   4590.0000     13.1839    129.5276      0.4911      0.3223      0.3346      0.4894      0.4430      0.4382      3.4160      1.7988      2.9770    -18.3538      0.3096      0.2011      0.6654      0.5028
   4590.5000     12.8510    127.0847      0.5055      0.3398      0.3491      0.4988      0.4481      0.4437      3.2660      1.7897      3.0070    -19.5225      0.2994      0.1805      0.6509      0.4512
   4591.0000     12.4973    122.3333      0.4772      0.3601      0.3479      0.4785      0.4540      0.4502      3.2390      1.7679      3.0090    -20.8852      0.2612      0.1564      0.6521      0.3911
   4591.5000     12.0567    113.1386      0.4669      0.3692      0.3601      0.4682      0.4566      0.4531      3.2110      1.7392      2.9970    -21.8559      0.2161      0.1457      0.6399      0.3643
   4592.0000     11.9178    110.2713      0.4545      0.3726      0.3628      0.4559      0.4576      0.4542      3.1830      1.7208      2.9850    -22.4346      0.1863      0.1416      0.5708      0.3541
   4592.5000     11.7848    109.4108      0.4465      0.3725      0.3616      0.4465      0.4576      0.4542      3.1710      1.7009      2.9740    -22.4113      0.1699      0.1418      0.5205      0.3545
   4593.0000     11.5658    108.9439      0.4307      0.3688      0.3504      0.4296      0.4565      0.4530      3.1600      1.6838      2.9630    -21.8020      0.1584      0.1461      0.4855      0.3653
   4593.5000     11.4880    111.3020      0.4183      0.3528      0.3346      0.4168      0.4518      0.4479      3.1190      1.6787      2.9400    -20.3977      0.1644      0.1650      0.5039      0.4126
   4594.0000     11.5276    113.8212      0.4116      0.3289      0.3214      0.4109      0.4449      0.4402      3.0790      1.6819      2.9700    -18.7954      0.1791      0.1933      0.5488      0.4833
   4594.5000     11.4755    116.9060      0.4149      0.3404      0.3249      0.4167      0.4482      0.4439      3.0560      1.6964      2.9720    -19.5681      0.1835      0.1797      0.5625      0.4492
   4595.0000     11.3359    120.1079      0.4194      0.3549      0.3299      0.4257      0.4524      0.4485      3.0860      1.7233      2.9470    -20.5389      0.1917      0.1626      0.5874      0.4064
   4595.5000     11.1517    120.5231      0.4372      0.3427      0.3349      0.4418      0.4489      0.4446      3.0880      1.7311      2.9240    -19.7196      0.2138      0.1770      0.6553      0.4425
   4596.0000     10.9421    120.6098      0.4405      0.3396      0.3351      0.4450      0.4480      0.4436      3.0900      1.7329      2.9520    -19.5113      0.2197      0.1807      0.6649      0.4517
   4596.5000     10.8670    120.3265      0.4528      0.3363      0.3408      0.4544      0.4470      0.4426      3.1510      1.7236      3.0090    -19.2940      0.2273      0.1845      0.6592      0.4613
   4597.0000     10.8634    121.1593      0.4528      0.3389      0.3445      0.4540      0.4478      0.4434      3.1830      1.7094      3.1820    -19.4687      0.2190      0.1814      0.6555      0.4536
   4597.5000     10.8787    124.2020      0.4326      0.3387      0.3326      0.4359      0.4477      0.4434      3.1850      1.7017      3.3350    -19.4544      0.2067      0.1817      0.6335      0.4542
   4598.0000     10.9142    127.3253      0.4259      0.3355      0.3259      0.4298      0.4468      0.4423      3.1580      1.7003      3.3830    -19.2371      0.2078      0.1855      0.6369      0.4638
   4598.5000     10.9423    129.9970      0.4281      0.3263      0.3227      0.4334      0.4441      0.4394      3.1610      1.7092      3.4310    -18.6248      0.2215      0.1963      0.6773      0.4908
   4599.0000     10.9497    134.5182      0.4371      0.2993      0.3116      0.4441      0.4363      0.4308      3.1480      1.7407      3.1350    -16.8155      0.2649      0.2283      0.6884      0.5706
   4599.5000     10.9514    139.4757      0.4528      0.2902      0.3047      0.4579      0.4336      0.4279      3.1360      1.7564      3.0240    -16.2032      0.3065      0.2391      0.6953      0.5976
