~V
VERS. 2.00: Ver 2.00
WRAP.   NO:        
~W
 STRT.FT 800:
 STOP.FT 5530:
 STEP.FT 0.5:
 NULL. -999.250000:
 COMP. TENNECO OIL COMPANY:Company
 WELL. SANTIAGO "B" 73-29:Well
 FLD. SANTIAGO:Field
 LOC. SEC 29 TWP 11N RGE 22W:Location
 STAT. CA:State
 SRVC. :Service Company
 SON. :Service Order #
 DATE. :Log Date
 UWI. :Unique Well ID
~C
 DEPT.FT :
 CALS.IN :
 GRC.GAPI :
 NPHC.PU-S :
 PHES. :
 PHIE. :
 PHIT. :
 PHTS. :
 PHZC. :
 RD.OHMM :
 ROBC.G/C3 :
 RS.OHMM :
 SBL.MV :
 VCLW. :
 VCWS. :
 VSHL. :
 VSHS. :
~P
~A
# ...
   4220.0000     10.4567    136.0929      0.4391      0.1747      0.2339      0.4605      0.4016      0.3926      3.7110      1.7999      3.5440     -8.3201      0.4533      0.3782      0.7661      0.8253
   4220.5000     10.4615    138.6278      0.4402      0.1656      0.2260      0.4598      0.3990      0.3897      3.6950      1.8056      3.5460     -7.7108      0.4676      0.3889      0.7740      0.8344
   4221.0000     10.4716    143.4481      0.4414      0.1654      0.2117      0.4541      0.3989      0.3896      3.6800      1.8281      3.5180     -7.6925      0.4849      0.3892      0.7883      0.8346
   4221.5000     10.4825    148.6257      0.4436      0.1680      0.2128      0.4561      0.3997      0.3904      3.6830      1.8252      3.4560     -7.8673      0.4866      0.3862      0.7872      0.8320
   4222.0000     10.4529    151.4619      0.4481      0.1559      0.2063      0.4580      0.3962      0.3866      3.6860      1.8286      3.4580     -7.0610      0.5034      0.4004      0.7937      0.8441
   4222.5000     10.4497    153.2931      0.4548      0.1704      0.2134      0.4614      0.4004      0.3912      3.6550      1.8295      3.3970     -8.0317      0.4961      0.3833      0.7866      0.8296
   4223.0000     10.4432    151.9683      0.4582      0.1908      0.2224      0.4629      0.4063      0.3977      3.6240      1.8303      3.3700     -9.3984      0.4810      0.3591      0.7776      0.8092
   4223.5000     10.4343    150.6513      0.4626      0.1609      0.2108      0.4640      0.3976      0.3881      3.6280      1.8361      3.3420     -7.3961      0.5065      0.3945      0.7892      0.8391
   4224.0000     10.4355    151.1764      0.4604      0.1695      0.2110      0.4612      0.4001      0.3909      3.5980      1.8409      3.3430     -7.9708      0.5004      0.3843      0.7890      0.8305
   4224.5000     10.4546    150.5417      0.4593      0.1811      0.2144      0.4599      0.4035      0.3946      3.5670      1.8430      3.3770     -8.7475      0.4911      0.3706      0.7856      0.8189
   4225.0000     10.4597    149.1264      0.4559      0.1808      0.2150      0.4592      0.4034      0.3945      3.5530      1.8395      3.4420     -8.7242      0.4884      0.3710      0.7850      0.8192
   4225.5000     10.4608    145.8262      0.4503      0.1923      0.2212      0.4579      0.4067      0.3981      3.5390      1.8324      3.4760     -9.4969      0.4735      0.3574      0.7788      0.8077
   4226.0000     10.4802    137.6027      0.4391      0.2098      0.2352      0.4545      0.4118      0.4037      3.5410      1.8194      3.4470    -10.6696      0.4386      0.3367      0.7648      0.7902
   4226.5000     10.5014    132.0757      0.4245      0.2213      0.2523      0.4503      0.4152      0.4074      3.5430      1.8007      3.3870    -11.4433      0.3959      0.3231      0.7477      0.7787
   4227.0000     10.5066    130.3682      0.4145      0.2181      0.2477      0.4369      0.4142      0.4064      3.5810      1.7803      3.3590    -11.2261      0.3784      0.3269      0.7523      0.7819
   4227.5000     10.5086    127.6050      0.4212      0.2472      0.2713      0.4378      0.4227      0.4157      3.6160      1.7675      3.4230    -13.1788      0.3329      0.2924      0.7287      0.7311
   4228.0000     10.5106    125.5591      0.4380      0.2589      0.2864      0.4488      0.4261      0.4194      3.6540      1.7597      3.4570    -13.9595      0.3248      0.2787      0.7136      0.6966
   4228.5000     10.5134    123.4160      0.4324      0.2527      0.2814      0.4461      0.4243      0.4174      3.6560      1.7663      3.4910    -13.5442      0.3294      0.2860      0.7186      0.7150
   4229.0000     10.5148    119.2404      0.4403      0.2347      0.2739      0.4508      0.4190      0.4117      3.7270      1.7615      3.5260    -12.3379      0.3539      0.3073      0.7261      0.7653
   4229.5000     10.5158    112.9907      0.4358      0.2373      0.2797      0.4459      0.4198      0.4125      3.7290      1.7505      3.6270    -12.5166      0.3324      0.3041      0.7203      0.7603
   4230.0000     10.5505    106.2669      0.4291      0.2547      0.2955      0.4398      0.4248      0.4180      3.7820      1.7403      3.7310    -13.6773      0.2887      0.2836      0.7045      0.7091
   4230.5000     10.5598    104.1662      0.4235      0.2693      0.3055      0.4355      0.4291      0.4227      3.8360      1.7349      3.9100    -14.6560      0.2600      0.2664      0.6945      0.6659
   4231.0000     10.5608    105.6478      0.4190      0.2926      0.3189      0.4331      0.4359      0.4302      3.8420      1.7404      3.8400    -16.2207      0.2282      0.2388      0.6811      0.5969
   4231.5000     10.6108    108.4261      0.4156      0.2893      0.3129      0.4324      0.4349      0.4291      3.8080      1.7525      3.6720    -16.0004      0.2388      0.2426      0.6871      0.6066
   4232.0000     10.6256    109.3746      0.4156      0.2773      0.3040      0.4343      0.4314      0.4252      3.7930      1.7619      3.6070    -15.1931      0.2606      0.2569      0.6960      0.6422
   4232.5000     10.6276    108.6407      0.4224      0.2770      0.3060      0.4414      0.4313      0.4252      3.7770      1.7722      3.5110    -15.1749      0.2709      0.2572      0.6940      0.6430
   4233.0000     10.6296    109.8276      0.4369      0.2767      0.3086      0.4517      0.4312      0.4251      3.7280      1.7731      3.4820    -15.1556      0.2863      0.2576      0.6914      0.6439
   4233.5000     10.6315    113.7157      0.4269      0.2822      0.3071      0.4437      0.4328      0.4268      3.6800      1.7709      3.3900    -15.5243      0.2732      0.2510      0.6929      0.6276
   4234.0000     10.6335    117.2424      0.4134      0.2761      0.2962      0.4322      0.4311      0.4249      3.6490      1.7656      3.3310    -15.1140      0.2721      0.2583      0.7038      0.6457
   4234.5000     10.6348    119.1377      0.4168      0.2728      0.2928      0.4310      0.4301      0.4238      3.6190      1.7532      3.3030    -14.8967      0.2764      0.2621      0.7072      0.6553
   4235.0000     10.5618    118.8573      0.4358      0.2755      0.3039      0.4429      0.4309      0.4247      3.5570      1.7354      3.3980    -15.0754      0.2779      0.2590      0.6961      0.6474
   4235.5000     10.5557    118.9134      0.4436      0.2723      0.3069      0.4486      0.4299      0.4236      3.5600      1.7244      3.5610    -14.8591      0.2835      0.2628      0.6931      0.6570
   4236.0000     10.6070    120.0040      0.4403      0.2601      0.2945      0.4484      0.4264      0.4197      3.5620      1.7406      3.6620    -14.0438      0.3078      0.2772      0.7055      0.6929
   4236.5000     10.6528    121.9411      0.4381      0.2451      0.2791      0.4510      0.4220      0.4150      3.5800      1.7675      3.6300    -13.0395      0.3439      0.2949      0.7209      0.7372
   4237.0000     10.6503    127.0028      0.4336      0.2330      0.2659      0.4539      0.4185      0.4111      3.5990      1.7911      3.5990    -12.2292      0.3760      0.3092      0.7341      0.7670
   4237.5000     10.6178    131.6078      0.4235      0.2179      0.2401      0.4448      0.4141      0.4063      3.6040      1.8199      3.4730    -11.2209      0.4095      0.3270      0.7599      0.7821
   4238.0000     10.6390    137.9784      0.4201      0.2028      0.2093      0.4324      0.4097      0.4015      3.6060      1.8540      3.3200    -10.2076      0.4462      0.3449      0.7907      0.7972
   4238.5000     10.6662    144.3943      0.4190      0.1996      0.2036      0.4310      0.4088      0.4004      3.5740      1.8572      3.3220     -9.9954      0.4547      0.3486      0.7964      0.8004
   4239.0000     10.7166    156.1233      0.4202      0.1904      0.1973      0.4321      0.4061      0.3975      3.5430      1.8562      3.3250     -9.3781      0.4697      0.3595      0.8027      0.8096
   4239.5000     10.7490    162.7189      0.4247      0.1842      0.1967      0.4365      0.4043      0.3955      3.5160      1.8504      3.3270     -8.9638      0.4794      0.3668      0.8033      0.8158
