~Version Information
VERS.                     2.0: CWLS log ASCII Standard Version 2.00
WRAP.                      NO: One line per depth step
~Well Information Block
#MNEM.UNIT                               Data Type  Information
#---------                               ---------  -----------
STRT.FT                                   520.0000:
STOP.FT                                 10322.0000:
STEP.FT                                     0.5000:
NULL.                 -999.25                     :
COMP.                                             :COMPANY            
WELL.     CCMO 85-20                              :WELL               
FLD .                                             :FIELD              
CTRY.                                             :COUNTRY            
STAT.                                             :STATE              
LOC .                                             :LOCATION           
UWI .                                             :UNIQUE WELL ID     
SRVC.                                             :Service company    
DATE.                                             :LOG DATE           
~Curve Information
#MNEM.UNIT           API CODE  Curve Description
#---------           --------  -----------------
DEPT.FT                      :   1 DEPTH
SP  .MV                      :   2
AM16.OHMM                    :   3
AO10.OHMM                    :   4
AO19.OHMM                    :   5
SBL .MV                      :   6
RS  .OHMM                    :   7
RM  .OHMM                    :   8
RD  .OHMM                    :   9
~A
# ...
  3753.000 -24.974  4.2650  4.8030  3.7520 -14.101  4.2650  4.8030  3.7520 
  3753.500 -27.269  4.3240  5.1420  3.9170 -16.396  4.3240  5.1420  3.9170 
  3754.000 -27.988  4.3660  5.6820  4.0960 -17.115  4.3660  5.6820  4.0960 
  3754.500 -28.672  4.4070  5.8850  4.2610 -17.800  4.4070  5.8850  4.2610 
  3755.000 -29.177  4.1290  6.0510  4.3260 -18.305  4.1290  6.0510  4.3260 
  3755.500 -26.424  3.9510  6.1820  4.3260 -15.552  3.9510  6.1820  4.3260 
  3756.000 -24.064  3.8020  6.2420  4.2690 -13.193  3.8020  6.2420  4.2690 
  3756.500 -21.741  3.6610  6.1640  4.0610 -10.870  3.6610  6.1640  4.0610 
  3757.000 -20.205  3.4970  5.8580  3.6590 -9.3345  3.4970  5.8580  3.6590 
  3757.500 -19.028  3.4270  5.4150  3.3860 -8.1578  3.4270  5.4150  3.3860 
  3758.000 -18.494  3.3860  4.9070  3.2860 -7.6241  3.3860  4.9070  3.2860 
  3758.500 -18.033  3.3810  4.5930  3.2710 -7.1635  3.3810  4.5930  3.2710 
  3759.000 -17.822  3.4400  4.5090  3.5440 -6.9528  3.4400  4.5090  3.5440 
  3759.500 -18.111  3.5490  4.8120  3.9030 -7.2422  3.5490  4.8120  3.9030 
  3760.000 -18.474  3.8450  5.0220  4.1250 -7.6055  3.8450  5.0220  4.1250 
  3760.500 -18.837  3.9740  5.2650  4.4000 -7.9688  3.9740  5.2650  4.4000 
  3761.000 -19.167  4.0590  5.3940  4.7390 -8.2992  4.0590  5.3940  4.7390 
  3761.500 -19.676  4.0940  5.4860  5.0350 -8.8085  4.0940  5.4860  5.0350 
  3762.000 -19.862  4.1300  5.5640  5.1940 -8.9949  4.1300  5.5640  5.1940 
  3762.500 -20.119  4.1860  5.6280  5.3320 -9.2522  4.1860  5.6280  5.3320 
  3763.000 -20.306  4.1850  5.6630  5.4060 -9.4396  4.1850  5.6630  5.4060 
  3763.500 -20.349  4.1060  5.4550  5.4580 -9.4829  4.1060  5.4550  5.4580 
  3764.000 -20.320  3.9900  5.2100  5.4740 -9.4542  3.9900  5.2100  5.4740 
  3764.500 -19.827  3.8600  5.0370  5.4400 -8.9616  3.8600  5.0370  5.4400 
  3765.000 -19.476  3.7020  4.8500  5.3270 -8.6109  3.7020  4.8500  5.3270 
  3765.500 -19.053  3.5650  4.6190  5.1780 -8.1883  3.5650  4.6190  5.1780 
  3766.000 -18.523  3.4640  4.3530  5.0360 -7.6586  3.4640  4.3530  5.0360 
  3766.500 -18.065  3.3910  4.2160  4.9380 -7.2010  3.3910  4.2160  4.9380 
  3767.000 -17.714  3.3550  4.0080  4.8890 -6.8503  3.3550  4.0080  4.8890 
  3767.500 -17.649  3.3400  3.7920  4.8340 -6.7856  3.3400  3.7920  4.8340 
  3768.000 -17.585  3.3750  3.6040  4.7780 -6.7220  3.3750  3.6040  4.7780 
  3768.500 -17.664  3.4530  3.5030  4.8090 -6.8013  3.4530  3.5030  4.8090 
  3769.000 -17.707  3.5960  3.4950  5.0040 -6.8447  3.5960  3.4950  5.0040 
  3769.500 -17.965  3.7380  3.5660  5.2570 -7.1030  3.7380  3.5660  5.2570 
  3770.000 -18.258  3.9750  3.7520  5.5030 -7.3964  3.9750  3.7520  5.5030 
  3770.500 -18.725  4.2330  4.0320  5.6890 -7.8637  4.2330  4.0320  5.6890 
  3771.000 -19.228  4.5200  4.3410  5.9120 -8.3670  4.5200  4.3410  5.9120 
  3771.500 -20.770  4.8080  4.9230  6.2200 -9.9094  4.8080  4.9230  6.2200 
  3772.000 -21.917  5.1380  5.5900  6.6430 -11.057  5.1380  5.5900  6.6430 
  3772.500 -24.174  5.4540  6.0210  6.8590 -13.314  5.4540  6.0210  6.8590 
  3773.000 -25.643  5.9140  6.2580  7.4330 -14.783  5.9140  6.2580  7.4330 
  3773.500 -27.972  6.2010  6.4520  7.7910 -17.113  6.2010  6.4520  7.7910 
  3774.000 -29.298  6.4600  6.6610  8.1210 -18.439  6.4600  6.6610  8.1210 
  3774.500 -31.520  6.6110  6.7970  8.3360 -20.661  6.6110  6.7970  8.3360 
  3775.000 -33.384  6.7040  6.9410  8.4580 -22.526  6.7040  6.9410  8.4580 
  3775.500 -34.280  6.6980  7.0060  8.4580 -23.422  6.6980  7.0060  8.4580 
  3776.000 -34.819  6.1450  7.0490  8.2360 -23.961  6.1450  7.0490  8.2360 
  3776.500 -33.317  5.8300  7.0280  8.0570 -22.460  5.8300  7.0280  8.0570 
  3777.000 -30.920  5.4070  6.5910  7.8770 -20.063  5.4070  6.5910  7.8770 
  3777.500 -27.485  5.0350  6.3190  7.2820 -16.628  5.0350  6.3190  7.2820 
  3778.000 -24.158  4.7120  6.0750  6.4140 -13.302  4.7120  6.0750  6.4140 
  3778.500 -21.868  4.3030  5.3220  5.8400 -11.012  4.3030  5.3220  5.8400 
  3779.000 -20.331  4.0740  4.5050  4.9650 -9.4755  4.0740  4.5050  4.9650 
  3779.500 -18.901  3.9100  4.1890  4.4550 -8.0459  3.9100  4.1890  4.4550 
  3780.000 -18.599  3.7590  3.8600  4.2110 -7.7442  3.7590  3.8600  4.2110 
  3780.500 -18.296  3.6800  3.6940  4.0310 -7.4415  3.6800  3.6940  4.0310 
  3781.000 -17.800  3.6930  3.5430  3.9440 -6.9459  3.6930  3.5430  3.9440 
  3781.500 -17.696  3.7430  3.5780  3.9440 -6.8422  3.7430  3.5780  3.9440 
  3782.000 -17.736  3.8860  3.7130  4.0360 -6.8826  3.8860  3.7130  4.0360 
  3782.500 -17.774  4.0790  3.9490  4.2440 -6.9209  4.0790  3.9490  4.2440 
  3783.000 -17.813  4.3290  4.1500  4.5010 -6.9603  4.3290  4.1500  4.5010 
  3783.500 -18.068  4.5150  4.5000  4.7230 -7.2156  4.5150  4.5000  4.7230 
  3784.000 -18.931  4.8370  4.8010  4.9090 -8.0789  4.8370  4.8010  4.9090 
  3784.500 -19.650  5.0300  5.1520  5.0010 -8.7983  5.0300  5.1520  5.0010 
  3785.000 -20.585  5.1800  5.4740  5.0940 -9.7336  5.1800  5.4740  5.0940 
  3785.500 -21.412  5.3080  6.0400  5.2580 -10.561  5.3080  6.0400  5.2580 
  3786.000 -23.313  5.3940  6.2550  5.3360 -12.462  5.3940  6.2550  5.3360 
  3786.500 -24.354  5.4500  6.3900  5.3570 -13.504  5.4500  6.3900  5.3570 
  3787.000 -25.826  5.5070  6.5040  5.3780 -14.976  5.5070  6.5040  5.3780 
  3787.500 -26.868  5.5350  6.5460  5.3840 -16.018  5.5350  6.5460  5.3840 
  3788.000 -28.017  5.5990  6.5460  5.3760 -17.168  5.5990  6.5460  5.3760 
  3788.500 -29.023  5.6340  6.5090  5.3540 -18.174  5.6340  6.5090  5.3540 
  3789.000 -26.700  5.6440  6.4370  5.2530 -15.851  5.6440  6.4370  5.2530 
  3789.500 -25.987  5.6540  6.3000  5.1730 -15.139  5.6540  6.3000  5.1730 
  3790.000 -25.311  5.6530  6.1200  5.1300 -14.463  5.6530  6.1200  5.1300 
  3790.500 -24.523  5.6550  5.8630  5.1570 -13.675  5.6550  5.8630  5.1570 
  3791.000 -23.878  5.6530  5.6710  5.2780 -13.031  5.6530  5.6710  5.2780 
  3791.500 -23.127  5.6520  5.5510  5.4850 -12.280  5.6520  5.5510  5.4850 
  3792.000 -22.447  5.6100  5.4740  5.7420 -11.600  5.6100  5.4740  5.7420 
  3792.500 -22.124  5.5910  5.4760  5.9350 -11.278  5.5910  5.4760  5.9350 
  3793.000 -22.571  5.5420  5.5280  6.1130 -11.725  5.5420  5.5280  6.1130 
  3793.500 -23.018  5.4790  5.6730  6.2770 -12.172  5.4790  5.6730  6.2770 
  3794.000 -24.451  5.3230  5.9190  6.4050 -13.606  5.3230  5.9190  6.4050 
  3794.500 -25.167  5.2030  6.0710  6.4760 -14.322  5.2030  6.0710  6.4760 
  3795.000 -25.668  5.0970  6.1020  6.5390 -14.823  5.0970  6.1020  6.5390 
  3795.500 -24.380  4.9770  6.1680  6.5100 -13.536  4.9770  6.1680  6.5100 
  3796.000 -23.234  4.8780  6.1840  6.4010 -12.390  4.8780  6.1840  6.4010 
  3796.500 -22.411  4.8370  6.1500  6.2560 -11.568  4.8370  6.1500  6.2560 
  3797.000 -21.695  4.7170  6.0730  6.0970 -10.852  4.7170  6.0730  6.0970 
  3797.500 -21.336  4.5540  5.9530  5.9600 -10.493  4.5540  5.9530  5.9600 
  3798.000 -20.978  4.4480  5.8760  5.8580 -10.136  4.4480  5.8760  5.8580 
  3798.500 -21.265  4.3780  5.8420  5.8070 -10.423  4.3780  5.8420  5.8070 
  3799.000 -21.623  4.2150  5.8430  5.5840 -10.781  4.2150  5.8430  5.5840 
  3799.500 -21.587  4.1560  5.8520  5.3100 -10.746  4.1560  5.8520  5.3100 
  3800.000 -20.836  4.0960  5.6250  5.1300 -9.9949  4.0960  5.6250  5.1300 
  3800.500 -20.300  3.8950  5.2940  4.9090 -9.4592  3.8950  5.2940  4.9090 
  3801.000 -19.729  3.8380  4.9060  4.6090 -8.8886  3.8380  4.9060  4.6090 
  3801.500 -19.158  3.8010  4.7630  4.5320 -8.3179  3.8010  4.7630  4.5320 
  3802.000 -18.838  3.8650  4.6260  4.4980 -7.9983  3.8650  4.6260  4.4980 
  3802.500 -18.983  3.9940  4.6180  4.5720 -8.1436  3.9940  4.6180  4.5720 
  3803.000 -19.808  4.1020  4.8050  4.8890 -8.9690  4.1020  4.8050  4.8890 
  3803.500 -21.385  4.2450  5.0910  5.3000 -10.546  4.2450  5.0910  5.3000 
  3804.000 -25.217  4.3300  5.4210  5.5310 -14.379  4.3300  5.4210  5.5310 
  3804.500 -28.334  4.4020  5.6430  5.7770 -17.496  4.4020  5.6430  5.7770 
  3805.000 -29.767  4.4010  5.8720  5.9080 -18.929  4.4010  5.8720  5.9080 
  3805.500 -28.158  4.2860  5.9650  5.9310 -17.321  4.2860  5.9650  5.9310 
