~Version Information
VERS.                     2.0: CWLS log ASCII Standard Version 2.00
WRAP.                      NO: One line per depth step
~Well Information Block
#MNEM.UNIT                               Data Type  Information
#---------                               ---------  -----------
STRT.FT                                   520.0000:
STOP.FT                                 10322.0000:
STEP.FT                                     0.5000:
NULL.                 -999.25                     :
COMP.                                             :COMPANY            
WELL.     CCMO 85-20                              :WELL               
FLD .                                             :FIELD              
CTRY.                                             :COUNTRY            
STAT.                                             :STATE              
LOC .                                             :LOCATION           
UWI .                                             :UNIQUE WELL ID     
SRVC.                                             :Service company    
DATE.                                             :LOG DATE           
~Curve Information
#MNEM.UNIT           API CODE  Curve Description
#---------           --------  -----------------
DEPT.FT                      :   1 DEPTH
SP  .MV                      :   2
AM16.OHMM                    :   3
AO10.OHMM                    :   4
AO19.OHMM                    :   5
SBL .MV                      :   6
RS  .OHMM                    :   7
RM  .OHMM                    :   8
RD  .OHMM                    :   9
~A
# ...
  7675.000 -16.287  3.0880  3.7990  3.8880 -5.9900  3.0880  3.7990  3.8880 
  7675.500 -16.532  3.0960  3.9140  4.1200 -6.2356  3.0960  3.9140  4.1200 
  7676.000 -16.741  3.1180  4.0370  4.2870 -6.4453  3.1180  4.0370  4.2870 
  7676.500 -17.058  3.1190  4.1240  4.4250 -6.7630  3.1190  4.1240  4.4250 
  7677.000 -17.374  3.1260  4.1250  4.5350 -7.0796  3.1260  4.1250  4.5350 
  7677.500 -17.584  3.1200  4.0610  4.5360 -7.2903  3.1200  4.0610  4.5360 
  7678.000 -17.685  3.0780  3.9540  4.3730 -7.3920  3.0780  3.9540  4.3730 
  7678.500 -17.609  3.0210  3.7250  4.1090 -7.3167  3.0210  3.7250  4.1090 
  7679.000 -17.353  2.9640  3.5890  3.8740 -7.0613  2.9640  3.5890  3.8740 
  7679.500 -17.240  2.9900  3.5110  3.7180 -6.9490  2.9900  3.5110  3.7180 
  7680.000 -17.092  3.0160  3.4250  3.5900 -6.8017  3.0160  3.4250  3.5900 
  7680.500 -17.067  3.1670  3.3760  3.6480 -6.7773  3.1670  3.3760  3.6480 
  7681.000 -17.042  3.2470  3.3260  3.9280 -6.7530  3.2470  3.3260  3.9280 
  7681.500 -17.231  3.2840  3.4920  4.1140 -6.9427  3.2840  3.4920  4.1140 
  7682.000 -17.671  3.3350  3.6430  4.2510 -7.3834  3.3350  3.6430  4.2510 
  7682.500 -18.147  3.3780  3.7880  4.3730 -7.8600  3.3780  3.7880  4.3730 
  7683.000 -18.515  3.3940  3.8530  4.4590 -8.2287  3.3940  3.8530  4.4590 
  7683.500 -18.991  3.4160  3.8830  4.4520 -8.7054  3.4160  3.8830  4.4520 
  7684.000 -19.323  3.4170  3.7970  4.2800 -9.0381  3.4170  3.7970  4.2800 
  7684.500 -19.370  3.4100  3.6970  4.0790 -9.0857  3.4100  3.6970  4.0790 
  7685.000 -19.201  3.3320  3.5690  3.9210 -8.9174  3.3320  3.5690  3.9210 
  7685.500 -18.998  3.2750  3.5190  3.8060 -8.7151  3.2750  3.5190  3.8060 
  7686.000 -18.758  3.2110  3.4910  3.6480 -8.4757  3.2110  3.4910  3.6480 
  7686.500 -18.662  3.1980  3.5710  3.6870 -8.3804  3.1980  3.5710  3.6870 
  7687.000 -18.494  3.2340  3.6290  3.7270 -8.2131  3.2340  3.6290  3.7270 
  7687.500 -18.326  3.2640  3.6800  3.8490 -8.0458  3.2640  3.6800  3.8490 
  7688.000 -18.265  3.2930  3.7020  3.8990 -7.9854  3.2930  3.7020  3.8990 
  7688.500 -18.186  3.2940  3.7250  3.9490 -7.9071  3.2940  3.7250  3.9490 
  7689.000 -18.107  3.3090  3.6970  3.9920 -7.8288  3.3090  3.6970  3.9920 
  7689.500 -17.940  3.3240  3.6760  4.0070 -7.6624  3.3240  3.6760  4.0070 
  7690.000 -17.950  3.3250  3.6480  4.0430 -7.6731  3.3250  3.6480  4.0430 
  7690.500 -18.064  3.3230  3.6390  4.0920 -7.7878  3.3230  3.6390  4.0920 
  7691.000 -18.250  3.3000  3.6160  4.0470 -7.9745  3.3000  3.6160  4.0470 
  7691.500 -18.258  3.2630  3.6220  4.0100 -7.9831  3.2630  3.6220  4.0100 
  7692.000 -18.157  3.2330  3.6710  3.9150 -7.8828  3.2330  3.6710  3.9150 
  7692.500 -17.807  3.2170  3.7410  3.8630 -7.5335  3.2170  3.7410  3.8630 
  7693.000 -17.421  3.2050  3.7900  3.8550 -7.1481  3.2050  3.7900  3.8550 
  7693.500 -17.178  3.1930  3.8530  3.9030 -6.9058  3.1930  3.8530  3.9030 
  7694.000 -17.042  3.1550  3.9020  3.9310 -6.7705  3.1550  3.9020  3.9310 
  7694.500 -16.941  3.1390  3.9440  3.8930 -6.6702  3.1390  3.9440  3.8930 
  7695.000 -16.841  3.1380  3.8490  3.8200 -6.5708  3.1380  3.8490  3.8200 
  7695.500 -16.634  3.1510  3.7250  3.7330 -6.3645  3.1510  3.7250  3.7330 
  7696.000 -16.534  3.1600  3.6230  3.6590 -6.2652  3.1600  3.6230  3.6590 
  7696.500 -16.452  3.1700  3.5070  3.6510 -6.1839  3.1700  3.5070  3.6510 
  7697.000 -16.369  3.1900  3.5130  3.7140 -6.1015  3.1900  3.5130  3.7140 
  7697.500 -16.305  3.2030  3.5830  3.7990 -6.0382  3.2030  3.5830  3.7990 
  7698.000 -16.348  3.2080  3.6540  3.8690 -6.0819  3.2080  3.6540  3.8690 
  7698.500 -16.390  3.2430  3.7740  3.9180 -6.1245  3.2430  3.7740  3.9180 
  7699.000 -16.899  3.2560  3.8440  3.9310 -6.6342  3.2560  3.8440  3.9310 
  7699.500 -17.156  3.2690  3.8860  3.9440 -6.8919  3.2690  3.8860  3.9440 
  7700.000 -17.450  3.1950  3.9280  3.9640 -7.1866  3.1950  3.9280  3.9640 
  7700.500 -17.555  3.0670  3.9360  3.9500 -7.2922  3.0670  3.9360  3.9500 
  7701.000 -17.410  2.9250  3.9660  3.9230 -7.1479  2.9250  3.9660  3.9230 
  7701.500 -16.836  2.8830  3.9670  3.9090 -6.5746  2.8830  3.9670  3.9090 
  7702.000 -16.512  2.7900  3.9390  3.9320 -6.2512  2.7900  3.9390  3.9320 
  7702.500 -16.189  2.6770  3.8400  3.9550 -5.9289  2.6770  3.8400  3.9550 
  7703.000 -15.579  2.5630  3.7550  3.8980 -5.3196  2.5630  3.7550  3.8980 
  7703.500 -14.970  2.5100  3.6910  3.7920 -4.7113  2.5100  3.6910  3.7920 
  7704.000 -14.753  2.4570  3.6130  3.6850 -4.4949  2.4570  3.6130  3.6850 
  7704.500 -14.501  2.2930  3.4850  3.4990 -4.2436  2.2930  3.4850  3.4990 
  7705.000 -14.213  2.2580  3.3640  3.3500 -3.9563  2.2580  3.3640  3.3500 
  7705.500 -13.997  2.2310  3.1860  3.2790 -3.7410  2.2310  3.1860  3.2790 
  7706.000 -13.888  2.2170  3.0580  3.1720 -3.6326  2.2170  3.0580  3.1720 
  7706.500 -13.815  2.3550  2.9650  3.1450 -3.5603  2.3550  2.9650  3.1450 
  7707.000 -13.956  2.5350  2.9380  3.2100 -3.7020  2.5350  2.9380  3.2100 
  7707.500 -14.455  2.6300  2.9240  3.3980 -4.2016  2.6300  2.9240  3.3980 
  7708.000 -14.989  2.7960  2.9250  3.5930 -4.7363  2.7960  2.9250  3.5930 
  7708.500 -15.953  3.0130  2.9840  3.7520 -5.7010  3.0130  2.9840  3.7520 
  7709.000 -16.345  3.2870  3.3800  3.8900 -6.0937  3.2870  3.3800  3.8900 
  7709.500 -17.272  3.4460  3.5680  3.9770 -7.0213  3.4460  3.5680  3.9770 
  7710.000 -17.595  3.6050  3.7270  4.0930 -7.3450  3.6050  3.7270  4.0930 
  7710.500 -17.917  3.7400  3.8110  4.1510 -7.6677  3.7400  3.8110  4.1510 
  7711.000 -18.458  3.8030  3.8820  4.2090 -8.2093  3.8030  3.8820  4.2090 
  7711.500 -18.855  3.8730  3.9240  4.1450 -8.6070  3.8730  3.9240  4.1450 
  7712.000 -19.109  3.8930  3.9220  4.0890 -8.8617  3.8930  3.9220  4.0890 
  7712.500 -19.470  3.8200  3.8990  4.1680 -9.2234  3.8200  3.8990  4.1680 
  7713.000 -18.508  3.7540  3.8400  4.2260 -8.2620  3.7540  3.8400  4.2260 
  7713.500 -17.224  3.6950  3.7530  4.2490 -6.9787  3.6950  3.7530  4.2490 
  7714.000 -16.405  3.6150  3.7220  4.1990 -6.1604  3.6150  3.7220  4.1990 
  7714.500 -15.765  3.5770  3.6060  3.9700 -5.5210  3.5770  3.6060  3.9700 
  7715.000 -15.233  3.5110  3.4540  3.8850 -4.9897  3.5110  3.4540  3.8850 
  7715.500 -14.878  3.4520  3.2300  3.6130 -4.6354  3.4520  3.2300  3.6130 
  7716.000 -14.649  3.4220  2.9700  3.4050 -4.4071  3.4220  2.9700  3.4050 
  7716.500 -14.420  3.4280  2.8250  3.3200 -4.1787  3.4280  2.8250  3.3200 
  7717.000 -14.138  3.5060  2.7800  3.3600 -3.8974  3.5060  2.7800  3.3600 
  7717.500 -14.070  3.5690  2.7720  3.4000 -3.8301  3.5690  2.7720  3.4000 
  7718.000 -14.002  3.6610  2.7920  3.5160 -3.7628  3.6610  2.7920  3.5160 
  7718.500 -14.185  3.7530  2.8300  3.5450 -3.9464  3.7530  2.8300  3.5450 
  7719.000 -14.510  3.8370  2.8680  3.5310 -4.2721  3.8370  2.8680  3.5310 
  7719.500 -15.014  3.9080  2.9810  3.5110 -4.7768  3.9080  2.9810  3.5110 
  7720.000 -16.198  3.9850  3.4040  3.5690 -5.9614  3.9850  3.4040  3.5690 
  7720.500 -16.951  4.0500  3.6190  3.6550 -6.7151  4.0500  3.6190  3.6550 
  7721.000 -17.346  4.0720  3.7490  3.7550 -7.1108  4.0720  3.7490  3.7550 
  7721.500 -17.419  4.0080  3.8000  3.8690 -7.1845  4.0080  3.8000  3.8690 
  7722.000 -17.349  3.9360  3.8720  3.9340 -7.1151  3.9360  3.8720  3.9340 
  7722.500 -17.280  3.8220  3.9150  4.0410 -7.0468  3.8220  3.9150  4.0410 
  7723.000 -16.852  3.7580  3.8800  3.9400 -6.6195  3.7580  3.8800  3.9400 
  7723.500 -16.425  3.6790  3.7870  3.7310 -6.1931  3.6790  3.7870  3.7310 
  7724.000 -16.176  3.6000  3.7120  3.4650 -5.9448  3.6000  3.7120  3.4650 
  7724.500 -15.892  3.5000  3.6370  3.3570 -5.6615  3.5000  3.6370  3.3570 
  7725.000 -15.823  3.4570  3.4860  3.2780 -5.5932  3.4570  3.4860  3.2780 
  7725.500 -16.039  3.5080  3.4430  3.1840 -5.8098  3.5080  3.4430  3.1840 
  7726.000 -17.113  3.6310  3.4440  3.0830 -6.8845  3.6310  3.4440  3.0830 
  7726.500 -18.939  3.6670  3.5160  3.2840 -8.7112  3.6670  3.5160  3.2840 
  7727.000 -20.120  3.7030  3.6100  3.4270 -9.8928  3.7030  3.6100  3.4270 
  7727.500 -20.802  3.7290  3.7750  3.6570 -10.576  3.7290  3.7750  3.6570 
