~Version Information
VERS.                     2.0: CWLS log ASCII Standard Version 2.00
WRAP.                      NO: One line per depth step
~Well Information Block
#MNEM.UNIT                               Data Type  Information
#---------                               ---------  -----------
STRT.FT                                   520.0000:
STOP.FT                                 10322.0000:
STEP.FT                                     0.5000:
NULL.                 -999.25                     :
COMP.                                             :COMPANY            
WELL.     CCMO 85-20                              :WELL               
FLD .                                             :FIELD              
CTRY.                                             :COUNTRY            
STAT.                                             :STATE              
LOC .                                             :LOCATION           
UWI .                                             :UNIQUE WELL ID     
SRVC.                                             :Service company    
DATE.                                             :LOG DATE           
~Curve Information
#MNEM.UNIT           API CODE  Curve Description
#---------           --------  -----------------
DEPT.FT                      :   1 DEPTH
SP  .MV                      :   2
AM16.OHMM                    :   3
AO10.OHMM                    :   4
AO19.OHMM                    :   5
SBL .MV                      :   6
RS  .OHMM                    :   7
RM  .OHMM                    :   8
RD  .OHMM                    :   9
~A
# ...
  1156.000 -33.538  9.6920  13.079  16.234 -14.407  9.6920  13.079  16.234 
  1156.500 -34.932  9.9580  13.761  17.469 -15.805  9.9580  13.761  17.469 
  1157.000 -36.147  10.181  15.032  17.735 -17.023  10.181  15.032  17.735 
  1157.500 -37.039  10.275  17.020  18.217 -17.919  10.275  17.020  18.217 
  1158.000 -36.244  10.347  17.846  18.648 -17.128  10.347  17.846  18.648 
  1158.500 -35.700  10.282  18.241  18.835 -16.588  10.282  18.241  18.835 
  1159.000 -35.120  10.168  18.385  18.872 -16.011  10.168  18.385  18.872 
  1159.500 -34.433  9.9820  18.392  18.392 -15.328  9.9820  18.392  18.392 
  1160.000 -33.817  9.7740  18.371  17.854 -14.716  9.7740  18.371  17.854 
  1160.500 -33.492  9.5660  18.306  16.928 -14.395  9.5660  18.306  16.928 
  1161.000 -33.419  9.5150  18.126  15.255 -14.325  9.5150  18.126  15.255 
  1161.500 -33.309  9.5070  17.423  14.996 -14.219  9.5070  17.423  14.996 
  1162.000 -33.056  9.5640  13.059  14.895 -13.970  9.5640  13.059  14.895 
  1162.500 -32.803  9.6290  12.815  15.031 -13.721  9.6290  12.815  15.031 
  1163.000 -32.550  9.6640  12.693  15.482 -13.471  9.6640  12.693  15.482 
  1163.500 -32.548  9.7000  12.699  15.725 -13.473  9.7000  12.699  15.725 
  1164.000 -32.475  9.6990  12.893  15.954 -13.404  9.6990  12.893  15.954 
  1164.500 -33.119  9.5840  13.180  16.047 -14.052  9.5840  13.180  16.047 
  1165.000 -33.045  9.3040  13.344  16.175 -13.981  9.3040  13.344  16.175 
  1165.500 -31.823  9.1460  13.480  16.218 -12.763  9.1460  13.480  16.218 
  1166.000 -30.313  8.7790  13.508  16.159 -11.257  8.7790  13.508  16.159 
  1166.500 -29.055  8.5490  13.207  15.994 -10.003  8.5490  13.207  15.994 
  1167.000 -27.905  8.2760  12.848  14.945 -8.8563  8.2760  12.848  14.945 
  1167.500 -27.005  8.1110  11.957  14.586 -7.9601  8.1110  11.957  14.586 
  1168.000 -26.429  7.9380  11.648  14.599 -7.3878  7.9380  11.648  14.599 
  1168.500 -26.140  7.8300  11.842  14.964 -7.1025  7.8300  11.842  14.964 
  1169.000 -27.718  7.6940  12.207  15.143 -8.6843  7.6940  12.207  15.143 
  1169.500 -28.506  7.5930  12.351  15.264 -9.4760  7.5930  12.351  15.264 
  1170.000 -29.617  7.5640  12.487  15.092 -10.591  7.5640  12.487  15.092 
  1170.500 -30.477  7.4640  12.430  14.725 -11.455  7.4640  12.430  14.725 
  1171.000 -31.157  7.3930  11.950  14.337 -12.138  7.3930  11.950  14.337 
  1171.500 -31.694  7.3290  11.620  14.000 -12.679  7.3290  11.620  14.000 
  1172.000 -32.338  7.2940  11.255  13.712 -13.327  7.2940  11.255  13.712 
  1172.500 -32.946  7.2800  11.005  13.554 -13.939  7.2800  11.005  13.554 
  1173.000 -33.268  7.4100  10.955  13.424 -14.264  7.4100  10.955  13.424 
  1173.500 -32.620  7.5470  10.956  13.474 -13.620  7.5470  10.956  13.474 
  1174.000 -31.972  7.6630  10.985  13.510 -12.976  7.6630  10.985  13.510 
  1174.500 -31.468  7.7140  11.079  13.574 -12.475  7.7140  11.079  13.574 
  1175.000 -31.538  7.7790  11.216  13.617 -12.549  7.7790  11.216  13.617 
  1175.500 -32.002  7.7940  11.296  13.832 -13.017  7.7940  11.296  13.832 
  1176.000 -32.252  7.7810  11.368  14.499 -13.271  7.7810  11.368  14.499 
  1176.500 -31.927  7.7520  11.506  14.728 -12.949  7.7520  11.506  14.728 
  1177.000 -31.063  7.6530  11.650  14.864 -12.089  7.6530  11.650  14.864 
  1177.500 -30.343  7.5670  11.744  14.935 -11.373  7.5670  11.744  14.935 
  1178.000 -29.911  7.3460  11.723  14.870 -10.945  7.3460  11.723  14.870 
  1178.500 -29.371  7.2030  11.587  14.648 -10.408  7.2030  11.587  14.648 
  1179.000 -28.795  7.0890  10.992  13.851 -9.8362  7.0890  10.992  13.851 
  1179.500 -28.111  6.9240  10.340  13.133 -9.1559  6.9240  10.340  13.133 
  1180.000 -27.858  6.8750  9.7170  12.774 -8.9067  6.8750  9.7170  12.774 
  1180.500 -27.677  6.9980  9.4450  12.580 -8.7294  6.9980  9.4450  12.580 
  1181.000 -28.429  7.2070  9.2450  13.140 -9.4852  7.2070  9.2450  13.140 
  1181.500 -29.970  7.3590  9.2820  13.464 -11.030  7.3590  9.2820  13.464 
  1182.000 -30.543  7.5250  9.3190  13.615 -11.607  7.5250  9.3190  13.615 
  1182.500 -32.192  7.6700  9.5210  13.823 -13.259  7.6700  9.5210  13.823 
  1183.000 -32.657  7.7710  9.6510  13.917 -13.728  7.7710  9.6510  13.917 
  1183.500 -32.799  7.8870  9.7060  13.845 -13.874  7.8870  9.7060  13.845 
  1184.000 -33.085  8.0240  9.7610  13.752 -14.164  8.0240  9.7610  13.752 
  1184.500 -33.334  8.1760  9.8120  14.205 -14.416  8.1760  9.8120  14.205 
  1185.000 -33.691  8.3500  9.8490  14.571 -14.777  8.3500  9.8490  14.571 
  1185.500 -34.013  8.4080  10.224  14.981 -15.103  8.4080  10.224  14.981 
  1186.000 -34.262  8.4950  10.856  15.304 -15.356  8.4950  10.856  15.304 
  1186.500 -34.261  8.5110  11.245  15.469 -15.358  8.5110  11.245  15.469 
  1187.000 -33.002  8.2680  11.806  15.699 -14.103  8.2680  11.806  15.699 
  1187.500 -31.636  7.8530  12.194  15.893 -12.741  7.8530  12.194  15.893 
  1188.000 -30.557  7.4880  12.360  15.815 -11.666  7.4880  12.360  15.815 
  1188.500 -29.048  7.2090  12.376  15.327 -10.160  7.2090  12.376  15.327 
  1189.000 -27.466  7.0160  12.240  14.596 -8.5821  7.0160  12.240  14.596 
  1189.500 -26.639  6.9020  11.976  12.996 -7.7589  6.9020  11.976  12.996 
  1190.000 -25.704  6.8750  10.671  11.582 -6.8276  6.8750  10.671  11.582 
  1190.500 -25.058  6.8970  8.7340  10.708 -6.1853  6.8970  8.7340  10.708 
  1191.000 -25.022  7.1130  7.9530  10.708 -6.1531  7.1130  7.9530  10.708 
  1191.500 -25.668  7.2860  7.9820  11.355 -6.8028  7.2860  7.9820  11.355 
  1192.000 -26.817  7.4160  8.6070  11.417 -7.9556  7.4160  8.6070  11.417 
  1192.500 -29.114  7.5390  8.8450  11.478 -10.256  7.5390  8.8450  11.478 
  1193.000 -30.299  7.5540  8.9670  11.623 -11.445  7.5540  8.9670  11.623 
  1193.500 -31.627  7.5540  9.0540  11.803 -12.777  7.5540  9.0540  11.803 
  1194.000 -32.130  7.5660  9.1340  11.925 -13.284  7.5660  9.1340  11.925 
  1194.500 -32.274  7.5770  9.1560  12.098 -13.431  7.5770  9.1560  12.098 
  1195.000 -31.843  7.6930  9.2360  11.970 -13.004  7.6930  9.2360  11.970 
  1195.500 -30.837  7.7940  9.3010  11.784 -12.002  7.7940  9.3010  11.784 
  1196.000 -31.232  7.8810  9.4090  11.878 -12.401  7.8810  9.4090  11.878 
  1196.500 -31.771  7.9530  9.5900  12.230 -12.943  7.9530  9.5900  12.230 
  1197.000 -32.381  8.0400  10.121  12.676 -13.557  8.0400  10.121  12.676 
  1197.500 -33.350  8.1060  10.481  13.079 -14.530  8.1060  10.481  13.079 
  1198.000 -33.781  8.1780  10.783  13.295 -14.965  8.1780  10.783  13.295 
  1198.500 -34.104  8.1820  10.970  13.360 -15.291  8.1820  10.970  13.360 
  1199.000 -34.391  8.1860  11.136  13.425 -15.582  8.1860  11.136  13.425 
  1199.500 -34.391  8.1950  11.252  13.569 -15.586  8.1950  11.252  13.569 
  1200.000 -32.776  8.1810  11.317  13.678 -13.975  8.1810  11.317  13.678 
  1200.500 -32.268  8.1440  11.237  13.492 -13.470  8.1440  11.237  13.492 
  1201.000 -32.227  8.0570  10.855  13.328 -13.433  8.0570  10.855  13.328 
  1201.500 -32.221  7.9910  10.445  13.127 -13.431  7.9910  10.445  13.127 
  1202.000 -32.396  7.9250  10.042  12.963 -13.609  7.9250  10.042  12.963 
  1202.500 -33.252  7.9100  9.9050  12.268 -14.469  7.9100  9.9050  12.268 
  1203.000 -32.959  7.9230  9.6670  11.938 -14.180  7.9230  9.6670  11.938 
  1203.500 -32.954  7.9510  9.5300  11.738 -14.179  7.9510  9.5300  11.738 
  1204.000 -33.272  8.1150  9.3850  11.861 -14.500  8.1150  9.3850  11.861 
  1204.500 -33.123  8.5870  9.2980  12.263 -14.355  8.5870  9.2980  12.263 
  1205.000 -32.255  8.9880  9.3110  13.764 -13.491  8.9880  9.3110  13.764 
  1205.500 -31.819  9.3170  9.5830  14.805 -13.059  9.3170  9.5830  14.805 
  1206.000 -32.029  9.7040  10.206  15.495 -13.272  9.7040  10.206  15.495 
  1206.500 -32.239  9.9320  10.958  16.601 -13.486  9.9320  10.958  16.601 
  1207.000 -32.449  10.053  11.833  17.104 -13.700  10.053  11.833  17.104 
  1207.500 -32.839  10.102  12.958  17.449 -14.094  10.102  12.958  17.449 
  1208.000 -33.157  10.022  13.424  17.586 -14.415  10.022  13.424  17.586 
  1208.500 -33.007  9.5760  13.667  17.020 -14.269  9.5760  13.667  17.020 
