~Version Information
VERS.                     2.0: CWLS log ASCII Standard Version 2.00
WRAP.                      NO: One line per depth step
~Well Information Block
#MNEM.UNIT                               Data Type  Information
#---------                               ---------  -----------
STRT.FT                                   520.0000:
STOP.FT                                 10322.0000:
STEP.FT                                     0.5000:
NULL.                 -999.25                     :
COMP.                                             :COMPANY            
WELL.     CCMO 85-20                              :WELL               
FLD .                                             :FIELD              
CTRY.                                             :COUNTRY            
STAT.                                             :STATE              
LOC .                                             :LOCATION           
UWI .                                             :UNIQUE WELL ID     
SRVC.                                             :Service company    
DATE.                                             :LOG DATE           
~Curve Information
#MNEM.UNIT           API CODE  Curve Description
#---------           --------  -----------------
DEPT.FT                      :   1 DEPTH
SP  .MV                      :   2
AM16.OHMM                    :   3
AO10.OHMM                    :   4
AO19.OHMM                    :   5
SBL .MV                      :   6
RS  .OHMM                    :   7
RM  .OHMM                    :   8
RD  .OHMM                    :   9
~A
# ...
  6350.000 -16.722  3.4720  4.4260  4.1320 -4.8061  3.4720  4.4260  4.1320 
  6350.500 -16.619  3.4070  4.5050  4.2970 -4.7023  3.4070  4.5050  4.2970 
  6351.000 -16.730  3.3750  4.5120  4.3900 -4.8126  3.3750  4.5120  4.3900 
  6351.500 -16.733  3.3430  4.3900  4.3540 -4.8149  3.3430  4.3900  4.3540 
  6352.000 -16.524  3.2420  4.2750  4.2390 -4.6052  3.2420  4.2750  4.2390 
  6352.500 -16.455  3.1710  4.1320  4.1320 -4.5354  3.1710  4.1320  4.1320 
  6353.000 -16.208  3.1280  3.9740  4.0100 -4.2877  3.1280  3.9740  4.0100 
  6353.500 -15.963  3.0990  3.8810  3.9240 -4.0420  3.0990  3.8810  3.9240 
  6354.000 -16.073  3.2640  3.8230  3.8950 -4.1513  3.2640  3.8230  3.8950 
  6354.500 -16.612  3.3360  3.8950  4.0390 -4.6895  3.3360  3.8950  4.0390 
  6355.000 -17.258  3.4220  3.9600  4.2830 -5.3348  3.4220  3.9600  4.2830 
  6355.500 -18.225  3.4580  4.0530  4.4690 -6.3011  3.4580  4.0530  4.4690 
  6356.000 -19.620  3.5150  4.1320  4.6200 -7.6954  3.5150  4.1320  4.6200 
  6356.500 -20.945  3.5510  4.2110  4.6840 -9.0196  3.5510  4.2110  4.6840 
  6357.000 -21.770  3.5940  4.3040  4.7700 -9.8439  3.5940  4.3040  4.7700 
  6357.500 -22.380  3.6230  4.3470  4.8420 -10.453  3.6230  4.3470  4.8420 
  6358.000 -21.313  3.6440  4.2250  4.7920 -9.3855  3.6440  4.2250  4.7920 
  6358.500 -20.139  3.6730  4.1250  4.7060 -8.2107  3.6730  4.1250  4.7060 
  6359.000 -18.893  3.6870  4.0170  4.6340 -6.9640  3.6870  4.0170  4.6340 
  6359.500 -18.112  3.6940  3.9240  4.4900 -6.1823  3.6940  3.9240  4.4900 
  6360.000 -17.686  3.6730  3.8880  4.4330 -5.7556  3.6730  3.8880  4.4330 
  6360.500 -17.105  3.6010  3.9240  4.3390 -5.1738  3.6010  3.9240  4.3390 
  6361.000 -16.933  3.5210  3.9380  4.2730 -5.0011  3.5210  3.9380  4.2730 
  6361.500 -16.761  3.4850  3.9440  4.2650 -4.8284  3.4850  3.9440  4.2650 
  6362.000 -16.965  3.5060  3.9440  4.2640 -5.0317  3.5060  3.9440  4.2640 
  6362.500 -17.275  3.4850  3.9290  4.2700 -5.3409  3.4850  3.9290  4.2700 
  6363.000 -17.729  3.4200  3.8930  4.2760 -5.7942  3.4200  3.8930  4.2760 
  6363.500 -18.361  3.3620  3.8570  4.2820 -6.4255  3.3620  3.8570  4.2820 
  6364.000 -18.814  3.4830  3.8210  4.2880 -6.8778  3.4830  3.8210  4.2880 
  6364.500 -19.339  3.5330  3.7630  4.2870 -7.4020  3.5330  3.7630  4.2870 
  6365.000 -18.828  3.5830  3.7120  4.2860 -6.8903  3.5830  3.7120  4.2860 
  6365.500 -17.890  3.6470  3.6690  4.2960 -5.9516  3.6470  3.6690  4.2960 
  6366.000 -17.379  3.6610  3.6400  4.3060 -5.4399  3.6610  3.6400  4.3060 
  6366.500 -17.547  3.5460  3.6830  4.3190 -5.6071  3.5460  3.6830  4.3190 
  6367.000 -18.036  3.5460  3.7470  4.3460 -6.0954  3.5460  3.7470  4.3460 
  6367.500 -17.347  3.5530  3.8180  4.3600 -5.4057  3.5530  3.8180  4.3600 
  6368.000 -16.730  3.5450  3.8820  4.2650 -4.7880  3.5450  3.8820  4.2650 
  6368.500 -16.291  3.5300  3.8680  4.1710 -4.3482  3.5300  3.8680  4.1710 
  6369.000 -15.994  3.4730  3.8310  4.0480 -4.0505  3.4730  3.8310  4.0480 
  6369.500 -15.877  3.4080  3.7880  3.9610 -3.9328  3.4080  3.7880  3.9610 
  6370.000 -15.866  3.3140  3.7370  3.9240 -3.9211  3.3140  3.7370  3.9240 
  6370.500 -16.085  3.2420  3.6940  3.9290 -4.1393  3.2420  3.6940  3.9290 
  6371.000 -16.162  3.1710  3.6080  3.9120 -4.2156  3.1710  3.6080  3.9120 
  6371.500 -16.239  3.0850  3.5370  3.8740 -4.2919  3.0850  3.5370  3.8740 
  6372.000 -16.494  3.0200  3.4430  3.7720 -4.5462  3.0200  3.4430  3.7720 
  6372.500 -16.750  2.9550  3.3290  3.6480 -4.8014  2.9550  3.3290  3.6480 
  6373.000 -16.755  2.9550  3.1990  3.4810 -4.8057  2.9550  3.1990  3.4810 
  6373.500 -16.581  3.0770  3.1280  3.3560 -4.6310  3.0770  3.1280  3.3560 
  6374.000 -16.354  3.2350  3.1420  3.3400 -4.4033  3.2350  3.1420  3.3400 
  6374.500 -16.127  3.3110  3.2140  3.5100 -4.1756  3.3110  3.2140  3.5100 
  6375.000 -15.741  3.3860  3.3790  3.6800 -3.7888  3.3860  3.3790  3.6800 
  6375.500 -15.462  3.5790  3.5290  3.8210 -3.5091  3.5790  3.5290  3.8210 
  6376.000 -15.502  3.7450  3.6440  3.9840 -3.5484  3.7450  3.6440  3.9840 
  6376.500 -16.293  4.0240  3.7590  4.0540 -4.3387  4.0240  3.7590  4.0540 
  6377.000 -17.262  4.2970  3.8740  4.1310 -5.3069  4.2970  3.8740  4.1310 
  6377.500 -18.516  4.5340  3.9450  4.2080 -6.5602  4.5340  3.9450  4.2080 
  6378.000 -19.485  4.6340  4.1030  4.3060 -7.5285  4.6340  4.1030  4.3060 
  6378.500 -20.990  4.7630  4.2180  4.4040 -9.0328  4.7630  4.2180  4.4040 
  6379.000 -23.315  4.8850  4.3180  4.5380 -11.357  4.8850  4.3180  4.5380 
  6379.500 -24.534  4.9930  4.4190  4.5930 -12.575  4.9930  4.4190  4.5930 
  6380.000 -24.897  5.0360  4.4690  4.6700 -12.938  5.0360  4.4690  4.6700 
  6380.500 -25.440  5.0940  4.5060  4.7430 -13.480  5.0940  4.5060  4.7430 
  6381.000 -27.412  5.1160  4.5280  4.7800 -15.451  5.1160  4.5280  4.7800 
  6381.500 -28.992  5.1960  4.4710  4.8030 -17.030  5.1960  4.4710  4.8030 
  6382.000 -30.571  5.3040  4.4290  4.7110 -18.609  5.3040  4.4290  4.7110 
  6382.500 -32.222  5.4340  4.3790  4.6560 -20.259  5.4340  4.3790  4.6560 
  6383.000 -33.944  5.5570  4.3160  4.6000 -21.980  5.5570  4.3160  4.6000 
  6383.500 -35.060  5.6860  4.2090  4.5720 -23.096  5.6860  4.2090  4.5720 
  6384.000 -35.425  5.8090  4.1450  4.5670 -23.460  5.8090  4.1450  4.5670 
  6384.500 -35.221  5.9390  4.0810  4.7040 -23.255  5.9390  4.0810  4.7040 
  6385.000 -36.051  6.0330  4.2470  4.7700 -24.084  6.0330  4.2470  4.7700 
  6385.500 -36.416  6.1630  4.4410  4.8370 -24.449  6.1630  4.4410  4.8370 
  6386.000 -37.424  6.3000  4.6430  5.0170 -25.456  6.3000  4.6430  5.0170 
  6386.500 -37.434  6.3580  4.7510  5.1340 -25.465  6.3580  4.7510  5.1340 
  6387.000 -36.193  6.3300  4.9100  5.2500 -24.223  6.3300  4.9100  5.2500 
  6387.500 -34.952  5.6780  5.0110  5.4160 -22.982  5.6780  5.0110  5.4160 
  6388.000 -32.570  5.1050  5.0760  5.3100 -20.599  5.1050  5.0760  5.3100 
  6388.500 -30.509  4.8180  5.1270  5.1180 -18.537  4.8180  5.1270  5.1180 
  6389.000 -28.127  4.4820  5.1490  4.9900 -16.155  4.4820  5.1490  4.9900 
  6389.500 -26.600  4.2600  4.7410  4.6970 -14.627  4.2600  4.7410  4.6970 
  6390.000 -25.146  4.0390  4.4050  4.2250 -13.172  4.0390  4.4050  4.2250 
  6390.500 -24.004  3.9670  4.1390  3.6930 -12.029  3.9670  4.1390  3.6930 
  6391.000 -23.040  3.8940  3.9950  3.5130 -11.065  3.8940  3.9950  3.5130 
  6391.500 -23.504  3.8440  3.9230  3.4330 -11.528  3.8440  3.9230  3.4330 
  6392.000 -25.146  3.8870  3.9080  3.5470 -13.169  3.8870  3.9080  3.5470 
  6392.500 -26.467  3.9440  3.9650  3.6530 -14.489  3.9440  3.9650  3.6530 
  6393.000 -26.467  3.9720  3.9930  3.6810 -14.489  3.9720  3.9930  3.6810 
  6393.500 -24.039  3.8640  4.0000  3.6650 -12.060  3.8640  4.0000  3.6650 
  6394.000 -22.719  3.7630  3.9210  3.6000 -10.739  3.7630  3.9210  3.6000 
  6394.500 -21.898  3.7410  3.8420  3.4910 -9.9176  3.7410  3.8420  3.4910 
  6395.000 -21.184  3.9560  3.8700  3.4110 -9.2028  3.9560  3.8700  3.4110 
  6395.500 -20.720  4.1640  4.0630  3.6110 -8.7381  4.1640  4.0630  3.6110 
  6396.000 -21.719  4.3280  4.2930  3.8820 -9.7364  4.3280  4.2930  3.8820 
  6396.500 -23.790  4.4720  4.5430  4.0820 -11.807  4.4720  4.5430  4.0820 
  6397.000 -26.610  4.6360  4.7730  4.2530 -14.626  4.6360  4.7730  4.2530 
  6397.500 -29.001  4.7150  4.9950  4.3880 -17.016  4.7150  4.9950  4.3880 
  6398.000 -31.392  4.6710  5.1590  4.4660 -19.406  4.6710  5.1590  4.4660 
  6398.500 -31.963  4.4630  5.2810  4.6090 -19.977  4.4630  5.2810  4.6090 
  6399.000 -29.037  4.1180  5.3520  4.6940 -17.050  4.1180  5.3520  4.6940 
  6399.500 -25.217  3.8880  5.4090  4.7570 -13.229  3.8880  5.4090  4.7570 
  6400.000 -22.647  3.6730  5.3370  4.7420 -10.659  3.6730  5.3370  4.7420 
  6400.500 -20.546  3.4490  4.8410  4.4340 -8.5569  3.4490  4.8410  4.4340 
  6401.000 -19.443  3.3050  4.6610  3.9820 -7.4531  3.3050  4.6610  3.9820 
  6401.500 -18.910  3.1600  4.3300  3.7460 -6.9194  3.1600  4.3300  3.7460 
  6402.000 -18.378  3.1230  4.1490  3.4880 -6.3867  3.1230  4.1490  3.4880 
  6402.500 -17.740  3.1010  3.8400  3.3520 -5.7480  3.1010  3.8400  3.3520 
