~Version Information
VERS.                     2.0: CWLS log ASCII Standard Version 2.00
WRAP.                      NO: One line per depth step
~Well Information Block
#MNEM.UNIT                               Data Type  Information
#---------                               ---------  -----------
STRT.FT                                   520.0000:
STOP.FT                                 10322.0000:
STEP.FT                                     0.5000:
NULL.                 -999.25                     :
COMP.                                             :COMPANY            
WELL.     CCMO 85-20                              :WELL               
FLD .                                             :FIELD              
CTRY.                                             :COUNTRY            
STAT.                                             :STATE              
LOC .                                             :LOCATION           
UWI .                                             :UNIQUE WELL ID     
SRVC.                                             :Service company    
DATE.                                             :LOG DATE           
~Curve Information
#MNEM.UNIT           API CODE  Curve Description
#---------           --------  -----------------
DEPT.FT                      :   1 DEPTH
SP  .MV                      :   2
AM16.OHMM                    :   3
AO10.OHMM                    :   4
AO19.OHMM                    :   5
SBL .MV                      :   6
RS  .OHMM                    :   7
RM  .OHMM                    :   8
RD  .OHMM                    :   9
~A
# ...
  4442.000 -37.454  11.123  21.264  19.244 -27.053  11.123  21.264  19.244 
  4442.500 -36.739  10.717  20.952  18.748 -26.338  10.717  20.952  18.748 
  4443.000 -36.061  10.511  20.639  18.137 -25.660  10.511  20.639  18.137 
  4443.500 -34.989  10.356  20.327  17.526 -24.589  10.356  20.327  17.526 
  4444.000 -34.668  10.538  20.014  17.037 -24.268  10.538  20.014  17.037 
  4444.500 -34.169  10.963  19.702  16.742 -23.769  10.963  19.702  16.742 
  4445.000 -35.424  11.447  18.972  16.447 -25.025  11.447  18.972  16.447 
  4445.500 -36.607  11.937  18.056  16.345 -26.208  11.937  18.056  16.345 
  4446.000 -37.504  12.298  17.779  17.184 -27.105  12.298  17.779  17.184 
  4446.500 -38.222  12.609  17.674  17.685 -27.824  12.609  17.674  17.685 
  4447.000 -38.832  12.877  17.971  18.164 -28.434  12.877  17.971  18.164 
  4447.500 -39.013  13.009  18.145  18.493 -28.615  13.009  18.145  18.493 
  4448.000 -38.871  13.133  18.299  18.916 -28.474  13.133  18.299  18.916 
  4448.500 -38.695  13.236  18.394  19.388 -28.298  13.236  18.394  19.388 
  4449.000 -38.535  13.325  18.533  19.918 -28.138  13.325  18.533  19.918 
  4449.500 -38.375  13.363  18.643  24.834 -27.979  13.363  18.643  24.834 
  4450.000 -38.234  13.366  18.753  25.684 -27.838  13.366  18.753  25.684 
  4450.500 -38.053  13.279  18.882  26.545 -27.657  13.279  18.882  26.545 
  4451.000 -37.944  12.955  18.974  26.473 -27.549  12.955  18.974  26.473 
  4451.500 -37.871  12.725  19.067  25.971 -27.476  12.725  19.067  25.971 
  4452.000 -38.084  12.552  19.109  25.182 -27.689  12.552  19.109  25.182 
  4452.500 -37.903  11.999  19.023  24.751 -27.509  11.999  19.023  24.751 
  4453.000 -37.508  11.553  18.764  22.359 -27.114  11.553  18.764  22.359 
  4453.500 -37.272  11.223  17.995  19.966 -26.879  11.223  17.995  19.966 
  4454.000 -37.037  10.892  16.646  18.890 -26.644  10.892  16.646  18.890 
  4454.500 -36.428  10.533  16.171  18.036 -26.035  10.533  16.171  18.036 
  4455.000 -36.140  10.302  15.554  17.426 -25.748  10.302  15.554  17.426 
  4455.500 -35.888  10.258  14.843  17.003 -25.496  10.258  14.843  17.003 
  4456.000 -35.742  10.387  14.663  16.651 -25.350  10.387  14.663  16.651 
  4456.500 -36.027  10.522  14.727  16.465 -25.636  10.522  14.727  16.465 
  4457.000 -36.240  10.629  15.056  16.494 -25.849  10.629  15.056  16.494 
  4457.500 -36.524  10.715  15.313  16.544 -26.133  10.715  15.313  16.544 
  4458.000 -36.808  10.779  15.535  16.573 -26.418  10.779  15.535  16.573 
  4458.500 -37.345  10.814  15.570  16.537 -26.955  10.814  15.570  16.537 
  4459.000 -37.020  10.770  15.620  16.508 -26.630  10.770  15.620  16.508 
  4459.500 -36.589  10.683  15.666  16.465 -26.200  10.683  15.666  16.465 
  4460.000 -36.695  10.639  15.712  16.651 -26.306  10.639  15.712  16.651 
  4460.500 -37.021  10.683  15.805  16.753 -26.632  10.683  15.805  16.753 
  4461.000 -37.418  10.726  15.899  16.969 -27.030  10.726  15.899  16.969 
  4461.500 -37.654  10.762  16.014  17.045 -27.266  10.762  16.014  17.045 
  4462.000 -37.889  10.777  16.273  17.121 -27.501  10.777  16.273  17.121 
  4462.500 -37.983  10.749  16.402  17.337 -27.596  10.749  16.402  17.337 
  4463.000 -38.076  10.649  16.431  17.438 -27.689  10.649  16.431  17.438 
  4463.500 -37.686  10.506  16.453  17.338 -27.299  10.506  16.453  17.338 
  4464.000 -37.189  10.420  16.339  17.195 -26.803  10.420  16.339  17.195 
  4464.500 -36.548  10.313  16.181  17.139 -26.162  10.313  16.181  17.139 
  4465.000 -36.015  10.227  15.909  17.032 -25.629  10.227  15.909  17.032 
  4465.500 -35.302  10.148  15.755  16.875 -24.917  10.148  15.755  16.875 
  4466.000 -34.662  10.091  15.601  16.674 -24.277  10.091  15.601  16.674 
  4466.500 -34.414  10.084  14.941  16.524 -24.029  10.084  14.941  16.524 
  4467.000 -34.704  10.099  14.662  16.324 -24.320  10.099  14.662  16.324 
  4467.500 -35.101  10.186  14.296  16.210 -24.717  10.186  14.296  16.210 
  4468.000 -35.857  10.251  13.981  16.275 -25.473  10.251  13.981  16.275 
  4468.500 -36.577  10.294  13.838  16.395 -26.194  10.294  13.838  16.395 
  4469.000 -37.046  10.352  13.989  16.514 -26.663  10.352  13.989  16.514 
  4469.500 -37.300  10.295  14.083  16.730 -26.917  10.295  14.083  16.730 
  4470.000 -36.803  10.309  14.126  16.881 -26.421  10.309  14.126  16.881 
  4470.500 -36.616  10.323  14.169  16.981 -26.234  10.323  14.169  16.981 
  4471.000 -36.037  10.323  14.240  17.052 -25.655  10.323  14.240  17.052 
  4471.500 -35.743  10.315  14.290  16.952 -25.362  10.315  14.290  16.952 
  4472.000 -35.843  10.308  14.347  16.951 -25.462  10.308  14.347  16.951 
  4472.500 -36.659  10.257  14.433  16.972 -26.279  10.257  14.433  16.972 
  4473.000 -37.225  10.114  14.662  16.994 -26.845  10.114  14.662  16.994 
  4473.500 -37.683  9.8910  14.898  17.079 -27.303  9.8910  14.898  17.079 
  4474.000 -38.034  9.6110  15.006  17.115 -27.655  9.6110  15.006  17.115 
  4474.500 -38.170  9.3520  15.041  16.935 -27.791  9.3520  15.041  16.935 
  4475.000 -36.945  9.1940  14.955  16.626 -26.566  9.1940  14.955  16.626 
  4475.500 -35.471  9.0500  14.811  16.023 -25.093  9.0500  14.811  16.023 
  4476.000 -34.318  8.9130  14.703  15.549 -23.940  8.9130  14.703  15.549 
  4476.500 -32.879  8.8410  14.509  15.241 -22.501  8.8410  14.509  15.241 
  4477.000 -31.797  8.7830  13.633  14.968 -21.420  8.7830  13.633  14.968 
  4477.500 -30.681  8.9480  12.951  14.852 -20.304  8.9480  12.951  14.852 
  4478.000 -29.957  9.1700  12.621  14.752 -19.580  9.1700  12.621  14.752 
  4478.500 -30.595  9.3200  12.585  15.132 -20.219  9.3200  12.585  15.132 
  4479.000 -32.163  9.5420  12.692  15.583 -21.787  9.5420  12.692  15.583 
  4479.500 -34.948  10.102  12.799  16.645 -24.572  10.102  12.799  16.645 
  4480.000 -36.552  10.532  14.872  17.455 -26.177  10.532  14.872  17.455 
  4480.500 -37.631  10.868  15.130  17.741 -27.256  10.868  15.130  17.741 
  4481.000 -38.495  11.040  15.495  17.969 -28.120  11.040  15.495  17.969 
  4481.500 -38.537  11.154  15.796  18.298 -28.163  11.154  15.796  18.298 
  4482.000 -38.471  11.289  16.125  18.512 -28.097  11.289  16.125  18.512 
  4482.500 -38.476  11.382  16.268  18.633 -28.102  11.382  16.268  18.633 
  4483.000 -38.499  11.439  16.403  18.733 -28.126  11.439  16.403  18.733 
  4483.500 -38.522  11.388  16.496  18.825 -28.149  11.388  16.496  18.825 
  4484.000 -38.527  11.265  16.624  18.888 -28.154  11.265  16.624  18.888 
  4484.500 -38.533  11.149  16.717  18.930 -28.161  11.149  16.717  18.930 
  4485.000 -38.538  10.977  16.788  18.922 -28.166  10.977  16.788  18.922 
  4485.500 -38.400  10.675  16.844  18.856 -28.028  10.675  16.844  18.856 
  4486.000 -37.654  10.322  16.851  18.741 -27.283  10.322  16.851  18.741 
  4486.500 -37.122  9.9130  16.714  18.524 -26.751  9.9130  16.714  18.524 
  4487.000 -36.680  9.6250  16.440  18.258 -26.309  9.6250  16.440  18.258 
  4487.500 -36.237  9.1360  16.138  17.704 -25.867  9.1360  16.138  17.704 
  4488.000 -35.671  8.8490  15.714  16.591 -25.301  8.8490  15.714  16.591 
  4488.500 -35.497  8.5320  15.434  16.023 -25.127  8.5320  15.434  16.023 
  4489.000 -35.396  8.2020  14.960  15.635 -25.027  8.2020  14.960  15.635 
  4489.500 -35.114  7.7270  14.536  15.332 -24.745  7.7270  14.536  15.332 
  4490.000 -31.647  7.3540  14.090  15.059 -21.279  7.3540  14.090  15.059 
  4490.500 -29.968  6.9950  13.624  14.170 -19.600  6.9950  13.624  14.170 
  4491.000 -29.077  6.5010  13.180  13.181 -18.709  6.5010  13.180  13.181 
  4491.500 -28.561  6.1780  12.743  12.630 -18.194  6.1780  12.743  12.630 
  4492.000 -28.045  5.6980  12.219  12.172 -17.678  5.6980  12.219  12.172 
  4492.500 -27.406  5.4540  11.294  11.362 -17.039  5.4540  11.294  11.362 
  4493.000 -27.086  5.0030  10.742  10.215 -16.720  5.0030  10.742  10.215 
  4493.500 -26.302  4.6730  10.118  9.9800 -15.936  4.6730  10.118  9.9800 
  4494.000 -24.373  4.4080  9.6670  9.7510 -14.007  4.4080  9.6670  9.7510 
  4494.500 -23.051  4.1790  9.2800  9.4870 -12.686  4.1790  9.2800  9.4870 
