~Version Information
VERS.                     2.0: CWLS log ASCII Standard Version 2.00
WRAP.                      NO: One line per depth step
~Well Information Block
#MNEM.UNIT                               Data Type  Information
#---------                               ---------  -----------
STRT.FT                                   520.0000:
STOP.FT                                 10322.0000:
STEP.FT                                     0.5000:
NULL.                 -999.25                     :
COMP.                                             :COMPANY            
WELL.     CCMO 85-20                              :WELL               
FLD .                                             :FIELD              
CTRY.                                             :COUNTRY            
STAT.                                             :STATE              
LOC .                                             :LOCATION           
UWI .                                             :UNIQUE WELL ID     
SRVC.                                             :Service company    
DATE.                                             :LOG DATE           
~Curve Information
#MNEM.UNIT           API CODE  Curve Description
#---------           --------  -----------------
DEPT.FT                      :   1 DEPTH
SP  .MV                      :   2
AM16.OHMM                    :   3
AO10.OHMM                    :   4
AO19.OHMM                    :   5
SBL .MV                      :   6
RS  .OHMM                    :   7
RM  .OHMM                    :   8
RD  .OHMM                    :   9
~A
# ...
  2481.000 -20.597  3.6600  3.9110  4.9230 -8.8525  3.6600  3.9110  4.9230 
  2481.500 -19.950  3.6090  4.0830  5.1230 -8.2058  3.6090  4.0830  5.1230 
  2482.000 -19.588  3.5720  4.1680  5.2090 -7.8442  3.5720  4.1680  5.2090 
  2482.500 -19.513  3.5500  4.3320  5.3370 -7.7695  3.5500  4.3320  5.3370 
  2483.000 -19.796  3.5490  4.4320  5.4160 -8.0528  3.5490  4.4320  5.4160 
  2483.500 -19.971  3.5270  4.5100  5.4580 -8.2282  3.5270  4.5100  5.4580 
  2484.000 -19.681  3.5010  4.5670  5.4290 -7.9385  3.5010  4.5670  5.4290 
  2484.500 -19.249  3.4750  4.5020  5.2990 -7.5069  3.4750  4.5020  5.2990 
  2485.000 -18.923  3.4100  4.2640  5.0750 -7.1812  3.4100  4.2640  5.0750 
  2485.500 -18.991  3.3370  4.1200  4.8880 -7.2496  3.3370  4.1200  4.8880 
  2486.000 -19.381  3.3150  3.8390  4.6860 -7.6399  3.3150  3.8390  4.6860 
  2486.500 -19.771  3.2930  3.6660  4.5850 -8.0302  3.2930  3.6660  4.5850 
  2487.000 -19.052  3.3210  3.5860  4.4980 -7.3116  3.3210  3.5860  4.4980 
  2487.500 -18.601  3.3560  3.5640  4.3830 -6.8609  3.3560  3.5640  4.3830 
  2488.000 -18.150  3.3910  3.5490  4.3170 -6.4103  3.3910  3.5490  4.3170 
  2488.500 -17.753  3.5120  3.5340  4.2230 -6.0136  3.5120  3.5340  4.2230 
  2489.000 -18.215  3.5620  3.5550  4.1790 -6.4760  3.5620  3.5550  4.1790 
  2489.500 -18.354  3.6330  3.5760  4.1930 -6.6153  3.6330  3.5760  4.1930 
  2490.000 -18.458  3.7110  3.6320  4.3360 -6.7196  3.7110  3.6320  4.3360 
  2490.500 -18.569  3.8060  3.7200  4.5220 -6.8310  3.8060  3.7200  4.5220 
  2491.000 -18.751  3.9220  3.8070  4.6440 -7.0133  3.9220  3.8070  4.6440 
  2491.500 -19.041  4.0310  3.9950  4.8020 -7.3037  4.0310  3.9950  4.8020 
  2492.000 -19.188  4.2250  4.0960  4.9560 -7.4510  4.2250  4.0960  4.9560 
  2492.500 -19.370  4.4060  4.1940  5.1100 -7.6334  4.4060  4.1940  5.1100 
  2493.000 -19.839  4.6150  4.2920  5.4030 -8.1027  4.6150  4.2920  5.4030 
  2493.500 -20.307  4.8030  4.5090  5.7120 -8.5710  4.8030  4.5090  5.7120 
  2494.000 -20.669  4.9760  4.7680  5.9550 -8.9334  4.9760  4.7680  5.9550 
  2494.500 -20.887  5.0640  4.9630  6.2710 -9.1517  5.0640  4.9630  6.2710 
  2495.000 -21.069  5.2370  5.1650  6.6510 -9.3341  5.2370  5.1650  6.6510 
  2495.500 -21.144  6.1640  5.9630  6.8660 -9.4094  6.1640  5.9630  6.8660 
  2496.000 -20.647  6.3160  6.2440  7.2820 -8.9128  6.3160  6.2440  7.2820 
  2496.500 -20.436  6.4390  6.4460  7.6690 -8.7021  6.4390  6.4460  7.6690 
  2497.000 -21.012  6.5840  6.6410  8.2070 -9.2784  6.5840  6.6410  8.2070 
  2497.500 -21.946  6.8500  6.8720  8.8960 -10.213  6.8500  6.8720  8.8960 
  2498.000 -22.629  7.0600  7.2250  9.5780 -10.896  7.0600  7.2250  9.5780 
  2498.500 -22.919  7.2400  7.5920  10.224 -11.186  7.2400  7.5920  10.224 
  2499.000 -23.280  7.3130  7.8660  10.525 -11.548  7.3130  7.8660  10.525 
  2499.500 -21.924  7.2850  8.1250  10.704 -10.192  7.2850  8.1250  10.704 
  2500.000 -20.998  6.3390  8.2480  10.646 -9.2665  6.3390  8.2480  10.646 
  2500.500 -20.277  5.9360  5.9940  10.135 -8.5458  5.9360  5.9940  10.135 
  2501.000 -19.556  5.7700  5.7490  9.1440 -7.8252  5.7700  5.7490  9.1440 
  2501.500 -18.907  5.5250  5.5690  7.6850 -7.1765  5.5250  5.5690  7.6850 
  2502.000 -19.832  5.3520  5.3520  6.3920 -8.1019  5.3520  5.3520  6.3920 
  2502.500 -19.826  5.2440  5.1790  6.0030 -8.0962  5.2440  5.1790  6.0030 
  2503.000 -19.570  5.1720  5.0210  5.7940 -7.8405  5.1720  5.0210  5.7940 
  2503.500 -19.314  5.0060  4.9340  5.9870 -7.5849  5.0060  4.9340  5.9870 
  2504.000 -19.810  4.9760  5.1630  6.2800 -8.0812  4.9760  5.1630  6.2800 
  2504.500 -20.449  4.9470  6.0600  6.4510 -8.7206  4.9470  6.0600  6.4510 
  2505.000 -20.980  4.9100  6.4820  6.5220 -9.2519  4.9100  6.4820  6.5220 
  2505.500 -21.439  4.8160  6.6180  6.5780 -9.7113  4.8160  6.6180  6.5780 
  2506.000 -21.720  4.6140  6.7180  6.4090 -9.9926  4.6140  6.7180  6.4090 
  2506.500 -21.321  4.4850  6.7460  6.2390 -9.5939  4.4850  6.7460  6.2390 
  2507.000 -20.708  4.2970  6.3860  5.8210 -8.9813  4.2970  6.3860  5.8210 
  2507.500 -20.381  4.0880  6.2280  5.5260 -8.6546  4.0880  6.2280  5.5260 
  2508.000 -20.053  3.9300  6.0690  5.2730 -8.3270  3.9300  6.0690  5.2730 
  2508.500 -19.297  3.8000  5.8740  4.6340 -7.5713  3.8000  5.8740  4.6340 
  2509.000 -18.844  3.7270  5.6800  4.2590 -7.1187  3.7270  5.6800  4.2590 
  2509.500 -18.392  3.6690  5.5640  3.8780 -6.6670  3.6690  5.5640  3.8780 
  2510.000 -18.207  3.6400  5.4770  3.7040 -6.4823  3.6400  5.4770  3.7040 
  2510.500 -18.608  3.6120  5.4070  3.5600 -6.8837  3.6120  5.4070  3.5600 
  2511.000 -18.580  3.5910  5.3790  3.7460 -6.8560  3.5910  5.3790  3.7460 
  2511.500 -18.336  3.6360  5.3870  4.0610 -6.6124  3.6360  5.3870  4.0610 
  2512.000 -18.594  3.7010  5.7540  4.4980 -6.8707  3.7010  5.7540  4.4980 
  2512.500 -19.173  3.7600  6.1070  5.0500 -7.4501  3.7600  6.1070  5.0500 
  2513.000 -19.681  3.6890  6.3960  5.3510 -7.9584  3.6890  6.3960  5.3510 
  2513.500 -20.082  3.5540  6.6690  5.6230 -8.3597  3.5540  6.6690  5.6230 
  2514.000 -20.161  3.4540  6.8500  5.8520 -8.4391  3.4540  6.8500  5.8520 
  2514.500 -19.417  3.5270  6.9730  5.8510 -7.6954  3.5270  6.9730  5.8510 
  2515.000 -18.530  3.6140  6.9960  5.8510 -6.8088  3.6140  6.9960  5.8510 
  2515.500 -17.964  3.6730  6.7740  5.7490 -6.2431  3.6730  6.7740  5.7490 
  2516.000 -17.399  3.6450  6.3520  4.8510 -5.6785  3.6450  6.3520  4.8510 
  2516.500 -17.281  3.4810  6.0940  4.5710 -5.5608  3.4810  6.0940  4.5710 
  2517.000 -17.163  3.3320  5.4280  4.3830 -5.4431  3.3320  5.4280  4.3830 
  2517.500 -18.046  3.4040  4.9840  4.2680 -6.3265  3.4040  4.9840  4.2680 
  2518.000 -18.930  3.3770  4.6980  4.5110 -7.2108  3.3770  4.6980  4.5110 
  2518.500 -19.367  3.3710  4.4830  4.8410 -7.6482  3.3710  4.4830  4.8410 
  2519.000 -19.177  3.3650  4.3910  5.4000 -7.4585  3.3650  4.3910  5.4000 
  2519.500 -18.987  3.4450  4.1980  5.8510 -7.2688  3.4450  4.1980  5.8510 
  2520.000 -19.138  3.5030  4.2710  6.0440 -7.4202  3.5030  4.2710  6.0440 
  2520.500 -19.739  3.6390  4.3420  6.1020 -8.0215  3.6390  4.3420  6.1020 
  2521.000 -20.304  3.7310  4.3630  6.1490 -8.5869  3.7310  4.3630  6.1490 
  2521.500 -20.762  3.8240  4.3980  6.1950 -9.0452  3.8240  4.3980  6.1950 
  2522.000 -20.576  3.8950  4.4340  6.3460 -8.8596  3.8950  4.4340  6.3460 
  2522.500 -20.104  3.9660  4.4620  6.4970 -8.3879  3.9660  4.4620  6.4970 
  2523.000 -19.989  4.0010  4.7700  6.6330 -8.2732  4.0010  4.7700  6.6330 
  2523.500 -20.232  4.0370  5.1780  6.7980 -8.5166  4.0370  5.1780  6.7980 
  2524.000 -21.048  4.0500  5.4640  6.9990 -9.3329  4.0500  5.4640  6.9990 
  2524.500 -20.862  3.9780  5.6430  7.1280 -9.1473  3.9780  5.6430  7.1280 
  2525.000 -20.354  3.8050  5.8580  7.2150 -8.6396  3.8050  5.8580  7.2150 
  2525.500 -19.918  3.6890  5.8930  7.1360 -8.2040  3.6890  5.8930  7.1360 
  2526.000 -19.660  3.6020  5.7770  7.0640 -7.9463  3.6020  5.7770  7.0640 
  2526.500 -19.045  3.4940  5.5180  6.9490 -7.3316  3.4940  5.5180  6.9490 
  2527.000 -18.358  3.4290  5.2090  6.1230 -6.6450  3.4290  5.2090  6.1230 
  2527.500 -17.957  3.3780  4.7560  5.9800 -6.2443  3.3780  4.7560  5.9800 
  2528.000 -17.735  3.3120  4.3390  5.4490 -6.0227  3.3120  4.3390  5.4490 
  2528.500 -17.514  3.2610  3.9000  4.9320 -5.8020  3.2610  3.9000  4.9320 
  2529.000 -17.185  3.2460  3.6480  4.6520 -5.4734  3.2460  3.6480  4.6520 
  2529.500 -17.070  3.2530  3.5250  4.4800 -5.3587  3.2530  3.5250  4.4800 
  2530.000 -16.956  3.2810  3.4530  4.5870 -5.2450  3.2810  3.4530  4.5870 
  2530.500 -17.349  3.3660  3.4740  4.7660 -5.6384  3.3660  3.4740  4.7660 
  2531.000 -17.760  3.4240  3.7970  4.8870 -6.0497  3.4240  3.7970  4.8870 
  2531.500 -18.171  3.5310  4.0480  4.9910 -6.4611  3.5310  4.0480  4.9910 
  2532.000 -19.138  3.6380  4.2480  5.0940 -7.4284  3.6380  4.2480  5.0940 
  2532.500 -19.746  3.7310  4.3770  5.2690 -8.0368  3.7310  4.3770  5.2690 
  2533.000 -20.175  3.8240  4.4700  5.4440 -8.4661  3.8240  4.4700  5.4440 
  2533.500 -20.425  3.8960  4.6130  5.7450 -8.7164  3.8960  4.6130  5.7450 
