~Version Information
VERS.                     2.0: CWLS log ASCII Standard Version 2.00
WRAP.                      NO: One line per depth step
~Well Information Block
#MNEM.UNIT                               Data Type  Information
#---------                               ---------  -----------
STRT.FT                                   520.0000:
STOP.FT                                 10322.0000:
STEP.FT                                     0.5000:
NULL.                 -999.25                     :
COMP.                                             :COMPANY            
WELL.     CCMO 85-20                              :WELL               
FLD .                                             :FIELD              
CTRY.                                             :COUNTRY            
STAT.                                             :STATE              
LOC .                                             :LOCATION           
UWI .                                             :UNIQUE WELL ID     
SRVC.                                             :Service company    
DATE.                                             :LOG DATE           
~Curve Information
#MNEM.UNIT           API CODE  Curve Description
#---------           --------  -----------------
DEPT.FT                      :   1 DEPTH
SP  .MV                      :   2
AM16.OHMM                    :   3
AO10.OHMM                    :   4
AO19.OHMM                    :   5
SBL .MV                      :   6
RS  .OHMM                    :   7
RM  .OHMM                    :   8
RD  .OHMM                    :   9
~A
# ...
 10272.000 -15.634  5.1110  3.9640  3.2630 -3.6340  5.1110  3.9640  3.2630 
 10272.500 -14.958  5.5910  4.2720  3.1690 -2.9580  5.5910  4.2720  3.1690 
 10273.000 -14.426  5.8350  4.4650  3.1980 -2.4260  5.8350  4.4650  3.1980 
 10273.500 -14.199  5.9270  4.6150  3.2120 -2.1990  5.9270  4.6150  3.2120 
 10274.000 -13.972  5.9200  4.5790  3.2260 -1.9720  5.9200  4.5790  3.2260 
 10274.500 -14.160  5.9020  4.4780  3.2480 -2.1600  5.9020  4.4780  3.2480 
 10275.000 -14.599  5.7830  4.4130  3.2840 -2.5990  5.7830  4.4130  3.2840 
 10275.500 -15.109  5.6030  4.5350  3.3060 -3.1090  5.6030  4.5350  3.3060 
 10276.000 -15.584  5.3590  4.6140  3.3130 -3.5840  5.3590  4.6140  3.3130 
 10276.500 -16.131  4.9790  4.6920  3.3200 -4.1310  4.9790  4.6920  3.3200 
 10277.000 -16.317  4.9000  4.7420  3.1260 -4.3170  4.9000  4.7420  3.1260 
 10277.500 -16.001  4.8350  4.7920  2.9760 -4.0010  4.8350  4.7920  2.9760 
 10278.000 -15.757  4.7840  4.7700  2.8610 -3.7570  4.7840  4.7700  2.8610 
 10278.500 -15.944  4.7260  4.7190  2.7610 -3.9440  4.7260  4.7190  2.7610 
 10279.000 -16.059  4.6760  4.7260  2.7680 -4.0590  4.6760  4.7260  2.7680 
 10279.500 -15.563  4.6250  4.9410  2.8320 -3.5630  4.6250  4.9410  2.8320 
 10280.000 -15.138  4.5890  5.2060  2.9260 -3.1380  4.5890  5.2060  2.9260 
 10280.500 -15.608  4.6600  5.2410  3.1060 -3.6080  4.6600  5.2410  3.1060 
 10281.000 -15.897  4.7810  5.1110  3.5590 -3.8970  4.7810  5.1110  3.5590 
 10281.500 -16.078  4.8380  4.9460  3.9840 -4.0780  4.8380  4.9460  3.9840 
 10282.000 -15.829  4.9160  4.8370  4.0790 -3.8290  4.9160  4.8370  4.0790 
 10282.500 -15.615  4.9160  4.8510  4.1880 -3.6150  4.9160  4.8510  4.1880 
 10283.000 -15.329  4.8790  4.8860  4.2610 -3.3290  4.8790  4.8860  4.2610 
 10283.500 -15.115  4.8920  4.9070  4.2760 -3.1150  4.8920  4.9070  4.2760 
 10284.000 -14.721  4.9710  4.9240  4.2060 -2.7210  4.9710  4.9240  4.2060 
 10284.500 -14.507  5.0060  4.9410  4.1220 -2.5070  5.0060  4.9410  4.1220 
 10285.000 -14.293  5.0270  4.9690  4.1230 -2.2930  5.0270  4.9690  4.1230 
 10285.500 -14.475  5.0260  4.9900  4.3680 -2.4750  5.0260  4.9900  4.3680 
 10286.000 -14.656  5.0040  4.9750  4.4410 -2.6560  5.0040  4.9750  4.4410 
 10286.500 -15.018  4.9810  4.8880  4.4640 -3.0180  4.9810  4.8880  4.4640 
 10287.000 -15.307  4.9660  4.8230  4.4870 -3.3070  4.9660  4.8230  4.4870 
 10287.500 -15.561  4.9730  4.7570  4.7110 -3.5610  4.9730  4.7570  4.7110 
 10288.000 -15.562  4.9860  4.6210  4.8630 -3.5620  4.9860  4.6210  4.8630 
 10288.500 -15.276  5.0360  4.5410  5.0220 -3.2760  5.0360  4.5410  5.0220 
 10289.000 -14.955  5.1430  4.4900  5.0810 -2.9550  5.1430  4.4900  5.0810 
 10289.500 -14.597  5.2070  4.4610  5.1540 -2.5970  5.2070  4.4610  5.1540 
 10290.000 -14.311  5.3130  4.4900  5.1840 -2.3110  5.3130  4.4900  5.1840 
 10290.500 -14.636  5.4870  4.5190  5.1510 -2.6360  5.4870  4.5190  5.1510 
 10291.000 -15.034  5.5670  4.6130  5.1470 -3.0340  5.5670  4.6130  5.1470 
 10291.500 -15.143  5.6260  4.6650  5.1790 -3.1430  5.6260  4.6650  5.1790 
 10292.000 -15.001  5.6630  4.7170  5.2530 -3.0010  5.6630  4.7170  5.2530 
 10292.500 -14.715  5.6360  4.7610  5.3210 -2.7150  5.6360  4.7610  5.3210 
 10293.000 -14.753  5.5300  4.7910  5.3020 -2.7530  5.5300  4.7910  5.3020 
 10293.500 -14.755  5.4020  4.7430  5.1400 -2.7550  5.4020  4.7430  5.1400 
 10294.000 -15.009  5.2960  4.6440  5.0060 -3.0090  5.2960  4.6440  5.0060 
 10294.500 -15.154  5.1970  4.5950  4.7800 -3.1540  5.1970  4.5950  4.7800 
 10295.000 -15.372  5.1340  4.5030  4.6540 -3.3720  5.1340  4.5030  4.6540 
 10295.500 -15.373  5.1000  4.4540  4.6060 -3.3730  5.1000  4.4540  4.6060 
 10296.000 -14.656  5.1660  4.4130  4.5520 -2.6560  5.1660  4.4130  4.5520 
 10296.500 -14.083  5.3180  4.3850  4.4970 -2.0830  5.3180  4.3850  4.4970 
 10297.000 -14.624  5.4630  4.4370  4.5500 -2.6240  5.4630  4.4370  4.5500 
 10297.500 -15.165  5.5860  4.5820  4.9120 -3.1650  5.5860  4.5820  4.9120 
 10298.000 -15.670  5.7240  4.9420  5.0800 -3.6700  5.7240  4.9420  5.0800 
 10298.500 -15.924  5.8110  5.3160  5.2040 -3.9240  5.8110  5.3160  5.2040 
 10299.000 -15.997  5.8480  5.4180  5.3080 -3.9970  5.8480  5.4180  5.3080 
 10299.500 -15.747  5.8850  5.4480  5.4110 -3.7470  5.8850  5.4480  5.4110 
 10300.000 -15.030  5.5930  5.3640  5.3420 -3.0300  5.5930  5.3640  5.3420 
 10300.500 -15.226  5.4300  5.2790  4.8760 -3.2260  5.4300  5.2790  4.8760 
 10301.000 -15.421  5.2170  5.2090  4.7320 -3.4210  5.2170  5.2090  4.7320 
 10301.500 -16.463  5.0820  5.1470  4.5810 -4.4630  5.0820  5.1470  4.5810 
 10302.000 -16.713  5.0620  5.1200  4.5020 -4.7130  5.0620  5.1200  4.5020 
 10302.500 -16.136  5.1650  5.1570  4.7310 -4.1360  5.1650  5.1570  4.7310 
 10303.000 -15.487  5.2130  5.1950  4.8450 -3.4870  5.2130  5.1950  4.8450 
 10303.500 -15.017  5.2610  5.1540  4.8450 -3.0170  5.2610  5.1540  4.8450 
 10304.000 -16.166  5.1560  5.0980  4.8440 -4.1660  5.1560  5.0980  4.8440 
 10304.500 -16.704  5.1000  5.0210  4.6720 -4.7040  5.1000  5.0210  4.6720 
 10305.000 -16.702  5.0480  4.9620  4.4130 -4.7020  5.0480  4.9620  4.4130 
 10305.500 -15.802  4.9960  4.9020  4.2190 -3.8020  4.9960  4.9020  4.2190 
 10306.000 -14.829  4.8330  4.5600  4.1040 -2.8290  4.8330  4.5600  4.1040 
 10306.500 -14.288  4.7560  4.3470  3.9960 -2.2880  4.7560  4.3470  3.9960 
 10307.000 -14.682  4.7220  4.2340  3.9460 -2.6820  4.7220  4.2340  3.9460 
 10307.500 -14.896  4.8960  4.1280  3.8670 -2.8960  4.8960  4.1280  3.8670 
 10308.000 -15.145  5.1700  4.0370  4.2250 -3.1450  5.1700  4.0370  4.2250 
 10308.500 -15.539  5.4940  3.9890  4.7340 -3.5390  5.4940  3.9890  4.7340 
 10309.000 -15.897  5.8980  5.4750  5.1780 -3.8970  5.8980  5.4750  5.1780 
 10309.500 -16.254  6.1930  6.0070  6.5680 -4.2540  6.1930  6.0070  6.5680 
 10310.000 -16.864  6.4610  6.4960  6.9050 -4.8640  6.4610  6.4960  6.9050 
 10310.500 -19.607  6.6760  6.7620  7.1840 -7.6070  6.6760  6.7620  7.1840 
 10311.000 -23.681  6.8700  7.0130  7.4350 -11.681  6.8700  7.0130  7.4350 
 10311.500 -25.202  7.0070  7.1720  7.6070 -13.202  7.0070  7.1720  7.6070 
 10312.000 -26.400  6.5840  7.2650  7.7000 -14.400  6.5840  7.2650  7.7000 
 10312.500 -25.440  6.1040  7.3800  7.5990 -13.440  6.1040  7.3800  7.5990 
 10313.000 -20.309  5.4660  7.4160  7.3120 -8.3090  5.4660  7.4160  7.3120 
 10313.500 -17.946  4.9790  7.1660  6.6300 -5.9460  4.9790  7.1660  6.6300 
 10314.000 -16.483  4.5560  5.4670  4.9450 -4.4830  4.5560  5.4670  4.9450 
 10314.500 -15.379  4.4060  4.7290  4.0770 -3.3790  4.4060  4.7290  4.0770 
 10315.000 -15.210  4.3420  3.9330  3.3740 -3.2100  4.3420  3.9330  3.3740 
 10315.500 -15.400  4.4930  3.5610  3.2160 -3.4000  4.4930  3.5610  3.2160 
 10316.000 -15.267  4.6940  3.2810  3.1080 -3.2670  4.6940  3.2810  3.1080 
 10316.500 -15.134  4.8160  3.1740  3.1360 -3.1340  4.8160  3.1740  3.1360 
 10317.000 -14.929  4.9740  3.3460  3.4870 -2.9290  4.9740  3.3460  3.4870 
 10317.500 -15.552  5.0750  3.5190  3.6660 -3.5520  5.0750  3.5190  3.6660 
 10318.000 -16.569  5.1760  3.6630  3.8810 -4.5690  5.1760  3.6630  3.8810 
 10318.500 -17.443  5.2480  3.8420  4.0380 -5.4430  5.2480  3.8420  4.0380 
 10319.000 -18.317  5.2270  4.0150  4.2030 -6.3170  5.2270  4.0150  4.2030 
 10319.500 -18.687  5.1410  4.2020  4.3460 -6.6870  5.1410  4.2020  4.3460 
 10320.000 -17.979  5.1700  4.4310  4.4240 -5.9790  5.1700  4.4310  4.4240 
 10320.500 -16.426  5.2940  4.6770  4.4320 -4.4260  5.2940  4.6770  4.4320 
 10321.000 -15.555  5.3810  4.8580  4.2810 -3.5550  5.3810  4.8580  4.2810 
 10321.500 -15.116  5.5330  4.9740  3.8730 -3.1160  5.5330  4.9740  3.8730 
 10322.000 -14.498  5.6350  5.0330  3.7160 -2.4980  5.6350  5.0330  3.7160 
