~Version Information
VERS.                     2.0: CWLS log ASCII Standard Version 2.00
WRAP.                      NO: One line per depth step
~Well Information Block
#MNEM.UNIT                               Data Type  Information
#---------                               ---------  -----------
STRT.FT                                   520.0000:
STOP.FT                                 10322.0000:
STEP.FT                                     0.5000:
NULL.                 -999.25                     :
COMP.                                             :COMPANY            
WELL.     CCMO 85-20                              :WELL               
FLD .                                             :FIELD              
CTRY.                                             :COUNTRY            
STAT.                                             :STATE              
LOC .                                             :LOCATION           
UWI .                                             :UNIQUE WELL ID     
SRVC.                                             :Service company    
DATE.                                             :LOG DATE           
~Curve Information
#MNEM.UNIT           API CODE  Curve Description
#---------           --------  -----------------
DEPT.FT                      :   1 DEPTH
SP  .MV                      :   2
AM16.OHMM                    :   3
AO10.OHMM                    :   4
AO19.OHMM                    :   5
SBL .MV                      :   6
RS  .OHMM                    :   7
RM  .OHMM                    :   8
RD  .OHMM                    :   9
~A
   520.000 -999.25  24.481  0.1080  0.1860 -999.25  24.481  0.1080  0.1860 
   520.500 -999.25  25.766  0.1140  0.1940 -999.25  25.766  0.1140  0.1940 
   521.000  5.3770  26.836  0.1130  0.2010  25.377  26.836  0.1130  0.2010 
   521.500  1.0920  28.048  0.1340  0.2010  21.092  28.048  0.1340  0.2010 
   522.000 -0.8890  28.545  0.1550  0.2080  19.111  28.545  0.1550  0.2080 
   522.500 -2.9070  29.399  0.1760  0.2080  17.093  29.399  0.1760  0.2080 
   523.000 -4.8520  29.895  0.2180  0.2080  15.148  29.895  0.2180  0.2080 
   523.500 -6.4010  30.462  0.2610  0.2080  13.599  30.462  0.2610  0.2080 
   524.000 -7.9510  30.884  0.0880  0.2160  12.049  30.884  0.0880  0.2160 
   524.500 -9.5010  31.093  0.0290  0.2230  10.499  31.093  0.0290  0.2230 
   525.000 -11.230  31.445  0.0720  0.2260  8.7700  31.445  0.0720  0.2260 
   525.500 -12.995  31.654  3.9340  0.2300  7.0050  31.654  3.9340  0.2300 
   526.000 -14.257  31.791  5.9000  0.2010  5.7430  31.791  5.9000  0.2010 
   526.500 -15.410  31.929  11.584  0.1860  4.5900  31.929  11.584  0.1860 
   527.000 -15.952  32.066  17.268  0.1790  4.0480  32.066  17.268  0.1790 
   527.500 -16.674  32.202  22.951  0.1760  3.3260  32.202  22.951  0.1760 
   528.000 -17.107  32.407  28.635  0.1730  2.8930  32.407  28.635  0.1730 
   528.500 -18.153  32.471  34.319  0.1620  1.8470  32.471  34.319  0.1620 
   529.000 -19.235  32.537  40.003  0.1510  0.7650  32.537  40.003  0.1510 
   529.500 -20.244  32.603  42.724  0.1220 -0.2440  32.603  42.724  0.1220 
   530.000 -21.398  32.598  45.948  0.1150 -1.3980  32.598  45.948  0.1150 
   530.500 -22.263  32.593  47.882  0.1140 -2.2630  32.593  47.882  0.1140 
   531.000 -23.237  32.372  49.530  0.1060 -3.2370  32.372  49.530  0.1060 
   531.500 -24.355  32.080  53.691  0.1050 -4.3550  32.080  53.691  0.1050 
   532.000 -25.400  31.645  57.061  0.0900 -5.4000  31.645  57.061  0.0900 
   532.500 -26.230  30.852  59.355  0.0900 -6.2300  30.852  59.355  0.0900 
   533.000 -26.772  30.060  61.577  0.0820 -6.7720  30.060  61.577  0.0820 
   533.500 -27.349  29.195  63.224  0.0810 -7.3490  29.195  63.224  0.0810 
   534.000 -28.035  27.897  64.513  0.2380 -8.0350  27.897  64.513  0.2380 
   534.500 -28.541  27.032  65.587  0.7830 -8.5410  27.032  65.587  0.7830 
   535.000 -29.371  26.312  66.804  3.9130 -9.3710  26.312  66.804  3.9130 
   535.500 -29.984  25.447  67.804  7.4160 -9.9840  25.447  67.804  7.4160 
   536.000 -30.346  24.581  68.017  13.813 -10.346  24.581  68.017  13.813 
   536.500 -30.617  23.931  65.716  20.211 -10.617  23.931  65.716  20.211 
   537.000 -30.888  23.569  62.410  26.609 -10.888  23.569  62.410  26.609 
   537.500 -31.611  23.279  59.535  44.763 -11.611  23.279  59.535  44.763 
   538.000 -32.117  23.203  57.162  48.633 -12.117  23.203  57.162  48.633 
   538.500 -32.587  23.270  55.436  52.503 -12.587  23.270  55.436  52.503 
   539.000 -32.948  23.483  53.852  61.397 -12.948  23.483  53.852  61.397 
   539.500 -33.598  23.264  54.495  64.765 -13.598  23.264  54.495  64.765 
   540.000 -34.319  22.615  58.439  68.922 -14.319  22.615  58.439  68.922 
   540.500 -35.109  22.028  61.032  71.068 -15.109  22.028  61.032  71.068 
   541.000 -36.115  21.442  62.905  73.502 -16.115  21.442  62.905  73.502 
   541.500 -36.941  20.855  62.840  75.075 -16.941  20.855  62.840  75.075 
   542.000 -36.472  20.269  61.915  75.283 -16.472  20.269  61.915  75.283 
   542.500 -36.254  19.682  59.912  72.690 -16.254  19.682  59.912  72.690 
   543.000 -35.892  18.936  54.390  70.242 -15.892  18.936  54.390  70.242 
   543.500 -35.710  18.650  51.239  69.518 -15.710  18.650  51.239  69.518 
   544.000 -35.528  18.270  50.241  68.362 -15.528  18.270  50.241  68.362 
   544.500 -35.095  17.309  49.027  66.990 -15.095  17.309  49.027  66.990 
   545.000 -35.309  16.046  47.239  64.038 -15.309  16.046  47.239  64.038 
   545.500 -35.811  15.601  45.022  61.160 -15.811  15.601  45.022  61.160 
   546.000 -35.701  14.949  42.301  57.062 -15.701  14.949  42.301  57.062 
   546.500 -35.196  14.619  39.793  52.244 -15.196  14.619  39.793  52.244 
   547.000 -34.942  14.491  37.361  47.929 -14.942  14.491  37.361  47.929 
   547.500 -35.300  14.492  30.333  44.117 -15.300  14.492  30.333  44.117 
   548.000 -34.974  14.822  27.324  40.018 -14.974  14.822  27.324  40.018 
   548.500 -34.684  15.125  23.885  37.927 -14.684  15.125  23.885  37.927 
   549.000 -34.394  15.477  21.953  37.059 -14.394  15.477  21.953  37.059 
   549.500 -33.962  15.693  21.674  37.266 -13.962  15.693  21.674  37.266 
   550.000 -33.962  15.852  22.615  38.264 -13.962  15.852  22.615  38.264 
   550.500 -33.962  15.974  23.620  38.840 -13.962  15.974  23.620  38.840 
   551.000 -34.903  16.067  24.265  39.845 -14.903  16.067  24.265  39.845 
   551.500 -35.374  16.139  24.769  40.635 -15.374  16.139  24.769  40.635 
   552.000 -35.701  16.225  25.057  41.136 -15.701  16.225  25.057  41.136 
   552.500 -36.317  16.254  25.345  41.281 -16.317  16.254  25.345  41.281 
   553.000 -36.752  16.139  24.481  41.209 -16.752  16.139  24.481  41.209 
   553.500 -36.720  15.996  23.690  40.420 -16.720  15.996  23.690  40.420 
   554.000 -36.687  15.888  23.333  39.702 -16.687  15.888  23.333  39.702 
   554.500 -36.403  15.996  22.902  39.055 -16.403  15.996  22.902  39.055 
   555.000 -36.407  16.146  22.542  38.409 -16.407  16.146  22.542  38.409 
   555.500 -36.015  16.433  22.254  37.476 -16.015  16.433  22.254  37.476 
   556.000 -35.803  16.548  21.896  36.901 -15.803  16.548  21.896  36.901 
   556.500 -35.626  16.785  21.178  36.543 -15.626  16.785  21.178  36.543 
   557.000 -35.378  16.893  20.820  37.044 -15.378  16.893  20.820  37.044 
   557.500 -35.057  17.058  20.604  38.479 -15.057  17.058  20.604  38.479 
   558.000 -34.809  17.144  21.178  39.271 -14.809  17.144  21.178  39.271 
   558.500 -34.992  17.180  21.967  40.061 -14.992  17.180  21.967  40.061 
   559.000 -35.176  17.123  22.256  40.563 -15.176  17.123  22.256  40.563 
   559.500 -35.072  16.922  22.615  40.779 -15.072  16.922  22.615  40.779 
   560.000 -35.147  16.735  23.475  39.846 -15.147  16.735  23.475  39.846 
   560.500 -35.217  16.498  24.046  37.189 -15.217  16.498  24.046  37.189 
   561.000 -35.576  16.253  24.187  36.254 -15.576  16.253  24.187  36.254 
   561.500 -36.078  16.059  23.393  35.752 -16.078  16.059  23.393  35.752 
   562.000 -36.616  15.815  22.598  35.321 -16.616  15.815  22.598  35.321 
   562.500 -37.118  15.836  22.381  34.892 -17.118  15.836  22.381  34.892 
   563.000 -37.656  15.778  22.091  34.498 -17.656  15.778  22.091  34.498 
   563.500 -38.194  15.634  21.799  34.104 -18.194  15.634  21.799  34.104 
   564.000 -38.588  15.555  21.508  33.312 -18.588  15.555  21.508  33.312 
   564.500 -38.154  15.432  21.290  32.666 -18.154  15.432  21.290  32.666 
   565.000 -37.721  15.339  21.215  31.803 -17.721  15.339  21.215  31.803 
   565.500 -37.467  15.274  21.210  31.158 -17.467  15.274  21.210  31.158 
   566.000 -37.285  15.417  21.207  30.082 -17.285  15.417  21.207  30.082 
   566.500 -37.103  15.567  20.988  29.363 -17.103  15.567  20.988  29.363 
   567.000 -37.426  15.833  20.840  29.148 -17.426  15.833  20.840  29.148 
   567.500 -37.676  16.033  20.837  30.008 -17.676  16.033  20.837  30.008 
   568.000 -37.926  16.112  21.120  30.439 -17.926  16.112  21.120  30.439 
   568.500 -38.212  16.191  21.333  30.871 -18.212  16.191  21.333  30.871 
   569.000 -38.390  16.255  21.975  31.087 -18.390  16.255  21.975  31.087 
   569.500 -38.641  16.104  22.439  31.517 -18.641  16.104  22.439  31.517 
   570.000 -38.783  15.945  22.904  31.876 -18.783  15.945  22.904  31.876 
   570.500 -38.926  15.817  23.410  31.873 -18.926  15.817  23.410  31.873 
   571.000 -38.998  15.710  22.556  31.366 -18.998  15.710  22.556  31.366 
   571.500 -38.710  15.546  22.206  30.932 -18.710  15.546  22.206  30.932 
   572.000 -38.386  15.417  21.880  30.353 -18.386  15.417  21.880  30.353 
   572.500 -37.883  15.339  21.555  29.560 -17.883  15.339  21.555  29.560 
