~Version Information
VERS.                     2.0: CWLS log ASCII Standard Version 2.00
WRAP.                      NO: One line per depth step
~Well Information Block
#MNEM.UNIT                               Data Type  Information
#---------                               ---------  -----------
STRT.FT                                   520.0000:
STOP.FT                                 10322.0000:
STEP.FT                                     0.5000:
NULL.                 -999.25                     :
COMP.                                             :COMPANY            
WELL.     CCMO 85-20                              :WELL               
FLD .                                             :FIELD              
CTRY.                                             :COUNTRY            
STAT.                                             :STATE              
LOC .                                             :LOCATION           
UWI .                                             :UNIQUE WELL ID     
SRVC.                                             :Service company    
DATE.                                             :LOG DATE           
~Curve Information
#MNEM.UNIT           API CODE  Curve Description
#---------           --------  -----------------
DEPT.FT                      :   1 DEPTH
SP  .MV                      :   2
AM16.OHMM                    :   3
AO10.OHMM                    :   4
AO19.OHMM                    :   5
SBL .MV                      :   6
RS  .OHMM                    :   7
RM  .OHMM                    :   8
RD  .OHMM                    :   9
~A
# ...
  7039.000 -38.109  6.2870  5.4690  3.2680 -26.957  6.2870  5.4690  3.2680 
  7039.500 -37.421  6.3230  5.4050  3.3480 -26.270  6.3230  5.4050  3.3480 
  7040.000 -37.126  6.4950  5.3120  3.5920 -25.975  6.4950  5.3120  3.5920 
  7040.500 -37.416  6.9330  5.2340  3.9520 -26.266  6.9330  5.2340  3.9520 
  7041.000 -38.205  7.4860  5.2810  4.4770 -27.056  7.4860  5.2810  4.4770 
  7041.500 -38.709  7.9740  5.3290  4.9880 -27.560  7.9740  5.3290  4.9880 
  7042.000 -39.106  8.4840  5.5020  5.4130 -27.958  8.4840  5.5020  5.4130 
  7042.500 -39.646  8.8290  5.5740  5.6800 -28.499  8.8290  5.5740  5.6800 
  7043.000 -39.900  9.0230  5.6110  5.8180 -28.753  9.0230  5.6110  5.8180 
  7043.500 -40.047  9.2170  5.6330  5.9340 -28.901  9.2170  5.6330  5.9340 
  7044.000 -40.158  9.4190  5.6190  5.9650 -29.013  9.4190  5.6190  5.9650 
  7044.500 -40.340  9.5200  5.5700  5.9920 -29.196  9.5200  5.5700  5.9920 
  7045.000 -40.451  9.6570  5.5200  6.0180 -29.307  9.6570  5.5200  6.0180 
  7045.500 -40.561  9.7290  5.4060  6.1130 -29.418  9.7290  5.4060  6.1130 
  7046.000 -40.637  9.7800  5.4140  6.2160 -29.495  9.7800  5.4140  6.2160 
  7046.500 -40.712  9.7660  5.6590  6.3250 -29.570  9.7660  5.6590  6.3250 
  7047.000 -39.929  9.6380  6.0820  6.3730 -28.788  9.6380  6.0820  6.3730 
  7047.500 -39.360  9.4310  6.3630  6.4220 -28.220  9.4310  6.3630  6.4220 
  7048.000 -38.327  9.1810  6.5640  6.5530 -27.187  9.1810  6.5640  6.5530 
  7048.500 -37.580  8.9450  6.7080  6.6330 -26.441  8.9450  6.7080  6.6330 
  7049.000 -37.244  8.4010  6.7880  6.6850 -26.106  8.4010  6.7880  6.6850 
  7049.500 -36.909  7.1250  6.8460  6.5080 -25.771  7.1250  6.8460  6.5080 
  7050.000 -36.158  6.9330  6.8750  6.2800 -25.021  6.9330  6.8750  6.2800 
  7050.500 -35.407  6.6810  6.7390  6.1000 -24.271  6.6810  6.7390  6.1000 
  7051.000 -34.223  6.4010  6.5810  5.8410 -23.087  6.4010  6.5810  5.8410 
  7051.500 -33.576  6.2500  6.4730  5.7120 -22.441  6.2500  6.4730  5.7120 
  7052.000 -33.287  6.1500  6.2360  5.5960 -22.153  6.1500  6.2360  5.5960 
  7052.500 -32.998  6.1060  6.1490  5.4160 -21.864  6.1060  6.1490  5.4160 
  7053.000 -32.099  6.2350  5.9980  5.2790 -20.966  6.2350  5.9980  5.2790 
  7053.500 -31.828  6.5290  5.9620  5.1280 -20.696  6.5290  5.9620  5.1280 
  7054.000 -31.557  6.6790  5.9260  5.1270 -20.425  6.6790  5.9260  5.1270 
  7054.500 -31.267  6.7860  5.9260  5.8790 -20.136  6.7860  5.9260  5.8790 
  7055.000 -32.228  6.9070  6.6920  6.1230 -21.098  6.9070  6.6920  6.1230 
  7055.500 -33.118  7.0000  7.0580  6.2510 -21.988  7.0000  7.0580  6.2510 
  7056.000 -33.723  7.1720  7.2510  6.3580 -22.594  7.1720  7.2510  6.3580 
  7056.500 -33.791  7.3440  7.3940  6.4430 -22.663  7.3440  7.3940  6.4430 
  7057.000 -32.249  7.4510  7.5440  6.5000 -21.121  7.4510  7.5440  6.5000 
  7057.500 -31.638  7.5940  7.6580  6.3270 -20.511  7.5940  7.6580  6.3270 
  7058.000 -30.974  7.8800  7.8370  6.2690 -19.848  7.8800  7.8370  6.2690 
  7058.500 -30.309  8.1880  8.0590  6.5050 -19.183  8.1880  8.0590  6.5050 
  7059.000 -29.197  8.4030  8.3030  6.9200 -18.072  8.4030  8.3030  6.9200 
  7059.500 -28.907  8.5320  8.5320  8.1880 -17.783  8.5320  8.5320  8.1880 
  7060.000 -29.475  8.6390  9.3840  8.8400 -18.351  8.6390  9.3840  8.8400 
  7060.500 -29.184  8.4380  9.8290  9.0410 -18.061  8.4380  9.8290  9.0410 
  7061.000 -28.178  7.6930  10.217  9.1790 -17.056  7.6930  10.217  9.1790 
  7061.500 -26.564  6.8480  10.360  9.2590 -15.442  6.8480  10.360  9.2590 
  7062.000 -24.163  5.5930  10.440  8.7860 -13.042  5.5930  10.440  8.7860 
  7062.500 -21.977  4.9200  9.8020  8.4220 -10.857  4.9200  9.8020  8.4220 
  7063.000 -19.791  4.5470  7.4150  7.7060 -8.6714  4.5470  7.4150  7.7060 
  7063.500 -18.391  4.3690  4.9920  5.1410 -7.2720  4.3690  4.9920  5.1410 
  7064.000 -17.706  4.2610  4.4480  4.3530 -6.5877  4.2610  4.4480  4.3530 
  7064.500 -17.237  4.2190  4.1830  4.1250 -6.1194  4.2190  4.1830  4.1250 
  7065.000 -16.910  4.2690  4.0180  4.0540 -5.7931  4.2690  4.0180  4.0540 
  7065.500 -16.725  4.4850  3.9830  4.3130 -5.6087  4.4850  3.9830  4.3130 
  7066.000 -16.756  4.6790  4.0550  4.5730 -5.6404  4.6790  4.0550  4.5730 
  7066.500 -17.108  4.7510  4.2850  4.7460 -5.9931  4.7510  4.2850  4.7460 
  7067.000 -18.747  4.8510  4.5650  4.8400 -7.6328  4.8510  4.5650  4.8400 
  7067.500 -19.457  4.9660  4.7080  5.0130 -8.3434  4.9660  4.7080  5.0130 
  7068.000 -20.560  5.0600  4.8520  5.1580 -9.4471  5.0600  4.8520  5.1580 
  7068.500 -21.877  5.0890  5.1250  5.2230 -10.765  5.0890  5.1250  5.2230 
  7069.000 -22.765  4.9250  5.2970  5.3030 -11.653  4.9250  5.2970  5.3030 
  7069.500 -23.332  4.8320  5.6490  5.3400 -12.221  4.8320  5.6490  5.3400 
  7070.000 -21.432  4.6600  5.9580  5.3410 -10.322  4.6600  5.9580  5.3410 
  7070.500 -20.323  4.5670  6.0440  5.2330 -9.2135  4.5670  6.0440  5.2330 
  7071.000 -19.609  4.5310  6.0870  5.1670 -8.5001  4.5310  6.0870  5.1670 
  7071.500 -18.929  4.5600  6.0790  5.0230 -7.8208  4.5600  6.0790  5.0230 
  7072.000 -18.393  4.6460  6.0360  4.9220 -7.2855  4.6460  6.0360  4.9220 
  7072.500 -18.179  4.7320  6.0150  4.9070 -7.0721  4.7320  6.0150  4.9070 
  7073.000 -20.180  4.8890  6.0010  5.2010 -9.0738  4.8890  6.0010  5.2010 
  7073.500 -22.254  4.9900  6.0080  5.2860 -11.148  4.9900  6.0080  5.2860 
  7074.000 -23.863  5.0830  6.0290  5.3640 -12.758  5.0830  6.0290  5.3640 
  7074.500 -24.721  5.0830  6.0290  5.4280 -13.617  5.0830  6.0290  5.4280 
  7075.000 -25.579  4.9680  5.8000  5.4770 -14.476  4.9680  5.8000  5.4770 
  7075.500 -24.792  4.9040  5.6130  5.4550 -13.689  4.9040  5.6130  5.4550 
  7076.000 -23.863  4.8110  5.4410  5.3110 -12.761  4.8110  5.4410  5.3110 
  7076.500 -23.470  4.8030  5.3120  5.2530 -12.369  4.8030  5.3120  5.2530 
  7077.000 -23.469  4.9750  5.1760  5.1730 -12.368  4.9750  5.1760  5.1730 
  7077.500 -23.612  5.1330  5.0970  5.2230 -12.512  5.1330  5.0970  5.2230 
  7078.000 -24.185  5.2340  5.1760  5.4300 -13.086  5.2340  5.1760  5.4300 
  7078.500 -25.579  5.2980  5.2480  5.6080 -14.480  5.2980  5.2480  5.6080 
  7079.000 -28.189  5.3840  5.3190  5.8370 -17.091  5.3840  5.3190  5.8370 
  7079.500 -30.333  5.4490  5.4410  6.0440 -19.236  5.4490  5.4410  6.0440 
  7080.000 -31.013  5.1760  5.5490  6.3730 -19.916  5.1760  5.5490  6.3730 
  7080.500 -27.513  4.9110  5.6130  6.5110 -16.417  4.9110  5.6130  6.5110 
  7081.000 -25.050  4.4380  5.6710  6.5490 -13.955  4.4380  5.6710  6.5490 
  7081.500 -23.659  4.2440  5.3980  6.4650 -12.564  4.2440  5.3980  6.4650 
  7082.000 -22.519  3.9720  5.1550  6.2660 -11.425  3.9720  5.1550  6.2660 
  7082.500 -21.521  3.8350  4.9180  5.4860 -10.428  3.8350  4.9180  5.4860 
  7083.000 -20.881  3.7420  4.3370  4.8860 -9.7883  3.7420  4.3370  4.8860 
  7083.500 -20.062  3.7140  4.0940  4.5860 -8.9699  3.7140  4.0940  4.5860 
  7084.000 -19.386  3.7350  3.9220  4.4380 -8.2946  3.7350  3.9220  4.4380 
  7084.500 -19.033  3.8000  3.8140  4.3680 -7.9423  3.8000  3.8140  4.3680 
  7085.000 -18.965  4.1150  3.7780  4.7350 -7.8749  4.1150  3.7780  4.7350 
  7085.500 -19.576  4.4880  3.8210  5.0310 -8.4866  4.4880  3.8210  5.0310 
  7086.000 -20.510  4.8180  4.1010  5.3480 -9.4213  4.8180  4.1010  5.3480 
  7086.500 -25.447  5.2760  4.4810  5.4860 -14.359  5.2760  4.4810  5.4860 
  7087.000 -27.845  5.5990  4.6810  5.5810 -16.758  5.5990  4.6810  5.5810 
  7087.500 -29.994  5.9580  4.9040  5.6760 -18.907  5.9580  4.9040  5.6760 
  7088.000 -31.785  6.2160  5.1050  5.7500 -20.699  6.2160  5.1050  5.7500 
  7088.500 -33.791  6.4020  5.2340  5.8230 -22.706  6.4020  5.2340  5.8230 
  7089.000 -35.295  6.5960  5.3120  5.8460 -24.210  6.5960  5.3120  5.8460 
  7089.500 -36.371  6.7530  5.3910  5.8770 -25.287  6.7530  5.3910  5.8770 
  7090.000 -36.912  7.0190  5.4630  5.8430 -25.829  7.0190  5.4630  5.8430 
  7090.500 -37.732  7.2640  5.5040  5.8140 -26.649  7.2640  5.5040  5.8140 
  7091.000 -38.123  7.4240  5.5450  5.7780 -27.041  7.4240  5.5450  5.7780 
  7091.500 -38.551  7.6260  5.6040  5.7490 -27.470  7.6260  5.6040  5.7490 
