~Version Information
VERS.                     2.0: CWLS log ASCII Standard Version 2.00
WRAP.                      NO: One line per depth step
~Well Information Block
#MNEM.UNIT                               Data Type  Information
#---------                               ---------  -----------
STRT.FT                                   520.0000:
STOP.FT                                 10322.0000:
STEP.FT                                     0.5000:
NULL.                 -999.25                     :
COMP.                                             :COMPANY            
WELL.     CCMO 85-20                              :WELL               
FLD .                                             :FIELD              
CTRY.                                             :COUNTRY            
STAT.                                             :STATE              
LOC .                                             :LOCATION           
UWI .                                             :UNIQUE WELL ID     
SRVC.                                             :Service company    
DATE.                                             :LOG DATE           
~Curve Information
#MNEM.UNIT           API CODE  Curve Description
#---------           --------  -----------------
DEPT.FT                      :   1 DEPTH
SP  .MV                      :   2
AM16.OHMM                    :   3
AO10.OHMM                    :   4
AO19.OHMM                    :   5
SBL .MV                      :   6
RS  .OHMM                    :   7
RM  .OHMM                    :   8
RD  .OHMM                    :   9
~A
# ...
  8947.000 -16.000  2.0340  2.7360  2.6030 -5.0284  2.0340  2.7360  2.6030 
  8947.500 -15.830  2.0330  2.7430  2.5740 -4.8580  2.0330  2.7430  2.5740 
  8948.000 -15.660  2.0390  2.7640  2.6250 -4.6875  2.0390  2.7640  2.6250 
  8948.500 -15.491  2.0390  2.7630  2.6680 -4.5180  2.0390  2.7630  2.6680 
  8949.000 -15.268  2.0450  2.7620  2.6860 -4.2946  2.0450  2.7620  2.6860 
  8949.500 -15.188  2.0730  2.7470  2.7040 -4.2141  2.0730  2.7470  2.7040 
  8950.000 -15.000  2.0870  2.7390  2.7250 -4.0257  2.0870  2.7390  2.7250 
  8950.500 -15.007  2.1020  2.7110  2.7320 -4.0322  2.1020  2.7110  2.7320 
  8951.000 -15.086  2.1170  2.6760  2.7320 -4.1107  2.1170  2.6760  2.7320 
  8951.500 -15.307  2.1460  2.6550  2.7180 -4.3313  2.1460  2.6550  2.7180 
  8952.000 -15.421  2.1830  2.6270  2.7180 -4.4448  2.1830  2.6270  2.7180 
  8952.500 -15.500  2.2190  2.5920  2.7180 -4.5233  2.2190  2.5920  2.7180 
  8953.000 -15.507  2.2490  2.5640  2.7610 -4.5299  2.2490  2.5640  2.7610 
  8953.500 -15.479  2.2850  2.5360  2.7460 -4.5014  2.2850  2.5360  2.7460 
  8954.000 -15.450  2.3290  2.5230  2.7390 -4.4720  2.3290  2.5230  2.7390 
  8954.500 -15.457  2.3510  2.5020  2.7250 -4.4785  2.3510  2.5020  2.7250 
  8955.000 -15.393  2.3740  2.4960  2.7180 -4.4140  2.3740  2.4960  2.7180 
  8955.500 -15.329  2.4320  2.5140  2.7110 -4.3496  2.4320  2.5140  2.7110 
  8956.000 -15.122  2.4470  2.5330  2.7040 -4.1421  2.4470  2.5330  2.7040 
  8956.500 -14.843  2.4830  2.5620  2.7680 -3.8626  2.4830  2.5620  2.7680 
  8957.000 -14.600  2.4980  2.5700  2.7900 -3.6192  2.4980  2.5700  2.7900 
  8957.500 -14.464  2.5060  2.5560  2.8110 -3.4827  2.5060  2.5560  2.8110 
  8958.000 -14.257  2.4850  2.5570  2.8250 -3.2753  2.4850  2.5570  2.8250 
  8958.500 -14.086  2.4790  2.5540  2.8250 -3.1038  2.4790  2.5540  2.8250 
  8959.000 -13.986  2.4510  2.5510  2.8110 -3.0033  2.4510  2.5510  2.8110 
  8959.500 -14.064  2.4230  2.5230  2.7680 -3.0809  2.4230  2.5230  2.7680 
  8960.000 -14.119  2.4020  2.5170  2.6890 -3.1354  2.4020  2.5170  2.6890 
  8960.500 -14.175  2.4020  2.5160  2.6540 -3.1909  2.4020  2.5160  2.6540 
  8961.000 -14.243  2.4010  2.5300  2.6540 -3.2585  2.4010  2.5300  2.6540 
  8961.500 -14.239  2.4000  2.5580  2.6610 -3.2540  2.4000  2.5580  2.6610 
  8962.000 -14.057  2.3990  2.5860  2.6760 -3.0716  2.3990  2.5860  2.6760 
  8962.500 -13.982  2.3840  2.6210  2.6910 -2.9961  2.3840  2.6210  2.6910 
  8963.000 -13.979  2.3760  2.6560  2.7060 -2.9926  2.3760  2.6560  2.7060 
  8963.500 -13.904  2.3610  2.6660  2.7200 -2.9172  2.3610  2.6660  2.7200 
  8964.000 -14.365  2.3610  2.6760  2.7060 -3.3777  2.3610  2.6760  2.7060 
  8964.500 -14.790  2.3600  2.6900  2.7000 -3.8022  2.3600  2.6900  2.7000 
  8965.000 -15.071  2.3630  2.6600  2.6570 -4.0828  2.3630  2.6600  2.6570 
  8965.500 -15.318  2.3660  2.6530  2.6290 -4.3293  2.3660  2.6530  2.6290 
  8966.000 -15.564  2.3760  2.6230  2.5720 -4.5749  2.3760  2.6230  2.5720 
  8966.500 -16.132  2.3860  2.6010  2.5070 -5.1424  2.3860  2.6010  2.5070 
  8967.000 -16.522  2.3850  2.5720  2.4720 -5.5319  2.3850  2.5720  2.4720 
  8967.500 -16.804  2.3920  2.5460  2.4080 -5.8135  2.3920  2.5460  2.4080 
  8968.000 -16.943  2.3980  2.5200  2.3720 -5.9520  2.3980  2.5200  2.3720 
  8968.500 -16.939  2.4260  2.4690  2.3650 -5.9476  2.4260  2.4690  2.3650 
  8969.000 -16.935  2.4320  2.4540  2.3590 -5.9431  2.4320  2.4540  2.3590 
  8969.500 -16.718  2.4320  2.4460  2.3520 -5.7256  2.4320  2.4460  2.3520 
  8970.000 -16.643  2.4170  2.4520  2.3450 -5.6502  2.4170  2.4520  2.3450 
  8970.500 -16.650  2.4020  2.4740  2.3470 -5.6567  2.4020  2.4740  2.3470 
  8971.000 -17.407  2.3870  2.5020  2.3500 -6.4132  2.3870  2.5020  2.3500 
  8971.500 -17.879  2.3650  2.5160  2.3700 -6.8848  2.3650  2.5160  2.3700 
  8972.000 -18.457  2.3360  2.5300  2.3870 -7.4623  2.3360  2.5300  2.3870 
  8972.500 -19.321  2.3000  2.5440  2.4040 -8.3259  2.3000  2.5440  2.4040 
  8973.000 -19.972  2.2710  2.5620  2.4250 -8.9764  2.2710  2.5620  2.4250 
  8973.500 -18.764  2.2670  2.5790  2.4590 -7.7679  2.2670  2.5790  2.4590 
  8974.000 -17.486  2.2630  2.6000  2.4940 -6.4895  2.2630  2.6000  2.4940 
  8974.500 -17.100  2.3130  2.6000  2.5220 -6.1030  2.3130  2.6000  2.5220 
  8975.000 -17.179  2.3410  2.6210  2.5130 -6.1815  2.3410  2.6210  2.5130 
  8975.500 -17.614  2.3840  2.6210  2.5120 -6.6161  2.3840  2.6210  2.5120 
  8976.000 -17.764  2.4050  2.6270  2.4680 -6.7656  2.4050  2.6270  2.4680 
  8976.500 -17.307  2.4260  2.6490  2.3810 -6.3082  2.4260  2.6490  2.3810 
  8977.000 -16.850  2.4470  2.6590  2.4160 -5.8507  2.4470  2.6590  2.4160 
  8977.500 -16.696  2.4610  2.6690  2.4650 -5.6962  2.4610  2.6690  2.4650 
  8978.000 -16.542  2.4830  2.6830  2.5030 -5.5418  2.4830  2.6830  2.5030 
  8978.500 -16.121  2.4970  2.6760  2.5420 -5.1203  2.4970  2.6760  2.5420 
  8979.000 -16.093  2.5030  2.6650  2.5910 -5.0918  2.5030  2.6650  2.5910 
  8979.500 -16.064  2.5100  2.6540  2.5750 -5.0624  2.5100  2.6540  2.5750 
  8980.000 -16.179  2.5170  2.6460  2.6030 -5.1769  2.5170  2.6460  2.6030 
  8980.500 -16.348  2.5180  2.6690  2.6760 -5.3455  2.5180  2.6690  2.6760 
  8981.000 -16.554  2.5190  2.7060  2.7130 -5.5510  2.5190  2.7060  2.7130 
  8981.500 -16.652  2.5200  2.7210  2.7350 -5.6485  2.5200  2.7210  2.7350 
  8982.000 -16.768  2.5140  2.7220  2.7580 -5.7641  2.5140  2.7220  2.7580 
  8982.500 -16.884  2.5080  2.7230  2.7660 -5.8796  2.5080  2.7230  2.7660 
  8983.000 -17.089  2.4880  2.7240  2.7530 -6.0841  2.4880  2.7240  2.7530 
  8983.500 -17.223  2.4670  2.6820  2.7470 -6.2177  2.4670  2.6820  2.7470 
  8984.000 -17.286  2.4470  2.6690  2.7550 -6.2802  2.4470  2.6690  2.7550 
  8984.500 -17.187  2.4480  2.6490  2.7490 -6.1808  2.4480  2.6490  2.7490 
  8985.000 -17.089  2.4490  2.6280  2.7210 -6.0823  2.4490  2.6280  2.7210 
  8985.500 -16.866  2.4500  2.6080  2.7080 -5.8588  2.4500  2.6080  2.7080 
  8986.000 -16.750  2.4470  2.5590  2.7240 -5.7424  2.4470  2.5590  2.7240 
  8986.500 -16.634  2.4450  2.5450  2.7600 -5.6259  2.4450  2.5450  2.7600 
  8987.000 -16.589  2.4320  2.5320  2.7760 -5.5804  2.4320  2.5320  2.7760 
  8987.500 -16.581  2.4260  2.5760  2.7770 -5.5720  2.4260  2.5760  2.7770 
  8988.000 -16.714  2.4270  2.6060  2.7740 -5.7045  2.4270  2.6060  2.7740 
  8988.500 -16.848  2.4210  2.6320  2.7720 -5.8381  2.4210  2.6320  2.7720 
  8989.000 -17.125  2.3430  2.6580  2.7660 -6.1146  2.3430  2.6580  2.7660 
  8989.500 -17.259  2.3150  2.6950  2.7100 -6.2481  2.3150  2.6950  2.7100 
  8990.000 -17.393  2.2880  2.7030  2.6680 -6.3817  2.2880  2.7030  2.6680 
  8990.500 -17.536  2.2640  2.7010  2.6520 -6.5242  2.2640  2.7010  2.6520 
  8991.000 -17.822  2.2260  2.6990  2.6580 -6.8098  2.2260  2.6990  2.6580 
  8991.500 -17.964  2.2380  2.6720  2.6780 -6.9513  2.2380  2.6720  2.6780 
  8992.000 -18.250  2.2430  2.6450  2.5900 -7.2368  2.2430  2.6450  2.5900 
  8992.500 -18.429  2.2410  2.5850  2.5310 -7.4154  2.2410  2.5850  2.5310 
  8993.000 -18.464  2.2420  2.5470  2.4800 -7.4499  2.2420  2.5470  2.4800 
  8993.500 -18.036  2.2440  2.5020  2.4570 -7.0214  2.2440  2.5020  2.4570 
  8994.000 -17.607  2.2420  2.4850  2.4840 -6.5920  2.2420  2.4850  2.4840 
  8994.500 -17.464  2.2400  2.5230  2.5110 -6.4485  2.2400  2.5230  2.5110 
  8995.000 -17.286  2.2370  2.5600  2.5890 -6.2701  2.2370  2.5600  2.5890 
  8995.500 -17.036  2.2350  2.6650  2.6300 -6.0196  2.2350  2.6650  2.6300 
  8996.000 -16.964  2.2330  2.6850  2.6430 -5.9471  2.2330  2.6850  2.6430 
  8996.500 -16.946  2.2310  2.6900  2.6560 -5.9287  2.2310  2.6900  2.6560 
  8997.000 -16.928  2.2400  2.6880  2.6550 -5.9102  2.2400  2.6880  2.6550 
  8997.500 -16.893  2.2480  2.7000  2.6530 -5.8747  2.2480  2.7000  2.6530 
  8998.000 -16.928  2.2460  2.7050  2.6590 -5.9093  2.2460  2.7050  2.6590 
  8998.500 -16.964  2.2580  2.7210  2.6580 -5.9448  2.2580  2.7210  2.6580 
  8999.000 -17.000  2.2700  2.7370  2.6700 -5.9804  2.2700  2.7370  2.6700 
  8999.500 -17.054  2.2830  2.7630  2.7050 -6.0339  2.2830  2.7630  2.7050 
