~Version Information
VERS.                     2.0: CWLS log ASCII Standard Version 2.00
WRAP.                      NO: One line per depth step
~Well Information Block
#MNEM.UNIT                               Data Type  Information
#---------                               ---------  -----------
STRT.FT                                   520.0000:
STOP.FT                                 10322.0000:
STEP.FT                                     0.5000:
NULL.                 -999.25                     :
COMP.                                             :COMPANY            
WELL.     CCMO 85-20                              :WELL               
FLD .                                             :FIELD              
CTRY.                                             :COUNTRY            
STAT.                                             :STATE              
LOC .                                             :LOCATION           
UWI .                                             :UNIQUE WELL ID     
SRVC.                                             :Service company    
DATE.                                             :LOG DATE           
~Curve Information
#MNEM.UNIT           API CODE  Curve Description
#---------           --------  -----------------
DEPT.FT                      :   1 DEPTH
SP  .MV                      :   2
AM16.OHMM                    :   3
AO10.OHMM                    :   4
AO19.OHMM                    :   5
SBL .MV                      :   6
RS  .OHMM                    :   7
RM  .OHMM                    :   8
RD  .OHMM                    :   9
~A
# ...
  5078.000 -29.201  5.9990  7.7420  8.2170 -19.129  5.9990  7.7420  8.2170 
  5078.500 -28.240  5.8100  7.6250  8.1010 -18.167  5.8100  7.6250  8.1010 
  5079.000 -26.460  5.6430  6.6610  7.9210 -16.386  5.6430  6.6610  7.9210 
  5079.500 -25.785  5.4680  5.3610  7.4680 -15.710  5.4680  5.3610  7.4680 
  5080.000 -26.359  5.2870  5.2010  6.9230 -16.284  5.2870  5.2010  6.9230 
  5080.500 -27.293  5.1560  5.1340  5.8380 -17.217  5.1560  5.1340  5.8380 
  5081.000 -27.655  5.0040  5.0540  5.5850 -17.578  5.0040  5.0540  5.5850 
  5081.500 -26.875  4.9090  5.0300  5.4400 -16.797  4.9090  5.0300  5.4400 
  5082.000 -26.238  4.9140  5.0430  5.3310 -16.160  4.9140  5.0430  5.3310 
  5082.500 -26.065  5.1560  5.1130  5.3010 -15.986  5.1560  5.1130  5.3010 
  5083.000 -26.285  5.2690  5.2760  5.3280 -16.205  5.2690  5.2760  5.3280 
  5083.500 -26.932  5.4610  5.4180  5.7220 -16.852  5.4610  5.4180  5.7220 
  5084.000 -28.544  5.5780  5.5520  6.0430 -18.463  5.5780  5.5520  6.0430 
  5084.500 -31.370  5.6940  5.7370  6.2280 -21.288  5.6940  5.7370  6.2280 
  5085.000 -32.481  5.9070  5.9070  6.3910 -22.398  5.9070  5.9070  6.3910 
  5085.500 -33.701  6.0060  6.0200  6.4690 -23.618  6.0060  6.0200  6.4690 
  5086.000 -34.169  6.1260  6.1480  6.5540 -24.085  6.1260  6.1480  6.5540 
  5086.500 -34.567  6.2100  6.3750  6.6100 -24.482  6.2100  6.3750  6.6100 
  5087.000 -34.929  6.2520  6.4810  6.6660 -24.843  6.2520  6.4810  6.6660 
  5087.500 -35.221  6.2570  6.5870  6.7500 -25.135  6.2570  6.5870  6.7500 
  5088.000 -35.261  6.2550  6.7930  6.7200 -25.174  6.2550  6.7930  6.7200 
  5088.500 -35.303  6.2680  6.8920  6.6900 -25.215  6.2680  6.8920  6.6900 
  5089.000 -35.272  6.3020  7.0270  6.6240 -25.184  6.3020  7.0270  6.6240 
  5089.500 -35.100  6.3360  7.0750  6.4220 -25.011  6.3360  7.0750  6.4220 
  5090.000 -34.819  6.4350  7.0160  6.3200 -24.729  6.4350  7.0160  6.3200 
  5090.500 -34.323  6.5210  6.9150  6.4210 -24.232  6.5210  6.9150  6.4210 
  5091.000 -34.255  6.6430  6.8790  6.5360 -24.164  6.6430  6.8790  6.5360 
  5091.500 -34.259  6.7430  6.8220  6.6520 -24.167  6.7430  6.8220  6.6520 
  5092.000 -34.476  6.8870  6.8220  6.7600 -24.383  6.8870  6.8220  6.7600 
  5092.500 -34.801  6.9660  6.8650  6.8690 -24.708  6.9660  6.8650  6.8690 
  5093.000 -35.340  7.0090  6.9580  7.0630 -25.246  7.0090  6.9580  7.0630 
  5093.500 -35.629  6.8080  7.1160  7.1790 -25.534  6.8080  7.1160  7.1790 
  5094.000 -34.491  6.5490  7.2810  7.3230 -24.395  6.5490  7.2810  7.3230 
  5094.500 -33.316  6.1760  7.4960  7.4170 -23.220  6.1760  7.4960  7.4170 
  5095.000 -31.178  5.6170  7.5900  7.4890 -21.081  5.6170  7.5900  7.4890 
  5095.500 -28.897  5.2010  7.6610  7.4400 -18.799  5.2010  7.6610  7.4400 
  5096.000 -26.046  4.7920  7.6540  7.1610 -15.947  4.7920  7.6540  7.1610 
  5096.500 -23.122  4.4120  7.0160  7.0110 -13.023  4.4120  7.0160  7.0110 
  5097.000 -21.698  4.2180  6.4560  6.6810 -11.598  4.2180  6.4560  6.6810 
  5097.500 -20.524  4.0530  5.2440  6.0510 -10.423  4.0530  5.2440  6.0510 
  5098.000 -19.849  3.9310  4.9430  5.3770 -9.7476  3.9310  4.9430  5.3770 
  5098.500 -19.139  3.8310  4.6560  5.0260 -9.0368  3.8310  4.6560  5.0260 
  5099.000 -18.714  3.7950  4.5270  4.8190 -8.6111  3.7950  4.5270  4.8190 
  5099.500 -18.789  3.8090  4.6700  4.7480 -8.6854  3.8090  4.6700  4.7480 
  5100.000 -18.900  3.7800  4.7990  4.9500 -8.7957  3.7800  4.7990  4.9500 
  5100.500 -18.901  3.7350  4.8690  5.0900 -8.7959  3.7350  4.8690  5.0900 
  5101.000 -18.761  3.6540  4.9170  5.1660 -8.6552  3.6540  4.9170  5.1660 
  5101.500 -18.442  3.6090  4.9720  5.1480 -8.3355  3.6090  4.9720  5.1480 
  5102.000 -18.264  3.4990  4.9840  5.0550 -8.1568  3.4990  4.9840  5.0550 
  5102.500 -17.910  3.4250  4.9030  4.9630 -7.8020  3.4250  4.9030  4.9630 
  5103.000 -17.590  3.3660  4.8360  4.6430 -7.4813  3.3660  4.8360  4.6430 
  5103.500 -17.413  3.4140  4.7340  4.5400 -7.3036  3.4140  4.7340  4.5400 
  5104.000 -17.486  3.5840  4.6310  4.4430 -7.3759  3.5840  4.6310  4.4430 
  5104.500 -18.059  3.7680  4.5860  4.5910 -7.9481  3.7680  4.5860  4.5910 
  5105.000 -19.132  3.8880  4.6490  4.9750 -9.0204  3.8880  4.6490  4.9750 
  5105.500 -19.704  4.0290  4.9330  5.1580 -9.5917  4.0290  4.9330  5.1580 
  5106.000 -20.456  4.1780  5.0750  5.3630 -10.343  4.1780  5.0750  5.3630 
  5106.500 -21.529  4.3190  5.1940  5.5600 -11.415  4.3190  5.1940  5.5600 
  5107.000 -22.993  4.4530  5.3570  5.6720 -12.879  4.4530  5.3570  5.6720 
  5107.500 -24.102  4.5440  5.4340  5.8550 -13.987  4.5440  5.4340  5.8550 
  5108.000 -25.531  4.6140  5.5250  6.0100 -15.415  4.6140  5.5250  6.0100 
  5108.500 -26.104  4.7120  5.5800  6.1290 -15.987  4.7120  5.5800  6.1290 
  5109.000 -26.927  4.7600  5.6360  6.2400 -16.810  4.7600  5.6360  6.2400 
  5109.500 -28.142  4.7370  5.6550  6.3300 -18.024  4.7370  5.6550  6.3300 
  5110.000 -29.358  4.7060  5.6460  6.3560 -19.239  4.7060  5.6460  6.3560 
  5110.500 -30.366  4.6550  5.6370  6.1900 -20.246  4.6550  5.6370  6.1900 
  5111.000 -26.877  4.6280  5.5500  6.0880 -16.757  4.6280  5.5500  6.0880 
  5111.500 -25.423  4.6020  5.2260  5.9580 -15.302  4.6020  5.2260  5.9580 
  5112.000 -23.826  4.5510  4.9310  5.8130 -13.704  4.5510  4.9310  5.8130 
  5112.500 -23.121  4.5280  4.6290  5.6260 -12.999  4.5280  4.6290  5.6260 
  5113.000 -23.558  4.5060  4.5420  5.5030 -13.435  4.5060  4.5420  5.5030 
  5113.500 -24.352  4.4760  4.4970  5.6160 -14.228  4.4760  4.4970  5.6160 
  5114.000 -25.575  4.5040  4.4820  5.7730 -15.450  4.5040  4.4820  5.7730 
  5114.500 -26.476  4.5460  4.4740  5.9010 -16.351  4.5460  4.4740  5.9010 
  5115.000 -25.271  4.5880  4.4870  6.0010 -15.145  4.5880  4.4870  6.0010 
  5115.500 -24.317  4.6800  4.5220  6.0930 -14.190  4.6800  4.5220  6.0930 
  5116.000 -25.432  4.7360  4.6280  6.1630 -15.304  4.7360  4.6280  6.1630 
  5116.500 -26.904  4.8210  4.7640  6.2130 -16.776  4.8210  4.7640  6.2130 
  5117.000 -27.841  4.8770  4.9420  6.3190 -17.712  4.8770  4.9420  6.3190 
  5117.500 -28.457  4.8190  5.0480  6.4540 -18.327  4.8190  5.0480  6.4540 
  5118.000 -25.610  4.6420  5.1690  6.4100 -15.480  4.6420  5.1690  6.4100 
  5118.500 -22.657  4.4650  5.2400  6.3020 -12.526  4.4650  5.2400  6.3020 
  5119.000 -21.202  4.1700  5.3110  6.1710 -11.070  4.1700  5.3110  6.1710 
  5119.500 -20.177  4.0400  5.3740  6.0560 -10.044  4.0400  5.3740  6.0560 
  5120.000 -19.686  3.8160  5.2370  5.4090 -9.5527  3.8160  5.2370  5.4090 
  5120.500 -19.328  3.6880  4.5270  4.7560 -9.1939  3.6880  4.5270  4.7560 
  5121.000 -18.864  3.5740  4.2340  4.3410 -8.7292  3.5740  4.2340  4.3410 
  5121.500 -18.525  3.4520  4.0480  4.1690 -8.3895  3.4520  4.0480  4.1690 
  5122.000 -18.185  3.3740  3.8770  3.9610 -8.0488  3.3740  3.8770  3.9610 
  5122.500 -17.792  3.2460  3.6910  3.8540 -7.6550  3.2460  3.6910  3.8540 
  5123.000 -17.399  3.1750  3.5980  3.7250 -7.2613  3.1750  3.5980  3.7250 
  5123.500 -17.008  3.1250  3.5920  3.6110 -6.8696  3.1250  3.5920  3.6110 
  5124.000 -16.829  3.0980  3.6280  3.6470 -6.6899  3.0980  3.6280  3.6470 
  5124.500 -16.722  3.0980  3.7300  3.7980 -6.5821  3.0980  3.7300  3.7980 
  5125.000 -16.580  3.1130  3.8880  3.9200 -6.4394  3.1130  3.8880  3.9200 
  5125.500 -16.525  3.1280  4.0540  3.9920 -6.3837  3.1280  4.0540  3.9920 
  5126.000 -16.471  3.1440  4.2340  4.1290 -6.3290  3.1440  4.2340  4.1290 
  5126.500 -16.401  3.1800  4.3560  4.2080 -6.2582  3.1800  4.3560  4.2080 
  5127.000 -16.401  3.2170  4.4500  4.2730 -6.2575  3.2170  4.4500  4.2730 
  5127.500 -16.509  3.2670  4.5010  4.2810 -6.3648  3.2670  4.5010  4.2810 
  5128.000 -16.508  3.2900  4.5020  4.1810 -6.3631  3.2900  4.5020  4.1810 
  5128.500 -16.507  3.3410  4.4960  4.1020 -6.3613  3.3410  4.4960  4.1020 
  5129.000 -16.508  3.4780  4.4100  4.0520 -6.3616  3.4780  4.4100  4.0520 
  5129.500 -16.508  3.5750  4.2820  4.1530 -6.3609  3.5750  4.2820  4.1530 
  5130.000 -16.651  3.6730  4.2250  4.3180 -6.5032  3.6730  4.2250  4.3180 
  5130.500 -16.831  3.8580  4.1880  4.5020 -6.6824  3.8580  4.1880  4.5020 
