~Version Information
VERS.                     2.0: CWLS log ASCII Standard Version 2.00
WRAP.                      NO: One line per depth step
~Well Information Block
#MNEM.UNIT                               Data Type  Information
#---------                               ---------  -----------
STRT.FT                                   520.0000:
STOP.FT                                 10322.0000:
STEP.FT                                     0.5000:
NULL.                 -999.25                     :
COMP.                                             :COMPANY            
WELL.     CCMO 85-20                              :WELL               
FLD .                                             :FIELD              
CTRY.                                             :COUNTRY            
STAT.                                             :STATE              
LOC .                                             :LOCATION           
UWI .                                             :UNIQUE WELL ID     
SRVC.                                             :Service company    
DATE.                                             :LOG DATE           
~Curve Information
#MNEM.UNIT           API CODE  Curve Description
#---------           --------  -----------------
DEPT.FT                      :   1 DEPTH
SP  .MV                      :   2
AM16.OHMM                    :   3
AO10.OHMM                    :   4
AO19.OHMM                    :   5
SBL .MV                      :   6
RS  .OHMM                    :   7
RM  .OHMM                    :   8
RD  .OHMM                    :   9
~A
# ...
  9636.000 -24.350  3.7300  2.6190  3.4580 -12.741  3.7300  2.6190  3.4580 
  9636.500 -24.740  3.8980  2.6930  3.4080 -13.131  3.8980  2.6930  3.4080 
  9637.000 -25.272  4.0080  2.7820  3.3590 -13.663  4.0080  2.7820  3.3590 
  9637.500 -25.679  4.0750  2.8410  3.3240 -14.069  4.0750  2.8410  3.3240 
  9638.000 -26.085  4.0560  2.8940  3.4180 -14.475  4.0560  2.8940  3.4180 
  9638.500 -26.761  3.9940  2.9470  3.4970 -15.150  3.9940  2.9470  3.4970 
  9639.000 -27.007  3.9390  3.0640  3.5340 -15.396  3.9390  3.0640  3.5340 
  9639.500 -27.146  4.0060  3.1170  3.5700 -15.534  4.0060  3.1170  3.5700 
  9640.000 -27.429  4.2090  3.0120  3.4850 -15.817  4.2090  3.0120  3.4850 
  9640.500 -27.652  4.2870  2.9030  3.3990 -16.039  4.2870  2.9030  3.3990 
  9641.000 -27.768  4.3790  2.7870  3.1770 -16.155  4.3790  2.7870  3.1770 
  9641.500 -27.884  4.4630  2.6920  3.0690 -16.270  4.4630  2.6920  3.0690 
  9642.000 -27.893  4.5260  2.8770  3.1410 -16.279  4.5260  2.8770  3.1410 
  9642.500 -27.902  4.5890  2.9510  3.5070 -16.287  4.5890  2.9510  3.5070 
  9643.000 -27.946  4.5880  3.0250  3.7220 -16.331  4.5880  3.0250  3.7220 
  9643.500 -29.134  4.3640  3.1670  3.8510 -17.519  4.3640  3.1670  3.8510 
  9644.000 -30.357  4.0330  3.2230  3.9440 -18.741  4.0330  3.2230  3.9440 
  9644.500 -30.866  3.8520  3.2790  3.8440 -19.250  3.8520  3.2790  3.8440 
  9645.000 -30.411  3.7930  3.0260  3.4920 -18.794  3.7930  3.0260  3.4920 
  9645.500 -29.741  3.6340  2.8530  3.2130 -18.124  3.6340  2.8530  3.2130 
  9646.000 -28.750  3.4250  2.5790  3.0260 -17.132  3.4250  2.5790  3.0260 
  9646.500 -28.652  3.3160  2.4190  2.8680 -17.034  3.3160  2.4190  2.8680 
  9647.000 -28.697  3.2930  2.3250  2.9400 -17.078  3.2930  2.3250  2.9400 
  9647.500 -28.598  3.3490  2.5390  3.0830 -16.979  3.3490  2.5390  3.0830 
  9648.000 -28.393  3.3900  2.6730  3.1770 -16.773  3.3900  2.6730  3.1770 
  9648.500 -28.152  3.4320  2.8730  3.3770 -16.532  3.4320  2.8730  3.3770 
  9649.000 -27.446  3.4590  2.9570  3.4780 -15.825  3.4590  2.9570  3.4780 
  9649.500 -26.598  3.4290  3.0710  3.8580 -14.977  3.4290  3.0710  3.8580 
  9650.000 -24.643  3.2840  3.1700  4.0590 -13.022  3.2840  3.1700  4.0590 
  9650.500 -24.157  3.1990  3.2850  4.1600 -12.535  3.1990  3.2850  4.1600 
  9651.000 -23.671  3.1490  3.3500  4.1030 -12.049  3.1490  3.3500  4.1030 
  9651.500 -23.204  3.2070  3.3710  3.9670 -11.581  3.2070  3.3710  3.9670 
  9652.000 -23.057  3.1850  3.2500  3.8590 -11.434  3.1850  3.2500  3.8590 
  9652.500 -23.018  3.2000  3.2500  3.9100 -11.394  3.2000  3.2500  3.9100 
  9653.000 -22.907  3.2220  3.3150  4.0610 -11.283  3.2220  3.3150  4.0610 
  9653.500 -22.832  3.2800  3.3510  4.1260 -11.207  3.2800  3.3510  4.1260 
  9654.000 -23.007  3.3300  3.3370  4.0040 -11.382  3.3300  3.3370  4.0040 
  9654.500 -22.825  3.3740  3.2370  3.7390 -11.199  3.3740  3.2370  3.7390 
  9655.000 -22.893  3.4240  3.1230  3.5960 -11.267  3.4240  3.1230  3.5960 
  9655.500 -22.925  3.4600  3.0440  3.4600 -11.298  3.4600  3.0440  3.4600 
  9656.000 -23.100  3.5110  3.0160  3.5040 -11.473  3.5110  3.0160  3.5040 
  9656.500 -23.204  3.5180  3.0090  3.6400 -11.577  3.5180  3.0090  3.6400 
  9657.000 -23.272  3.4110  2.9950  3.6840 -11.644  3.4110  2.9950  3.6840 
  9657.500 -23.554  3.3040  2.9740  3.7270 -11.926  3.3040  2.9740  3.7270 
  9658.000 -23.764  3.0610  2.9600  3.6270 -12.135  3.0610  2.9600  3.6270 
  9658.500 -24.047  2.9390  2.8310  3.5270 -12.418  2.9390  2.8310  3.5270 
  9659.000 -24.186  2.8600  2.6310  3.2330 -12.556  2.8600  2.6310  3.2330 
  9659.500 -24.289  2.7680  2.4590  3.0040 -12.659  2.7680  2.4590  3.0040 
  9660.000 -23.679  2.6600  2.3590  2.8110 -12.048  2.6600  2.3590  2.8110 
  9660.500 -23.218  2.6090  2.2360  2.7110 -11.587  2.6090  2.2360  2.7110 
  9661.000 -23.436  2.5640  2.1130  2.6680 -11.804  2.5640  2.1130  2.6680 
  9661.500 -24.082  2.5130  2.0680  2.6260 -12.450  2.5130  2.0680  2.6260 
  9662.000 -24.336  2.4750  2.0380  2.5900 -12.703  2.4750  2.0380  2.5900 
  9662.500 -23.589  2.4170  2.0220  2.5690 -11.956  2.4170  2.0220  2.5690 
  9663.000 -22.879  2.3790  2.0320  2.5550 -11.246  2.3790  2.0320  2.5550 
  9663.500 -22.561  2.3420  2.0410  2.5480 -10.927  2.3420  2.0410  2.5480 
  9664.000 -22.207  2.3260  2.1330  2.6420 -10.573  2.3260  2.1330  2.6420 
  9664.500 -21.890  2.3180  2.2100  2.6920 -10.255  2.3180  2.2100  2.6920 
  9665.000 -21.857  2.3230  2.2450  2.7110 -10.222  2.3230  2.2450  2.7110 
  9665.500 -21.932  2.3220  2.3000  2.7290 -10.296  2.3220  2.3000  2.7290 
  9666.000 -21.972  2.2850  2.3210  2.7360 -10.336  2.2850  2.3210  2.7360 
  9666.500 -22.011  2.2620  2.2690  2.6440 -10.374  2.2620  2.2690  2.6440 
  9667.000 -22.014  2.2280  2.2100  2.5150 -10.377  2.2280  2.2100  2.5150 
  9667.500 -22.017  2.1940  2.1660  2.4440 -10.379  2.1940  2.1660  2.4440 
  9668.000 -21.914  2.1000  2.1430  2.3220 -10.276  2.1000  2.1430  2.3220 
  9668.500 -21.882  2.0340  2.1200  2.2830 -10.243  2.0340  2.1200  2.2830 
  9669.000 -21.886  2.0040  2.0750  2.2440 -10.247  2.0040  2.0750  2.2440 
  9669.500 -21.889  1.9880  2.0740  2.2080 -10.250  1.9880  2.0740  2.2080 
  9670.000 -22.429  1.9860  2.0650  2.2160 -10.789  1.9860  2.0650  2.2160 
  9670.500 -22.604  2.0130  2.0520  2.2230 -10.964  2.0130  2.0520  2.2230 
  9671.000 -22.243  2.0390  2.0530  2.2880 -10.602  2.0390  2.0530  2.2880 
  9671.500 -22.132  2.2690  2.0900  2.3390 -10.491  2.2690  2.0900  2.3390 
  9672.000 -22.343  2.3780  2.1200  2.4470 -10.701  2.3780  2.1200  2.4470 
  9672.500 -22.947  2.4650  2.1280  2.5980 -11.305  2.4650  2.1280  2.5980 
  9673.000 -23.729  2.4880  2.1470  2.7340 -12.086  2.4880  2.1470  2.7340 
  9673.500 -24.225  2.4960  2.1660  2.8350 -12.582  2.4960  2.1660  2.8350 
  9674.000 -23.936  2.5040  2.1600  2.9290 -12.292  2.5040  2.1600  2.9290 
  9674.500 -24.039  2.5550  2.1320  2.9070 -12.395  2.5550  2.1320  2.9070 
  9675.000 -24.143  2.5780  2.1050  2.8430 -12.498  2.5780  2.1050  2.8430 
  9675.500 -24.104  2.6290  2.0410  2.7500 -12.459  2.6290  2.0410  2.7500 
  9676.000 -24.064  2.7450  1.9850  2.7010 -12.419  2.7450  1.9850  2.7010 
  9676.500 -24.025  3.0110  1.9540  2.6580 -12.379  3.0110  1.9540  2.6580 
  9677.000 -24.593  3.2990  1.9230  2.6580 -12.947  3.2990  1.9230  2.6580 
  9677.500 -25.339  3.4940  1.9200  2.6690 -13.692  3.4940  1.9200  2.6690 
  9678.000 -26.157  3.6670  1.9180  2.6810 -14.510  3.6670  1.9180  2.6810 
  9678.500 -27.154  3.8910  1.9760  2.7100 -15.506  3.8910  1.9760  2.7100 
  9679.000 -27.757  4.3080  2.0130  2.7670 -16.109  4.3080  2.0130  2.7670 
  9679.500 -28.361  4.6460  2.0860  2.9680 -16.712  4.6460  2.0860  2.9680 
  9680.000 -28.964  4.8190  2.1370  3.0550 -17.315  4.8190  2.1370  3.0550 
  9680.500 -29.575  4.8380  2.1850  3.2120 -17.925  4.8380  2.1850  3.2120 
  9681.000 -29.329  4.7210  2.2260  3.2970 -17.679  4.7210  2.2260  3.2970 
  9681.500 -28.975  4.4680  2.2450  3.3680 -17.324  4.4680  2.2450  3.3680 
  9682.000 -29.086  4.3010  2.1930  3.1740 -17.435  4.3010  2.1930  3.1740 
  9682.500 -30.161  4.1910  2.0830  3.0230 -18.510  4.1910  2.0830  3.0230 
  9683.000 -30.736  4.0960  2.0380  2.6920 -19.084  4.0960  2.0380  2.6920 
  9683.500 -31.382  4.0720  1.9930  2.6480 -19.730  4.0720  1.9930  2.6480 
  9684.000 -31.600  4.0060  1.9760  2.6050 -19.947  4.0060  1.9760  2.6050 
  9684.500 -31.389  3.9250  1.9600  2.5540 -19.736  3.9250  1.9600  2.5540 
  9685.000 -31.321  3.8150  2.0010  2.5390 -19.667  3.8150  2.0010  2.5390 
  9685.500 -31.289  3.7120  2.0420  2.5200 -19.635  3.7120  2.0420  2.5200 
  9686.000 -31.365  3.6170  2.0930  2.5010 -19.710  3.6170  2.0930  2.5010 
  9686.500 -31.439  3.5360  2.1450  2.4610 -19.784  3.5360  2.1450  2.4610 
  9687.000 -30.979  3.4910  2.1640  2.4210 -19.323  3.4910  2.1640  2.4210 
  9687.500 -30.268  3.4380  2.1480  2.3560 -18.612  3.4380  2.1480  2.3560 
  9688.000 -29.986  3.3930  2.1460  2.3260 -18.329  3.3930  2.1460  2.3260 
  9688.500 -30.025  3.3620  2.1580  2.2970 -18.368  3.3620  2.1580  2.2970 
