~Version Information
VERS.                     2.0: CWLS log ASCII Standard Version 2.00
WRAP.                      NO: One line per depth step
~Well Information Block
#MNEM.UNIT                               Data Type  Information
#---------                               ---------  -----------
STRT.FT                                   520.0000:
STOP.FT                                 10322.0000:
STEP.FT                                     0.5000:
NULL.                 -999.25                     :
COMP.                                             :COMPANY            
WELL.     CCMO 85-20                              :WELL               
FLD .                                             :FIELD              
CTRY.                                             :COUNTRY            
STAT.                                             :STATE              
LOC .                                             :LOCATION           
UWI .                                             :UNIQUE WELL ID     
SRVC.                                             :Service company    
DATE.                                             :LOG DATE           
~Curve Information
#MNEM.UNIT           API CODE  Curve Description
#---------           --------  -----------------
DEPT.FT                      :   1 DEPTH
SP  .MV                      :   2
AM16.OHMM                    :   3
AO10.OHMM                    :   4
AO19.OHMM                    :   5
SBL .MV                      :   6
RS  .OHMM                    :   7
RM  .OHMM                    :   8
RD  .OHMM                    :   9
~A
# ...
  3117.000 -14.956  3.4660  4.2050  4.6950 -3.6471  3.4660  4.2050  4.6950 
  3117.500 -14.961  3.4670  4.1130  4.6520 -3.6524  3.4670  4.1130  4.6520 
  3118.000 -15.146  3.5050  4.0650  4.6020 -3.8378  3.5050  4.0650  4.6020 
  3118.500 -15.902  3.5490  4.1020  4.5580 -4.5941  3.5490  4.1020  4.5580 
  3119.000 -16.408  3.5940  4.1820  4.5440 -5.1005  3.5940  4.1820  4.5440 
  3119.500 -16.628  3.6020  4.2270  4.6020 -5.3208  3.6020  4.2270  4.6020 
  3120.000 -16.312  3.6110  4.2860  4.6660 -5.0052  3.6110  4.2860  4.6660 
  3120.500 -16.100  3.5600  4.3490  4.7320 -4.7935  3.5600  4.3490  4.7320 
  3121.000 -15.889  3.5260  4.3700  4.7830 -4.5828  3.5260  4.3700  4.7830 
  3121.500 -15.142  3.4930  4.3970  4.8060 -3.8362  3.4930  4.3970  4.8060 
  3122.000 -14.752  3.4270  4.3100  4.8070 -3.4465  3.4270  4.3100  4.8070 
  3122.500 -14.470  3.3900  4.1510  4.7150 -3.1649  3.3900  4.1510  4.7150 
  3123.000 -14.151  3.3460  4.0140  4.5790 -2.8462  3.3460  4.0140  4.5790 
  3123.500 -13.761  3.3020  3.8550  4.3870 -2.4565  3.3020  3.8550  4.3870 
  3124.000 -13.479  3.2580  3.7100  4.3450 -2.1749  3.2580  3.7100  4.3450 
  3124.500 -13.268  3.2350  3.6370  4.2380 -1.9642  3.2350  3.6370  4.2380 
  3125.000 -13.200  3.2050  3.6290  4.1960 -1.8966  3.2050  3.6290  4.1960 
  3125.500 -13.167  3.1680  3.6640  4.1970 -1.8639  3.1680  3.6640  4.1970 
  3126.000 -13.296  3.1820  3.8420  4.2340 -1.9933  3.1820  3.8420  4.2340 
  3126.500 -13.425  3.2670  3.9270  4.3640 -2.1226  3.2670  3.9270  4.3640 
  3127.000 -13.679  3.3520  4.0120  4.4370 -2.3769  3.3520  4.0120  4.4370 
  3127.500 -14.004  3.3940  4.0970  4.5960 -2.7023  3.3940  4.0970  4.5960 
  3128.000 -14.402  3.3850  4.1680  4.6980 -3.1006  3.3850  4.1680  4.6980 
  3128.500 -14.548  3.2410  4.1880  4.7630 -3.2470  3.2410  4.1880  4.7630 
  3129.000 -14.552  3.1680  4.2520  4.8000 -3.2513  3.1680  4.2520  4.8000 
  3129.500 -14.699  3.1170  4.2580  4.5860 -3.3987  3.1170  4.2580  4.5860 
  3130.000 -14.772  3.0440  4.0420  4.2570 -3.4720  3.0440  4.0420  4.2570 
  3130.500 -14.846  3.0010  3.6260  4.0920 -3.5463  3.0010  3.6260  4.0920 
  3131.000 -14.938  2.9450  3.4690  3.7970 -3.6387  2.9450  3.4690  3.7970 
  3131.500 -15.029  2.9100  3.4190  3.6960 -3.7300  2.9100  3.4190  3.6960 
  3132.000 -15.067  2.8670  3.3550  3.5950 -3.7684  2.8670  3.3550  3.5950 
  3132.500 -15.033  2.8460  3.3200  3.5450 -3.7347  2.8460  3.3200  3.5450 
  3133.000 -14.981  2.8400  3.2710  3.4940 -3.6831  2.8400  3.2710  3.4940 
  3133.500 -14.929  2.8760  3.2430  3.5080 -3.6314  2.8760  3.2430  3.5080 
  3134.000 -14.824  2.9060  3.2150  3.5860 -3.5267  2.9060  3.2150  3.5860 
  3134.500 -14.754  2.9710  3.2150  3.7150 -3.4571  2.9710  3.2150  3.7150 
  3135.000 -15.006  3.0220  3.2090  3.9020 -3.7094  3.0220  3.2090  3.9020 
  3135.500 -15.544  3.0730  3.2380  4.0590 -4.2478  3.0730  3.2380  4.0590 
  3136.000 -16.190  3.1310  3.5050  4.1410 -4.8941  3.1310  3.5050  4.1410 
  3136.500 -16.514  3.1750  3.6560  4.2240 -5.2185  3.1750  3.6560  4.2240 
  3137.000 -16.444  3.1940  3.7860  4.3740 -5.1488  3.1940  3.7860  4.3740 
  3137.500 -15.767  3.2130  3.9380  4.4450 -4.4721  3.2130  3.9380  4.4450 
  3138.000 -15.410  3.2350  4.0390  4.4950 -4.1155  3.2350  4.0390  4.4950 
  3138.500 -15.126  3.2710  3.8670  4.3800 -3.8318  3.2710  3.8670  4.3800 
  3139.000 -14.841  3.3220  3.7100  4.1860 -3.5472  3.3220  3.7100  4.1860 
  3139.500 -14.342  3.4520  3.6030  3.9920 -3.0485  3.4520  3.6030  3.9920 
  3140.000 -14.452  3.5970  3.5180  3.9050 -3.1588  3.5970  3.5180  3.9050 
  3140.500 -14.883  3.7680  3.4670  3.9610 -3.5902  3.7680  3.4670  3.9610 
  3141.000 -16.602  3.9910  3.4670  4.2610 -5.3095  3.9910  3.4670  4.2610 
  3141.500 -18.642  4.2490  3.4880  4.4600 -7.3499  4.2490  3.4880  4.4600 
  3142.000 -21.255  4.5500  3.5590  4.6520 -9.9632  4.5500  3.5590  4.6520 
  3142.500 -24.154  4.8800  3.6880  4.7830 -12.863  4.8800  3.6880  4.7830 
  3143.000 -28.413  5.2310  3.8670  4.9140 -17.122  5.2310  3.8670  4.9140 
  3143.500 -33.423  5.5970  3.9390  5.1700 -22.132  5.5970  3.9390  5.1700 
  3144.000 -34.748  6.0420  4.0530  5.3620 -23.458  6.0420  4.0530  5.3620 
  3144.500 -35.859  6.5150  4.1820  5.5110 -24.569  6.5150  4.1820  5.5110 
  3145.000 -37.041  7.0460  4.2960  5.7540 -25.751  7.0460  4.2960  5.7540 
  3145.500 -38.187  7.4330  4.3930  5.8670 -26.898  7.4330  4.3930  5.8670 
  3146.000 -38.940  7.6770  4.4900  6.0800 -27.651  7.6770  4.4900  6.0800 
  3146.500 -39.515  7.9130  4.7260  6.1720 -28.226  7.9130  4.7260  6.1720 
  3147.000 -39.803  8.0780  4.9700  6.3350 -28.515  8.0780  4.9700  6.3350 
  3147.500 -39.733  8.2720  5.2850  6.4990 -28.445  8.2720  5.2850  6.4990 
  3148.000 -39.699  8.3930  5.5150  6.5970 -28.411  8.3930  5.5150  6.5970 
  3148.500 -39.701  8.4720  5.6440  6.6960 -28.414  8.4720  5.6440  6.6960 
  3149.000 -39.774  8.5430  5.6930  6.7730 -28.487  8.5430  5.6930  6.7730 
  3149.500 -39.776  8.6080  5.7070  6.8070 -28.489  8.6080  5.7070  6.8070 
  3150.000 -39.885  8.6360  5.7360  6.7620 -28.599  8.6360  5.7360  6.7620 
  3150.500 -39.889  8.6500  5.7850  6.6840 -28.603  8.6500  5.7850  6.6840 
  3151.000 -39.749  8.6350  5.8210  6.6500 -28.463  8.6350  5.8210  6.6500 
  3151.500 -38.680  8.5550  6.0930  6.6150 -27.395  8.5550  6.0930  6.6150 
  3152.000 -38.254  8.4680  6.2860  6.5010 -26.969  8.4680  6.2860  6.5010 
  3152.500 -37.542  8.3240  6.3930  6.4020 -26.257  8.3240  6.3930  6.4020 
  3153.000 -36.901  8.0140  6.5000  6.2740 -25.617  8.0140  6.5000  6.2740 
  3153.500 -36.047  7.7340  6.7210  6.1530 -24.763  7.7340  6.7210  6.1530 
  3154.000 -35.299  7.5030  6.8140  5.9600 -24.015  7.5030  6.8140  5.9600 
  3154.500 -34.516  7.4950  6.8990  5.8100 -23.233  7.4950  6.8990  5.8100 
  3155.000 -34.090  7.5160  7.0280  5.6960 -22.807  7.5160  7.0280  5.6960 
  3155.500 -35.668  7.8170  7.4940  5.6180 -24.385  7.8170  7.4940  5.6180 
  3156.000 -36.923  8.1820  7.8380  5.6120 -25.641  8.1820  7.8380  5.6120 
  3156.500 -37.785  8.5330  8.1600  6.0300 -26.503  8.5330  8.1600  6.0300 
  3157.000 -38.647  8.7260  8.5040  6.2530 -27.365  8.7260  8.5040  6.2530 
  3157.500 -39.259  8.9270  8.8260  6.4700 -27.978  8.9270  8.8260  6.4700 
  3158.000 -39.477  9.0480  9.1270  6.6720 -28.196  9.0480  9.1270  6.6720 
  3158.500 -39.481  9.1770  9.3420  6.8810 -28.201  9.1770  9.3420  6.8810 
  3159.000 -39.341  9.2400  10.152  7.0400 -28.061  9.2400  10.152  7.0400 
  3159.500 -38.951  9.2540  10.668  7.2060 -27.671  9.2540  10.668  7.2060 
  3160.000 -38.633  8.8510  10.904  7.3150 -27.354  8.8510  10.904  7.3150 
  3160.500 -38.207  8.4210  11.055  7.4430 -26.928  8.4210  11.055  7.4430 
  3161.000 -37.460  7.9680  11.220  7.5070 -26.181  7.9680  11.220  7.5070 
  3161.500 -36.461  7.7530  11.292  7.5630 -25.183  7.7530  11.292  7.5630 
  3162.000 -34.784  7.0140  11.357  7.5910 -23.506  7.0140  11.357  7.5910 
  3162.500 -31.461  6.5110  11.350  7.5040 -20.183  6.5110  11.350  7.5040 
  3163.000 -29.068  5.8650  11.292  7.3370 -17.791  5.8650  11.292  7.3370 
  3163.500 -25.315  4.8890  11.062  6.8840 -14.038  4.8890  11.062  6.8840 
  3164.000 -23.208  4.6730  10.223  5.4900 -11.931  4.6730  10.223  5.4900 
  3164.500 -20.815  4.4870  7.7030  4.8000 -9.5386  4.4870  7.7030  4.8000 
  3165.000 -19.460  4.4150  6.7480  4.5190 -8.1840  4.4150  6.7480  4.5190 
  3165.500 -19.105  4.3930  5.9800  4.4170 -7.8293  4.3930  5.9800  4.4170 
  3166.000 -19.538  4.5510  5.6930  4.9830 -8.2627  4.5510  5.6930  4.9830 
  3166.500 -22.618  4.7810  5.5850  5.5570 -11.343  4.7810  5.5850  5.5570 
  3167.000 -26.628  5.0180  5.6570  5.7850 -15.353  5.0180  5.6570  5.7850 
  3167.500 -28.456  5.2120  6.0440  5.9710 -17.182  5.2120  6.0440  5.9710 
  3168.000 -30.212  5.3340  6.4820  6.1640 -18.938  5.3340  6.4820  6.1640 
  3168.500 -31.647  5.4130  6.6120  6.3420 -20.373  5.4130  6.6120  6.3420 
  3169.000 -32.723  5.5060  6.6910  6.4990 -21.450  5.5060  6.6910  6.4990 
  3169.500 -33.442  5.5990  6.9850  6.6770 -22.169  5.5990  6.9850  6.6770 
