~Version Information
VERS.                     2.0: CWLS log ASCII Standard Version 2.00
WRAP.                      NO: One line per depth step
~Well Information Block
#MNEM.UNIT                               Data Type  Information
#---------                               ---------  -----------
STRT.FT                                   520.0000:
STOP.FT                                 10322.0000:
STEP.FT                                     0.5000:
NULL.                 -999.25                     :
COMP.                                             :COMPANY            
WELL.     CCMO 85-20                              :WELL               
FLD .                                             :FIELD              
CTRY.                                             :COUNTRY            
STAT.                                             :STATE              
LOC .                                             :LOCATION           
UWI .                                             :UNIQUE WELL ID     
SRVC.                                             :Service company    
DATE.                                             :LOG DATE           
~Curve Information
#MNEM.UNIT           API CODE  Curve Description
#---------           --------  -----------------
DEPT.FT                      :   1 DEPTH
SP  .MV                      :   2
AM16.OHMM                    :   3
AO10.OHMM                    :   4
AO19.OHMM                    :   5
SBL .MV                      :   6
RS  .OHMM                    :   7
RM  .OHMM                    :   8
RD  .OHMM                    :   9
~A
# ...
  8311.000 -19.856  2.3700  2.4130  2.4450 -9.4724  2.3700  2.4130  2.4450 
  8311.500 -19.879  2.3850  2.4170  2.4220 -9.4949  2.3850  2.4170  2.4220 
  8312.000 -19.974  2.3890  2.4210  2.4160 -9.5894  2.3890  2.4210  2.4160 
  8312.500 -19.997  2.3930  2.4220  2.4110 -9.6120  2.3930  2.4220  2.4110 
  8313.000 -20.128  2.3860  2.4220  2.4380 -9.7425  2.3860  2.4220  2.4380 
  8313.500 -20.151  2.3720  2.4080  2.4580 -9.7650  2.3720  2.4080  2.4580 
  8314.000 -20.210  2.3440  2.4080  2.4630 -9.8236  2.3440  2.4080  2.4630 
  8314.500 -20.233  2.3260  2.3940  2.4540 -9.8461  2.3260  2.3940  2.4540 
  8315.000 -20.292  2.3090  2.3800  2.4310 -9.9047  2.3090  2.3800  2.4310 
  8315.500 -20.280  2.2870  2.3660  2.3640 -9.8922  2.2870  2.3660  2.3640 
  8316.000 -20.196  2.2660  2.3520  2.2910 -9.8077  2.2660  2.3520  2.2910 
  8316.500 -20.112  2.2490  2.3460  2.2600 -9.7233  2.2490  2.3460  2.2600 
  8317.000 -19.992  2.2310  2.3460  2.2080 -9.6028  2.2310  2.3460  2.2080 
  8317.500 -19.800  2.2030  2.3460  2.2130 -9.4104  2.2030  2.3460  2.2130 
  8318.000 -19.681  2.1890  2.3470  2.2830 -9.2909  2.1890  2.3470  2.2830 
  8318.500 -19.561  2.1750  2.3400  2.3250 -9.1704  2.1750  2.3400  2.3250 
  8319.000 -19.405  2.1680  2.3470  2.3520 -9.0140  2.1680  2.3470  2.3520 
  8319.500 -19.572  2.1650  2.3550  2.3710 -9.1805  2.1650  2.3550  2.3710 
  8320.000 -19.809  2.1610  2.3620  2.3980 -9.4170  2.1610  2.3620  2.3980 
  8320.500 -19.924  2.1690  2.3630  2.4370 -9.5316  2.1690  2.3630  2.4370 
  8321.000 -19.842  2.1700  2.3640  2.4680 -9.4491  2.1700  2.3640  2.4680 
  8321.500 -19.759  2.1780  2.3970  2.4920 -9.3657  2.1780  2.3970  2.4920 
  8322.000 -19.587  2.1860  2.4300  2.5020 -9.1932  2.1860  2.4300  2.5020 
  8322.500 -19.416  2.1940  2.4380  2.4830 -9.0217  2.1940  2.4380  2.4830 
  8323.000 -19.423  2.2090  2.4530  2.4350 -9.0283  2.2090  2.4530  2.4350 
  8323.500 -19.502  2.2100  2.4570  2.3660 -9.1068  2.2100  2.4570  2.3660 
  8324.000 -19.545  2.2100  2.4620  2.3790 -9.1493  2.2100  2.4620  2.3790 
  8324.500 -19.516  2.2320  2.4620  2.3920 -9.1199  2.2320  2.4620  2.3920 
  8325.000 -19.452  2.2330  2.4740  2.4590 -9.0554  2.2330  2.4740  2.4590 
  8325.500 -19.459  2.2340  2.4850  2.4690 -9.0620  2.2340  2.4850  2.4690 
  8326.000 -19.394  2.2200  2.4930  2.4930 -8.9965  2.2200  2.4930  2.4930 
  8326.500 -19.330  2.1920  2.4940  2.5030 -8.9320  2.1920  2.4940  2.5030 
  8327.000 -19.373  2.1640  2.4950  2.5050 -8.9746  2.1640  2.4950  2.5050 
  8327.500 -19.631  2.1430  2.4950  2.5080 -9.2321  2.1430  2.4950  2.5080 
  8328.000 -19.709  2.1230  2.4740  2.5030 -9.3096  2.1230  2.4740  2.5030 
  8328.500 -19.788  2.0800  2.4570  2.4990 -9.3882  2.0800  2.4570  2.4990 
  8329.000 -19.795  2.0520  2.4400  2.4790 -9.3947  2.0520  2.4400  2.4790 
  8329.500 -19.802  2.0310  2.4330  2.4600 -9.4013  2.0310  2.4330  2.4600 
  8330.000 -19.738  2.0110  2.4200  2.4630 -9.3368  2.0110  2.4200  2.4630 
  8330.500 -19.597  1.9960  2.4020  2.4620 -9.1953  1.9960  2.4020  2.4620 
  8331.000 -19.491  1.9680  2.3840  2.4540 -9.0889  1.9680  2.3840  2.4540 
  8331.500 -19.385  1.9460  2.3700  2.4520 -8.9824  1.9460  2.3700  2.4520 
  8332.000 -19.280  1.9350  2.3550  2.4510 -8.8770  1.9350  2.3550  2.4510 
  8332.500 -19.747  1.9240  2.3340  2.4150 -9.3435  1.9240  2.3340  2.4150 
  8333.000 -20.070  1.8880  2.3190  2.3780 -9.6660  1.8880  2.3190  2.3780 
  8333.500 -20.251  1.8780  2.3120  2.3660 -9.8466  1.8780  2.3120  2.3660 
  8334.000 -19.931  1.8670  2.3050  2.3540 -9.5261  1.8670  2.3050  2.3540 
  8334.500 -19.664  1.8450  2.2910  2.3380 -9.2586  1.8450  2.2910  2.3380 
  8335.000 -19.398  1.8380  2.2690  2.3520 -8.9922  1.8380  2.2690  2.3520 
  8335.500 -18.899  1.8310  2.2620  2.3860 -8.4927  1.8310  2.2620  2.3860 
  8336.000 -19.044  1.8310  2.2980  2.3930 -8.6373  1.8310  2.2980  2.3930 
  8336.500 -19.297  1.8450  2.3050  2.4060 -8.8898  1.8450  2.3050  2.4060 
  8337.000 -19.584  1.8560  2.3050  2.4190 -9.1763  1.8560  2.3050  2.4190 
  8337.500 -20.015  1.8670  2.3120  2.3890 -9.6069  1.8670  2.3120  2.3890 
  8338.000 -20.088  1.8890  2.3190  2.3560 -9.6794  1.8890  2.3190  2.3560 
  8338.500 -19.965  1.8960  2.3340  2.3230 -9.5559  1.8960  2.3340  2.3230 
  8339.000 -19.842  1.9030  2.3340  2.2570 -9.4325  1.9030  2.3340  2.2570 
  8339.500 -19.701  1.9060  2.3340  2.2490 -9.2910  1.9060  2.3340  2.2490 
  8340.000 -19.662  1.9100  2.3340  2.2260 -9.2516  1.9100  2.3340  2.2260 
  8340.500 -19.623  1.9320  2.3270  2.2470 -9.2121  1.9320  2.3270  2.2470 
  8341.000 -19.938  1.9600  2.2910  2.2680 -9.5266  1.9600  2.2910  2.2680 
  8341.500 -20.432  1.9890  2.2690  2.2890 -10.020  1.9890  2.2690  2.2890 
  8342.000 -20.639  1.9890  2.2550  2.3520 -10.227  1.9890  2.2550  2.3520 
  8342.500 -20.489  1.9960  2.2330  2.3800 -10.076  1.9960  2.2330  2.3800 
  8343.000 -20.124  2.0180  2.2120  2.4010 -9.7108  2.0180  2.2120  2.4010 
  8343.500 -20.010  2.0390  2.1970  2.4220 -9.5963  2.0390  2.1970  2.4220 
  8344.000 -19.753  2.0610  2.1970  2.4430 -9.3389  2.0610  2.1970  2.4430 
  8344.500 -19.710  2.0820  2.1970  2.4420 -9.2954  2.0820  2.1970  2.4420 
  8345.000 -19.702  2.1180  2.1970  2.4410 -9.2869  2.1180  2.1970  2.4410 
  8345.500 -19.767  2.1180  2.2260  2.4120 -9.3515  2.1180  2.2260  2.4120 
  8346.000 -20.081  2.1250  2.2470  2.3680 -9.6650  2.1250  2.2470  2.3680 
  8346.500 -20.288  2.1400  2.2480  2.3100 -9.8715  2.1400  2.2480  2.3100 
  8347.000 -20.460  2.1400  2.2480  2.2730 -10.043  2.1400  2.2480  2.2730 
  8347.500 -20.632  2.1180  2.2690  2.3010 -10.215  2.1180  2.2690  2.3010 
  8348.000 -20.661  2.0890  2.2980  2.3220 -10.243  2.0890  2.2980  2.3220 
  8348.500 -20.760  2.0820  2.2980  2.3430 -10.342  2.0820  2.2980  2.3430 
  8349.000 -20.682  2.0250  2.2830  2.3490 -10.263  2.0250  2.2830  2.3490 
  8349.500 -20.460  1.9600  2.2480  2.3560 -10.041  1.9600  2.2480  2.3560 
  8350.000 -20.330  1.9240  2.1760  2.3700 -9.9103  1.9240  2.1760  2.3700 
  8350.500 -20.199  1.8900  2.1550  2.3420 -9.7788  1.8900  2.1550  2.3420 
  8351.000 -19.659  1.8830  2.1130  2.3240 -9.2384  1.8830  2.1130  2.3240 
  8351.500 -19.084  1.8630  2.0640  2.3070 -8.6629  1.8630  2.0640  2.3070 
  8352.000 -18.794  1.8430  2.0510  2.2580 -8.3725  1.8430  2.0510  2.2580 
  8352.500 -18.325  1.8290  2.0660  2.2510 -7.9030  1.8290  2.0660  2.2510 
  8353.000 -17.821  1.8300  2.0820  2.2520 -7.3985  1.8300  2.0820  2.2520 
  8353.500 -17.532  1.8280  2.1040  2.2450 -7.1091  1.8280  2.1040  2.2450 
  8354.000 -17.171  1.8250  2.1050  2.2460 -6.7476  1.8250  2.1050  2.2460 
  8354.500 -16.845  1.8120  2.1140  2.2540 -6.4211  1.8120  2.1140  2.2540 
  8355.000 -16.663  1.8060  2.1290  2.2550 -6.2387  1.8060  2.1290  2.2550 
  8355.500 -16.373  1.7780  2.1520  2.2480 -5.9482  1.7780  2.1520  2.2480 
  8356.000 -16.870  1.7650  2.1600  2.2420 -6.4448  1.7650  2.1600  2.2420 
  8356.500 -17.296  1.7520  2.1610  2.2350 -6.8703  1.7520  2.1610  2.2350 
  8357.000 -18.007  1.7380  2.1620  2.2290 -7.5808  1.7380  2.1620  2.2290 
  8357.500 -18.397  1.7250  2.1630  2.2300 -7.9704  1.7250  2.1630  2.2300 
  8358.000 -18.572  1.6980  2.1640  2.2160 -8.1449  1.6980  2.1640  2.2160 
  8358.500 -18.175  1.6910  2.1650  2.2170 -7.7475  1.6910  2.1650  2.2170 
  8359.000 -17.886  1.6780  2.1660  2.2170 -7.4580  1.6780  2.1660  2.2170 
  8359.500 -17.596  1.6790  2.1670  2.2180 -7.1675  1.6790  2.1670  2.2180 
  8360.000 -17.505  1.6800  2.1760  2.2330 -7.0761  1.6800  2.1760  2.2330 
  8360.500 -17.413  1.6960  2.1770  2.2680 -6.9836  1.6960  2.1770  2.2680 
  8361.000 -17.360  1.7120  2.1790  2.2960 -6.9301  1.7120  2.1790  2.2960 
  8361.500 -17.306  1.7200  2.1840  2.3030 -6.8757  1.7200  2.1840  2.3030 
  8362.000 -17.271  1.7220  2.1890  2.3090 -6.8402  1.7220  2.1890  2.3090 
  8362.500 -17.092  1.7270  2.0390  2.3090 -6.6608  1.7270  2.0390  2.3090 
  8363.000 -16.985  1.7320  2.0340  2.2860 -6.5533  1.7320  2.0340  2.2860 
  8363.500 -16.841  1.7330  2.0350  2.2750 -6.4088  1.7330  2.0350  2.2750 
