~Version Information
VERS.                     2.0: CWLS log ASCII Standard Version 2.00
WRAP.                      NO: One line per depth step
~Well Information Block
#MNEM.UNIT                               Data Type  Information
#---------                               ---------  -----------
STRT.FT                                   520.0000:
STOP.FT                                 10322.0000:
STEP.FT                                     0.5000:
NULL.                 -999.25                     :
COMP.                                             :COMPANY            
WELL.     CCMO 85-20                              :WELL               
FLD .                                             :FIELD              
CTRY.                                             :COUNTRY            
STAT.                                             :STATE              
LOC .                                             :LOCATION           
UWI .                                             :UNIQUE WELL ID     
SRVC.                                             :Service company    
DATE.                                             :LOG DATE           
~Curve Information
#MNEM.UNIT           API CODE  Curve Description
#---------           --------  -----------------
DEPT.FT                      :   1 DEPTH
SP  .MV                      :   2
AM16.OHMM                    :   3
AO10.OHMM                    :   4
AO19.OHMM                    :   5
SBL .MV                      :   6
RS  .OHMM                    :   7
RM  .OHMM                    :   8
RD  .OHMM                    :   9
~A
# ...
  1845.000 -26.996  5.6840  5.6760  7.4450 -13.026  5.6840  5.6760  7.4450 
  1845.500 -28.544  5.8810  5.6440  7.6620 -14.578  5.8810  5.6440  7.6620 
  1846.000 -31.706  5.9990  6.2790  8.0000 -17.743  5.9990  6.2790  8.0000 
  1846.500 -33.325  6.0530  6.6770  8.4600 -19.366  6.0530  6.6770  8.4600 
  1847.000 -34.119  6.0670  6.8320  8.6770 -20.164  6.0670  6.8320  8.6770 
  1847.500 -34.517  6.0820  6.9860  8.9290 -20.566  6.0820  6.9860  8.9290 
  1848.000 -34.916  6.0350  7.0400  9.1600 -20.968  6.0350  7.0400  9.1600 
  1848.500 -35.278  5.8160  7.0510  9.2680 -21.334  5.8160  7.0510  9.2680 
  1849.000 -29.933  5.6050  7.0540  9.3770 -15.993  5.6050  7.0540  9.3770 
  1849.500 -29.110  5.4290  7.0000  9.4000 -15.174  5.4290  7.0000  9.4000 
  1850.000 -28.863  5.1380  6.6810  9.3220 -14.930  5.1380  6.6810  9.3220 
  1850.500 -28.683  4.9610  6.3100  8.2390 -14.754  4.9610  6.3100  8.2390 
  1851.000 -28.558  4.8410  6.0970  7.7220 -14.633  4.8410  6.0970  7.7220 
  1851.500 -28.433  4.7790  5.9120  7.2560 -14.512  4.7790  5.9120  7.2560 
  1852.000 -28.037  4.7380  5.7710  6.8120 -14.119  4.7380  5.7710  6.8120 
  1852.500 -27.642  4.7330  5.6660  6.6610 -13.728  4.7330  5.6660  6.6610 
  1853.000 -27.140  4.7350  5.6750  6.8480 -13.230  4.7350  5.6750  6.8480 
  1853.500 -26.925  4.7370  5.7240  6.9490 -13.019  4.7370  5.7240  6.9490 
  1854.000 -27.535  4.7530  5.7720  7.0710 -13.632  4.7530  5.7720  7.0710 
  1854.500 -28.002  4.7700  5.8970  7.1580 -14.103  4.7700  5.8970  7.1580 
  1855.000 -28.504  4.7940  5.9420  7.2010 -14.609  4.7940  5.9420  7.2010 
  1855.500 -29.007  4.8320  5.9870  7.2450 -15.116  4.8320  5.9870  7.2450 
  1856.000 -30.083  4.8550  5.9890  7.2380 -16.195  4.8550  5.9890  7.2380 
  1856.500 -30.550  4.8790  5.9200  7.2380 -16.666  4.8790  5.9200  7.2380 
  1857.000 -30.694  4.9600  5.8640  7.2310 -16.814  4.9600  5.8640  7.2310 
  1857.500 -30.246  5.0920  5.9170  7.3250 -16.370  5.0920  5.9170  7.3250 
  1858.000 -29.797  5.2230  6.0770  7.5190 -15.924  5.2230  6.0770  7.5190 
  1858.500 -29.940  5.2930  6.2230  7.7280 -16.071  5.2930  6.2230  7.7280 
  1859.000 -30.981  5.3630  6.4110  7.8570 -17.116  5.3630  6.4110  7.8570 
  1859.500 -30.729  5.4660  6.5570  7.9800 -16.868  5.4660  6.5570  7.9800 
  1860.000 -30.227  5.5470  6.6450  8.0730 -16.369  5.5470  6.6450  8.0730 
  1860.500 -30.473  5.6390  6.7520  8.0960 -16.619  5.6390  6.7520  8.0960 
  1861.000 -31.616  5.7100  6.8580  8.0690 -17.766  5.7100  6.8580  8.0690 
  1861.500 -32.437  5.7660  6.8000  7.7330 -18.591  5.7660  6.8000  7.7330 
  1862.000 -31.857  5.8590  6.7270  7.5770 -18.014  5.8590  6.7270  7.5770 
  1862.500 -30.739  5.9370  6.7260  7.3840 -16.900  5.9370  6.7260  7.3840 
  1863.000 -29.908  5.9790  6.7610  7.4290 -16.073  5.9790  6.7610  7.4290 
  1863.500 -29.292  6.0060  6.7950  7.6530 -15.461  6.0060  6.7950  7.6530 
  1864.000 -28.533  6.0340  6.8810  7.6690 -14.705  6.0340  6.8810  7.6690 
  1864.500 -28.527  5.9900  6.9080  7.5190 -14.703  5.9900  6.9080  7.5190 
  1865.000 -29.671  5.9240  6.8070  7.4200 -15.851  5.9240  6.8070  7.4200 
  1865.500 -30.634  5.8870  6.5900  7.2850 -16.818  5.8870  6.5900  7.2850 
  1866.000 -31.204  5.8290  6.4240  7.2870 -17.391  5.8290  6.4240  7.2870 
  1866.500 -32.024  5.7700  6.3010  7.4100 -18.215  5.7700  6.3010  7.4100 
  1867.000 -32.736  5.7620  6.2000  7.4260 -18.931  5.7620  6.2000  7.4260 
  1867.500 -32.695  5.7610  6.1480  7.5140 -18.894  5.7610  6.1480  7.5140 
  1868.000 -32.439  5.8240  6.2550  7.6150 -18.641  5.8240  6.2550  7.6150 
  1868.500 -32.110  5.8810  6.2970  7.6530 -18.316  5.8810  6.2970  7.6530 
  1869.000 -31.961  5.9800  6.3320  7.5030 -18.171  5.9800  6.3320  7.5030 
  1869.500 -31.920  6.1510  6.2950  7.3970 -18.133  6.1510  6.2950  7.3970 
  1870.000 -32.094  6.3220  6.2790  7.2550 -18.311  6.3220  6.2790  7.2550 
  1870.500 -32.248  6.5170  6.4380  7.1840 -18.469  6.5170  6.4380  7.1840 
  1871.000 -32.403  6.6900  6.6320  7.4070 -18.628  6.6900  6.6320  7.4070 
  1871.500 -32.808  6.8840  6.9130  7.7010 -19.036  6.8840  6.9130  7.7010 
  1872.000 -33.071  7.0070  7.1220  7.8230 -19.303  7.0070  7.1220  7.8230 
  1872.500 -33.440  7.1150  7.2800  8.0460 -19.676  7.1150  7.2800  8.0460 
  1873.000 -33.361  7.1880  7.5250  8.2910 -19.601  7.1880  7.5250  8.2910 
  1873.500 -33.283  7.1740  7.7480  8.4630 -19.526  7.1740  7.7480  8.4630 
  1874.000 -33.042  7.1320  7.9780  8.6000 -19.289  7.1320  7.9780  8.6000 
  1874.500 -32.945  7.0610  8.1660  8.7080 -19.196  7.0610  8.1660  8.7080 
  1875.000 -32.848  7.0180  8.2240  8.8020 -19.103  7.0180  8.2240  8.8020 
  1875.500 -32.823  6.9760  8.2820  8.8810 -19.081  6.9760  8.2820  8.8810 
  1876.000 -33.479  6.9620  8.2830  8.7950 -19.741  6.9620  8.2830  8.7950 
  1876.500 -33.885  6.9770  8.1690  8.4940 -20.151  6.9770  8.1690  8.4940 
  1877.000 -33.537  7.0640  7.7390  8.1500 -19.807  7.0640  7.7390  8.1500 
  1877.500 -32.973  7.3310  7.5030  7.8350 -19.246  7.3310  7.5030  7.8350 
  1878.000 -32.589  7.4460  7.4390  7.7270 -18.866  7.4460  7.4390  7.7270 
  1878.500 -32.241  7.6980  7.5330  8.0080 -18.522  7.6980  7.5330  8.0080 
  1879.000 -32.108  8.0070  7.6560  8.3310 -18.393  8.0070  7.6560  8.3310 
  1879.500 -33.411  8.3600  7.8140  8.6250 -19.699  8.3600  7.8140  8.6250 
  1880.000 -34.463  8.6980  7.8940  8.8700 -20.755  8.6980  7.8940  8.8700 
  1880.500 -35.508  9.0560  8.0590  9.0120 -21.804  9.0560  8.0590  9.0120 
  1881.000 -35.978  9.3280  8.2660  9.3050 -22.278  9.3280  8.2660  9.3050 
  1881.500 -36.485  9.6720  9.4140  9.6840 -22.788  9.6720  9.4140  9.6840 
  1882.000 -35.303  10.246  10.110  10.055 -21.610  10.246  10.110  10.055 
  1882.500 -34.086  10.389  11.538  10.779 -20.397  10.389  11.538  10.779 
  1883.000 -33.659  10.497  12.635  12.155 -19.974  10.497  12.635  12.155 
  1883.500 -33.232  10.525  12.922  12.807 -19.550  10.525  12.922  12.807 
  1884.000 -32.589  10.360  13.187  13.430 -18.911  10.360  13.187  13.430 
  1884.500 -32.234  9.8000  13.438  14.067 -18.560  9.8000  13.438  14.067 
  1885.000 -32.274  8.7800  13.574  14.151 -18.604  8.7800  13.574  14.151 
  1885.500 -31.559  8.3280  13.523  13.734 -17.892  8.3280  13.523  13.734 
  1886.000 -30.199  7.5450  12.977  13.302 -16.536  7.5450  12.977  13.302 
  1886.500 -29.053  6.9990  12.130  13.042 -15.394  6.9990  12.130  13.042 
  1887.000 -27.728  6.7840  10.322  12.617 -14.073  6.7840  10.322  12.617 
  1887.500 -26.943  6.5900  8.7640  12.128 -13.291  6.5900  8.7640  12.128 
  1888.000 -25.797  6.3520  7.5220  11.631 -12.149  6.3520  7.5220  11.631 
  1888.500 -24.903  6.0790  7.2560  10.101 -11.259  6.0790  7.2560  10.101 
  1889.000 -24.332  5.7560  6.9900  8.6430 -10.692  5.7560  6.9900  8.6430 
  1889.500 -23.941  5.4970  6.8820  7.9100 -10.304  5.4970  6.8820  7.9100 
  1890.000 -25.345  5.3890  6.8170  7.4420 -11.712  5.3890  6.8170  7.4420 
  1890.500 -25.705  5.3680  6.6730  6.6840 -12.076  5.3680  6.6730  6.6840 
  1891.000 -25.743  5.4820  6.5870  6.3490 -12.118  5.4820  6.5870  6.3490 
  1891.500 -25.709  5.6470  6.9450  6.4880 -12.087  5.6470  6.9450  6.4880 
  1892.000 -25.819  5.8190  7.2900  6.7270 -12.201  5.8190  7.2900  6.7270 
  1892.500 -26.395  5.9470  7.6270  6.9810 -12.781  5.9470  7.6270  6.9810 
  1893.000 -26.935  6.0330  8.0500  7.1480 -13.325  6.0330  8.0500  7.1480 
  1893.500 -27.691  6.1330  8.4370  7.3440 -14.084  6.1330  8.4370  7.3440 
  1894.000 -28.734  6.2190  8.8810  7.5480 -15.131  6.2190  8.8810  7.5480 
  1894.500 -29.418  6.2470  9.1970  7.7370 -15.819  6.2470  9.1970  7.7370 
  1895.000 -30.101  6.3040  9.4330  7.9260 -16.505  6.3040  9.4330  7.9260 
  1895.500 -30.678  6.3330  9.7270  8.0580 -17.086  6.3330  9.7270  8.0580 
  1896.000 -30.931  6.2890  9.8770  8.1460 -17.343  6.2890  9.8770  8.1460 
  1896.500 -29.963  6.1240  9.9420  8.3000 -16.379  6.1240  9.9420  8.3000 
  1897.000 -28.385  5.7360  10.013  8.3380 -14.804  5.7360  10.013  8.3380 
  1897.500 -27.598  5.4920  8.9720  8.3410 -14.021  5.4920  8.9720  8.3410 
