~Version Information
VERS.                     2.0: CWLS log ASCII Standard Version 2.00
WRAP.                      NO: One line per depth step
~Well Information Block
#MNEM.UNIT                               Data Type  Information
#---------                               ---------  -----------
STRT.FT                                   520.0000:
STOP.FT                                 10322.0000:
STEP.FT                                     0.5000:
NULL.                 -999.25                     :
COMP.                                             :COMPANY            
WELL.     CCMO 85-20                              :WELL               
FLD .                                             :FIELD              
CTRY.                                             :COUNTRY            
STAT.                                             :STATE              
LOC .                                             :LOCATION           
UWI .                                             :UNIQUE WELL ID     
SRVC.                                             :Service company    
DATE.                                             :LOG DATE           
~Curve Information
#MNEM.UNIT           API CODE  Curve Description
#---------           --------  -----------------
DEPT.FT                      :   1 DEPTH
SP  .MV                      :   2
AM16.OHMM                    :   3
AO10.OHMM                    :   4
AO19.OHMM                    :   5
SBL .MV                      :   6
RS  .OHMM                    :   7
RM  .OHMM                    :   8
RD  .OHMM                    :   9
~A
# ...
  5714.000 -26.495  5.8550  3.9180  4.2410 -15.501  5.8550  3.9180  4.2410 
  5714.500 -29.631  6.0840  4.0320  4.3840 -18.636  6.0840  4.0320  4.3840 
  5715.000 -34.087  6.4130  4.1030  4.5620 -23.091  6.4130  4.1030  4.5620 
  5715.500 -35.652  6.8430  4.2250  4.8200 -24.656  6.8430  4.2250  4.8200 
  5716.000 -36.182  7.2300  4.3740  4.9700 -25.185  7.2300  4.3740  4.9700 
  5716.500 -36.820  7.8100  4.5390  5.1410 -25.822  7.8100  4.5390  5.1410 
  5717.000 -37.243  8.2830  4.7030  5.2840 -26.244  8.2830  4.7030  5.2840 
  5717.500 -37.666  8.6330  4.8170  5.4270 -26.667  8.6330  4.8170  5.4270 
  5718.000 -38.053  8.8190  4.9810  5.5190 -27.053  8.8190  4.9810  5.5190 
  5718.500 -38.476  8.9120  5.1670  5.6620 -27.475  8.9120  5.1670  5.6620 
  5719.000 -38.827  8.9680  5.3530  5.7400 -27.826  8.9680  5.3530  5.7400 
  5719.500 -39.357  8.9030  5.5170  5.8040 -28.355  8.9030  5.5170  5.8040 
  5720.000 -39.923  8.8090  5.5950  5.8820 -28.920  8.8090  5.5950  5.8820 
  5720.500 -40.540  8.7010  5.6670  5.9680 -29.536  8.7010  5.6670  5.9680 
  5721.000 -41.051  8.6230  5.7240  6.0110 -30.047  8.6230  5.7240  6.0110 
  5721.500 -41.062  8.5370  5.7750  6.0250 -30.057  8.5370  5.7750  6.0250 
  5722.000 -40.858  8.4360  5.8180  5.9170 -29.852  8.4360  5.8180  5.9170 
  5722.500 -40.726  8.3860  5.8540  5.8160 -29.719  8.3860  5.8540  5.8160 
  5723.000 -40.487  8.3070  5.8970  5.7510 -29.480  8.3070  5.8970  5.7510 
  5723.500 -40.408  8.2500  5.9610  5.7220 -29.400  8.2500  5.9610  5.7220 
  5724.000 -40.328  8.1780  6.0260  5.6640 -29.319  8.1780  6.0260  5.6640 
  5724.500 -40.090  8.1350  6.1050  5.6420 -29.081  8.1350  6.1050  5.6420 
  5725.000 -39.959  8.0700  6.2410  5.6280 -28.949  8.0700  6.2410  5.6280 
  5725.500 -39.934  7.9980  6.4560  5.6130 -28.923  7.9980  6.4560  5.6130 
  5726.000 -39.838  7.8910  6.7140  5.5840 -28.826  7.8910  6.7140  5.5840 
  5726.500 -39.741  7.7400  6.8720  5.5260 -28.729  7.7400  6.8720  5.5260 
  5727.000 -39.716  7.6330  7.0660  5.4760 -28.703  7.6330  7.0660  5.4760 
  5727.500 -39.620  7.5110  7.2600  5.3750 -28.606  7.5110  7.2600  5.3750 
  5728.000 -39.523  7.3890  7.4030  5.2740 -28.509  7.3890  7.4030  5.2740 
  5728.500 -39.248  7.0730  7.4960  5.2020 -28.233  7.0730  7.4960  5.2020 
  5729.000 -38.439  6.8870  7.5680  5.0720 -27.423  6.8870  7.5680  5.0720 
  5729.500 -37.914  6.6930  7.6610  4.9430 -26.897  6.6930  7.6610  4.9430 
  5730.000 -37.567  6.4850  7.5680  4.8780 -26.550  6.4850  7.5680  4.8780 
  5730.500 -37.274  6.3840  7.5250  4.7770 -26.256  6.3840  7.5250  4.7770 
  5731.000 -37.053  6.3130  7.4680  4.6750 -26.034  6.3130  7.4680  4.6750 
  5731.500 -37.046  6.3700  7.3820  4.7380 -26.026  6.3700  7.3820  4.7380 
  5732.000 -37.253  6.4560  7.3530  4.8160 -26.233  6.4560  7.3530  4.8160 
  5732.500 -37.318  6.4780  7.4100  4.9660 -26.297  6.4780  7.4100  4.9660 
  5733.000 -37.025  6.4630  7.5610  5.1370 -26.003  6.4630  7.5610  5.1370 
  5733.500 -36.268  6.3060  7.7550  5.3370 -25.246  6.3060  7.7550  5.3370 
  5734.000 -35.333  5.9040  7.8690  5.4360 -24.310  5.9040  7.8690  5.4360 
  5734.500 -34.076  5.4880  7.9480  5.5210 -23.052  5.4880  7.9480  5.5210 
  5735.000 -32.641  5.1510  7.9910  5.5560 -21.616  5.1510  7.9910  5.5560 
  5735.500 -27.602  4.6560  7.9050  5.5120 -16.577  4.6560  7.9050  5.5120 
  5736.000 -25.203  4.4690  7.1950  5.1230 -14.177  4.4690  7.1950  5.1230 
  5736.500 -23.411  4.3540  6.6210  4.8420 -12.384  4.3540  6.6210  4.8420 
  5737.000 -21.869  4.2830  5.6380  4.6480 -10.841  4.2830  5.6380  4.6480 
  5737.500 -21.148  4.2830  5.3590  4.3740 -10.120  4.2830  5.3590  4.3740 
  5738.000 -20.606  4.4120  5.1510  4.2730 -9.5770  4.4120  5.1510  4.2730 
  5738.500 -20.313  4.7060  4.8990  4.4790 -9.2833  4.7060  4.8990  4.4790 
  5739.000 -20.057  4.8350  4.7920  4.6220 -9.0266  4.8350  4.7920  4.6220 
  5739.500 -19.942  4.9140  4.9070  5.0150 -8.9108  4.9140  4.9070  5.0150 
  5740.000 -19.864  5.0000  5.0570  5.2580 -8.8321  5.0000  5.0570  5.2580 
  5740.500 -20.290  5.1440  5.3230  5.5390 -9.2574  5.1440  5.3230  5.5390 
  5741.000 -22.751  5.3590  5.5600  5.6480 -11.718  5.3590  5.5600  5.6480 
  5741.500 -25.498  5.4890  5.7830  5.7670 -14.464  5.4890  5.7830  5.7670 
  5742.000 -27.138  5.5970  5.9840  5.8870 -16.103  5.5970  5.9840  5.8870 
  5742.500 -28.028  5.6540  6.1640  6.1310 -16.992  5.6540  6.1640  6.1310 
  5743.000 -28.277  5.6910  6.3650  6.2620 -17.241  5.6910  6.3650  6.2620 
  5743.500 -26.990  5.7410  6.5590  6.4780 -15.953  5.7410  6.5590  6.4780 
  5744.000 -26.702  5.7700  6.7530  6.6940 -15.664  5.7700  6.7530  6.6940 
  5744.500 -28.378  5.7920  6.9040  6.9250 -17.340  5.7920  6.9040  6.9250 
  5745.000 -29.625  5.6850  7.0410  7.1480 -18.586  5.6850  7.0410  7.1480 
  5745.500 -30.623  5.4420  7.1420  7.2640 -19.583  5.4420  7.1420  7.2640 
  5746.000 -30.729  5.2700  7.1960  7.0790 -19.688  5.2700  7.1960  7.0790 
  5746.500 -28.763  5.0910  7.2500  6.8930 -17.722  5.0910  7.2500  6.8930 
  5747.000 -24.336  4.9690  6.8630  6.6940 -13.294  4.9690  6.8630  6.6940 
  5747.500 -22.478  4.6900  6.2750  6.2430 -11.435  4.6900  6.2750  6.2430 
  5748.000 -21.227  4.4600  5.4580  5.8920 -10.184  4.4600  5.4580  5.8920 
  5748.500 -20.297  4.3250  4.8770  5.2980 -9.2528  4.3250  4.8770  5.2980 
  5749.000 -19.759  4.1600  4.4760  4.9830 -8.7141  4.1600  4.4760  4.9830 
  5749.500 -19.221  4.0380  4.1960  4.7980 -8.1753  4.0380  4.1960  4.7980 
  5750.000 -18.508  3.9310  4.0530  4.7130 -7.4616  3.9310  4.0530  4.7130 
  5750.500 -18.258  3.8950  4.0320  4.6890 -7.2109  3.8950  4.0320  4.6890 
  5751.000 -18.222  3.9380  4.0570  4.6870 -7.1742  3.9380  4.0570  4.6870 
  5751.500 -18.151  4.0820  4.0820  4.6920 -7.1024  4.0820  4.0820  4.6920 
  5752.000 -18.222  4.1460  4.2180  4.7540 -7.1727  4.1460  4.2180  4.7540 
  5752.500 -18.472  4.2110  4.3690  4.8310 -7.4220  4.2110  4.3690  4.8310 
  5753.000 -18.686  4.4480  4.6340  4.9220 -7.6353  4.4480  4.6340  4.9220 
  5753.500 -19.150  4.5550  4.8350  5.0210 -8.0986  4.5550  4.8350  5.0210 
  5754.000 -19.578  4.7630  5.0000  5.0720 -8.5258  4.7630  5.0000  5.0720 
  5754.500 -20.471  4.9350  5.0970  5.1240 -9.4181  4.9350  5.0970  5.1240 
  5755.000 -21.363  5.1720  5.1940  5.2220 -10.309  5.1720  5.1940  5.2220 
  5755.500 -23.041  5.3940  5.3870  5.2920 -11.987  5.3940  5.3870  5.2920 
  5756.000 -24.075  5.5020  5.5090  5.3250 -13.020  5.5020  5.5090  5.3250 
  5756.500 -26.217  5.6890  5.6020  5.3380 -15.161  5.6890  5.6020  5.3380 
  5757.000 -28.680  5.8030  5.6310  5.3720 -17.623  5.8030  5.6310  5.3720 
  5757.500 -31.357  6.0040  5.6670  5.4050 -20.300  6.0040  5.6670  5.4050 
  5758.000 -32.963  6.0830  5.6880  5.4320 -21.905  6.0830  5.6880  5.4320 
  5758.500 -34.177  6.2050  5.6740  5.4580 -23.118  6.2050  5.6740  5.4580 
  5759.000 -35.104  6.3270  5.6600  5.4890 -24.045  6.3270  5.6600  5.4890 
  5759.500 -35.890  6.5140  5.5670  5.5190 -24.830  6.5140  5.5670  5.5190 
  5760.000 -36.425  6.6000  5.5020  5.5740 -25.364  6.6000  5.5020  5.5740 
  5760.500 -36.850  6.6720  5.4670  5.6530 -25.788  6.6720  5.4670  5.6530 
  5761.000 -37.203  6.7300  5.4960  5.7100 -26.141  6.7300  5.4960  5.7100 
  5761.500 -37.199  6.7810  5.5900  5.7890 -26.136  6.7810  5.5900  5.7890 
  5762.000 -36.982  6.8250  5.6480  5.8970 -25.918  6.8250  5.6480  5.8970 
  5762.500 -36.728  6.8610  5.7350  6.0260 -25.664  6.8610  5.7350  6.0260 
  5763.000 -36.581  6.9270  5.7860  6.1690 -25.516  6.9270  5.7860  6.1690 
  5763.500 -36.434  6.9850  5.8440  6.3050 -25.368  6.9850  5.8440  6.3050 
  5764.000 -36.216  7.0220  5.8880  6.3880 -25.149  7.0220  5.8880  6.3880 
  5764.500 -35.999  7.0580  5.9240  6.4710 -24.932  7.0580  5.9240  6.4710 
  5765.000 -35.819  7.1160  5.9400  6.6860 -24.751  7.1160  5.9400  6.6860 
  5765.500 -35.815  7.1750  5.9550  6.7580 -24.746  7.1750  5.9550  6.7580 
  5766.000 -35.812  7.2680  5.9560  6.7720 -24.742  7.2680  5.9560  6.7720 
  5766.500 -35.986  7.3980  5.9270  6.7070 -24.916  7.3980  5.9270  6.7070 
