~Version Information
VERS.                     2.0: CWLS log ASCII Standard Version 2.00
WRAP.                      NO: One line per depth step
~Well Information Block
#MNEM.UNIT                               Data Type  Information
#---------                               ---------  -----------
STRT.FT                                   500.0000:
STOP.FT                                  8200.0000:
STEP.FT                                     0.5000:
NULL.                 -999.25                     :
COMP.                                             :COMPANY            
WELL.     CCMO 87-20                              :WELL               
FLD .                                             :FIELD              
CTRY.                                             :COUNTRY            
STAT.                                             :STATE              
LOC .                                             :LOCATION           
UWI .                                             :UNIQUE WELL ID     
SRVC.                                             :Service company    
DATE.                                             :LOG DATE           
~Curve Information
#MNEM.UNIT           API CODE  Curve Description
#---------           --------  -----------------
DEPT.FT                      :   1 DEPTH
SP  .MV                      :   2
AM16.OHMM                    :   3
AO10.OHMM                    :   4
AO19.OHMM                    :   5
SBL .MV                      :   6
RS  .OHMM                    :   7
RM  .OHMM                    :   8
RD  .OHMM                    :   9
~A
# ...
  5535.000 -11.632  4.0026  4.2395  3.2408 -11.059  4.0026  4.2395  3.2408 
  5535.500 -11.770  4.0138  4.6923  3.2855 -11.198  4.0138  4.6923  3.2855 
  5536.000 -11.901  4.0264  5.0912  3.3241 -11.331  4.0264  5.0912  3.3241 
  5536.500 -12.143  4.0389  5.3687  3.3553 -11.574  4.0389  5.3687  3.3553 
  5537.000 -13.271  4.0515  5.4915  3.3711 -12.703  4.0515  5.4915  3.3711 
  5537.500 -15.160  4.0632  5.5179  3.3767 -14.594  4.0632  5.5179  3.3767 
  5538.000 -16.763  4.0699  5.4944  3.3534 -16.198  4.0699  5.4944  3.3534 
  5538.500 -17.729  4.0772  5.3541  3.3205 -17.166  4.0772  5.3541  3.3205 
  5539.000 -17.655  4.0864  5.0712  3.2554 -17.093  4.0864  5.0712  3.2554 
  5539.500 -17.508  4.0943  4.7842  3.1842 -16.947  4.0943  4.7842  3.1842 
  5540.000 -17.374  4.1135  4.5026  3.1263 -16.815  4.1135  4.5026  3.1263 
  5540.500 -17.249  4.1956  4.3577  3.1131 -16.691  4.1956  4.3577  3.1131 
  5541.000 -17.642  4.3036  4.2822  3.1417 -17.086  4.3036  4.2822  3.1417 
  5541.500 -21.369  4.4126  4.3359  3.2060 -20.814  4.4126  4.3359  3.2060 
  5542.000 -23.374  4.5261  4.3831  3.4403 -22.821  4.5261  4.3831  3.4403 
  5542.500 -26.280  4.6860  4.4129  3.8896 -25.728  4.6860  4.4129  3.8896 
  5543.000 -28.184  4.8580  4.4396  4.2357 -27.634  4.8580  4.4396  4.2357 
  5543.500 -29.190  5.0014  4.4571  4.5343 -28.641  5.0014  4.4571  4.5343 
  5544.000 -29.827  5.1035  4.4688  4.7796 -29.279  5.1035  4.4688  4.7796 
  5544.500 -30.479  5.2012  4.4682  4.9973 -29.933  5.2012  4.4682  4.9973 
  5545.000 -31.236  5.2990  4.4629  5.1858 -30.692  5.2990  4.4629  5.1858 
  5545.500 -32.142  5.3990  4.4478  5.3122 -31.599  5.3990  4.4478  5.3122 
  5546.000 -33.110  5.4981  4.4332  5.3728 -32.568  5.4981  4.4332  5.3728 
  5546.500 -34.126  5.5925  4.4198  5.3995 -33.585  5.5925  4.4198  5.3995 
  5547.000 -35.207  5.6688  4.3737  5.2149 -34.668  5.6688  4.3737  5.2149 
  5547.500 -36.434  5.7296  4.2984  4.9404 -35.896  5.7296  4.2984  4.9404 
  5548.000 -37.655  5.7929  4.2136  4.7374 -37.119  5.7929  4.2136  4.7374 
  5548.500 -39.785  5.9075  4.1305  4.6213 -39.250  5.9075  4.1305  4.6213 
  5549.000 -41.281  6.0518  4.0571  4.5613 -40.748  6.0518  4.0571  4.5613 
  5549.500 -43.043  6.2918  3.9908  4.5337 -42.511  6.2918  3.9908  4.5337 
  5550.000 -44.949  6.4539  3.9610  4.5268 -44.419  6.4539  3.9610  4.5268 
  5550.500 -45.947  6.5872  4.0294  4.5386 -45.418  6.5872  4.0294  4.5386 
  5551.000 -46.354  6.6930  4.1329  4.5541 -45.826  6.6930  4.1329  4.5541 
  5551.500 -46.913  6.7683  4.2449  4.5699 -46.387  6.7683  4.2449  4.5699 
  5552.000 -47.725  6.8445  4.3554  4.5914 -47.200  6.8445  4.3554  4.5914 
  5552.500 -48.623  6.9079  4.4840  4.6289 -48.100  6.9079  4.4840  4.6289 
  5553.000 -49.725  6.8914  4.5598  4.6865 -49.203  6.8914  4.5598  4.6865 
  5553.500 -50.267  6.8701  4.6409  4.7696 -49.747  6.8701  4.6409  4.7696 
  5554.000 -49.352  6.7119  4.7017  4.7309 -48.833  6.7119  4.7017  4.7309 
  5554.500 -46.783  6.3437  4.7360  4.6501 -46.265  6.3437  4.7360  4.6501 
  5555.000 -44.656  5.7498  4.7492  4.5084 -44.140  5.7498  4.7492  4.5084 
  5555.500 -42.530  5.3086  4.7240  4.2902 -42.016  5.3086  4.7240  4.2902 
  5556.000 -40.281  5.0895  4.6843  4.0911 -39.768  5.0895  4.6843  4.0911 
  5556.500 -37.888  4.9672  4.6006  3.8981 -37.376  4.9672  4.6006  3.8981 
  5557.000 -35.967  4.8166  4.4521  3.6753 -35.457  4.8166  4.4521  3.6753 
  5557.500 -34.536  4.9011  4.2378  3.4994 -34.027  4.9011  4.2378  3.4994 
  5558.000 -34.880  5.0353  4.0531  3.4151 -34.373  5.0353  4.0531  3.4151 
  5558.500 -36.516  5.3209  3.8676  3.3714 -36.010  5.3209  3.8676  3.3714 
  5559.000 -40.441  5.8146  3.7575  3.4405 -39.936  5.8146  3.7575  3.4405 
  5559.500 -45.410  6.3041  3.7247  3.6440 -44.907  6.3041  3.7247  3.6440 
  5560.000 -49.406  6.8153  4.1536  3.8046 -48.904  6.8153  4.1536  3.8046 
  5560.500 -52.398  7.2001  4.3621  3.9203 -51.897  7.2001  4.3621  3.9203 
  5561.000 -55.176  7.4978  4.5602  4.0108 -54.677  7.4978  4.5602  4.0108 
  5561.500 -57.230  7.6652  4.7162  3.9859 -56.733  7.6652  4.7162  3.9859 
  5562.000 -58.931  7.7910  4.8374  3.9414 -58.435  7.7910  4.8374  3.9414 
  5562.500 -59.620  7.8226  4.9480  3.9000 -59.125  7.8226  4.9480  3.9000 
  5563.000 -59.652  7.7994  5.0067  3.8554 -59.158  7.7994  5.0067  3.8554 
  5563.500 -59.345  7.7691  5.0339  3.8271 -58.853  7.7691  5.0339  3.8271 
  5564.000 -58.946  7.7247  5.0468  3.8261 -58.455  7.7247  5.0468  3.8261 
  5564.500 -58.123  7.7005  5.0389  3.8253 -57.634  7.7005  5.0389  3.8253 
  5565.000 -57.247  7.6828  5.0081  3.8530 -56.760  7.6828  5.0081  3.8530 
  5565.500 -56.073  7.6962  4.9049  3.8758 -55.587  7.6962  4.9049  3.8758 
  5566.000 -54.993  7.7164  4.8060  3.8995 -54.508  7.7164  4.8060  3.8995 
  5566.500 -53.823  7.7443  4.7255  3.9270 -53.340  7.7443  4.7255  3.9270 
  5567.000 -54.304  7.7436  4.6498  3.9379 -53.822  7.7436  4.6498  3.9379 
  5567.500 -55.314  7.7399  4.5690  3.9418 -54.834  7.7399  4.5690  3.9418 
  5568.000 -56.085  7.7108  4.5019  3.9497 -55.606  7.7108  4.5019  3.9497 
  5568.500 -56.236  7.6037  4.4626  3.9538 -55.758  7.6037  4.4626  3.9538 
  5569.000 -56.274  7.4579  4.4806  3.9452 -55.798  7.4579  4.4806  3.9452 
  5569.500 -55.610  7.2704  4.5341  3.9277 -55.136  7.2704  4.5341  3.9277 
  5570.000 -54.632  7.0331  4.6084  3.8923 -54.159  7.0331  4.6084  3.8923 
  5570.500 -53.800  6.8340  4.6588  3.8550 -53.328  6.8340  4.6588  3.8550 
  5571.000 -53.347  6.6177  4.6899  3.8483 -52.877  6.6177  4.6899  3.8483 
  5571.500 -52.766  6.4476  4.7113  3.8552 -52.297  6.4476  4.7113  3.8552 
  5572.000 -51.845  6.3163  4.7317  3.8612 -51.378  6.3163  4.7317  3.8612 
  5572.500 -51.029  6.1926  4.7477  3.8666 -50.563  6.1926  4.7477  3.8666 
  5573.000 -50.226  6.0967  4.7253  3.8296 -49.762  6.0967  4.7253  3.8296 
  5573.500 -49.191  5.9839  4.6641  3.8061 -48.728  5.9839  4.6641  3.8061 
  5574.000 -48.601  5.9469  4.5801  3.7765 -48.139  5.9469  4.5801  3.7765 
  5574.500 -47.926  6.0676  4.4811  3.7493 -47.466  6.0676  4.4811  3.7493 
  5575.000 -47.928  6.2994  4.3940  3.7244 -47.470  6.2994  4.3940  3.7244 
  5575.500 -48.306  6.5680  4.3251  3.7107 -47.849  6.5680  4.3251  3.7107 
  5576.000 -51.038  6.8658  4.2650  3.7891 -50.582  6.8658  4.2650  3.7891 
  5576.500 -53.678  7.1717  4.3938  3.8538 -53.224  7.1717  4.3938  3.8538 
  5577.000 -56.223  7.4270  4.5320  3.9185 -55.770  7.4270  4.5320  3.9185 
  5577.500 -57.802  7.6534  4.6679  3.9852 -57.350  7.6534  4.6679  3.9852 
  5578.000 -58.569  7.8115  4.7970  4.0548 -58.119  7.8115  4.7970  4.0548 
  5578.500 -59.058  7.9365  4.9169  4.1178 -58.609  7.9365  4.9169  4.1178 
  5579.000 -59.298  8.0285  5.0114  4.1788 -58.851  8.0285  5.0114  4.1788 
  5579.500 -59.492  8.0106  5.0896  4.2404 -59.046  8.0106  5.0896  4.2404 
  5580.000 -59.625  7.9498  5.1333  4.3007 -59.180  7.9498  5.1333  4.3007 
  5580.500 -59.778  7.8658  5.0931  4.3522 -59.335  7.8658  5.0931  4.3522 
  5581.000 -59.970  7.7912  5.0244  4.2747 -59.528  7.7912  5.0244  4.2747 
  5581.500 -60.181  7.6907  4.9774  4.2271 -59.740  7.6907  4.9774  4.2271 
  5582.000 -60.362  7.5832  4.9239  4.2165 -59.924  7.5832  4.9239  4.2165 
  5582.500 -60.441  7.4879  4.8732  4.2077 -60.004  7.4879  4.8732  4.2077 
  5583.000 -59.527  7.3453  4.8245  4.1767 -59.091  7.3453  4.8245  4.1767 
  5583.500 -57.790  7.0999  4.7694  4.1349 -57.356  7.0999  4.7694  4.1349 
  5584.000 -55.886  6.8551  4.6980  4.0874 -55.453  6.8551  4.6980  4.0874 
  5584.500 -54.632  6.6655  4.6286  4.0230 -54.200  6.6655  4.6286  4.0230 
  5585.000 -53.974  6.5060  4.5594  3.9467 -53.544  6.5060  4.5594  3.9467 
  5585.500 -53.595  6.4536  4.4938  3.8584 -53.167  6.4536  4.4938  3.8584 
  5586.000 -53.464  6.6112  4.4345  3.7576 -53.037  6.6112  4.4345  3.7576 
  5586.500 -54.307  6.8612  4.4037  3.6671 -53.881  6.8612  4.4037  3.6671 
  5587.000 -55.725  7.1221  4.4891  3.7025 -55.300  7.1221  4.4891  3.7025 
  5587.500 -56.994  7.3964  4.5655  3.7674 -56.571  7.3964  4.5655  3.7674 
