~Version Information
VERS.                     2.0: CWLS log ASCII Standard Version 2.00
WRAP.                      NO: One line per depth step
~Well Information Block
#MNEM.UNIT                               Data Type  Information
#---------                               ---------  -----------
STRT.FT                                   500.0000:
STOP.FT                                  8200.0000:
STEP.FT                                     0.5000:
NULL.                 -999.25                     :
COMP.                                             :COMPANY            
WELL.     CCMO 87-20                              :WELL               
FLD .                                             :FIELD              
CTRY.                                             :COUNTRY            
STAT.                                             :STATE              
LOC .                                             :LOCATION           
UWI .                                             :UNIQUE WELL ID     
SRVC.                                             :Service company    
DATE.                                             :LOG DATE           
~Curve Information
#MNEM.UNIT           API CODE  Curve Description
#---------           --------  -----------------
DEPT.FT                      :   1 DEPTH
SP  .MV                      :   2
AM16.OHMM                    :   3
AO10.OHMM                    :   4
AO19.OHMM                    :   5
SBL .MV                      :   6
RS  .OHMM                    :   7
RM  .OHMM                    :   8
RD  .OHMM                    :   9
~A
# ...
  3521.000 -38.212  8.3161  11.001  8.8114 -26.747  8.3161  11.001  8.8114 
  3521.500 -39.820  8.4820  11.447  9.3399 -28.351  8.4820  11.447  9.3399 
  3522.000 -41.010  8.6196  11.821  9.8589 -29.537  8.6196  11.821  9.8589 
  3522.500 -41.231  8.6823  12.188  10.352 -29.755  8.6823  12.188  10.352 
  3523.000 -41.438  8.7012  12.533  10.737 -29.958  8.7012  12.533  10.737 
  3523.500 -41.246  8.6620  12.829  11.026 -29.763  8.6620  12.829  11.026 
  3524.000 -40.918  8.5642  13.111  11.254 -29.431  8.5642  13.111  11.254 
  3524.500 -40.592  8.3738  13.351  11.402 -29.102  8.3738  13.351  11.402 
  3525.000 -40.199  8.0782  13.525  11.536 -28.705  8.0782  13.525  11.536 
  3525.500 -39.819  7.6875  13.648  11.596 -28.322  7.6875  13.648  11.596 
  3526.000 -36.960  7.2818  13.763  11.648 -25.459  7.2818  13.763  11.648 
  3526.500 -32.052  6.8647  13.806  11.344 -20.547  6.8647  13.806  11.344 
  3527.000 -25.455  6.4271  13.774  10.735 -13.946  6.4271  13.774  10.735 
  3527.500 -20.839  5.9643  13.331  9.9638 -9.3267  5.9643  13.331  9.9638 
  3528.000 -17.920  5.5687  12.526  9.1911 -6.4041  5.5687  12.526  9.1911 
  3528.500 -16.124  5.2153  11.765  8.4998 -4.6043  5.2153  11.765  8.4998 
  3529.000 -15.222  5.0874  11.195  7.9561 -3.6991  5.0874  11.195  7.9561 
  3529.500 -15.366  5.0732  10.219  7.5633 -3.8399  5.0732  10.219  7.5633 
  3530.000 -15.708  5.1599  8.0805  7.2037 -4.1784  5.1599  8.0805  7.2037 
  3530.500 -16.321  5.4525  6.8984  7.1895 -4.7868  5.4525  6.8984  7.1895 
  3531.000 -20.149  6.0187  6.2498  7.4286 -8.6112  6.0187  6.2498  7.4286 
  3531.500 -25.652  6.5922  6.3861  7.9562 -14.111  6.5922  6.3861  7.9562 
  3532.000 -30.246  7.1330  6.7348  8.4971 -18.702  7.1330  6.7348  8.4971 
  3532.500 -32.796  7.7071  7.1225  9.0717 -21.247  7.7071  7.1225  9.0717 
  3533.000 -34.798  8.1851  7.5712  9.5852 -23.246  8.1851  7.5712  9.5852 
  3533.500 -36.668  8.6285  8.2479  10.128 -25.113  8.6285  8.2479  10.128 
  3534.000 -38.529  9.1427  8.9523  10.576 -26.970  9.1427  8.9523  10.576 
  3534.500 -40.456  9.6232  9.4528  10.991 -28.893  9.6232  9.4528  10.991 
  3535.000 -42.692  10.225  9.7505  11.381 -31.126  10.225  9.7505  11.381 
  3535.500 -42.336  10.710  9.9269  11.740 -30.766  10.710  9.9269  11.740 
  3536.000 -41.768  11.110  10.078  12.041 -30.195  11.110  10.078  12.041 
  3536.500 -41.480  11.593  10.245  12.276 -29.903  11.593  10.245  12.276 
  3537.000 -42.296  12.049  10.447  12.494 -30.716  12.049  10.447  12.494 
  3537.500 -43.490  12.448  10.650  12.703 -31.906  12.448  10.650  12.703 
  3538.000 -44.754  12.868  10.847  12.947 -33.166  12.868  10.847  12.947 
  3538.500 -45.951  13.287  11.043  13.234 -34.360  13.287  11.043  13.234 
  3539.000 -47.177  13.706  11.240  13.547 -35.582  13.706  11.240  13.547 
  3539.500 -48.415  14.115  11.469  13.898 -36.816  14.115  11.469  13.898 
  3540.000 -49.309  14.459  11.686  14.251 -37.707  14.459  11.686  14.251 
  3540.500 -49.936  14.766  11.937  14.620 -38.330  14.766  11.937  14.620 
  3541.000 -50.140  15.001  12.210  15.000 -38.531  15.001  12.210  15.000 
  3541.500 -50.222  15.130  12.557  15.385 -38.609  15.130  12.557  15.385 
  3542.000 -50.184  15.229  12.966  15.683 -38.567  15.229  12.966  15.683 
  3542.500 -50.156  15.289  13.572  16.002 -38.536  15.289  13.572  16.002 
  3543.000 -49.540  15.320  14.209  16.304 -37.916  15.320  14.209  16.304 
  3543.500 -48.612  15.269  15.079  16.588 -36.984  15.269  15.079  16.588 
  3544.000 -48.020  15.116  16.251  16.828 -36.389  15.116  16.251  16.828 
  3544.500 -47.744  14.377  17.362  17.024 -36.109  14.377  17.362  17.024 
  3545.000 -47.511  13.645  18.215  17.153 -35.872  13.645  18.215  17.153 
  3545.500 -46.934  12.921  18.958  17.143 -35.292  12.921  18.958  17.143 
  3546.000 -44.389  11.912  19.470  16.926 -32.743  11.912  19.470  16.926 
  3546.500 -41.037  11.171  19.787  16.662 -29.388  11.171  19.787  16.662 
  3547.000 -38.076  10.310  19.826  16.166 -26.423  10.310  19.826  16.166 
  3547.500 -35.088  9.5015  19.768  15.336 -23.431  9.5015  19.768  15.336 
  3548.000 -32.518  8.7456  19.636  14.037 -20.858  8.7456  19.636  14.037 
  3548.500 -30.211  8.0802  19.187  12.942 -18.547  8.0802  19.187  12.942 
  3549.000 -28.562  7.6250  18.572  12.012 -16.895  7.6250  18.572  12.012 
  3549.500 -27.521  7.3190  17.616  11.064 -15.850  7.3190  17.616  11.064 
  3550.000 -26.255  7.0510  16.496  8.6482 -14.580  7.0510  16.496  8.6482 
  3550.500 -27.177  7.0940  13.053  8.2428 -15.499  7.0940  13.053  8.2428 
  3551.000 -29.687  7.2060  12.648  8.3454 -18.005  7.2060  12.648  8.3454 
  3551.500 -33.383  7.3466  12.766  8.6351 -21.698  7.3466  12.766  8.6351 
  3552.000 -35.792  7.4948  12.970  9.0060 -24.103  7.4948  12.970  9.0060 
  3552.500 -36.455  7.6552  13.197  9.3842 -24.762  7.6552  13.197  9.3842 
  3553.000 -36.688  7.8362  13.450  9.7631 -24.992  7.8362  13.450  9.7631 
  3553.500 -36.877  8.1039  13.672  10.245 -25.177  8.1039  13.672  10.245 
  3554.000 -37.045  8.4278  13.858  10.704 -25.341  8.4278  13.858  10.704 
  3554.500 -37.246  8.7927  14.093  11.363 -25.539  8.7927  14.093  11.363 
  3555.000 -37.833  9.2449  14.315  12.101 -26.122  9.2449  14.315  12.101 
  3555.500 -39.473  9.8217  14.542  12.935 -27.758  9.8217  14.542  12.935 
  3556.000 -41.142  10.466  14.805  14.189 -29.424  10.466  14.805  14.189 
  3556.500 -42.924  10.966  15.145  15.240 -31.202  10.966  15.145  15.240 
  3557.000 -44.235  11.423  15.700  16.318 -32.509  11.423  15.700  16.318 
  3557.500 -45.444  11.771  16.512  17.029 -33.715  11.771  16.512  17.029 
  3558.000 -46.742  12.069  17.310  18.193 -35.009  12.069  17.310  18.193 
  3558.500 -47.565  12.282  18.093  19.072 -35.829  12.282  18.093  19.072 
  3559.000 -48.176  12.384  18.494  19.951 -36.436  12.384  18.494  19.951 
  3559.500 -48.618  12.429  18.668  22.047 -36.875  12.429  18.668  22.047 
  3560.000 -48.571  12.198  18.788  23.299 -36.824  12.198  18.788  23.299 
  3560.500 -48.476  10.834  18.843  24.260 -36.726  10.834  18.843  24.260 
  3561.000 -47.443  9.9790  18.846  24.588 -35.689  9.9790  18.846  24.588 
  3561.500 -46.019  9.1656  18.700  24.648 -34.261  9.1656  18.700  24.648 
  3562.000 -42.716  8.3934  18.316  24.397 -30.954  8.3934  18.316  24.397 
  3562.500 -37.863  7.5989  17.238  22.590 -26.098  7.5989  17.238  22.590 
  3563.000 -32.814  6.8993  15.659  19.697 -21.046  6.8993  15.659  19.697 
  3563.500 -27.623  6.2997  14.796  18.714 -15.851  6.2997  14.796  18.714 
  3564.000 -24.025  5.7277  13.877  17.943 -12.250  5.7277  13.877  17.943 
  3564.500 -21.955  5.1528  12.656  12.219 -10.175  5.1528  12.656  12.219 
  3565.000 -20.420  4.7583  8.4777  11.302 -8.6368  4.7583  8.4777  11.302 
  3565.500 -19.320  4.7169  7.5645  10.424 -7.5333  4.7169  7.5645  10.424 
  3566.000 -18.639  4.7308  7.3550  9.5660 -6.8482  4.7308  7.3550  9.5660 
  3566.500 -18.367  4.8474  7.4755  8.9587 -6.5733  4.8474  7.4755  8.9587 
  3567.000 -20.855  4.9657  7.8139  9.2909 -9.0572  4.9657  7.8139  9.2909 
  3567.500 -22.483  5.0835  8.4052  9.5876 -10.682  5.0835  8.4052  9.5876 
  3568.000 -23.978  5.1505  9.0150  9.7704 -12.173  5.1505  9.0150  9.7704 
  3568.500 -24.998  5.2098  9.3770  9.8524 -13.189  5.2098  9.3770  9.8524 
  3569.000 -25.216  5.1776  9.5591  9.5974 -13.404  5.1776  9.5591  9.5974 
  3569.500 -23.863  5.0939  9.6566  9.0843 -12.047  5.0939  9.6566  9.0843 
  3570.000 -22.362  4.9908  9.6731  8.6085 -10.542  4.9908  9.6731  8.6085 
  3570.500 -22.726  4.8722  9.2820  8.2137 -10.903  4.8722  9.2820  8.2137 
  3571.000 -22.789  4.7579  8.9522  7.9466 -10.963  4.7579  8.9522  7.9466 
  3571.500 -22.372  4.6571  8.6896  7.7374 -10.541  4.6571  8.6896  7.7374 
  3572.000 -20.578  4.5563  8.4115  7.5895 -8.7438  4.5563  8.4115  7.5895 
  3572.500 -20.999  4.4729  8.0994  7.4778 -9.1618  4.4729  8.0994  7.4778 
  3573.000 -21.389  4.3928  7.8289  7.3806 -9.5483  4.3928  7.8289  7.3806 
  3573.500 -21.612  4.3088  7.5580  7.2899 -9.7671  4.3088  7.5580  7.2899 
