~Version Information
VERS.                     2.0: CWLS log ASCII Standard Version 2.00
WRAP.                      NO: One line per depth step
~Well Information Block
#MNEM.UNIT                               Data Type  Information
#---------                               ---------  -----------
STRT.FT                                   500.0000:
STOP.FT                                  8200.0000:
STEP.FT                                     0.5000:
NULL.                 -999.25                     :
COMP.                                             :COMPANY            
WELL.     CCMO 87-20                              :WELL               
FLD .                                             :FIELD              
CTRY.                                             :COUNTRY            
STAT.                                             :STATE              
LOC .                                             :LOCATION           
UWI .                                             :UNIQUE WELL ID     
SRVC.                                             :Service company    
DATE.                                             :LOG DATE           
~Curve Information
#MNEM.UNIT           API CODE  Curve Description
#---------           --------  -----------------
DEPT.FT                      :   1 DEPTH
SP  .MV                      :   2
AM16.OHMM                    :   3
AO10.OHMM                    :   4
AO19.OHMM                    :   5
SBL .MV                      :   6
RS  .OHMM                    :   7
RM  .OHMM                    :   8
RD  .OHMM                    :   9
~A
# ...
  6542.000 -10.084  1.4274  1.7497  2.0024 -4.0843  1.4274  1.7497  2.0024 
  6542.500 -10.217  1.4353  1.7682  2.0131 -4.2174  1.4353  1.7682  2.0131 
  6543.000 -10.401  1.4349  1.7832  2.0251 -4.4013  1.4349  1.7832  2.0251 
  6543.500 -10.576  1.4340  1.7824  2.0339 -4.5764  1.4340  1.7824  2.0339 
  6544.000 -10.745  1.4318  1.7558  2.0412 -4.7446  1.4318  1.7558  2.0412 
  6544.500 -10.468  1.4267  1.7270  2.0321 -4.4685  1.4267  1.7270  2.0321 
  6545.000 -10.199  1.4242  1.6984  1.9843 -4.1993  1.4242  1.6984  1.9843 
  6545.500 -9.9840  1.4184  1.6703  1.9158 -3.9840  1.4184  1.6703  1.9158 
  6546.000 -9.6866  1.4095  1.6197  1.8507 -3.6866  1.4095  1.6197  1.8507 
  6546.500 -9.4111  1.4007  1.5722  1.7855 -3.4111  1.4007  1.5722  1.7855 
  6547.000 -9.1833  1.3966  1.5630  1.7437 -3.1833  1.3966  1.5630  1.7437 
  6547.500 -8.9812  1.3928  1.5770  1.7564 -2.9812  1.3928  1.5770  1.7564 
  6548.000 -8.8068  1.3903  1.5919  1.7714 -2.8068  1.3903  1.5919  1.7714 
  6548.500 -8.6987  1.3894  1.6099  1.7867 -2.6987  1.3894  1.6099  1.7867 
  6549.000 -8.5980  1.3952  1.6157  1.7994 -2.5980  1.3952  1.6157  1.7994 
  6549.500 -8.5538  1.3947  1.6090  1.8042 -2.5538  1.3947  1.6090  1.8042 
  6550.000 -8.8093  1.4544  1.5524  1.8109 -2.8093  1.4544  1.5524  1.8109 
  6550.500 -9.0180  1.4759  1.5556  1.7903 -3.0180  1.4759  1.5556  1.7903 
  6551.000 -9.1577  1.5027  1.5685  1.7621 -3.1577  1.5027  1.5685  1.7621 
  6551.500 -9.2732  1.5296  1.5846  1.7307 -3.2732  1.5296  1.5846  1.7307 
  6552.000 -9.3022  1.5490  1.6042  1.6936 -3.3022  1.5490  1.6042  1.6936 
  6552.500 -9.3257  1.5670  1.6259  1.6671 -3.3257  1.5670  1.6259  1.6671 
  6553.000 -9.3481  1.5851  1.6536  1.6638 -3.3481  1.5851  1.6536  1.6638 
  6553.500 -9.3695  1.6046  1.6892  1.6762 -3.3695  1.6046  1.6892  1.6762 
  6554.000 -9.3909  1.6245  1.7248  1.7045 -3.3909  1.6245  1.7248  1.7045 
  6554.500 -9.4456  1.6505  1.7601  1.7381 -3.4456  1.6505  1.7601  1.7381 
  6555.000 -9.5563  1.6849  1.7946  1.7761 -3.5563  1.6849  1.7946  1.7761 
  6555.500 -9.7063  1.7219  1.8282  1.8167 -3.7063  1.7219  1.8282  1.8167 
  6556.000 -9.8605  1.7626  1.8531  1.8488 -3.8605  1.7626  1.8531  1.8488 
  6556.500 -10.102  1.7942  1.8780  1.8796 -4.1023  1.7942  1.8780  1.8796 
  6557.000 -10.363  1.8216  1.9011  1.9090 -4.3628  1.8216  1.9011  1.9090 
  6557.500 -10.626  1.8491  1.9239  1.9225 -4.6260  1.8491  1.9239  1.9225 
  6558.000 -10.963  1.8762  1.9466  1.9360 -4.9631  1.8762  1.9466  1.9360 
  6558.500 -11.416  1.9019  1.9694  1.9528 -5.4156  1.9019  1.9694  1.9528 
  6559.000 -11.784  1.9312  1.9875  1.9723 -5.7841  1.9312  1.9875  1.9723 
  6559.500 -12.196  1.9627  2.0056  1.9933 -6.1965  1.9627  2.0056  1.9933 
  6560.000 -12.627  1.9796  2.0320  2.0196 -6.6274  1.9796  2.0320  2.0196 
  6560.500 -12.987  1.9877  2.0456  2.0412 -6.9871  1.9877  2.0456  2.0412 
  6561.000 -13.125  1.9923  2.0394  2.0667 -7.1247  1.9923  2.0394  2.0667 
  6561.500 -12.884  1.9948  2.0255  2.0893 -6.8841  1.9948  2.0255  2.0893 
  6562.000 -12.645  1.9795  2.0163  2.1087 -6.6446  1.9795  2.0163  2.1087 
  6562.500 -12.382  1.9787  2.0009  2.1080 -6.3818  1.9787  2.0009  2.1080 
  6563.000 -12.117  1.9696  1.9824  2.1060 -6.1175  1.9696  1.9824  2.1060 
  6563.500 -11.885  1.9530  1.9627  2.0940 -5.8852  1.9530  1.9627  2.0940 
  6564.000 -11.653  1.9285  1.9451  2.0592 -5.6531  1.9285  1.9451  2.0592 
  6564.500 -11.478  1.9046  1.9313  1.9865 -5.4778  1.9046  1.9313  1.9865 
  6565.000 -11.389  1.8819  1.9249  1.9002 -5.3889  1.8819  1.9249  1.9002 
  6565.500 -11.290  1.8602  1.9341  1.8051 -5.2897  1.8602  1.9341  1.8051 
  6566.000 -11.167  1.8407  1.9434  1.7130 -5.1669  1.8407  1.9434  1.7130 
  6566.500 -11.091  1.8272  1.9526  1.6875 -5.0912  1.8272  1.9526  1.6875 
  6567.000 -11.136  1.8169  1.9676  1.7214 -5.1359  1.8169  1.9676  1.7214 
  6567.500 -11.348  1.8144  1.9818  1.7488 -5.3484  1.8144  1.9818  1.7488 
  6568.000 -11.612  1.8106  1.9943  1.7751 -5.6121  1.8106  1.9943  1.7751 
  6568.500 -11.940  1.8061  2.0034  1.7994 -5.9395  1.8061  2.0034  1.7994 
  6569.000 -12.280  1.8050  2.0110  1.8165 -6.2799  1.8050  2.0110  1.8165 
  6569.500 -12.607  1.8042  2.0139  1.8307 -6.6075  1.8042  2.0139  1.8307 
  6570.000 -12.927  1.8031  2.0167  1.8412 -6.9272  1.8031  2.0167  1.8412 
  6570.500 -13.412  1.8053  2.0160  1.8478 -7.4118  1.8053  2.0160  1.8478 
  6571.000 -13.661  1.8089  2.0152  1.8507 -7.6610  1.8089  2.0152  1.8507 
  6571.500 -13.297  1.8126  2.0142  1.8521 -7.2965  1.8126  2.0142  1.8521 
  6572.000 -13.045  1.8160  2.0251  1.8368 -7.0453  1.8160  2.0251  1.8368 
  6572.500 -12.828  1.8192  2.0368  1.8208 -6.8279  1.8192  2.0368  1.8208 
  6573.000 -12.638  1.8244  2.0434  1.8015 -6.6376  1.8244  2.0434  1.8015 
  6573.500 -12.452  1.8332  2.0523  1.7797 -6.4521  1.8332  2.0523  1.7797 
  6574.000 -12.262  1.8303  2.0640  1.7536 -6.2618  1.8303  2.0640  1.7536 
  6574.500 -12.124  1.8260  2.0839  1.7263 -6.1235  1.8260  2.0839  1.7263 
  6575.000 -12.030  1.8190  2.1042  1.6890 -6.0300  1.8190  2.1042  1.6890 
  6575.500 -11.977  1.8108  2.1165  1.7019 -5.9771  1.8108  2.1165  1.7019 
  6576.000 -12.096  1.8014  2.1298  1.7365 -6.0962  1.8014  2.1298  1.7365 
  6576.500 -12.300  1.7918  2.1464  1.7830 -6.2998  1.7918  2.1464  1.7830 
  6577.000 -12.500  1.7842  2.1599  1.8337 -6.4999  1.7842  2.1599  1.8337 
  6577.500 -12.684  1.7804  2.1685  1.8724 -6.6845  1.7804  2.1685  1.8724 
  6578.000 -12.850  1.7762  2.1746  1.9106 -6.8497  1.7762  2.1746  1.9106 
  6578.500 -12.962  1.7672  2.1739  1.9563 -6.9623  1.7672  2.1739  1.9563 
  6579.000 -12.968  1.7582  2.1782  1.9860 -6.9680  1.7582  2.1782  1.9860 
  6579.500 -12.643  1.7474  2.1866  1.9975 -6.6433  1.7474  2.1866  1.9975 
  6580.000 -11.873  1.7344  2.1934  1.9800 -5.8727  1.7344  2.1934  1.9800 
  6580.500 -11.173  1.7214  2.1258  1.9543 -5.1733  1.7214  2.1258  1.9543 
  6581.000 -10.736  1.7098  2.0772  1.9334 -4.7360  1.7098  2.0772  1.9334 
  6581.500 -10.449  1.6993  2.0468  1.9148 -4.4488  1.6993  2.0468  1.9148 
  6582.000 -10.262  1.6873  2.0235  1.8973 -4.2615  1.6873  2.0235  1.8973 
  6582.500 -10.102  1.6723  1.9997  1.8823 -4.1018  1.6723  1.9997  1.8823 
  6583.000 -9.9941  1.6585  1.9864  1.8713 -3.9941  1.6585  1.9864  1.8713 
  6583.500 -9.9247  1.6471  1.9744  1.8763 -3.9247  1.6471  1.9744  1.8763 
  6584.000 -9.9291  1.6367  1.9732  1.8801 -3.9291  1.6367  1.9732  1.8801 
  6584.500 -9.9492  1.6285  1.9753  1.8840 -3.9492  1.6285  1.9753  1.8840 
  6585.000 -9.9727  1.6186  1.9790  1.8888 -3.9727  1.6186  1.9790  1.8888 
  6585.500 -10.012  1.6066  1.9841  1.8935 -4.0124  1.6066  1.9841  1.8935 
  6586.000 -10.014  1.6006  1.9892  1.9005 -4.0138  1.6006  1.9892  1.9005 
  6586.500 -9.9062  1.5999  1.9938  1.9095 -3.9062  1.5999  1.9938  1.9095 
  6587.000 -9.8083  1.6024  1.9981  1.9188 -3.8083  1.6024  1.9981  1.9188 
  6587.500 -9.8111  1.6045  2.0024  1.9287 -3.8111  1.6045  2.0024  1.9287 
  6588.000 -9.9215  1.6094  2.0070  1.9405 -3.9215  1.6094  2.0070  1.9405 
  6588.500 -10.177  1.6152  2.0163  1.9565 -4.1774  1.6152  2.0163  1.9565 
  6589.000 -10.423  1.6211  2.0313  1.9757 -4.4226  1.6211  2.0313  1.9757 
  6589.500 -10.721  1.6266  2.0398  1.9971 -4.7209  1.6266  2.0398  1.9971 
  6590.000 -10.900  1.6317  2.0486  2.0143 -4.9003  1.6317  2.0486  2.0143 
  6590.500 -10.480  1.6368  2.0629  2.0279 -4.4800  1.6368  2.0629  2.0279 
  6591.000 -10.305  1.6419  2.0344  2.0395 -4.3049  1.6419  2.0344  2.0395 
  6591.500 -10.136  1.6486  2.0135  2.0450 -4.1363  1.6486  2.0135  2.0450 
  6592.000 -10.046  1.6555  1.9984  2.0443 -4.0465  1.6555  1.9984  2.0443 
  6592.500 -9.9772  1.6624  1.9753  2.0371 -3.9772  1.6624  1.9753  2.0371 
  6593.000 -9.9565  1.6694  1.9558  2.0245 -3.9565  1.6694  1.9558  2.0245 
  6593.500 -9.9645  1.6771  1.9383  2.0059 -3.9645  1.6771  1.9383  2.0059 
  6594.000 -10.041  1.6847  1.9326  1.9865 -4.0410  1.6847  1.9326  1.9865 
  6594.500 -10.151  1.6923  1.9273  1.9666 -4.1509  1.6923  1.9273  1.9666 
