~Version Information
VERS.                     2.0: CWLS log ASCII Standard Version 2.00
WRAP.                      NO: One line per depth step
~Well Information Block
#MNEM.UNIT                               Data Type  Information
#---------                               ---------  -----------
STRT.FT                                   500.0000:
STOP.FT                                  8200.0000:
STEP.FT                                     0.5000:
NULL.                 -999.25                     :
COMP.                                             :COMPANY            
WELL.     CCMO 87-20                              :WELL               
FLD .                                             :FIELD              
CTRY.                                             :COUNTRY            
STAT.                                             :STATE              
LOC .                                             :LOCATION           
UWI .                                             :UNIQUE WELL ID     
SRVC.                                             :Service company    
DATE.                                             :LOG DATE           
~Curve Information
#MNEM.UNIT           API CODE  Curve Description
#---------           --------  -----------------
DEPT.FT                      :   1 DEPTH
SP  .MV                      :   2
AM16.OHMM                    :   3
AO10.OHMM                    :   4
AO19.OHMM                    :   5
SBL .MV                      :   6
RS  .OHMM                    :   7
RM  .OHMM                    :   8
RD  .OHMM                    :   9
~A
# ...
  8079.000 -13.520  3.9217  2.7413  3.1859 -7.5195  3.9217  2.7413  3.1859 
  8079.500 -13.674  3.9248  2.6360  3.1540 -7.6742  3.9248  2.6360  3.1540 
  8080.000 -13.069  3.9097  2.5272  3.1122 -7.0692  3.9097  2.5272  3.1122 
  8080.500 -12.303  3.6722  2.4555  3.0267 -6.3028  3.6722  2.4555  3.0267 
  8081.000 -11.680  3.5623  2.4083  2.8833 -5.6800  3.5623  2.4083  2.8833 
  8081.500 -11.247  3.4989  2.3740  2.7459 -5.2469  3.4989  2.3740  2.7459 
  8082.000 -10.930  3.4438  2.3796  2.6451 -4.9305  3.4438  2.3796  2.6451 
  8082.500 -10.662  3.3868  2.3874  2.5909 -4.6624  3.3868  2.3874  2.5909 
  8083.000 -10.436  3.3107  2.3986  2.5590 -4.4363  3.3107  2.3986  2.5590 
  8083.500 -10.255  3.2203  2.4120  2.5393 -4.2554  3.2203  2.4120  2.5393 
  8084.000 -10.259  3.1380  2.4263  2.5233 -4.2588  3.1380  2.4263  2.5233 
  8084.500 -10.283  3.0616  2.4411  2.5333 -4.2835  3.0616  2.4411  2.5333 
  8085.000 -10.317  3.1660  2.4688  2.5589 -4.3170  3.1660  2.4688  2.5589 
  8085.500 -10.339  3.3069  2.5094  2.5856 -4.3390  3.3069  2.5094  2.5856 
  8086.000 -10.376  3.4191  2.5596  2.5978 -4.3758  3.4191  2.5596  2.5978 
  8086.500 -10.485  3.5213  2.6306  2.5713 -4.4854  3.5213  2.6306  2.5713 
  8087.000 -10.708  3.6105  2.7511  2.5446 -4.7084  3.6105  2.7511  2.5446 
  8087.500 -11.609  3.6856  2.9407  2.5804 -5.6094  3.6856  2.9407  2.5804 
  8088.000 -12.707  3.7658  3.1270  2.6366 -6.7072  3.7658  3.1270  2.6366 
  8088.500 -13.688  3.8136  3.2855  2.7006 -7.6881  3.8136  3.2855  2.7006 
  8089.000 -14.766  3.8435  3.4195  2.7837 -8.7662  3.8435  3.4195  2.7837 
  8089.500 -15.924  3.8277  3.5158  2.7435 -9.9241  3.8277  3.5158  2.7435 
  8090.000 -16.236  3.7393  3.5849  2.6366 -10.236  3.7393  3.5849  2.6366 
  8090.500 -16.308  3.5430  3.5293  2.4859 -10.308  3.5430  3.5293  2.4859 
  8091.000 -16.313  3.3054  3.2171  2.3200 -10.313  3.3054  3.2171  2.3200 
  8091.500 -16.202  3.1548  3.0251  2.1602 -10.202  3.1548  3.0251  2.1602 
  8092.000 -16.064  3.0211  2.8948  2.0214 -10.064  3.0211  2.8948  2.0214 
  8092.500 -15.844  2.8917  2.7949  1.9588 -9.8438  2.8917  2.7949  1.9588 
  8093.000 -15.394  2.8128  2.7317  1.9084 -9.3939  2.8128  2.7317  1.9084 
  8093.500 -14.975  2.7648  2.6956  1.8864 -8.9749  2.7648  2.6956  1.8864 
  8094.000 -14.694  2.7246  2.6719  1.9052 -8.6941  2.7246  2.6719  1.9052 
  8094.500 -14.565  2.6995  2.6630  1.9271 -8.5652  2.6995  2.6630  1.9271 
  8095.000 -14.814  2.6855  2.6583  1.9807 -8.8142  2.6855  2.6583  1.9807 
  8095.500 -15.023  2.6787  2.6571  2.0341 -9.0229  2.6787  2.6571  2.0341 
  8096.000 -15.144  2.6864  2.6748  2.0951 -9.1444  2.6864  2.6748  2.0951 
  8096.500 -15.196  2.6925  2.6972  2.1687 -9.1957  2.6925  2.6972  2.1687 
  8097.000 -14.557  2.7013  2.7410  2.2378 -8.5570  2.7013  2.7410  2.2378 
  8097.500 -13.794  2.6942  2.8123  2.3021 -7.7938  2.6942  2.8123  2.3021 
  8098.000 -13.073  2.6847  2.8852  2.3622 -7.0734  2.6847  2.8852  2.3622 
  8098.500 -12.462  2.6702  2.9581  2.4220 -6.4620  2.6702  2.9581  2.4220 
  8099.000 -11.887  2.6520  3.0280  2.4818 -5.8868  2.6520  3.0280  2.4818 
  8099.500 -11.440  2.6268  3.0854  2.5429 -5.4400  2.6268  3.0854  2.5429 
  8100.000 -11.118  2.6062  3.1241  2.6054 -5.1180  2.6062  3.1241  2.6054 
  8100.500 -10.956  2.5897  3.1569  2.6684 -4.9558  2.5897  3.1569  2.6684 
  8101.000 -11.186  2.5716  3.1874  2.7331 -5.1858  2.5716  3.1874  2.7331 
  8101.500 -11.533  2.5523  3.2108  2.7951 -5.5328  2.5523  3.2108  2.7951 
  8102.000 -11.796  2.5331  3.2267  2.8546 -5.7956  2.5331  3.2267  2.8546 
  8102.500 -11.834  2.5176  3.2247  2.9046 -5.8336  2.5176  3.2247  2.9046 
  8103.000 -11.628  2.5065  3.2089  2.9321 -5.6283  2.5065  3.2089  2.9321 
  8103.500 -11.171  2.4960  3.1180  2.9180 -5.1714  2.4960  3.1180  2.9180 
  8104.000 -10.731  2.4943  3.0357  2.8927 -4.7313  2.4943  3.0357  2.8927 
  8104.500 -10.361  2.5083  2.9252  2.8670 -4.3610  2.5083  2.9252  2.8670 
  8105.000 -10.105  2.5299  2.8321  2.8481 -4.1049  2.5299  2.8321  2.8481 
  8105.500 -9.9431  2.5432  2.7587  2.8329 -3.9431  2.5432  2.7587  2.8329 
  8106.000 -10.015  2.5667  2.6814  2.8200 -4.0152  2.5667  2.6814  2.8200 
  8106.500 -10.153  2.5954  2.5909  2.8086 -4.1530  2.5954  2.5909  2.8086 
  8107.000 -10.377  2.6341  2.5111  2.8008 -4.3767  2.6341  2.5111  2.8008 
  8107.500 -11.182  2.7172  2.4358  2.8073 -5.1819  2.7172  2.4358  2.8073 
  8108.000 -11.843  2.8309  2.3600  2.8214 -5.8431  2.8309  2.3600  2.8214 
  8108.500 -12.483  2.9410  2.3617  2.8411 -6.4831  2.9410  2.3617  2.8411 
  8109.000 -13.110  3.1133  2.3652  2.8703 -7.1103  3.1133  2.3652  2.8703 
  8109.500 -13.620  3.3043  2.3767  2.9044 -7.6203  3.3043  2.3767  2.9044 
  8110.000 -14.615  3.5642  2.3876  2.9426 -8.6151  3.5642  2.3876  2.9426 
  8110.500 -17.831  3.9235  2.3982  2.9816 -11.831  3.9235  2.3982  2.9816 
  8111.000 -21.047  4.3901  2.4105  3.0302 -15.047  4.3901  2.4105  3.0302 
  8111.500 -24.263  4.9130  2.4263  3.0930 -18.263  4.9130  2.4263  3.0930 
  8112.000 -27.479  5.5494  2.5080  3.1776 -21.479  5.5494  2.5080  3.1776 
  8112.500 -30.696  6.0925  2.6836  3.3073 -24.696  6.0925  2.6836  3.3073 
  8113.000 -33.912  6.7295  2.9963  3.4674 -27.912  6.7295  2.9963  3.4674 
  8113.500 -37.128  7.5404  3.3382  3.6090 -31.128  7.5404  3.3382  3.6090 
  8114.000 -40.344  8.3322  3.6474  3.7872 -34.344  8.3322  3.6474  3.7872 
  8114.500 -43.560  9.0918  3.8901  3.9741 -37.560  9.0918  3.8901  3.9741 
  8115.000 -46.776  9.2286  3.9561  4.1538 -40.776  9.2286  3.9561  4.1538 
  8115.500 -49.992  9.3642  3.9816  4.3159 -43.992  9.3642  3.9816  4.3159 
  8116.000 -53.208  9.5902  4.0203  4.4594 -47.208  9.5902  4.0203  4.4594 
  8116.500 -56.424  9.8388  4.2839  4.5484 -50.424  9.8388  4.2839  4.5484 
  8117.000 -59.640  10.158  4.3917  4.4472 -53.640  10.158  4.3917  4.4472 
  8117.500 -62.856  10.745  4.4089  4.3504 -56.856  10.745  4.4089  4.3504 
  8118.000 -66.073  11.355  4.4184  4.2601 -60.073  11.355  4.4184  4.2601 
  8118.500 -69.289  12.054  4.4719  4.2365 -63.289  12.054  4.4719  4.2365 
  8119.000 -72.505  12.821  4.5673  4.3518 -66.505  12.821  4.5673  4.3518 
  8119.500 -75.721  13.794  4.6981  4.5663 -69.721  13.794  4.6981  4.5663 
  8120.000 -78.920  15.743  4.8575  4.7685 -72.920  15.743  4.8575  4.7685 
  8120.500 -81.574  16.537  5.0417  4.9100 -75.574  16.537  5.0417  4.9100 
  8121.000 -83.886  24.341  5.2736  5.0114 -77.886  24.341  5.2736  5.0114 
  8121.500 -85.271  25.042  5.5022  5.0760 -79.271  25.042  5.5022  5.0760 
  8122.000 -86.484  25.557  5.7558  5.1308 -80.484  25.557  5.7558  5.1308 
  8122.500 -87.442  25.912  6.0533  5.1576 -81.442  25.912  6.0533  5.1576 
  8123.000 -88.141  25.901  6.4005  5.1567 -82.141  25.901  6.4005  5.1567 
  8123.500 -88.689  25.788  6.8895  5.1458 -82.689  25.788  6.8895  5.1458 
  8124.000 -89.015  25.552  7.3105  5.1047 -83.015  25.552  7.3105  5.1047 
  8124.500 -88.937  25.130  7.7171  5.0157 -82.937  25.130  7.7171  5.0157 
  8125.000 -88.646  24.631  8.1300  4.8800 -82.646  24.631  8.1300  4.8800 
  8125.500 -88.111  23.765  8.4518  4.7884 -82.111  23.765  8.4518  4.7884 
  8126.000 -86.941  22.680  8.7699  4.7699 -80.941  22.680  8.7699  4.7699 
  8126.500 -84.730  21.237  9.1323  4.7587 -78.730  21.237  9.1323  4.7587 
  8127.000 -81.334  19.640  9.7106  4.7505 -75.334  19.640  9.7106  4.7505 
  8127.500 -77.181  18.043  9.9532  4.7357 -71.181  18.043  9.9532  4.7357 
  8128.000 -73.732  16.447  10.402  4.6861 -67.732  16.447  10.402  4.6861 
  8128.500 -70.033  14.850  11.754  4.5462 -64.033  14.850  11.754  4.5462 
  8129.000 -65.151  13.216  13.914  4.3254 -59.151  13.216  13.914  4.3254 
  8129.500 -60.421  10.763  13.957  3.9775 -54.421  10.763  13.957  3.9775 
  8130.000 -55.914  7.9590  13.950  3.6937 -49.914  7.9590  13.950  3.6937 
  8130.500 -52.627  6.6078  13.942  3.4413 -46.627  6.6078  13.942  3.4413 
  8131.000 -48.485  5.7909  11.696  3.2371 -42.485  5.7909  11.696  3.2371 
  8131.500 -43.567  5.2863  9.6373  3.0848 -37.567  5.2863  9.6373  3.0848 
