~Version Information
VERS.                     2.0: CWLS log ASCII Standard Version 2.00
WRAP.                      NO: One line per depth step
~Well Information Block
#MNEM.UNIT                               Data Type  Information
#---------                               ---------  -----------
STRT.FT                                   500.0000:
STOP.FT                                  8200.0000:
STEP.FT                                     0.5000:
NULL.                 -999.25                     :
COMP.                                             :COMPANY            
WELL.     CCMO 87-20                              :WELL               
FLD .                                             :FIELD              
CTRY.                                             :COUNTRY            
STAT.                                             :STATE              
LOC .                                             :LOCATION           
UWI .                                             :UNIQUE WELL ID     
SRVC.                                             :Service company    
DATE.                                             :LOG DATE           
~Curve Information
#MNEM.UNIT           API CODE  Curve Description
#---------           --------  -----------------
DEPT.FT                      :   1 DEPTH
SP  .MV                      :   2
AM16.OHMM                    :   3
AO10.OHMM                    :   4
AO19.OHMM                    :   5
SBL .MV                      :   6
RS  .OHMM                    :   7
RM  .OHMM                    :   8
RD  .OHMM                    :   9
~A
# ...
  2514.000 -14.648  4.6305  3.6800  4.6288 -9.0798  4.6305  3.6800  4.6288 
  2514.500 -16.196  4.9001  3.8201  4.8590 -10.627  4.9001  3.8201  4.8590 
  2515.000 -18.818  5.2011  4.0000  5.0856 -13.248  5.2011  4.0000  5.0856 
  2515.500 -21.467  5.4848  4.2424  5.3007 -15.896  5.4848  4.2424  5.3007 
  2516.000 -22.484  5.7727  4.5420  5.4850 -16.912  5.7727  4.5420  5.4850 
  2516.500 -24.219  6.0241  4.9021  5.6403 -18.646  6.0241  4.9021  5.6403 
  2517.000 -30.971  6.2556  5.2657  5.7436 -25.398  6.2556  5.2657  5.7436 
  2517.500 -32.429  6.4720  5.6266  5.8277 -26.855  6.4720  5.6266  5.8277 
  2518.000 -32.753  6.6357  5.8229  5.8721 -27.178  6.6357  5.8229  5.8721 
  2518.500 -32.441  6.7728  5.9751  5.7909 -26.865  6.7728  5.9751  5.7909 
  2519.000 -31.707  6.8815  6.0648  5.6689 -26.130  6.8815  6.0648  5.6689 
  2519.500 -30.905  6.9848  6.1017  5.5587 -25.327  6.9848  6.1017  5.5587 
  2520.000 -30.212  7.1685  5.9908  5.4914 -24.633  7.1685  5.9908  5.4914 
  2520.500 -29.574  7.3676  5.8710  5.5661 -23.995  7.3676  5.8710  5.5661 
  2521.000 -32.618  7.6193  5.8764  5.6523 -27.038  7.6193  5.8764  5.6523 
  2521.500 -37.480  7.8620  5.9305  5.7597 -31.899  7.8620  5.9305  5.7597 
  2522.000 -40.173  8.0456  6.0230  5.8773 -34.591  8.0456  6.0230  5.8773 
  2522.500 -42.943  8.2136  6.1469  5.9819 -37.360  8.2136  6.1469  5.9819 
  2523.000 -42.213  8.3883  6.2940  6.0495 -36.629  8.3883  6.2940  6.0495 
  2523.500 -40.279  8.5561  6.4637  6.0985 -34.695  8.5561  6.4637  6.0985 
  2524.000 -41.289  8.7084  6.6429  6.1537 -35.703  8.7084  6.6429  6.1537 
  2524.500 -42.719  8.8149  6.8435  6.3146 -37.132  8.8149  6.8435  6.3146 
  2525.000 -44.017  8.8995  7.0900  6.4949 -38.430  8.8995  7.0900  6.4949 
  2525.500 -45.283  8.9799  7.3920  6.6796 -39.695  8.9799  7.3920  6.6796 
  2526.000 -46.016  9.0209  7.6312  6.8563 -40.427  9.0209  7.6312  6.8563 
  2526.500 -45.265  9.0586  7.8530  7.0267 -39.675  9.0586  7.8530  7.0267 
  2527.000 -44.372  9.0898  8.1241  7.1774 -38.781  9.0898  8.1241  7.1774 
  2527.500 -43.648  9.1064  8.4666  7.2736 -38.057  9.1064  8.4666  7.2736 
  2528.000 -43.783  9.1008  8.8308  7.3589 -38.191  9.1008  8.8308  7.3589 
  2528.500 -44.054  9.0792  9.1878  7.4264 -38.460  9.0792  9.1878  7.4264 
  2529.000 -44.180  9.0339  9.5786  7.4841 -38.586  9.0339  9.5786  7.4841 
  2529.500 -44.341  8.9954  9.9049  7.5427 -38.746  8.9954  9.9049  7.5427 
  2530.000 -44.973  8.9422  10.184  7.5857 -39.377  8.9422  10.184  7.5857 
  2530.500 -45.824  8.8493  10.429  7.6082 -40.227  8.8493  10.429  7.6082 
  2531.000 -44.915  8.7409  10.676  7.5987 -39.318  8.7409  10.676  7.5987 
  2531.500 -43.838  8.6026  10.955  7.5860 -38.239  8.6026  10.955  7.5860 
  2532.000 -42.876  8.3906  11.162  7.5584 -37.277  8.3906  11.162  7.5584 
  2532.500 -41.510  8.0864  11.303  7.3836 -35.910  8.0864  11.303  7.3836 
  2533.000 -38.939  7.7485  11.362  7.1876 -33.338  7.7485  11.362  7.1876 
  2533.500 -36.917  7.4816  11.368  6.9531 -31.315  7.4816  11.368  6.9531 
  2534.000 -35.417  7.3456  11.184  6.7987 -29.814  7.3456  11.184  6.7987 
  2534.500 -35.768  7.2659  11.048  6.8723 -30.165  7.2659  11.048  6.8723 
  2535.000 -37.177  7.2310  10.929  7.2720 -31.573  7.2310  10.929  7.2720 
  2535.500 -38.302  7.1971  10.871  7.6269 -32.696  7.1971  10.871  7.6269 
  2536.000 -38.612  7.1227  10.930  7.8923 -33.006  7.1227  10.930  7.8923 
  2536.500 -38.270  6.9607  11.342  8.0857 -32.663  6.9607  11.342  8.0857 
  2537.000 -35.502  6.6576  11.882  8.2267 -29.895  6.6576  11.882  8.2267 
  2537.500 -31.480  6.1330  12.137  8.2112 -25.871  6.1330  12.137  8.2112 
  2538.000 -28.317  5.5700  12.199  7.9728 -22.708  5.5700  12.199  7.9728 
  2538.500 -25.323  5.1434  11.895  7.3310 -19.712  5.1434  11.895  7.3310 
  2539.000 -22.824  4.7679  11.120  6.7267 -17.213  4.7679  11.120  6.7267 
  2539.500 -21.119  4.4439  9.5371  6.1095 -15.507  4.4439  9.5371  6.1095 
  2540.000 -19.846  4.1426  8.8542  5.5806 -14.233  4.1426  8.8542  5.5806 
  2540.500 -19.640  3.9210  7.7848  5.0394 -14.026  3.9210  7.7848  5.0394 
  2541.000 -19.461  3.7455  6.6176  4.6975 -13.846  3.7455  6.6176  4.6975 
  2541.500 -19.277  3.6171  6.2139  4.5606 -13.662  3.6171  6.2139  4.5606 
  2542.000 -19.105  3.5396  6.0228  4.5036 -13.489  3.5396  6.0228  4.5036 
  2542.500 -19.040  3.4975  5.8534  4.6317 -13.423  3.4975  5.8534  4.6317 
  2543.000 -19.007  3.4523  5.7255  4.7471 -13.389  3.4523  5.7255  4.7471 
  2543.500 -20.986  3.4008  5.6392  4.8415 -15.367  3.4008  5.6392  4.8415 
  2544.000 -21.915  3.3618  5.5597  4.9227 -16.295  3.3618  5.5597  4.9227 
  2544.500 -21.390  3.3330  5.5060  4.9955 -15.770  3.3330  5.5060  4.9955 
  2545.000 -20.668  3.3146  5.4629  4.9926 -15.047  3.3146  5.4629  4.9926 
  2545.500 -19.863  3.2995  5.4108  4.9810 -14.241  3.2995  5.4108  4.9810 
  2546.000 -19.346  3.2854  5.3510  4.9344 -13.723  3.2854  5.3510  4.9344 
  2546.500 -18.911  3.2712  5.2915  4.8849 -13.287  3.2712  5.2915  4.8849 
  2547.000 -19.685  3.2591  5.2677  4.8482 -14.060  3.2591  5.2677  4.8482 
  2547.500 -23.724  3.2463  5.2457  4.8500 -18.098  3.2463  5.2457  4.8500 
  2548.000 -25.175  3.2309  5.2252  4.8535 -19.548  3.2309  5.2252  4.8535 
  2548.500 -26.546  3.2259  5.1874  4.8331 -20.919  3.2259  5.1874  4.8331 
  2549.000 -27.723  3.2424  5.0324  4.7876 -22.094  3.2424  5.0324  4.7876 
  2549.500 -28.004  3.2711  4.8272  4.6917 -22.375  3.2711  4.8272  4.6917 
  2550.000 -28.051  3.3131  4.6266  4.6440 -22.421  3.3131  4.6266  4.6440 
  2550.500 -25.664  3.3730  4.4271  4.7284 -20.033  3.3730  4.4271  4.7284 
  2551.000 -24.288  3.4541  4.2939  4.8128 -18.656  3.4541  4.2939  4.8128 
  2551.500 -23.456  3.5482  4.2190  4.9124 -17.823  3.5482  4.2190  4.9124 
  2552.000 -22.764  3.6954  4.2019  5.0193 -17.131  3.6954  4.2019  5.0193 
  2552.500 -22.802  3.9106  4.2253  5.1480 -17.168  3.9106  4.2253  5.1480 
  2553.000 -23.554  4.1863  4.2665  5.2961 -17.919  4.1863  4.2665  5.2961 
  2553.500 -25.795  4.4970  4.3574  5.4530 -20.159  4.4970  4.3574  5.4530 
  2554.000 -28.215  4.8259  4.4465  5.6633 -22.578  4.8259  4.4465  5.6633 
  2554.500 -30.817  5.2590  4.5492  5.9682 -25.179  5.2590  4.5492  5.9682 
  2555.000 -33.473  5.6298  4.7148  6.3843 -27.835  5.6298  4.7148  6.3843 
  2555.500 -36.190  5.9695  4.8731  6.8961 -30.550  5.9695  4.8731  6.8961 
  2556.000 -39.371  6.3662  5.0736  7.3676 -33.730  6.3662  5.0736  7.3676 
  2556.500 -42.192  6.9222  5.3482  7.7391 -36.551  6.9222  5.3482  7.7391 
  2557.000 -45.125  7.4910  5.6349  8.0219 -39.482  7.4910  5.6349  8.0219 
  2557.500 -47.855  7.9612  5.9126  8.2819 -42.212  7.9612  5.9126  8.2819 
  2558.000 -50.706  8.3726  6.1854  8.5239 -45.063  8.3726  6.1854  8.5239 
  2558.500 -53.668  8.6727  6.3565  8.6748 -48.023  8.6727  6.3565  8.6748 
  2559.000 -55.589  8.8746  6.4599  8.7724 -49.944  8.8746  6.4599  8.7724 
  2559.500 -56.964  9.0004  6.5306  8.7624 -51.317  9.0004  6.5306  8.7624 
  2560.000 -57.004  9.0822  6.5661  8.7380 -51.356  9.0822  6.5661  8.7380 
  2560.500 -56.603  9.0681  6.5791  8.5759 -50.955  9.0681  6.5791  8.5759 
  2561.000 -55.620  9.0258  6.4657  8.3264 -49.971  9.0258  6.4657  8.3264 
  2561.500 -54.478  8.9564  6.3709  8.1015 -48.829  8.9564  6.3709  8.1015 
  2562.000 -53.395  8.8528  6.3144  7.9064 -47.744  8.8528  6.3144  7.9064 
  2562.500 -52.579  8.7833  6.3032  7.7158 -46.927  8.7833  6.3032  7.7158 
  2563.000 -51.943  8.7551  6.3023  7.5593 -46.291  8.7551  6.3023  7.5593 
  2563.500 -52.208  8.8018  6.3330  7.4841 -46.555  8.8018  6.3330  7.4841 
  2564.000 -53.055  8.9632  6.3924  7.4029 -47.401  8.9632  6.3924  7.4029 
  2564.500 -54.056  9.1707  6.5061  7.3354 -48.401  9.1707  6.5061  7.3354 
  2565.000 -55.547  9.4030  6.6643  7.2891 -49.891  9.4030  6.6643  7.2891 
  2565.500 -56.852  9.6349  6.9386  7.2757 -51.196  9.6349  6.9386  7.2757 
  2566.000 -57.999  9.8362  7.2462  7.3378 -52.342  9.8362  7.2462  7.3378 
  2566.500 -59.088  9.9890  7.6287  7.5357 -53.429  9.9890  7.6287  7.5357 
