~Version Information
VERS.                     2.0: CWLS log ASCII Standard Version 2.00
WRAP.                      NO: One line per depth step
~Well Information Block
#MNEM.UNIT                               Data Type  Information
#---------                               ---------  -----------
STRT.FT                                   500.0000:
STOP.FT                                  8200.0000:
STEP.FT                                     0.5000:
NULL.                 -999.25                     :
COMP.                                             :COMPANY            
WELL.     CCMO 87-20                              :WELL               
FLD .                                             :FIELD              
CTRY.                                             :COUNTRY            
STAT.                                             :STATE              
LOC .                                             :LOCATION           
UWI .                                             :UNIQUE WELL ID     
SRVC.                                             :Service company    
DATE.                                             :LOG DATE           
~Curve Information
#MNEM.UNIT           API CODE  Curve Description
#---------           --------  -----------------
DEPT.FT                      :   1 DEPTH
SP  .MV                      :   2
AM16.OHMM                    :   3
AO10.OHMM                    :   4
AO19.OHMM                    :   5
SBL .MV                      :   6
RS  .OHMM                    :   7
RM  .OHMM                    :   8
RD  .OHMM                    :   9
~A
# ...
  2037.000 -52.662  11.247  14.923  13.856 -47.915  11.247  14.923  13.856 
  2037.500 -52.197  10.941  15.070  13.867 -47.448  10.941  15.070  13.867 
  2038.000 -50.495  10.569  15.163  13.838 -45.746  10.569  15.163  13.838 
  2038.500 -48.150  10.302  15.198  13.804 -43.400  10.302  15.198  13.804 
  2039.000 -45.718  10.026  15.185  13.769 -40.967  10.026  15.185  13.769 
  2039.500 -43.123  9.7847  15.161  13.740 -38.371  9.7847  15.161  13.740 
  2040.000 -40.238  9.4939  15.107  13.726 -35.485  9.4939  15.107  13.726 
  2040.500 -39.223  9.1869  15.030  13.700 -34.470  9.1869  15.030  13.700 
  2041.000 -38.557  8.8724  14.907  13.671 -33.802  8.8724  14.907  13.671 
  2041.500 -37.550  8.5135  14.736  13.633 -32.795  8.5135  14.736  13.633 
  2042.000 -36.311  8.1299  14.591  13.502 -31.554  8.1299  14.591  13.502 
  2042.500 -34.504  7.7215  14.364  13.373 -29.747  7.7215  14.364  13.373 
  2043.000 -32.667  7.1986  14.128  13.022 -27.909  7.1986  14.128  13.022 
  2043.500 -30.374  6.6842  13.829  12.471 -25.616  6.6842  13.829  12.471 
  2044.000 -26.931  6.2361  13.440  11.614 -22.172  6.2361  13.440  11.614 
  2044.500 -23.898  5.8661  12.821  10.386 -19.138  5.8661  12.821  10.386 
  2045.000 -20.854  5.5491  12.323  8.7094 -16.093  5.5491  12.323  8.7094 
  2045.500 -19.471  5.3982  11.821  8.0791 -14.709  5.3982  11.821  8.0791 
  2046.000 -22.433  5.3217  10.016  7.5404 -17.670  5.3217  10.016  7.5404 
  2046.500 -21.247  5.2756  8.9694  7.8072 -16.483  5.2756  8.9694  7.8072 
  2047.000 -19.794  5.2458  8.5335  8.0712 -15.030  5.2458  8.5335  8.0712 
  2047.500 -20.499  5.2179  8.6633  8.2637 -15.733  5.2179  8.6633  8.2637 
  2048.000 -21.187  5.1819  8.7967  8.4134 -16.420  5.1819  8.7967  8.4134 
  2048.500 -20.312  5.1460  8.8893  8.5144 -15.545  5.1460  8.8893  8.5144 
  2049.000 -19.349  5.0870  8.9338  8.5759 -14.581  5.0870  8.9338  8.5759 
  2049.500 -18.003  4.9737  8.9402  8.6265 -13.234  4.9737  8.9402  8.6265 
  2050.000 -18.310  4.9695  8.9268  8.5770 -13.540  4.9695  8.9268  8.5770 
  2050.500 -18.685  4.7982  8.8446  8.3247 -13.915  4.7982  8.8446  8.3247 
  2051.000 -19.014  4.5989  8.5739  8.0273 -14.243  4.5989  8.5739  8.0273 
  2051.500 -17.919  4.4156  8.1491  7.6772 -13.146  4.4156  8.1491  7.6772 
  2052.000 -15.289  4.2311  7.7170  7.3217 -10.516  4.2311  7.7170  7.3217 
  2052.500 -13.430  4.0706  7.2988  6.9390 -8.6554  4.0706  7.2988  6.9390 
  2053.000 -12.292  3.9529  6.9662  6.6291 -7.5169  3.9529  6.9662  6.6291 
  2053.500 -11.860  3.8969  6.6916  6.5286 -7.0843  3.8969  6.6916  6.5286 
  2054.000 -11.669  3.9150  6.4545  6.7531 -6.8927  3.9150  6.4545  6.7531 
  2054.500 -11.856  3.9453  6.2661  6.9793 -7.0788  3.9453  6.2661  6.9793 
  2055.000 -12.552  3.9942  6.1266  7.1738 -7.7732  3.9942  6.1266  7.1738 
  2055.500 -13.376  4.0494  6.0631  7.3865 -8.5966  4.0494  6.0631  7.3865 
  2056.000 -14.213  4.1084  6.0622  7.6287 -9.4324  4.1084  6.0622  7.6287 
  2056.500 -14.705  4.1604  6.1459  7.8249 -9.9234  4.1604  6.1459  7.8249 
  2057.000 -13.705  4.2087  6.2805  7.9761 -8.9231  4.2087  6.2805  7.9761 
  2057.500 -10.955  4.2215  6.3757  8.0579 -6.1718  4.2215  6.3757  8.0579 
  2058.000 -9.1724  4.2073  6.4357  7.9978 -4.3887  4.2073  6.4357  7.9978 
  2058.500 -8.3999  4.1460  6.4734  7.8865 -3.6153  4.1460  6.4734  7.8865 
  2059.000 -8.2134  4.0655  6.4446  7.6979 -3.4280  4.0655  6.4446  7.6979 
  2059.500 -8.0786  3.9827  6.3481  7.3102 -3.2923  3.9827  6.3481  7.3102 
  2060.000 -7.8218  3.9155  6.0554  6.9159 -3.0347  3.9155  6.0554  6.9159 
  2060.500 -7.3561  3.8604  5.7790  6.6396 -2.5682  3.8604  5.7790  6.6396 
  2061.000 -6.8981  3.8159  5.5433  6.4285 -2.1092  3.8159  5.5433  6.4285 
  2061.500 -6.8984  3.7791  5.3406  6.2937 -2.1087  3.7791  5.3406  6.2937 
  2062.000 -7.0415  3.7684  5.1991  6.2430 -2.2510  3.7684  5.1991  6.2430 
  2062.500 -8.3944  3.8150  5.0806  6.3521 -3.6030  3.8150  5.0806  6.3521 
  2063.000 -10.631  3.8811  4.9819  6.4626 -5.8384  3.8811  4.9819  6.4626 
  2063.500 -12.038  3.9549  4.9577  6.5488 -7.2444  3.9549  4.9577  6.5488 
  2064.000 -10.315  4.0401  4.9992  6.5815 -5.5215  4.0401  4.9992  6.5815 
  2064.500 -9.6490  4.1246  5.0501  6.5636 -4.8541  4.1246  5.0501  6.5636 
  2065.000 -9.7400  4.2057  5.0732  6.4586 -4.9443  4.2057  5.0732  6.4586 
  2065.500 -10.371  4.2886  5.0845  6.3243 -5.5745  4.2886  5.0845  6.3243 
  2066.000 -12.983  4.3862  5.0841  6.2018 -8.1859  4.3862  5.0841  6.2018 
  2066.500 -16.196  4.4816  5.0977  6.0947 -11.398  4.4816  5.0977  6.0947 
  2067.000 -18.382  4.5748  5.1222  6.0674 -13.582  4.5748  5.1222  6.0674 
  2067.500 -19.965  4.6820  5.1746  6.0527 -15.165  4.6820  5.1746  6.0527 
  2068.000 -21.090  4.7899  5.2557  6.1039 -16.289  4.7899  5.2557  6.1039 
  2068.500 -22.089  4.8964  5.3582  6.1617 -17.288  4.8964  5.3582  6.1617 
  2069.000 -22.862  5.0326  5.4636  6.2820 -18.060  5.0326  5.4636  6.2820 
  2069.500 -24.208  5.1689  5.5744  6.5075 -19.404  5.1689  5.5744  6.5075 
  2070.000 -26.145  5.3141  5.6721  6.6818 -21.341  5.3141  5.6721  6.6818 
  2070.500 -26.921  5.4771  5.6718  6.7524 -22.116  5.4771  5.6718  6.7524 
  2071.000 -25.348  5.6565  5.6714  6.7505 -20.542  5.6565  5.6714  6.7505 
  2071.500 -23.578  5.8305  5.6710  6.7114 -18.771  5.8305  5.6710  6.7114 
  2072.000 -22.589  5.9912  5.7035  6.6936 -17.782  5.9912  5.7035  6.6936 
  2072.500 -22.321  6.1471  5.7506  6.7073 -17.513  6.1471  5.7506  6.7073 
  2073.000 -24.663  6.2969  5.8122  6.7441 -19.853  6.2969  5.8122  6.7441 
  2073.500 -25.838  6.4335  5.8974  6.8496 -21.028  6.4335  5.8974  6.8496 
  2074.000 -26.755  6.5581  6.0198  7.0217 -21.944  6.5581  6.0198  7.0217 
  2074.500 -27.746  6.6552  6.1736  7.1907 -22.934  6.6552  6.1736  7.1907 
  2075.000 -27.319  6.7381  6.3439  7.3548 -22.506  6.7381  6.3439  7.3548 
  2075.500 -28.161  6.8067  6.5488  7.5048 -23.347  6.8067  6.5488  7.5048 
  2076.000 -29.285  6.8663  6.7600  7.6347 -24.471  6.8663  6.7600  7.6347 
  2076.500 -29.818  6.9196  6.9149  7.7595 -25.002  6.9196  6.9149  7.7595 
  2077.000 -29.370  6.9644  7.0634  7.8674 -24.554  6.9644  7.0634  7.8674 
  2077.500 -25.812  6.9778  7.1845  7.9740 -20.995  6.9778  7.1845  7.9740 
  2078.000 -25.359  6.9497  7.3132  8.0776 -20.541  6.9497  7.3132  8.0776 
  2078.500 -25.100  6.8080  7.4286  8.1709 -20.281  6.8080  7.4286  8.1709 
  2079.000 -24.569  6.5736  7.5050  8.1705 -19.749  6.5736  7.5050  8.1705 
  2079.500 -19.418  6.2631  7.5511  8.1278 -14.597  6.2631  7.5511  8.1278 
  2080.000 -18.015  5.9187  7.5744  7.9548 -13.193  5.9187  7.5744  7.9548 
  2080.500 -18.015  5.6373  7.3537  7.0889 -13.193  5.6373  7.3537  7.0889 
  2081.000 -18.090  5.3939  6.9427  6.4812 -13.266  5.3939  6.9427  6.4812 
  2081.500 -18.467  5.2812  6.5650  6.1128 -13.642  5.2812  6.5650  6.1128 
  2082.000 -19.741  5.1986  6.2496  5.8598 -14.916  5.1986  6.2496  5.8598 
  2082.500 -22.109  5.1455  6.0629  5.6986 -17.283  5.1455  6.0629  5.6986 
  2083.000 -22.655  5.1061  5.9993  5.5819 -17.829  5.1061  5.9993  5.5819 
  2083.500 -22.684  5.0741  5.9654  5.4901 -17.857  5.0741  5.9654  5.4901 
  2084.000 -22.991  5.0484  5.9402  5.4317 -18.162  5.0484  5.9402  5.4317 
  2084.500 -26.654  5.0240  5.9236  5.5130 -21.825  5.0240  5.9236  5.5130 
  2085.000 -28.438  5.0011  5.9443  5.6159 -23.608  5.0011  5.9443  5.6159 
  2085.500 -28.900  4.9808  6.0548  5.6957 -24.069  4.9808  6.0548  5.6957 
  2086.000 -25.272  4.9684  6.2595  5.7489 -20.440  4.9684  6.2595  5.7489 
  2086.500 -24.479  4.9634  6.4438  5.7762 -19.646  4.9634  6.4438  5.7762 
  2087.000 -27.136  4.9590  6.5495  5.7839 -22.303  4.9590  6.5495  5.7839 
  2087.500 -28.823  4.9620  6.5699  5.5629 -23.989  4.9620  6.5699  5.5629 
  2088.000 -30.456  4.9656  6.5378  5.4335 -25.620  4.9656  6.5378  5.4335 
  2088.500 -30.581  4.9844  6.5089  5.3261 -25.744  4.9844  6.5089  5.3261 
  2089.000 -29.700  5.0254  6.4900  5.2845 -24.863  5.0254  6.4900  5.2845 
  2089.500 -28.299  5.0829  6.5016  5.5661 -23.461  5.0829  6.5016  5.5661 
