~Version Information
VERS.                     2.0: CWLS log ASCII Standard Version 2.00
WRAP.                      NO: One line per depth step
~Well Information Block
#MNEM.UNIT                               Data Type  Information
#---------                               ---------  -----------
STRT.FT                                   500.0000:
STOP.FT                                  8200.0000:
STEP.FT                                     0.5000:
NULL.                 -999.25                     :
COMP.                                             :COMPANY            
WELL.     CCMO 87-20                              :WELL               
FLD .                                             :FIELD              
CTRY.                                             :COUNTRY            
STAT.                                             :STATE              
LOC .                                             :LOCATION           
UWI .                                             :UNIQUE WELL ID     
SRVC.                                             :Service company    
DATE.                                             :LOG DATE           
~Curve Information
#MNEM.UNIT           API CODE  Curve Description
#---------           --------  -----------------
DEPT.FT                      :   1 DEPTH
SP  .MV                      :   2
AM16.OHMM                    :   3
AO10.OHMM                    :   4
AO19.OHMM                    :   5
SBL .MV                      :   6
RS  .OHMM                    :   7
RM  .OHMM                    :   8
RD  .OHMM                    :   9
~A
# ...
  4051.000 -15.778  4.8574  4.8972  5.0409 -12.944  4.8574  4.8972  5.0409 
  4051.500 -20.852  5.2835  5.1153  5.5496 -18.028  5.2835  5.1153  5.5496 
  4052.000 -25.558  5.7777  5.4129  5.8981 -22.744  5.7777  5.4129  5.8981 
  4052.500 -29.289  6.4706  5.6588  6.2216 -26.485  6.4706  5.6588  6.2216 
  4053.000 -33.670  7.2812  5.9013  6.4769 -30.876  7.2812  5.9013  6.4769 
  4053.500 -38.549  8.0105  6.0792  6.6643 -35.765  8.0105  6.0792  6.6643 
  4054.000 -42.090  8.4802  6.2180  6.8117 -39.316  8.4802  6.2180  6.8117 
  4054.500 -44.216  8.8223  6.3487  6.9283 -41.453  8.8223  6.3487  6.9283 
  4055.000 -45.250  9.0715  6.4706  7.0357 -42.497  9.0715  6.4706  7.0357 
  4055.500 -45.816  9.2763  6.5356  7.1322 -43.072  9.2763  6.5356  7.1322 
  4056.000 -46.114  9.4467  6.5843  7.2229 -43.380  9.4467  6.5843  7.2229 
  4056.500 -46.389  9.5901  6.6248  7.3071 -43.665  9.5901  6.6248  7.3071 
  4057.000 -46.663  9.6782  6.6556  7.3746 -43.950  9.6782  6.6556  7.3746 
  4057.500 -46.943  9.7789  6.6697  7.4218 -44.239  9.7789  6.6697  7.4218 
  4058.000 -47.329  9.8638  6.6821  7.4573 -44.635  9.8638  6.6821  7.4573 
  4058.500 -47.646  9.9297  6.6882  7.4928 -44.963  9.9297  6.6882  7.4928 
  4059.000 -47.899  9.9814  6.7104  7.5191 -45.226  9.9814  6.7104  7.5191 
  4059.500 -48.028  9.9789  6.7337  7.5303 -45.364  9.9789  6.7337  7.5303 
  4060.000 -48.143  9.9743  6.7585  7.5302 -45.490  9.9743  6.7585  7.5302 
  4060.500 -48.023  9.8881  6.7230  7.5202 -45.380  9.8881  6.7230  7.5202 
  4061.000 -47.225  9.6853  6.7817  7.4998 -44.592  9.6853  6.7817  7.4998 
  4061.500 -45.560  9.4081  6.8345  7.4294 -42.937  9.4081  6.8345  7.4294 
  4062.000 -42.790  9.1253  7.1555  7.3503 -40.176  9.1253  7.1555  7.3503 
  4062.500 -40.547  8.8262  7.4846  7.1593 -37.944  8.8262  7.4846  7.1593 
  4063.000 -38.421  8.5210  7.8349  6.8849 -35.828  8.5210  7.8349  6.8849 
  4063.500 -36.960  8.2287  8.2418  6.6374 -34.377  8.2287  8.2418  6.6374 
  4064.000 -36.056  7.9592  8.4788  6.3646 -33.483  7.9592  8.4788  6.3646 
  4064.500 -35.555  7.7052  8.5899  6.0867 -32.992  7.7052  8.5899  6.0867 
  4065.000 -36.800  7.6416  8.4767  5.8410 -34.247  7.6416  8.4767  5.8410 
  4065.500 -39.139  7.9115  8.4078  5.6343 -36.596  7.9115  8.4078  5.6343 
  4066.000 -41.069  8.2553  8.3827  5.7390 -38.536  8.2553  8.3827  5.7390 
  4066.500 -42.178  8.6594  8.4413  5.8911 -39.656  8.6594  8.4413  5.8911 
  4067.000 -42.872  9.0452  8.7007  6.0531 -40.359  9.0452  8.7007  6.0531 
  4067.500 -43.094  9.2724  9.1603  6.1880 -40.591  9.2724  9.1603  6.1880 
  4068.000 -43.192  9.3664  9.5058  6.3041 -40.700  9.3664  9.5058  6.3041 
  4068.500 -43.149  9.3803  9.8247  6.3890 -40.666  9.3803  9.8247  6.3890 
  4069.000 -43.065  9.2946  10.080  6.4293 -40.593  9.2946  10.080  6.4293 
  4069.500 -41.972  9.1206  10.302  6.1675 -39.510  9.1206  10.302  6.1675 
  4070.000 -38.283  8.6134  10.465  6.0767 -35.830  8.6134  10.465  6.0767 
  4070.500 -37.131  8.0161  10.522  6.0530 -34.689  8.0161  10.522  6.0530 
  4071.000 -36.792  7.6346  10.556  6.1203 -34.360  7.6346  10.556  6.1203 
  4071.500 -36.360  7.2172  10.545  6.2335 -33.938  7.2172  10.545  6.2335 
  4072.000 -35.302  6.8628  10.516  6.3338 -32.890  6.8628  10.516  6.3338 
  4072.500 -31.461  6.5258  10.468  6.3724 -29.059  6.5258  10.468  6.3724 
  4073.000 -27.325  6.1734  10.347  6.3142 -24.933  6.1734  10.347  6.3142 
  4073.500 -23.198  5.8474  9.7001  6.1146 -20.816  5.8474  9.7001  6.1146 
  4074.000 -19.652  5.5632  8.7593  5.6930 -17.280  5.5632  8.7593  5.6930 
  4074.500 -17.563  5.3532  7.9909  5.2501 -15.201  5.3532  7.9909  5.2501 
  4075.000 -16.390  5.2052  7.1571  4.8733 -14.039  5.2052  7.1571  4.8733 
  4075.500 -15.768  5.1438  6.4845  4.7463 -13.426  5.1438  6.4845  4.7463 
  4076.000 -16.510  5.2463  6.0836  4.9978 -14.178  5.2463  6.0836  4.9978 
  4076.500 -20.328  5.3216  5.9278  5.2122 -18.006  5.3216  5.9278  5.2122 
  4077.000 -22.687  5.3777  6.1615  5.3967 -20.375  5.3777  6.1615  5.3967 
  4077.500 -24.390  5.4102  6.4172  5.5730 -22.088  5.4102  6.4172  5.5730 
  4078.000 -25.905  5.4141  6.6875  5.7928 -23.614  5.4141  6.6875  5.7928 
  4078.500 -26.971  5.3463  6.9355  5.9968 -24.690  5.3463  6.9355  5.9968 
  4079.000 -26.836  5.2369  7.1375  6.1353 -24.565  5.2369  7.1375  6.1353 
  4079.500 -26.426  5.1097  7.2514  6.2229 -24.165  5.1097  7.2514  6.2229 
  4080.000 -25.417  4.9745  7.2744  5.8511 -23.165  4.9745  7.2744  5.8511 
  4080.500 -13.840  4.8400  7.2299  5.6344 -11.598  4.8400  7.2299  5.6344 
  4081.000 -12.252  4.7075  7.0016  5.4711 -10.021  4.7075  7.0016  5.4711 
  4081.500 -11.842  4.5764  6.6251  5.3566 -9.6205  4.5764  6.6251  5.3566 
  4082.000 -11.347  4.4487  6.2686  5.4729 -9.1359  4.4487  6.2686  5.4729 
  4082.500 -11.015  4.3212  6.1331  5.5541 -8.8142  4.3212  6.1331  5.5541 
  4083.000 -10.545  4.2072  6.2102  5.6189 -8.3541  4.2072  6.2102  5.6189 
  4083.500 -9.9100  4.0933  6.2510  5.6606 -7.7291  4.0933  6.2510  5.6606 
  4084.000 -8.3571  3.9714  6.2753  5.6831 -6.1862  3.9714  6.2753  5.6831 
  4084.500 -7.0785  3.8552  6.2209  5.4667 -4.9176  3.8552  6.2209  5.4667 
  4085.000 -6.2610  3.7496  6.0398  5.3347 -4.1102  3.7496  6.0398  5.3347 
  4085.500 -6.0032  3.6564  5.7552  5.2367 -3.8625  3.6564  5.7552  5.2367 
  4086.000 -6.0509  3.6085  5.4460  5.1529 -3.9203  3.6085  5.4460  5.1529 
  4086.500 -6.1410  3.6151  5.2049  5.1026 -4.0204  3.6151  5.2049  5.1026 
  4087.000 -6.3488  3.6530  5.0504  5.0800 -4.2383  3.6530  5.0504  5.0800 
  4087.500 -6.5644  3.7200  4.9483  5.0667 -4.4639  3.7200  4.9483  5.0667 
  4088.000 -7.1458  3.8031  4.8887  5.0563 -5.0554  3.8031  4.8887  5.0563 
  4088.500 -8.4941  3.9276  4.8589  5.0510 -6.4137  3.9276  4.8589  5.0510 
  4089.000 -10.041  4.0931  4.8411  5.0889 -7.9702  4.0931  4.8411  5.0889 
  4089.500 -12.059  4.3258  4.8970  5.1804 -9.9985  4.3258  4.8970  5.1804 
  4090.000 -14.387  4.6736  4.9728  5.4541 -12.336  4.6736  4.9728  5.4541 
  4090.500 -16.671  4.9968  5.0439  5.7768 -14.631  4.9968  5.0439  5.7768 
  4091.000 -18.922  5.2892  5.1165  6.0533 -16.891  5.2892  5.1165  6.0533 
  4091.500 -19.941  5.5725  5.1986  6.2945 -17.921  5.5725  5.1986  6.2945 
  4092.000 -20.324  5.8807  5.2824  6.5322 -18.314  5.8807  5.2824  6.5322 
  4092.500 -20.651  6.2298  5.3824  6.6924 -18.651  6.2298  5.3824  6.6924 
  4093.000 -21.981  6.5766  5.5309  6.7039 -19.979  6.5766  5.5309  6.7039 
  4093.500 -24.548  6.9644  5.6660  6.7242 -22.545  6.9644  5.6660  6.7242 
  4094.000 -27.578  7.3554  5.7972  6.7980 -25.572  7.3554  5.7972  6.7980 
  4094.500 -29.822  7.7307  5.9481  7.0830 -27.814  7.7307  5.9481  7.0830 
  4095.000 -31.522  8.0445  6.1087  7.3573 -29.512  8.0445  6.1087  7.3573 
  4095.500 -33.328  8.3268  6.2750  7.5841 -31.317  8.3268  6.2750  7.5841 
  4096.000 -35.105  8.6044  6.4478  7.8228 -33.091  8.6044  6.4478  7.8228 
  4096.500 -37.107  8.8835  6.5953  8.0307 -35.092  8.8835  6.5953  8.0307 
  4097.000 -39.192  9.1520  6.7316  8.2087 -37.175  9.1520  6.7316  8.2087 
  4097.500 -41.080  9.3363  6.8738  8.3539 -39.061  9.3363  6.8738  8.3539 
  4098.000 -40.874  9.4375  7.0034  8.4584 -38.853  9.4375  7.0034  8.4584 
  4098.500 -40.318  9.3144  7.0988  8.5405 -38.295  9.3144  7.0988  8.5405 
  4099.000 -39.880  9.1706  7.1865  8.5789 -37.856  9.1706  7.1865  8.5789 
  4099.500 -38.296  8.9748  7.2611  8.5983 -36.270  8.9748  7.2611  8.5983 
  4100.000 -36.293  8.7284  7.3143  8.6076 -34.265  8.7284  7.3143  8.6076 
  4100.500 -31.897  8.1176  7.3416  8.2544 -29.867  8.1176  7.3416  8.2544 
  4101.000 -24.750  6.5117  7.3621  7.9757 -22.717  6.5117  7.3621  7.9757 
  4101.500 -20.845  5.7526  6.8128  7.5354 -18.811  5.7526  6.8128  7.5354 
  4102.000 -16.839  5.0226  6.3619  6.1181 -14.802  5.0226  6.3619  6.1181 
  4102.500 -13.005  4.5465  5.8072  5.5370 -10.967  4.5465  5.8072  5.5370 
  4103.000 -10.701  4.3652  5.4101  5.0417 -8.6608  4.3652  5.4101  5.0417 
  4103.500 -9.4241  4.2376  4.9698  4.5675 -7.3820  4.2376  4.9698  4.5675 
