~Version Information
VERS.                     2.0: CWLS log ASCII Standard Version 2.00
WRAP.                      NO: One line per depth step
~Well Information Block
#MNEM.UNIT                               Data Type  Information
#---------                               ---------  -----------
STRT.FT                                   500.0000:
STOP.FT                                  8200.0000:
STEP.FT                                     0.5000:
NULL.                 -999.25                     :
COMP.                                             :COMPANY            
WELL.     CCMO 87-20                              :WELL               
FLD .                                             :FIELD              
CTRY.                                             :COUNTRY            
STAT.                                             :STATE              
LOC .                                             :LOCATION           
UWI .                                             :UNIQUE WELL ID     
SRVC.                                             :Service company    
DATE.                                             :LOG DATE           
~Curve Information
#MNEM.UNIT           API CODE  Curve Description
#---------           --------  -----------------
DEPT.FT                      :   1 DEPTH
SP  .MV                      :   2
AM16.OHMM                    :   3
AO10.OHMM                    :   4
AO19.OHMM                    :   5
SBL .MV                      :   6
RS  .OHMM                    :   7
RM  .OHMM                    :   8
RD  .OHMM                    :   9
~A
# ...
  4528.000 -20.764  4.1885  5.0808  5.3588 -17.097  4.1885  5.0808  5.3588 
  4528.500 -16.102  4.0818  4.8175  4.8439 -12.433  4.0818  4.8175  4.8439 
  4529.000 -14.381  3.9881  4.5012  4.5473 -10.711  3.9881  4.5012  4.5473 
  4529.500 -13.453  3.9213  4.2686  4.3495 -9.7799  3.9213  4.2686  4.3495 
  4530.000 -13.573  3.8757  4.0892  4.4251 -9.8988  3.8757  4.0892  4.4251 
  4530.500 -13.637  3.8247  3.9935  4.4994 -9.9605  3.8247  3.9935  4.4994 
  4531.000 -13.591  3.7725  3.9565  4.5536 -9.9125  3.7725  3.9565  4.5536 
  4531.500 -13.423  3.7262  4.1480  4.5909 -9.7429  3.7262  4.1480  4.5909 
  4532.000 -12.617  3.6881  4.2799  4.6196 -8.9348  3.6881  4.2799  4.6196 
  4532.500 -11.186  3.6534  4.3937  4.6364 -7.5019  3.6534  4.3937  4.6364 
  4533.000 -9.8440  3.6260  4.4742  4.6230 -6.1579  3.6260  4.4742  4.6230 
  4533.500 -8.9187  3.5986  4.5374  4.5702 -5.2306  3.5986  4.5374  4.5702 
  4534.000 -8.4470  3.5864  4.5649  4.4797 -4.7570  3.5864  4.5649  4.4797 
  4534.500 -9.0600  3.5755  4.5925  4.3253 -5.3682  3.5755  4.5925  4.3253 
  4535.000 -9.5374  3.5660  4.6035  4.1498 -5.8436  3.5660  4.6035  4.1498 
  4535.500 -9.8469  3.5567  4.6170  3.9800 -6.1513  3.5567  4.6170  3.9800 
  4536.000 -8.7505  3.5474  4.6340  3.8346 -5.0529  3.5474  4.6340  3.8346 
  4536.500 -8.0311  3.5424  4.5447  3.7071 -4.3316  3.5424  4.5447  3.7071 
  4537.000 -7.8833  3.5733  4.4822  3.7311 -4.1819  3.5733  4.4822  3.7311 
  4537.500 -7.8236  3.6052  4.4776  3.7663 -4.1203  3.6052  4.4776  3.7663 
  4538.000 -7.8274  3.6540  4.4745  3.8101 -4.1222  3.6540  4.4745  3.8101 
  4538.500 -7.9419  3.7008  4.5281  3.9227 -4.2347  3.7008  4.5281  3.9227 
  4539.000 -8.9139  3.7815  4.5906  4.0451 -5.2049  3.7815  4.5906  4.0451 
  4539.500 -9.9700  3.9445  4.6866  4.1768 -6.2590  3.9445  4.6866  4.1768 
  4540.000 -10.985  3.9512  4.7844  4.3267 -7.2726  3.9512  4.7844  4.3267 
  4540.500 -11.666  3.9142  4.8660  4.2899 -7.9507  3.9142  4.8660  4.2899 
  4541.000 -11.732  3.8816  4.8913  4.2373 -8.0148  3.8816  4.8913  4.2373 
  4541.500 -10.223  3.8637  4.8773  4.1847 -6.5040  3.8637  4.8773  4.1847 
  4542.000 -8.7723  3.8631  4.8175  4.1321 -5.0517  3.8631  4.8175  4.1321 
  4542.500 -7.5249  3.8759  4.6920  4.0674 -3.8024  3.8759  4.6920  4.0674 
  4543.000 -7.1778  3.8947  4.5558  3.9762 -3.4534  3.8947  4.5558  3.9762 
  4543.500 -7.4285  3.9418  4.4374  3.9103 -3.7022  3.9418  4.4374  3.9103 
  4544.000 -7.9989  4.0053  4.3231  4.0614 -4.2707  4.0053  4.3231  4.0614 
  4544.500 -9.6044  4.1999  4.2484  4.1892 -5.8743  4.1999  4.2484  4.1892 
  4545.000 -10.824  4.4131  4.2226  4.3071 -7.0922  4.4131  4.2226  4.3071 
  4545.500 -11.937  4.6353  4.2306  4.4129 -8.2032  4.6353  4.2306  4.4129 
  4546.000 -12.544  4.6055  4.2615  4.5189 -8.8082  4.6055  4.2615  4.5189 
  4546.500 -12.276  4.5670  4.2981  4.6019 -8.5378  4.5670  4.2981  4.6019 
  4547.000 -12.043  4.4773  4.3201  4.6901 -8.3032  4.4773  4.3201  4.6901 
  4547.500 -11.810  4.3615  4.3092  4.7634 -8.0687  4.3615  4.3092  4.7634 
  4548.000 -11.623  4.2478  4.2997  4.6043 -7.8797  4.2478  4.2997  4.6043 
  4548.500 -11.450  4.1620  4.2963  4.4962 -7.7047  4.1620  4.2963  4.4962 
  4549.000 -11.313  4.1464  4.3316  4.4108 -7.5652  4.1464  4.3316  4.4108 
  4549.500 -11.323  4.3688  4.3714  4.3437 -7.5736  4.3688  4.3714  4.3437 
  4550.000 -11.667  4.6903  4.4111  4.2683 -7.9157  4.6903  4.4111  4.2683 
  4550.500 -12.355  5.0151  4.4507  4.2409 -8.6018  5.0151  4.4507  4.2409 
  4551.000 -13.473  5.2632  4.5066  4.3675 -9.7184  5.2632  4.5066  4.3675 
  4551.500 -14.794  5.5029  4.5876  4.4882 -11.037  5.5029  4.5876  4.4882 
  4552.000 -15.694  5.8136  4.6685  4.6956 -11.935  5.8136  4.6685  4.6956 
  4552.500 -16.464  6.1203  4.7492  4.8689 -12.703  6.1203  4.7492  4.8689 
  4553.000 -17.376  6.4179  4.8770  5.0071 -13.614  6.4179  4.8770  5.0071 
  4553.500 -18.659  6.6692  5.0701  5.1245 -14.894  6.6692  5.0701  5.1245 
  4554.000 -21.222  6.9300  5.2454  5.2109 -17.456  6.9300  5.2454  5.2109 
  4554.500 -24.680  7.2063  5.4160  5.3088 -20.912  7.2063  5.4160  5.3088 
  4555.000 -28.935  7.4764  5.5613  5.3920 -25.165  7.4764  5.5613  5.3920 
  4555.500 -32.009  7.7345  5.6966  5.4404 -28.236  7.7345  5.6966  5.4404 
  4556.000 -34.348  7.9993  5.8423  5.4202 -30.574  7.9993  5.8423  5.4202 
  4556.500 -36.554  8.2769  5.9638  5.4108 -32.778  8.2769  5.9638  5.4108 
  4557.000 -37.984  8.5164  6.0119  5.4181 -34.206  8.5164  6.0119  5.4181 
  4557.500 -39.295  8.7376  6.0369  5.4230 -35.515  8.7376  6.0369  5.4230 
  4558.000 -40.649  8.9444  6.0721  5.4723 -36.868  8.9444  6.0721  5.4723 
  4558.500 -40.391  9.1837  6.1261  5.5360 -36.608  9.1837  6.1261  5.5360 
  4559.000 -40.109  9.4713  6.1868  5.6210 -36.324  9.4713  6.1868  5.6210 
  4559.500 -39.910  9.7448  6.2771  5.7429 -36.122  9.7448  6.2771  5.7429 
  4560.000 -39.802  9.9738  6.3781  5.8741 -36.013  9.9738  6.3781  5.8741 
  4560.500 -41.336  10.220  6.5222  6.0078 -37.545  10.220  6.5222  6.0078 
  4561.000 -42.243  10.417  6.6950  6.1159 -38.450  10.417  6.6950  6.1159 
  4561.500 -43.019  10.594  6.8845  6.2325 -39.223  10.594  6.8845  6.2325 
  4562.000 -43.888  10.729  7.0975  6.3213 -40.091  10.729  7.0975  6.3213 
  4562.500 -44.611  10.836  7.3287  6.3966 -40.812  10.836  7.3287  6.3966 
  4563.000 -45.493  10.903  7.5688  6.4692 -41.692  10.903  7.5688  6.4692 
  4563.500 -45.304  10.940  7.8408  6.5383 -41.501  10.940  7.8408  6.5383 
  4564.000 -45.115  10.975  8.1084  6.6070 -41.310  10.975  8.1084  6.6070 
  4564.500 -45.025  11.010  8.3624  6.6728 -41.219  11.010  8.3624  6.6728 
  4565.000 -45.003  11.048  8.6346  6.7385 -41.194  11.048  8.6346  6.7385 
  4565.500 -45.123  11.093  8.8890  6.8043 -41.312  11.093  8.8890  6.8043 
  4566.000 -45.362  11.153  9.1261  6.8701 -41.549  11.153  9.1261  6.8701 
  4566.500 -45.689  11.221  9.3436  6.9342 -41.875  11.221  9.3436  6.9342 
  4567.000 -45.825  11.314  9.5575  6.9926 -42.009  11.314  9.5575  6.9926 
  4567.500 -45.960  11.437  9.7604  6.9859 -42.142  11.437  9.7604  6.9859 
  4568.000 -46.159  11.603  9.9608  6.9688 -42.339  11.603  9.9608  6.9688 
  4568.500 -46.450  11.821  10.188  6.9531 -42.628  11.821  10.188  6.9531 
  4569.000 -46.310  12.035  10.416  6.9471 -42.487  12.035  10.416  6.9471 
  4569.500 -46.339  12.207  10.670  6.9673 -42.514  12.207  10.670  6.9673 
  4570.000 -46.455  12.322  10.943  7.0043 -42.627  12.322  10.943  7.0043 
  4570.500 -46.715  12.400  11.222  7.0416 -42.885  12.400  11.222  7.0416 
  4571.000 -46.975  12.447  11.472  7.1034 -43.143  12.447  11.472  7.1034 
  4571.500 -47.228  12.488  11.705  7.1846 -43.395  12.488  11.705  7.1846 
  4572.000 -47.323  12.499  11.945  7.2771 -43.488  12.499  11.945  7.2771 
  4572.500 -47.400  12.513  12.220  7.3720 -43.563  12.513  12.220  7.3720 
  4573.000 -46.217  12.509  12.591  7.4655 -42.378  12.509  12.591  7.4655 
  4573.500 -44.759  12.502  13.051  7.5565 -40.918  12.502  13.051  7.5565 
  4574.000 -43.604  12.486  13.430  7.6476 -39.761  12.486  13.430  7.6476 
  4574.500 -42.509  12.449  13.787  7.7395 -38.664  12.449  13.787  7.7395 
  4575.000 -41.555  12.296  14.122  7.8315 -37.709  12.296  14.122  7.8315 
  4575.500 -40.817  12.173  14.332  7.9247 -36.968  12.173  14.332  7.9247 
  4576.000 -40.342  12.047  14.375  8.0179 -36.491  12.047  14.375  8.0179 
  4576.500 -40.080  11.875  14.419  8.1259 -36.227  11.875  14.419  8.1259 
  4577.000 -39.913  11.688  14.473  8.2347 -36.059  11.688  14.473  8.2347 
  4577.500 -39.815  11.470  14.579  8.3513 -35.958  11.470  14.579  8.3513 
  4578.000 -39.671  11.169  14.661  8.4689 -35.812  11.169  14.661  8.4689 
  4578.500 -39.298  10.494  14.825  8.5903 -35.438  10.494  14.825  8.5903 
  4579.000 -37.628  9.8161  15.026  8.7225 -33.766  9.8161  15.026  8.7225 
  4579.500 -31.493  9.0893  15.224  8.8595 -27.629  9.0893  15.224  8.8595 
  4580.000 -27.281  8.4171  15.365  8.9760 -23.415  8.4171  15.365  8.9760 
  4580.500 -24.183  7.6511  15.419  9.0534 -20.315  7.6511  15.419  9.0534 
