~Version Information
VERS.                     2.0: CWLS log ASCII Standard Version 2.00
WRAP.                      NO: One line per depth step
~Well Information Block
#MNEM.UNIT                               Data Type  Information
#---------                               ---------  -----------
STRT.FT                                   500.0000:
STOP.FT                                  8200.0000:
STEP.FT                                     0.5000:
NULL.                 -999.25                     :
COMP.                                             :COMPANY            
WELL.     CCMO 87-20                              :WELL               
FLD .                                             :FIELD              
CTRY.                                             :COUNTRY            
STAT.                                             :STATE              
LOC .                                             :LOCATION           
UWI .                                             :UNIQUE WELL ID     
SRVC.                                             :Service company    
DATE.                                             :LOG DATE           
~Curve Information
#MNEM.UNIT           API CODE  Curve Description
#---------           --------  -----------------
DEPT.FT                      :   1 DEPTH
SP  .MV                      :   2
AM16.OHMM                    :   3
AO10.OHMM                    :   4
AO19.OHMM                    :   5
SBL .MV                      :   6
RS  .OHMM                    :   7
RM  .OHMM                    :   8
RD  .OHMM                    :   9
~A
# ...
  7072.000 -16.529  1.7657  1.9413  1.9326 -10.529  1.7657  1.9413  1.9326 
  7072.500 -16.920  1.7748  1.9401  1.9161 -10.920  1.7748  1.9401  1.9161 
  7073.000 -17.345  1.7827  1.9335  1.8974 -11.345  1.7827  1.9335  1.8974 
  7073.500 -17.543  1.7813  1.9266  1.8762 -11.543  1.7813  1.9266  1.8762 
  7074.000 -17.420  1.7802  1.9204  1.8554 -11.420  1.7802  1.9204  1.8554 
  7074.500 -17.294  1.7703  1.9142  1.8346 -11.294  1.7703  1.9142  1.8346 
  7075.000 -17.151  1.7565  1.8936  1.8201 -11.151  1.7565  1.8936  1.8201 
  7075.500 -17.007  1.7411  1.8470  1.8100 -11.007  1.7411  1.8470  1.8100 
  7076.000 -16.857  1.7257  1.8112  1.8003 -10.857  1.7257  1.8112  1.8003 
  7076.500 -16.705  1.7148  1.8046  1.7933 -10.705  1.7148  1.8046  1.7933 
  7077.000 -16.586  1.7039  1.8069  1.7916 -10.586  1.7039  1.8069  1.7916 
  7077.500 -16.495  1.6984  1.8078  1.7945 -10.495  1.6984  1.8078  1.7945 
  7078.000 -16.436  1.6924  1.8149  1.8002 -10.436  1.6924  1.8149  1.8002 
  7078.500 -16.358  1.6953  1.8220  1.8056 -10.358  1.6953  1.8220  1.8056 
  7079.000 -16.283  1.6999  1.8338  1.8107 -10.283  1.6999  1.8338  1.8107 
  7079.500 -16.227  1.7045  1.8601  1.8162 -10.227  1.7045  1.8601  1.8162 
  7080.000 -16.354  1.7096  1.8843  1.8279 -10.354  1.7096  1.8843  1.8279 
  7080.500 -16.518  1.7146  1.9035  1.8271 -10.518  1.7146  1.9035  1.8271 
  7081.000 -16.692  1.7173  1.9152  1.8196 -10.692  1.7173  1.9152  1.8196 
  7081.500 -16.856  1.7196  1.9246  1.8030 -10.856  1.7196  1.9246  1.8030 
  7082.000 -16.901  1.7221  1.9289  1.7862 -10.901  1.7221  1.9289  1.7862 
  7082.500 -16.875  1.7251  1.9316  1.7694 -10.875  1.7251  1.9316  1.7694 
  7083.000 -16.845  1.7242  1.9304  1.7540 -10.845  1.7242  1.9304  1.7540 
  7083.500 -16.832  1.7185  1.9293  1.7392 -10.832  1.7185  1.9293  1.7392 
  7084.000 -16.819  1.7071  1.9281  1.7263 -10.819  1.7071  1.9281  1.7263 
  7084.500 -16.825  1.6977  1.9274  1.7145 -10.825  1.6977  1.9274  1.7145 
  7085.000 -16.848  1.6918  1.9292  1.7027 -10.848  1.6918  1.9292  1.7027 
  7085.500 -16.907  1.6856  1.9304  1.7011 -10.907  1.6856  1.9304  1.7011 
  7086.000 -17.005  1.6806  1.9311  1.7000 -11.005  1.6806  1.9311  1.7000 
  7086.500 -17.204  1.6770  1.9215  1.6989 -11.204  1.6770  1.9215  1.6989 
  7087.000 -17.384  1.6734  1.9119  1.7050 -11.384  1.6734  1.9119  1.7050 
  7087.500 -17.474  1.6712  1.9026  1.7106 -11.474  1.6712  1.9026  1.7106 
  7088.000 -17.437  1.6701  1.8935  1.7120 -11.437  1.6701  1.8935  1.7120 
  7088.500 -17.281  1.6690  1.8844  1.7133 -11.281  1.6690  1.8844  1.7133 
  7089.000 -17.068  1.6678  1.8711  1.7146 -11.068  1.6678  1.8711  1.7146 
  7089.500 -16.814  1.6670  1.8562  1.7134 -10.814  1.6670  1.8562  1.7134 
  7090.000 -16.549  1.6701  1.8429  1.7068 -10.549  1.6701  1.8429  1.7068 
  7090.500 -16.367  1.6722  1.8383  1.6994 -10.367  1.6722  1.8383  1.6994 
  7091.000 -16.262  1.6735  1.8340  1.6904 -10.262  1.6735  1.8340  1.6904 
  7091.500 -16.404  1.6749  1.8374  1.6803 -10.404  1.6749  1.8374  1.6803 
  7092.000 -16.618  1.6757  1.8405  1.6702 -10.618  1.6757  1.8405  1.6702 
  7092.500 -16.983  1.6741  1.8437  1.6613 -10.983  1.6741  1.8437  1.6613 
  7093.000 -17.452  1.6729  1.8496  1.6544 -11.452  1.6729  1.8496  1.6544 
  7093.500 -17.954  1.6686  1.8491  1.6475 -11.954  1.6686  1.8491  1.6475 
  7094.000 -18.703  1.6642  1.8511  1.6393 -12.703  1.6642  1.8511  1.6393 
  7094.500 -19.578  1.6624  1.8547  1.6310 -13.578  1.6624  1.8547  1.6310 
  7095.000 -20.429  1.6613  1.8599  1.6227 -14.429  1.6613  1.8599  1.6227 
  7095.500 -20.384  1.6601  1.8593  1.6185 -14.384  1.6601  1.8593  1.6185 
  7096.000 -20.271  1.6590  1.8581  1.6147 -14.271  1.6590  1.8581  1.6147 
  7096.500 -20.127  1.6383  1.8570  1.6105 -14.127  1.6383  1.8570  1.6105 
  7097.000 -19.872  1.6283  1.8559  1.6052 -13.872  1.6283  1.8559  1.6052 
  7097.500 -19.560  1.6251  1.8537  1.5998 -13.560  1.6251  1.8537  1.5998 
  7098.000 -19.277  1.6178  1.8497  1.5936 -13.277  1.6178  1.8497  1.5936 
  7098.500 -19.051  1.6107  1.8457  1.5949 -13.051  1.6107  1.8457  1.5949 
  7099.000 -18.885  1.6095  1.8411  1.5965 -12.885  1.6095  1.8411  1.5965 
  7099.500 -18.742  1.6085  1.8358  1.6115 -12.742  1.6085  1.8358  1.6115 
  7100.000 -18.560  1.6120  1.8374  1.6206 -12.560  1.6120  1.8374  1.6206 
  7100.500 -18.724  1.6159  1.8393  1.6365 -12.724  1.6159  1.8393  1.6365 
  7101.000 -18.918  1.6210  1.8402  1.6505 -12.918  1.6210  1.8402  1.6505 
  7101.500 -19.012  1.6263  1.8385  1.6646 -13.012  1.6263  1.8385  1.6646 
  7102.000 -19.085  1.6330  1.8134  1.6832 -13.085  1.6330  1.8134  1.6832 
  7102.500 -19.015  1.6408  1.7993  1.6863 -13.015  1.6408  1.7993  1.6863 
  7103.000 -18.880  1.6503  1.7853  1.6881 -12.880  1.6503  1.7853  1.6881 
  7103.500 -18.690  1.6589  1.7842  1.6890 -12.690  1.6589  1.7842  1.6890 
  7104.000 -18.482  1.6656  1.7830  1.6874 -12.482  1.6656  1.7830  1.6874 
  7104.500 -18.277  1.6704  1.7811  1.6864 -12.277  1.6704  1.7811  1.6864 
  7105.000 -18.105  1.6739  1.7762  1.6899 -12.105  1.6739  1.7762  1.6899 
  7105.500 -17.863  1.6727  1.7729  1.6944 -11.863  1.6727  1.7729  1.6944 
  7106.000 -17.628  1.6791  1.7828  1.7008 -11.628  1.6791  1.7828  1.7008 
  7106.500 -17.395  1.6915  1.7903  1.7049 -11.395  1.6915  1.7903  1.7049 
  7107.000 -17.156  1.6909  1.7976  1.7070 -11.156  1.6909  1.7976  1.7070 
  7107.500 -16.915  1.6896  1.7994  1.7090 -10.915  1.6896  1.7994  1.7090 
  7108.000 -16.722  1.6924  1.8012  1.7109 -10.722  1.6924  1.8012  1.7109 
  7108.500 -16.578  1.6949  1.8029  1.7128 -10.578  1.6949  1.8029  1.7128 
  7109.000 -16.482  1.6934  1.8047  1.7089 -10.482  1.6934  1.8047  1.7089 
  7109.500 -16.441  1.6924  1.8068  1.7047 -10.441  1.6924  1.8068  1.7047 
  7110.000 -16.429  1.6956  1.8114  1.7023 -10.429  1.6956  1.8114  1.7023 
  7110.500 -16.440  1.6990  1.8159  1.7011 -10.440  1.6990  1.8159  1.7011 
  7111.000 -16.507  1.7031  1.8233  1.7005 -10.507  1.7031  1.8233  1.7005 
  7111.500 -16.590  1.7020  1.8370  1.7058 -10.590  1.7020  1.8370  1.7058 
  7112.000 -16.641  1.6981  1.8416  1.7139 -10.641  1.6981  1.8416  1.7139 
  7112.500 -16.677  1.6941  1.8556  1.7221 -10.677  1.6941  1.8556  1.7221 
  7113.000 -16.684  1.6900  1.8692  1.7293 -10.684  1.6900  1.8692  1.7293 
  7113.500 -16.691  1.6857  1.8752  1.7361 -10.691  1.6857  1.8752  1.7361 
  7114.000 -16.697  1.6814  1.8853  1.7408 -10.697  1.6814  1.8853  1.7408 
  7114.500 -16.723  1.6765  1.9011  1.7438 -10.723  1.6765  1.9011  1.7438 
  7115.000 -16.745  1.6727  1.9212  1.7458 -10.745  1.6727  1.9212  1.7458 
  7115.500 -16.752  1.6715  1.9209  1.7473 -10.752  1.6715  1.9209  1.7473 
  7116.000 -16.804  1.6692  1.9334  1.7458 -10.804  1.6692  1.9334  1.7458 
  7116.500 -16.866  1.6649  1.9321  1.7400 -10.866  1.6649  1.9321  1.7400 
  7117.000 -16.928  1.6610  1.9207  1.7363 -10.928  1.6610  1.9207  1.7363 
  7117.500 -16.995  1.6599  1.9083  1.7350 -10.995  1.6599  1.9083  1.7350 
  7118.000 -17.034  1.6524  1.8952  1.7311 -11.034  1.6524  1.8952  1.7311 
  7118.500 -17.040  1.6433  1.8923  1.7272 -11.040  1.6433  1.8923  1.7272 
  7119.000 -17.046  1.6347  1.8781  1.7246 -11.046  1.6347  1.8781  1.7246 
  7119.500 -17.053  1.6293  1.8687  1.7213 -11.053  1.6293  1.8687  1.7213 
  7120.000 -17.068  1.6240  1.8411  1.7088 -11.068  1.6240  1.8411  1.7088 
  7120.500 -17.090  1.6172  1.8221  1.7000 -11.090  1.6172  1.8221  1.7000 
  7121.000 -17.112  1.6203  1.8086  1.7032 -11.112  1.6203  1.8086  1.7032 
  7121.500 -17.134  1.6228  1.7956  1.7046 -11.134  1.6228  1.7956  1.7046 
  7122.000 -17.155  1.6212  1.7863  1.7066 -11.155  1.6212  1.7863  1.7066 
  7122.500 -17.162  1.6200  1.7766  1.7091 -11.162  1.6200  1.7766  1.7091 
  7123.000 -17.168  1.6181  1.7675  1.7083 -11.168  1.6181  1.7675  1.7083 
  7123.500 -17.175  1.6104  1.7576  1.7074 -11.175  1.6104  1.7576  1.7074 
  7124.000 -17.181  1.6023  1.7466  1.7111 -11.181  1.6023  1.7466  1.7111 
  7124.500 -17.185  1.5972  1.7369  1.7168 -11.185  1.5972  1.7369  1.7168 
