~Version Information
VERS.                     2.0: CWLS log ASCII Standard Version 2.00
WRAP.                      NO: One line per depth step
~Well Information Block
#MNEM.UNIT                               Data Type  Information
#---------                               ---------  -----------
STRT.FT                                   500.0000:
STOP.FT                                  8200.0000:
STEP.FT                                     0.5000:
NULL.                 -999.25                     :
COMP.                                             :COMPANY            
WELL.     CCMO 87-20                              :WELL               
FLD .                                             :FIELD              
CTRY.                                             :COUNTRY            
STAT.                                             :STATE              
LOC .                                             :LOCATION           
UWI .                                             :UNIQUE WELL ID     
SRVC.                                             :Service company    
DATE.                                             :LOG DATE           
~Curve Information
#MNEM.UNIT           API CODE  Curve Description
#---------           --------  -----------------
DEPT.FT                      :   1 DEPTH
SP  .MV                      :   2
AM16.OHMM                    :   3
AO10.OHMM                    :   4
AO19.OHMM                    :   5
SBL .MV                      :   6
RS  .OHMM                    :   7
RM  .OHMM                    :   8
RD  .OHMM                    :   9
~A
# ...
  1030.000 -18.336  5.0576  10.429  7.8667 -10.866  5.0576  10.429  7.8667 
  1030.500 -17.471  5.0118  10.301  7.9902 -10.005  5.0118  10.301  7.9902 
  1031.000 -16.093  4.9615  10.151  7.9541 -8.6290  4.9615  10.151  7.9541 
  1031.500 -14.668  4.8550  9.9352  7.9023 -7.2077  4.8550  9.9352  7.9023 
  1032.000 -13.599  4.7233  9.6577  7.8401 -6.1416  4.7233  9.6577  7.8401 
  1032.500 -13.132  4.6087  9.3415  7.7795 -5.6779  4.6087  9.3415  7.7795 
  1033.000 -14.002  4.4959  8.9717  7.7375 -6.5500  4.4959  8.9717  7.7375 
  1033.500 -14.526  4.4019  8.5268  7.7264 -7.0779  4.4019  8.5268  7.7264 
  1034.000 -14.307  4.3227  8.0936  7.8365 -6.8619  4.3227  8.0936  7.8365 
  1034.500 -14.039  4.3922  7.7311  7.9281 -6.5970  4.3922  7.7311  7.9281 
  1035.000 -13.923  4.4998  7.4182  8.2020 -6.4838  4.4998  7.4182  8.2020 
  1035.500 -14.197  4.6175  7.3074  8.6968 -6.7605  4.6175  7.3074  8.6968 
  1036.000 -15.371  4.7328  7.2595  9.1243 -7.9377  4.7328  7.2595  9.1243 
  1036.500 -17.944  4.8452  7.2240  9.4655 -10.514  4.8452  7.2240  9.4655 
  1037.000 -20.143  4.9505  7.2808  9.7749 -12.715  4.9505  7.2808  9.7749 
  1037.500 -21.835  5.0601  7.3849  10.020 -14.411  5.0601  7.3849  10.020 
  1038.000 -23.587  5.1648  7.4689  10.199 -16.166  5.1648  7.4689  10.199 
  1038.500 -25.121  5.2400  7.5223  10.280 -17.703  5.2400  7.5223  10.280 
  1039.000 -26.951  5.3102  7.5680  10.340 -19.536  5.3102  7.5680  10.340 
  1039.500 -29.024  5.3770  7.6013  10.365 -21.612  5.3770  7.6013  10.365 
  1040.000 -26.813  5.3770  7.6157  10.130 -19.404  5.3770  7.6157  10.130 
  1040.500 -28.225  5.3048  7.3924  9.9271 -20.819  5.3048  7.3924  9.9271 
  1041.000 -29.776  5.2310  7.2184  9.8574 -22.373  5.2310  7.2184  9.8574 
  1041.500 -28.969  5.1675  7.1572  9.7932 -21.569  5.1675  7.1572  9.7932 
  1042.000 -27.046  5.1134  7.1068  9.7250 -19.649  5.1134  7.1068  9.7250 
  1042.500 -25.636  5.0714  7.0619  9.6434 -18.243  5.0714  7.0619  9.6434 
  1043.000 -25.243  5.0700  6.9108  9.4780 -17.852  5.0700  6.9108  9.4780 
  1043.500 -23.699  5.1451  6.6569  9.2390 -16.311  5.1451  6.6569  9.2390 
  1044.000 -19.377  5.2357  6.4160  8.9474 -11.992  5.2357  6.4160  8.9474 
  1044.500 -17.387  5.3115  6.2365  8.7137 -10.005  5.3115  6.2365  8.7137 
  1045.000 -16.516  5.3831  6.1106  8.5910 -9.1375  5.3831  6.1106  8.5910 
  1045.500 -16.629  5.4440  6.2059  8.5533 -9.2530  5.4440  6.2059  8.5533 
  1046.000 -18.895  5.4977  6.2650  8.5266 -11.522  5.4977  6.2650  8.5266 
  1046.500 -22.311  5.5354  6.3415  8.5014 -14.941  5.5354  6.3415  8.5014 
  1047.000 -24.623  5.5573  6.4867  8.4763 -17.256  5.5573  6.4867  8.4763 
  1047.500 -24.690  5.5684  6.6263  8.4239 -17.327  5.5684  6.6263  8.4239 
  1048.000 -22.309  5.5506  6.7538  8.3185 -14.948  5.5506  6.7538  8.3185 
  1048.500 -20.717  5.5109  6.8872  8.1588 -13.360  5.5109  6.8872  8.1588 
  1049.000 -19.985  5.5005  6.8816  7.9900 -12.631  5.5005  6.8816  7.9900 
  1049.500 -20.261  5.4933  6.8746  7.8250 -12.910  5.4933  6.8746  7.8250 
  1050.000 -20.521  5.4897  6.8687  7.6908 -13.173  5.4897  6.8687  7.6908 
  1050.500 -20.917  5.7681  6.8656  7.6028 -13.572  5.7681  6.8656  7.6028 
  1051.000 -21.802  6.0056  6.9045  7.5707 -14.460  6.0056  6.9045  7.5707 
  1051.500 -22.845  6.2060  6.9448  7.8432 -15.506  6.2060  6.9448  7.8432 
  1052.000 -22.160  6.4001  7.0920  8.0501 -14.823  6.4001  7.0920  8.0501 
  1052.500 -20.693  6.5962  7.3066  8.2499 -13.359  6.5962  7.3066  8.2499 
  1053.000 -19.639  6.7779  7.5678  8.4320 -12.308  6.7779  7.5678  8.4320 
  1053.500 -20.634  6.9494  7.8012  8.6183 -13.306  6.9494  7.8012  8.6183 
  1054.000 -22.861  7.1231  8.0435  8.8062 -15.536  7.1231  8.0435  8.8062 
  1054.500 -25.405  7.2909  8.2835  8.9673 -18.084  7.2909  8.2835  8.9673 
  1055.000 -28.475  7.4459  8.5123  9.1287 -21.157  7.4459  8.5123  9.1287 
  1055.500 -30.638  7.5916  8.7413  9.2907 -23.323  7.5916  8.7413  9.2907 
  1056.000 -31.208  7.6991  9.0046  9.4527 -23.896  7.6991  9.0046  9.4527 
  1056.500 -32.196  7.7561  9.2430  9.5790 -24.886  7.7561  9.2430  9.5790 
  1057.000 -33.126  7.7772  9.4430  9.6488 -25.820  7.7772  9.4430  9.6488 
  1057.500 -33.418  7.7370  9.5503  9.6556 -26.115  7.7370  9.5503  9.6556 
  1058.000 -30.041  7.5719  9.5736  9.5995 -22.741  7.5719  9.5736  9.5995 
  1058.500 -26.839  7.3024  9.5568  9.4566 -19.542  7.3024  9.5568  9.4566 
  1059.000 -25.710  7.0477  9.4533  9.2338 -18.416  7.0477  9.4533  9.2338 
  1059.500 -25.378  6.7640  9.0252  8.9572 -18.087  6.7640  9.0252  8.9572 
  1060.000 -25.006  6.5220  8.6181  8.6001 -17.718  6.5220  8.6181  8.6001 
  1060.500 -26.434  6.3405  8.2631  8.2613 -19.149  6.3405  8.2631  8.2613 
  1061.000 -25.715  6.2401  8.0020  7.9243 -18.433  6.2401  8.0020  7.9243 
  1061.500 -22.889  6.1970  7.8650  7.6983 -15.611  6.1970  7.8650  7.6983 
  1062.000 -22.299  6.1794  7.7916  7.5333 -15.023  6.1794  7.7916  7.5333 
  1062.500 -23.399  6.1958  7.7764  7.4173 -16.126  6.1958  7.7764  7.4173 
  1063.000 -26.119  6.2479  7.7810  7.3531 -18.850  6.2479  7.7810  7.3531 
  1063.500 -25.620  6.3451  7.7997  7.2911 -18.354  6.3451  7.7997  7.2911 
  1064.000 -22.757  6.4608  7.8404  7.2306 -15.493  6.4608  7.8404  7.2306 
  1064.500 -20.654  6.5752  7.9223  7.2183 -13.393  6.5752  7.9223  7.2183 
  1065.000 -19.846  6.7399  8.0486  7.2102 -12.588  6.7399  8.0486  7.2102 
  1065.500 -19.846  6.9956  8.2045  7.2644 -12.592  6.9956  8.2045  7.2644 
  1066.000 -19.949  7.3463  8.4257  7.3597 -12.697  7.3463  8.4257  7.3597 
  1066.500 -20.918  7.6724  8.6759  7.6340 -13.669  7.6724  8.6759  7.6340 
  1067.000 -23.364  7.9484  8.9180  8.0507 -16.118  7.9484  8.9180  8.0507 
  1067.500 -24.022  8.2108  9.2522  8.6664 -16.780  8.2108  9.2522  8.6664 
  1068.000 -24.417  8.5535  9.6002  9.1788 -17.178  8.5535  9.6002  9.1788 
  1068.500 -27.528  8.8782  10.204  9.6649 -20.291  8.8782  10.204  9.6649 
  1069.000 -30.430  9.1652  11.463  10.232 -23.196  9.1652  11.463  10.232 
  1069.500 -32.574  9.3029  11.995  10.788 -25.343  9.3029  11.995  10.788 
  1070.000 -34.641  9.3779  12.318  11.260 -27.414  9.3779  12.318  11.260 
  1070.500 -37.866  9.4007  12.427  11.459 -30.641  9.4007  12.427  11.459 
  1071.000 -40.898  9.3737  12.493  11.518 -33.677  9.3737  12.493  11.518 
  1071.500 -43.263  9.2614  12.523  11.474 -36.045  9.2614  12.523  11.474 
  1072.000 -45.214  8.9012  12.436  11.390 -37.999  8.9012  12.436  11.390 
  1072.500 -45.725  8.4233  12.141  11.030 -38.513  8.4233  12.141  11.030 
  1073.000 -41.588  8.0725  11.747  10.426 -34.379  8.0725  11.747  10.426 
  1073.500 -37.927  7.7892  11.282  9.8778 -30.721  7.7892  11.282  9.8778 
  1074.000 -37.410  7.5553  10.737  9.4993 -30.207  7.5553  10.737  9.4993 
  1074.500 -36.385  7.3284  10.241  9.2156 -29.185  7.3284  10.241  9.2156 
  1075.000 -33.319  7.0971  9.7654  8.9933 -26.122  7.0971  9.7654  8.9933 
  1075.500 -29.745  6.8814  9.4074  8.8122 -22.552  6.8814  9.4074  8.8122 
  1076.000 -25.455  6.7139  9.1394  8.6649 -18.264  6.7139  9.1394  8.6649 
  1076.500 -22.395  6.5662  8.8843  8.5272 -15.207  6.5662  8.8843  8.5272 
  1077.000 -20.534  6.4304  8.6799  8.4269 -13.349  6.4304  8.6799  8.4269 
  1077.500 -19.340  6.2982  8.5424  8.3266 -12.158  6.2982  8.5424  8.3266 
  1078.000 -19.422  6.1627  8.4729  8.2335 -12.243  6.1627  8.4729  8.2335 
  1078.500 -19.565  6.0714  8.5299  8.1495 -12.389  6.0714  8.5299  8.1495 
  1079.000 -19.713  6.0274  8.6487  8.0598 -12.540  6.0274  8.6487  8.0598 
  1079.500 -19.851  6.1470  8.7983  7.9689 -12.681  6.1470  8.7983  7.9689 
  1080.000 -20.027  6.2887  9.0362  7.8837 -12.860  6.2887  9.0362  7.8837 
  1080.500 -21.093  6.4564  9.2782  7.8266 -13.929  6.4564  9.2782  7.8266 
  1081.000 -23.608  6.6165  9.5681  7.7935 -16.447  6.6165  9.5681  7.7935 
  1081.500 -27.476  6.7583  9.7722  7.9647 -20.318  6.7583  9.7722  7.9647 
  1082.000 -30.470  6.8657  10.014  8.1948 -23.315  6.8657  10.014  8.1948 
  1082.500 -32.166  6.9781  10.221  8.4143 -25.014  6.9781  10.221  8.4143 
