~Version Information
VERS.                     2.0: CWLS log ASCII Standard Version 2.00
WRAP.                      NO: One line per depth step
~Well Information Block
#MNEM.UNIT                               Data Type  Information
#---------                               ---------  -----------
STRT.FT                                   500.0000:
STOP.FT                                  8200.0000:
STEP.FT                                     0.5000:
NULL.                 -999.25                     :
COMP.                                             :COMPANY            
WELL.     CCMO 87-20                              :WELL               
FLD .                                             :FIELD              
CTRY.                                             :COUNTRY            
STAT.                                             :STATE              
LOC .                                             :LOCATION           
UWI .                                             :UNIQUE WELL ID     
SRVC.                                             :Service company    
DATE.                                             :LOG DATE           
~Curve Information
#MNEM.UNIT           API CODE  Curve Description
#---------           --------  -----------------
DEPT.FT                      :   1 DEPTH
SP  .MV                      :   2
AM16.OHMM                    :   3
AO10.OHMM                    :   4
AO19.OHMM                    :   5
SBL .MV                      :   6
RS  .OHMM                    :   7
RM  .OHMM                    :   8
RD  .OHMM                    :   9
~A
# ...
  6065.000 -55.518  7.4648  5.1311  4.7460 -50.130  7.4648  5.1311  4.7460 
  6065.500 -57.092  7.5726  5.2137  4.7999 -51.696  7.5726  5.2137  4.7999 
  6066.000 -58.327  7.6485  5.2777  4.8368 -52.923  7.6485  5.2777  4.8368 
  6066.500 -59.375  7.6733  5.2262  4.7976 -53.963  7.6733  5.2262  4.7976 
  6067.000 -60.113  7.6870  5.0752  4.5581 -54.693  7.6870  5.0752  4.5581 
  6067.500 -60.800  7.5747  4.8663  4.1786 -55.372  7.5747  4.8663  4.1786 
  6068.000 -61.073  7.3724  4.6276  3.9037 -55.636  7.3724  4.6276  3.9037 
  6068.500 -60.829  7.1208  4.3563  3.7124 -55.384  7.1208  4.3563  3.7124 
  6069.000 -60.345  6.9599  4.0743  3.5462 -54.892  6.9599  4.0743  3.5462 
  6069.500 -59.698  6.8330  3.8057  3.3963 -54.237  6.8330  3.8057  3.3963 
  6070.000 -59.244  6.7060  3.5681  3.2338 -53.775  6.7060  3.5681  3.2338 
  6070.500 -58.937  6.6012  3.4320  3.2859 -53.459  6.6012  3.4320  3.2859 
  6071.000 -58.408  6.4762  3.3457  3.3273 -52.922  6.4762  3.3457  3.3273 
  6071.500 -57.442  6.3489  3.2992  3.3542 -51.949  6.3489  3.2992  3.3542 
  6072.000 -56.122  6.2262  3.2978  3.3750 -50.620  6.2262  3.2978  3.3750 
  6072.500 -54.433  6.1108  3.3179  3.3804 -48.923  6.1108  3.3179  3.3804 
  6073.000 -52.702  5.9865  3.4008  3.3310 -47.184  5.9865  3.4008  3.3310 
  6073.500 -51.271  5.8622  3.4769  3.2887 -45.744  5.8622  3.4769  3.2887 
  6074.000 -49.926  5.7435  3.5645  3.2300 -44.391  5.7435  3.5645  3.2300 
  6074.500 -48.512  5.6302  3.6402  3.1835 -42.969  5.6302  3.6402  3.1835 
  6075.000 -47.056  5.5149  3.7154  3.1888 -41.505  5.5149  3.7154  3.1888 
  6075.500 -45.838  5.3951  3.7915  3.1964 -40.279  5.3951  3.7915  3.1964 
  6076.000 -44.524  5.2707  3.8600  3.2024 -38.957  5.2707  3.8600  3.2024 
  6076.500 -43.016  5.1417  3.9168  3.2085 -37.440  5.1417  3.9168  3.2085 
  6077.000 -41.839  5.0113  3.9611  3.2238 -36.255  5.0113  3.9611  3.2238 
  6077.500 -40.486  4.8708  3.9900  3.2400 -34.894  4.8708  3.9900  3.2400 
  6078.000 -38.944  4.6988  3.9974  3.2595 -33.344  4.6988  3.9974  3.2595 
  6078.500 -36.855  4.5300  4.0050  3.2814 -31.247  4.5300  4.0050  3.2814 
  6079.000 -33.280  4.3215  3.9446  3.2973 -27.663  4.3215  3.9446  3.2973 
  6079.500 -29.838  4.0983  3.8847  3.3047 -24.214  4.0983  3.8847  3.3047 
  6080.000 -26.076  3.8794  3.7843  3.1451 -20.443  3.8794  3.7843  3.1451 
  6080.500 -20.884  3.6766  3.6765  3.0553 -15.243  3.6766  3.6765  3.0553 
  6081.000 -18.350  3.5056  3.5696  2.9545 -12.701  3.5056  3.5696  2.9545 
  6081.500 -18.390  3.3828  3.4852  2.8141 -12.733  3.3828  3.4852  2.8141 
  6082.000 -18.308  3.2872  3.4415  2.8994 -12.642  3.2872  3.4415  2.8994 
  6082.500 -17.726  3.2088  3.4002  2.9934 -12.052  3.2088  3.4002  2.9934 
  6083.000 -16.240  3.1455  3.3928  3.0713 -10.559  3.1455  3.3928  3.0713 
  6083.500 -14.897  3.0982  3.3918  3.1385 -9.2073  3.0982  3.3918  3.1385 
  6084.000 -14.693  3.0617  3.3913  3.2092 -8.9953  3.0617  3.3913  3.2092 
  6084.500 -14.847  3.0559  3.4294  3.2848 -9.1405  3.0559  3.4294  3.2848 
  6085.000 -15.100  3.0550  3.4687  3.3741 -9.3856  3.0550  3.4687  3.3741 
  6085.500 -15.420  3.0754  3.5216  3.4881 -9.6974  3.0754  3.5216  3.4881 
  6086.000 -15.547  3.0933  3.5882  3.6321 -9.8165  3.0933  3.5882  3.6321 
  6086.500 -15.607  3.1102  3.6464  3.7371 -9.8686  3.1102  3.6464  3.7371 
  6087.000 -15.046  3.1260  3.7069  3.8147 -9.2995  3.1260  3.7069  3.8147 
  6087.500 -14.424  3.1405  3.7614  3.7982 -8.6684  3.1405  3.7614  3.7982 
  6088.000 -13.919  3.1681  3.8222  3.7589 -8.1556  3.1681  3.8222  3.7589 
  6088.500 -13.550  3.1988  3.8594  3.7037 -7.7787  3.1988  3.8594  3.7037 
  6089.000 -13.377  3.2314  3.8589  3.6600 -7.5976  3.2314  3.8589  3.6600 
  6089.500 -13.689  3.2619  3.8353  3.6177 -7.9012  3.2619  3.8353  3.6177 
  6090.000 -14.291  3.2842  3.7922  3.6748 -8.4954  3.2842  3.7922  3.6748 
  6090.500 -14.748  3.3084  3.7451  3.7313 -8.9435  3.3084  3.7451  3.7313 
  6091.000 -15.042  3.3029  3.6950  3.7773 -9.2298  3.3029  3.6950  3.7773 
  6091.500 -15.151  3.2890  3.6610  3.8144 -9.3302  3.2890  3.6610  3.8144 
  6092.000 -14.635  3.2664  3.6475  3.7942 -8.8069  3.2664  3.6475  3.7942 
  6092.500 -14.114  3.2253  3.6443  3.7439 -8.2771  3.2253  3.6443  3.7439 
  6093.000 -13.659  3.1757  3.6324  3.6663 -7.8144  3.1757  3.6324  3.6663 
  6093.500 -13.381  3.1204  3.6108  3.5981 -7.5275  3.1204  3.6108  3.5981 
  6094.000 -13.278  3.0598  3.5620  3.5287 -7.4164  3.0598  3.5620  3.5287 
  6094.500 -13.417  3.0008  3.4822  3.5167 -7.5473  3.0008  3.4822  3.5167 
  6095.000 -13.570  2.9333  3.4099  3.5299 -7.6926  2.9333  3.4099  3.5299 
  6095.500 -13.727  2.8537  3.3687  3.5431 -7.8418  2.8537  3.3687  3.5431 
  6096.000 -13.904  2.7806  3.3633  3.5425 -8.0100  2.7806  3.3633  3.5425 
  6096.500 -14.083  2.7074  3.3551  3.5412 -8.1807  2.7074  3.3551  3.5412 
  6097.000 -14.277  2.6342  3.3608  3.5362 -8.3666  2.6342  3.3608  3.5362 
  6097.500 -14.430  2.5610  3.3782  3.5291 -8.5114  2.5610  3.3782  3.5291 
  6098.000 -14.493  2.4878  3.3951  3.5111 -8.5669  2.4878  3.3951  3.5111 
  6098.500 -14.433  2.4290  3.3946  3.4895 -8.4985  2.4290  3.3946  3.4895 
  6099.000 -13.772  2.3843  3.3743  3.4715 -7.8292  2.3843  3.3743  3.4715 
  6099.500 -12.998  2.3764  3.3285  3.4587 -7.0471  2.3764  3.3285  3.4587 
  6100.000 -11.779  2.4452  3.3443  3.4036 -5.8193  2.4452  3.3443  3.4036 
  6100.500 -10.913  2.5217  3.3699  3.4064 -4.9458  2.5217  3.3699  3.4064 
  6101.000 -10.623  2.6157  3.3691  3.3822 -4.6479  2.6157  3.3691  3.3822 
  6101.500 -10.698  2.7173  3.3019  3.2323 -4.7145  2.7173  3.3019  3.2323 
  6102.000 -11.027  2.8536  3.1611  3.0693 -5.0351  2.8536  3.1611  3.0693 
  6102.500 -11.491  3.0003  3.0103  2.9089 -5.4906  3.0003  3.0103  2.9089 
  6103.000 -12.060  3.1656  2.8799  2.7682 -6.0690  3.1656  2.8799  2.7682 
  6103.500 -12.598  3.3258  2.7554  2.6277 -6.6149  3.3258  2.7554  2.6277 
  6104.000 -13.346  3.4930  2.6397  2.5105 -7.3715  3.4930  2.6397  2.5105 
  6104.500 -14.441  3.6844  2.5791  2.4184 -8.4752  3.6844  2.5791  2.4184 
  6105.000 -16.308  3.8744  2.5568  2.3976 -10.350  3.8744  2.5568  2.3976 
  6105.500 -18.065  4.0900  2.5512  2.4301 -12.117  4.0900  2.5512  2.4301 
  6106.000 -23.677  4.4026  2.6030  2.5227 -17.737  4.4026  2.6030  2.5227 
  6106.500 -27.279  4.7737  2.7399  2.7126 -21.348  4.7737  2.7399  2.7126 
  6107.000 -31.559  5.0020  2.9281  2.9134 -25.637  5.0020  2.9281  2.9134 
  6107.500 -34.146  5.1167  3.1099  3.0814 -28.232  5.1167  3.1099  3.0814 
  6108.000 -36.799  5.1493  3.2928  3.1577 -30.893  5.1493  3.2928  3.1577 
  6108.500 -39.798  5.1638  3.3856  3.2023 -33.901  5.1638  3.3856  3.2023 
  6109.000 -43.166  5.1380  3.3734  3.2084 -37.277  5.1380  3.3734  3.2084 
  6109.500 -43.629  5.0067  3.2973  3.1303 -37.749  5.0067  3.2973  3.1303 
  6110.000 -42.837  4.8308  3.2263  2.8989 -36.966  4.8308  3.2263  2.8989 
  6110.500 -41.470  4.7052  3.1906  2.8340 -35.608  4.7052  3.1906  2.8340 
  6111.000 -41.336  4.7082  3.2548  2.9491 -35.481  4.7082  3.2548  2.9491 
  6111.500 -41.191  4.7217  3.3542  3.0151 -35.345  4.7217  3.3542  3.0151 
  6112.000 -41.017  4.7909  3.4405  3.0778 -35.180  4.7909  3.4405  3.0778 
  6112.500 -40.778  4.8655  3.4864  3.0958 -34.950  4.8655  3.4864  3.0958 
  6113.000 -40.512  4.9644  3.4649  3.0359 -34.692  4.9644  3.4649  3.0359 
  6113.500 -40.158  5.0801  3.3918  2.9006 -34.346  5.0801  3.3918  2.9006 
  6114.000 -40.232  5.1989  3.2781  2.7438 -34.429  5.1989  3.2781  2.7438 
  6114.500 -41.685  5.3938  3.1533  2.6180 -35.890  5.3938  3.1533  2.6180 
  6115.000 -43.915  5.6158  3.0196  2.5394 -38.129  5.6158  3.0196  2.5394 
  6115.500 -46.882  5.8885  2.9909  2.5097 -41.104  5.8885  2.9909  2.5097 
  6116.000 -49.680  6.2273  2.9904  2.4896 -43.912  6.2273  2.9904  2.4896 
  6116.500 -52.307  6.5902  3.0924  2.5598 -46.547  6.5902  3.0924  2.5598 
  6117.000 -54.883  7.0115  3.2154  2.6525 -49.132  7.0115  3.2154  2.6525 
  6117.500 -57.394  7.3141  3.3789  2.7328 -51.651  7.3141  3.3789  2.7328 
