~Version Information
VERS.                     2.0: CWLS log ASCII Standard Version 2.00
WRAP.                      NO: One line per depth step
~Well Information Block
#MNEM.UNIT                               Data Type  Information
#---------                               ---------  -----------
STRT.FT                                   500.0000:
STOP.FT                                  8200.0000:
STEP.FT                                     0.5000:
NULL.                 -999.25                     :
COMP.                                             :COMPANY            
WELL.     CCMO 87-20                              :WELL               
FLD .                                             :FIELD              
CTRY.                                             :COUNTRY            
STAT.                                             :STATE              
LOC .                                             :LOCATION           
UWI .                                             :UNIQUE WELL ID     
SRVC.                                             :Service company    
DATE.                                             :LOG DATE           
~Curve Information
#MNEM.UNIT           API CODE  Curve Description
#---------           --------  -----------------
DEPT.FT                      :   1 DEPTH
SP  .MV                      :   2
AM16.OHMM                    :   3
AO10.OHMM                    :   4
AO19.OHMM                    :   5
SBL .MV                      :   6
RS  .OHMM                    :   7
RM  .OHMM                    :   8
RD  .OHMM                    :   9
~A
# ...
  7549.000 -23.236  3.1347  2.1831  2.1783 -17.236  3.1347  2.1831  2.1783 
  7549.500 -24.681  3.2778  2.2942  2.2708 -18.681  3.2778  2.2942  2.2708 
  7550.000 -26.384  3.3539  2.4453  2.3777 -20.384  3.3539  2.4453  2.3777 
  7550.500 -27.736  3.3983  2.5971  2.4908 -21.736  3.3983  2.5971  2.4908 
  7551.000 -27.965  3.3836  2.6910  2.5870 -21.965  3.3836  2.6910  2.5870 
  7551.500 -28.044  3.3091  2.7705  2.6720 -22.044  3.3091  2.7705  2.6720 
  7552.000 -28.084  3.1720  2.8416  2.7219 -22.084  3.1720  2.8416  2.7219 
  7552.500 -27.841  3.0250  2.8907  2.6095 -21.841  3.0250  2.8907  2.6095 
  7553.000 -26.124  2.9112  2.9159  2.4527 -20.124  2.9112  2.9159  2.4527 
  7553.500 -24.578  2.7966  2.8680  2.3343 -18.578  2.7966  2.8680  2.3343 
  7554.000 -22.828  2.7145  2.8255  2.2862 -16.828  2.7145  2.8255  2.2862 
  7554.500 -21.484  2.6612  2.7647  2.2709 -15.484  2.6612  2.7647  2.2709 
  7555.000 -20.392  2.6117  2.7288  2.3118 -14.392  2.6117  2.7288  2.3118 
  7555.500 -19.333  2.5771  2.6952  2.3324 -13.333  2.5771  2.6952  2.3324 
  7556.000 -18.487  2.5522  2.6656  2.3478 -12.487  2.5522  2.6656  2.3478 
  7556.500 -17.714  2.5357  2.6530  2.3578 -11.714  2.5357  2.6530  2.3578 
  7557.000 -16.864  2.5192  2.6355  2.3558 -10.864  2.5192  2.6355  2.3558 
  7557.500 -16.081  2.5027  2.6180  2.3549 -10.081  2.5027  2.6180  2.3549 
  7558.000 -15.352  2.4939  2.5984  2.3619 -9.3522  2.4939  2.5984  2.3619 
  7558.500 -14.814  2.4871  2.5749  2.3912 -8.8141  2.4871  2.5749  2.3912 
  7559.000 -14.483  2.4814  2.5616  2.4209 -8.4833  2.4814  2.5616  2.4209 
  7559.500 -14.181  2.4860  2.5514  2.4612 -8.1808  2.4860  2.5514  2.4612 
  7560.000 -13.961  2.4916  2.5435  2.5063 -7.9608  2.4916  2.5435  2.5063 
  7560.500 -13.788  2.5054  2.5355  2.5418 -7.7881  2.5054  2.5355  2.5418 
  7561.000 -13.628  2.5153  2.5275  2.5589 -7.6281  2.5153  2.5275  2.5589 
  7561.500 -13.487  2.5249  2.5224  2.5525 -7.4869  2.5249  2.5224  2.5525 
  7562.000 -13.358  2.5301  2.5167  2.5460 -7.3579  2.5301  2.5167  2.5460 
  7562.500 -13.234  2.5351  2.5186  2.5351 -7.2338  2.5351  2.5186  2.5351 
  7563.000 -13.108  2.5382  2.5209  2.5242 -7.1076  2.5382  2.5209  2.5242 
  7563.500 -12.969  2.5404  2.5236  2.5124 -6.9687  2.5404  2.5236  2.5124 
  7564.000 -12.810  2.5461  2.5264  2.5005 -6.8098  2.5461  2.5264  2.5005 
  7564.500 -12.622  2.5542  2.5158  2.4888 -6.6225  2.5542  2.5158  2.4888 
  7565.000 -12.394  2.5622  2.5044  2.4775 -6.3935  2.5622  2.5044  2.4775 
  7565.500 -12.106  2.5751  2.4944  2.4662 -6.1063  2.5751  2.4944  2.4662 
  7566.000 -12.272  2.5926  2.4789  2.4591 -6.2724  2.5926  2.4789  2.4591 
  7566.500 -12.389  2.6121  2.4777  2.4521 -6.3892  2.6121  2.4777  2.4521 
  7567.000 -12.549  2.6383  2.4769  2.4460 -6.5491  2.6383  2.4769  2.4460 
  7567.500 -12.873  2.6537  2.4818  2.4412 -6.8733  2.6537  2.4818  2.4412 
  7568.000 -13.512  2.6687  2.4878  2.4224 -7.5117  2.6687  2.4878  2.4224 
  7568.500 -14.160  2.6854  2.4871  2.4229 -8.1599  2.6854  2.4871  2.4229 
  7569.000 -14.702  2.7064  2.4858  2.4166 -8.7015  2.7064  2.4858  2.4166 
  7569.500 -15.098  2.7309  2.4786  2.4112 -9.0981  2.7309  2.4786  2.4112 
  7570.000 -15.447  2.7552  2.4676  2.4156 -9.4471  2.7552  2.4676  2.4156 
  7570.500 -15.663  2.7765  2.4516  2.4356 -9.6633  2.7765  2.4516  2.4356 
  7571.000 -15.864  2.7941  2.4353  2.4513 -9.8644  2.7941  2.4353  2.4513 
  7571.500 -15.652  2.7417  2.4191  2.4708 -9.6522  2.7417  2.4191  2.4708 
  7572.000 -15.139  2.7075  2.4146  2.4961 -9.1389  2.7075  2.4146  2.4961 
  7572.500 -14.557  2.6717  2.4134  2.5152 -8.5569  2.6717  2.4134  2.5152 
  7573.000 -14.107  2.6343  2.4125  2.5341 -8.1065  2.6343  2.4125  2.5341 
  7573.500 -13.741  2.6223  2.4344  2.5426 -7.7414  2.6223  2.4344  2.5426 
  7574.000 -13.447  2.6175  2.4521  2.5483 -7.4466  2.6175  2.4521  2.5483 
  7574.500 -13.259  2.6150  2.4734  2.5278 -7.2591  2.6150  2.4734  2.5278 
  7575.000 -13.103  2.6162  2.4932  2.4990 -7.1034  2.6162  2.4932  2.4990 
  7575.500 -12.898  2.6173  2.5096  2.4723 -6.8981  2.6173  2.5096  2.4723 
  7576.000 -12.766  2.6183  2.5204  2.4474 -6.7663  2.6183  2.5204  2.4474 
  7576.500 -12.682  2.6207  2.5328  2.4339 -6.6825  2.6207  2.5328  2.4339 
  7577.000 -12.618  2.6231  2.5466  2.4195 -6.6180  2.6231  2.5466  2.4195 
  7577.500 -12.752  2.6255  2.5568  2.4035 -6.7521  2.6255  2.5568  2.4035 
  7578.000 -12.935  2.6281  2.5649  2.3928 -6.9354  2.6281  2.5649  2.3928 
  7578.500 -13.188  2.6359  2.5740  2.3913 -7.1876  2.6359  2.5740  2.3913 
  7579.000 -13.414  2.6473  2.5847  2.3895 -7.4139  2.6473  2.5847  2.3895 
  7579.500 -13.548  2.6489  2.5905  2.3937 -7.5480  2.6489  2.5905  2.3937 
  7580.000 -13.680  2.6504  2.5938  2.3990 -7.6799  2.6504  2.5938  2.3990 
  7580.500 -13.823  2.6573  2.5916  2.4035 -7.8228  2.6573  2.5916  2.4035 
  7581.000 -13.951  2.6477  2.5873  2.4059 -7.9512  2.6477  2.5873  2.4059 
  7581.500 -14.018  2.6382  2.5827  2.4000 -8.0184  2.6382  2.5827  2.4000 
  7582.000 -14.078  2.6256  2.5775  2.3860 -8.0781  2.6256  2.5775  2.3860 
  7582.500 -13.915  2.6093  2.5724  2.3718 -7.9148  2.6093  2.5724  2.3718 
  7583.000 -13.724  2.5991  2.5674  2.3559 -7.7243  2.5991  2.5674  2.3559 
  7583.500 -13.622  2.5930  2.5646  2.3399 -7.6220  2.5930  2.5646  2.3399 
  7584.000 -13.569  2.5920  2.5634  2.3281 -7.5693  2.5920  2.5634  2.3281 
  7584.500 -13.662  2.5962  2.5590  2.3197 -7.6617  2.5962  2.5590  2.3197 
  7585.000 -13.844  2.6039  2.5512  2.3129 -7.8439  2.6039  2.5512  2.3129 
  7585.500 -14.175  2.6134  2.5455  2.3080 -8.1750  2.6134  2.5455  2.3080 
  7586.000 -14.435  2.6234  2.5430  2.3044 -8.4355  2.6234  2.5430  2.3044 
  7586.500 -14.606  2.6335  2.5387  2.3025 -8.6059  2.6335  2.5387  2.3025 
  7587.000 -14.402  2.6489  2.5350  2.3057 -8.4022  2.6489  2.5350  2.3057 
  7587.500 -14.167  2.6644  2.5377  2.3094 -8.1670  2.6644  2.5377  2.3094 
  7588.000 -13.920  2.6759  2.5397  2.3127 -7.9195  2.6759  2.5397  2.3127 
  7588.500 -13.680  2.6882  2.5384  2.3191 -7.6804  2.6882  2.5384  2.3191 
  7589.000 -13.477  2.7011  2.5453  2.3264 -7.4770  2.7011  2.5453  2.3264 
  7589.500 -13.323  2.7094  2.5502  2.3369 -7.3228  2.7094  2.5502  2.3369 
  7590.000 -13.223  2.7238  2.5552  2.3483 -7.2235  2.7238  2.5552  2.3483 
  7590.500 -13.388  2.7410  2.5615  2.3611 -7.3876  2.7410  2.5615  2.3611 
  7591.000 -13.851  2.7487  2.5576  2.3723 -7.8509  2.7487  2.5576  2.3723 
  7591.500 -14.345  2.7588  2.5523  2.3810 -8.3446  2.7588  2.5523  2.3810 
  7592.000 -14.789  2.7688  2.5563  2.3906 -8.7886  2.7688  2.5563  2.3906 
  7592.500 -15.013  2.7783  2.5606  2.4017 -9.0128  2.7783  2.5606  2.4017 
  7593.000 -14.968  2.7855  2.5661  2.4134 -8.9684  2.7855  2.5661  2.4134 
  7593.500 -14.769  2.7898  2.5733  2.4251 -8.7686  2.7898  2.5733  2.4251 
  7594.000 -14.386  2.7672  2.5823  2.4296 -8.3861  2.7672  2.5823  2.4296 
  7594.500 -13.984  2.7432  2.5924  2.4404 -7.9838  2.7432  2.5924  2.4404 
  7595.000 -13.772  2.7198  2.5977  2.4466 -7.7720  2.7198  2.5977  2.4466 
  7595.500 -13.621  2.6950  2.5991  2.4544 -7.6210  2.6950  2.5991  2.4544 
  7596.000 -13.702  2.6739  2.6014  2.4498 -7.7019  2.6739  2.6014  2.4498 
  7596.500 -13.645  2.6540  2.6054  2.4338 -7.6451  2.6540  2.6054  2.4338 
  7597.000 -13.413  2.6347  2.6100  2.4215 -7.4126  2.6347  2.6100  2.4215 
  7597.500 -13.217  2.6155  2.6090  2.4094 -7.2175  2.6155  2.6090  2.4094 
  7598.000 -13.420  2.5963  2.6077  2.3864 -7.4195  2.5963  2.6077  2.3864 
  7598.500 -13.626  2.5753  2.6014  2.3634 -7.6260  2.5753  2.6014  2.3634 
  7599.000 -13.789  2.5537  2.5933  2.3467 -7.7895  2.5537  2.5933  2.3467 
  7599.500 -13.908  2.5285  2.5807  2.3425 -7.9084  2.5285  2.5807  2.3425 
  7600.000 -13.959  2.6033  2.6185  2.3518 -7.9587  2.6033  2.6185  2.3518 
  7600.500 -14.143  2.5980  2.6039  2.3466 -8.1427  2.5980  2.6039  2.3466 
  7601.000 -14.310  2.5895  2.5915  2.3449 -8.3097  2.5895  2.5915  2.3449 
  7601.500 -14.394  2.5684  2.5790  2.3432 -8.3943  2.5684  2.5790  2.3432 
