~Version Information
VERS.                     2.0: CWLS log ASCII Standard Version 2.00
WRAP.                      NO: One line per depth step
~Well Information Block
#MNEM.UNIT                               Data Type  Information
#---------                               ---------  -----------
STRT.FT                                   500.0000:
STOP.FT                                  8200.0000:
STEP.FT                                     0.5000:
NULL.                 -999.25                     :
COMP.                                             :COMPANY            
WELL.     CCMO 87-20                              :WELL               
FLD .                                             :FIELD              
CTRY.                                             :COUNTRY            
STAT.                                             :STATE              
LOC .                                             :LOCATION           
UWI .                                             :UNIQUE WELL ID     
SRVC.                                             :Service company    
DATE.                                             :LOG DATE           
~Curve Information
#MNEM.UNIT           API CODE  Curve Description
#---------           --------  -----------------
DEPT.FT                      :   1 DEPTH
SP  .MV                      :   2
AM16.OHMM                    :   3
AO10.OHMM                    :   4
AO19.OHMM                    :   5
SBL .MV                      :   6
RS  .OHMM                    :   7
RM  .OHMM                    :   8
RD  .OHMM                    :   9
~A
# ...
  3044.000 -19.174  4.0010  3.8044  4.0930 -11.157  4.0010  3.8044  4.0930 
  3044.500 -19.975  4.2488  3.7435  4.1435 -11.954  4.2488  3.7435  4.1435 
  3045.000 -21.538  4.6962  3.6854  4.1833 -13.514  4.6962  3.6854  4.1833 
  3045.500 -23.533  5.2249  3.6374  4.2159 -15.505  5.2249  3.6374  4.2159 
  3046.000 -26.240  5.7990  3.6155  4.4937 -18.209  5.7990  3.6155  4.4937 
  3046.500 -30.456  6.2636  3.7398  4.8773 -22.421  6.2636  3.7398  4.8773 
  3047.000 -35.014  6.8901  3.9377  5.3255 -26.975  6.8901  3.9377  5.3255 
  3047.500 -39.400  7.6201  4.3377  5.8146 -31.358  7.6201  4.3377  5.8146 
  3048.000 -42.962  8.4263  5.0385  6.2881 -34.916  8.4263  5.0385  6.2881 
  3048.500 -45.672  9.2909  5.6958  6.6615 -37.623  9.2909  5.6958  6.6615 
  3049.000 -47.367  10.449  6.2535  6.9973 -39.314  10.449  6.2535  6.9973 
  3049.500 -48.899  11.023  6.6834  7.2492 -40.843  11.023  6.6834  7.2492 
  3050.000 -50.148  11.609  6.9498  7.4440 -42.088  11.609  6.9498  7.4440 
  3050.500 -50.992  12.138  7.0921  7.5624 -42.928  12.138  7.0921  7.5624 
  3051.000 -51.659  12.501  7.2160  7.5981 -43.592  12.501  7.2160  7.5981 
  3051.500 -52.090  12.800  7.3119  7.5648 -44.019  12.800  7.3119  7.5648 
  3052.000 -50.179  13.050  7.4026  7.5132 -42.104  13.050  7.4026  7.5132 
  3052.500 -48.709  13.209  7.5170  7.4556 -40.631  13.209  7.5170  7.4556 
  3053.000 -47.432  13.309  7.7060  7.3944 -39.350  13.309  7.7060  7.3944 
  3053.500 -48.332  13.320  8.1939  7.3413 -40.246  13.320  8.1939  7.3413 
  3054.000 -49.123  13.304  8.6171  7.3063 -41.034  13.304  8.6171  7.3063 
  3054.500 -49.755  13.303  8.9635  7.2721 -41.662  13.303  8.9635  7.2721 
  3055.000 -50.196  13.243  9.3061  7.2503 -42.100  13.243  9.3061  7.2503 
  3055.500 -49.289  12.672  9.6037  7.2347 -41.189  12.672  9.6037  7.2347 
  3056.000 -46.857  11.831  10.023  7.2288 -38.754  11.831  10.023  7.2288 
  3056.500 -43.829  11.407  10.479  7.2043 -35.722  11.407  10.479  7.2043 
  3057.000 -41.148  10.937  10.944  7.1699 -33.037  10.937  10.944  7.1699 
  3057.500 -38.725  10.439  11.545  7.1252 -30.611  10.439  11.545  7.1252 
  3058.000 -36.313  9.9236  12.573  7.0020 -28.195  9.9236  12.573  7.0020 
  3058.500 -33.830  9.2233  13.098  6.3568 -25.708  9.2233  13.098  6.3568 
  3059.000 -31.760  8.8054  13.363  5.9020 -23.634  8.8054  13.363  5.9020 
  3059.500 -30.457  8.2884  13.458  5.4903 -22.328  8.2884  13.458  5.4903 
  3060.000 -29.832  8.3777  12.408  5.2598 -21.699  8.3777  12.408  5.2598 
  3060.500 -30.060  8.5914  11.838  5.1702 -21.924  8.5914  11.838  5.1702 
  3061.000 -36.385  9.0895  11.587  5.2209 -28.245  9.0895  11.587  5.2209 
  3061.500 -41.986  9.8499  11.694  5.3214 -33.843  9.8499  11.694  5.3214 
  3062.000 -44.701  10.687  12.010  5.7079 -36.554  10.687  12.010  5.7079 
  3062.500 -46.447  11.445  12.523  6.1063 -38.296  11.445  12.523  6.1063 
  3063.000 -47.847  11.926  13.011  6.5009 -39.693  11.926  13.011  6.5009 
  3063.500 -48.303  12.375  13.592  6.8877 -40.145  12.375  13.592  6.8877 
  3064.000 -48.395  12.670  14.243  7.2780 -40.234  12.670  14.243  7.2780 
  3064.500 -48.451  12.886  14.938  7.5181 -40.286  12.886  14.938  7.5181 
  3065.000 -48.508  13.053  15.573  7.7127 -40.339  13.053  15.573  7.7127 
  3065.500 -48.567  13.143  16.086  7.9667 -40.395  13.143  16.086  7.9667 
  3066.000 -48.746  13.161  16.590  8.2507 -40.570  13.161  16.590  8.2507 
  3066.500 -50.521  13.114  17.000  8.6494 -42.342  13.114  17.000  8.6494 
  3067.000 -52.031  13.037  17.290  9.0952 -43.848  13.037  17.290  9.0952 
  3067.500 -52.334  12.865  17.537  9.6015 -44.147  12.865  17.537  9.6015 
  3068.000 -49.861  12.461  17.738  10.385 -41.671  12.461  17.738  10.385 
  3068.500 -48.716  11.999  17.907  11.088 -40.522  11.999  17.907  11.088 
  3069.000 -48.293  11.693  18.026  11.690 -40.096  11.693  18.026  11.690 
  3069.500 -46.532  11.153  18.114  12.411 -38.331  11.153  18.114  12.411 
  3070.000 -40.442  10.161  18.173  12.921 -32.237  10.161  18.173  12.921 
  3070.500 -36.336  9.3378  18.194  13.249 -28.127  9.3378  18.194  13.249 
  3071.000 -33.450  8.4675  18.093  13.410 -25.238  8.4675  18.093  13.410 
  3071.500 -30.324  7.9207  17.644  13.440 -22.108  7.9207  17.644  13.440 
  3072.000 -26.575  7.2716  16.692  11.877 -18.356  7.2716  16.692  11.877 
  3072.500 -22.700  6.5242  15.856  10.664 -14.477  6.5242  15.856  10.664 
  3073.000 -18.891  5.7267  14.940  9.9726 -10.664  5.7267  14.940  9.9726 
  3073.500 -15.210  5.1915  13.732  8.9269 -6.9802  5.1915  13.732  8.9269 
  3074.000 -13.332  4.7574  12.573  7.9306 -5.0986  4.7574  12.573  7.9306 
  3074.500 -12.295  4.2747  11.148  6.9177 -4.0576  4.2747  11.148  6.9177 
  3075.000 -10.877  4.0827  9.5288  6.3964 -2.6364  4.0827  9.5288  6.3964 
  3075.500 -9.9157  3.9953  7.9837  6.0278 -1.6711  3.9953  7.9837  6.0278 
  3076.000 -10.466  4.0260  7.4665  5.8576 -2.2179  4.0260  7.4665  5.8576 
  3076.500 -11.370  4.0631  7.1286  6.0517 -3.1177  4.0631  7.1286  6.0517 
  3077.000 -11.819  4.1000  7.0234  6.2801 -3.5639  4.1000  7.0234  6.2801 
  3077.500 -11.242  4.1268  7.2341  6.4796 -2.9832  4.1268  7.2341  6.4796 
  3078.000 -10.419  4.1236  7.3668  6.6257 -2.1559  4.1236  7.3668  6.6257 
  3078.500 -9.6641  4.1139  7.5553  6.7333 -1.3978  4.1139  7.5553  6.7333 
  3079.000 -8.8973  4.0821  7.7581  6.7690 -0.6275  4.0821  7.7581  6.7690 
  3079.500 -8.2916  4.0255  7.9159  6.6502 -0.0181  4.0255  7.9159  6.6502 
  3080.000 -7.9173  3.9521  7.9942  6.2190  0.3598  3.9521  7.9942  6.2190 
  3080.500 -7.7462  3.9075  7.3695  6.0387  0.5345  3.9075  7.3695  6.0387 
  3081.000 -8.5736  3.8914  7.0389  5.9707 -0.2892  3.8914  7.0389  5.9707 
  3081.500 -9.2892  3.8849  6.8068  6.0072 -1.0012  3.8849  6.8068  6.0072 
  3082.000 -9.7882  4.0598  6.6336  6.0946 -1.4966  4.0598  6.6336  6.0946 
  3082.500 -10.164  4.3242  6.4888  6.2160 -1.8693  4.3242  6.4888  6.2160 
  3083.000 -10.435  4.5694  6.3880  6.5261 -2.1359  4.5694  6.3880  6.5261 
  3083.500 -10.754  4.8172  6.2971  6.8974 -2.4518  4.8172  6.2971  6.8974 
  3084.000 -11.239  5.0379  6.2756  7.2613 -2.9329  5.0379  6.2756  7.2613 
  3084.500 -16.470  5.2320  6.3047  7.5974 -8.1600  5.2320  6.3047  7.5974 
  3085.000 -20.050  5.4154  6.3803  7.9122 -11.737  5.4154  6.3803  7.9122 
  3085.500 -22.556  5.5277  6.5610  8.2207 -14.239  5.5277  6.5610  8.2207 
  3086.000 -24.934  5.6143  6.7180  8.4558 -16.614  5.6143  6.7180  8.4558 
  3086.500 -27.305  5.6368  6.8290  8.7121 -18.981  5.6368  6.8290  8.7121 
  3087.000 -29.001  5.5856  6.8962  8.9186 -20.674  5.5856  6.8962  8.9186 
  3087.500 -30.209  5.4499  6.9478  9.0754 -21.878  5.4499  6.9478  9.0754 
  3088.000 -27.235  5.2545  6.9602  9.1771 -18.900  5.2545  6.9602  9.1771 
  3088.500 -19.403  5.0519  6.8907  9.1313 -11.064  5.0519  6.8907  9.1313 
  3089.000 -17.021  4.8264  6.6108  8.8531 -8.6786  4.8264  6.6108  8.8531 
  3089.500 -15.900  4.6047  6.1200  8.1985 -7.5542  4.6047  6.1200  8.1985 
  3090.000 -15.568  4.3894  5.6609  7.7151 -7.2191  4.3894  5.6609  7.7151 
  3090.500 -15.571  4.2322  5.2804  7.3732 -7.2184  4.2322  5.2804  7.3732 
  3091.000 -15.008  4.1173  4.9557  7.1091 -6.6515  4.1173  4.9557  7.1091 
  3091.500 -14.376  4.0608  4.7400  6.9155 -6.0156  4.0608  4.7400  6.9155 
  3092.000 -14.086  4.0575  4.5814  6.7727 -5.7222  4.0575  4.5814  6.7727 
  3092.500 -14.633  4.0492  4.5007  6.6278 -6.2654  4.0492  4.5007  6.6278 
  3093.000 -14.666  4.0576  4.4475  6.4758 -6.2946  4.0576  4.4475  6.4758 
  3093.500 -14.244  4.0703  4.5201  6.3502 -5.8689  4.0703  4.5201  6.3502 
  3094.000 -13.831  4.0971  4.6486  6.2698 -5.4526  4.0971  4.6486  6.2698 
  3094.500 -13.505  4.1469  4.7744  6.2119 -5.1228  4.1469  4.7744  6.2119 
  3095.000 -14.032  4.2331  4.9010  6.1724 -5.6466  4.2331  4.9010  6.1724 
  3095.500 -16.051  4.3405  5.0314  6.1422 -7.6622  4.3405  5.0314  6.1422 
  3096.000 -16.355  4.4567  5.1763  6.1141 -7.9622  4.4567  5.1763  6.1141 
  3096.500 -16.559  4.5748  5.3050  6.0885 -8.1623  4.5748  5.3050  6.0885 
