~Version Information
VERS.                     2.0: CWLS log ASCII Standard Version 2.00
WRAP.                      NO: One line per depth step
~Well Information Block
#MNEM.UNIT                               Data Type  Information
#---------                               ---------  -----------
STRT.FT                                   500.0000:
STOP.FT                                  8200.0000:
STEP.FT                                     0.5000:
NULL.                 -999.25                     :
COMP.                                             :COMPANY            
WELL.     CCMO 87-20                              :WELL               
FLD .                                             :FIELD              
CTRY.                                             :COUNTRY            
STAT.                                             :STATE              
LOC .                                             :LOCATION           
UWI .                                             :UNIQUE WELL ID     
SRVC.                                             :Service company    
DATE.                                             :LOG DATE           
~Curve Information
#MNEM.UNIT           API CODE  Curve Description
#---------           --------  -----------------
DEPT.FT                      :   1 DEPTH
SP  .MV                      :   2
AM16.OHMM                    :   3
AO10.OHMM                    :   4
AO19.OHMM                    :   5
SBL .MV                      :   6
RS  .OHMM                    :   7
RM  .OHMM                    :   8
RD  .OHMM                    :   9
~A
   500.000 -17.282 -999.25  0.4088 -0.0126 -9.2823 -999.25  0.4088 -0.0126 
   500.500 -20.380  1.6676  0.3018 -0.0432 -12.380  1.6676  0.3018 -0.0432 
   501.000 -22.630  3.0335  0.1928  0.0277 -14.630  3.0335  0.1928  0.0277 
   501.500 -21.213  3.8235  0.0902  0.0300 -13.213  3.8235  0.0902  0.0300 
   502.000 -19.613  6.2411  0.0260  0.0322 -11.613  6.2411  0.0260  0.0322 
   502.500 -18.239  8.6589  0.0187  0.0392 -10.239  8.6589  0.0187  0.0392 
   503.000 -17.031  9.3327  0.0243  0.0561 -9.0313  9.3327  0.0243  0.0561 
   503.500 -16.336  9.7847  0.0310  0.0730 -8.3360  9.7847  0.0310  0.0730 
   504.000 -15.800  10.679  0.0439  0.0891 -7.8000  10.679  0.0439  0.0891 
   504.500 -15.526  11.553  0.0610  0.0887 -7.5260  11.553  0.0610  0.0887 
   505.000 -15.443  12.196  0.0811  0.0882 -7.4427  12.196  0.0811  0.0882 
   505.500 -15.650  12.782  0.1059  0.0856 -7.6497  12.782  0.1059  0.0856 
   506.000 -16.144  13.412  0.1394  0.0722 -8.1442  13.412  0.1394  0.0722 
   506.500 -16.731  14.007  0.1849  0.0587 -8.7306  14.007  0.1849  0.0587 
   507.000 -17.267  14.585  0.2496  0.0498 -9.2668  14.585  0.2496  0.0498 
   507.500 -17.851  15.159  0.3066  0.0435 -9.8512  15.159  0.3066  0.0435 
   508.000 -18.573  15.660  0.3498  0.0482 -10.573  15.660  0.3498  0.0482 
   508.500 -19.301  16.276  0.3469  0.0575 -11.301  16.276  0.3469  0.0575 
   509.000 -19.747  17.070  0.3121  0.0706 -11.747  17.070  0.3121  0.0706 
   509.500 -20.089  17.641  0.2665  0.0702 -12.089  17.641  0.2665  0.0702 
   510.000 -20.418  17.951  0.2255  0.0626 -12.418  17.951  0.2255  0.0626 
   510.500 -20.821  18.117  0.2929 -0.0455 -12.821  18.117  0.2929 -0.0455 
   511.000 -21.356  17.935  0.5768 -0.1374 -13.356  17.935  0.5768 -0.1374 
   511.500 -22.141  17.787  3.8596 -0.0604 -14.141  17.787  3.8596 -0.0604 
   512.000 -21.482  17.640  5.5771 -0.0118 -13.482  17.640  5.5771 -0.0118 
   512.500 -20.928  17.500  9.6330  0.0153 -12.928  17.500  9.6330  0.0153 
   513.000 -20.430  17.375  13.055  0.0318 -12.430  17.375  13.055  0.0318 
   513.500 -19.986  17.436  15.285  0.0152 -11.986  17.436  15.285  0.0152 
   514.000 -19.674  17.748  18.681 -0.0058 -11.674  17.748  18.681 -0.0058 
   514.500 -19.626  18.059  19.881 -0.0431 -11.626  18.059  19.881 -0.0431 
   515.000 -20.153  18.233  20.155 -0.0626 -12.153  18.233  20.155 -0.0626 
   515.500 -21.938  18.340  20.144 -0.0268 -13.938  18.340  20.144 -0.0268 
   516.000 -22.544  18.383  20.139  0.0089 -14.544  18.383  20.139  0.0089 
   516.500 -22.705  18.030  26.333  0.0570 -14.705  18.030  26.333  0.0570 
   517.000 -22.762  17.655  27.610  0.0369 -14.762  17.655  27.610  0.0369 
   517.500 -22.794  17.304  28.922 -0.0009 -14.794  17.304  28.922 -0.0009 
   518.000 -22.727  16.966  30.337  0.0184 -14.727  16.966  30.337  0.0184 
   518.500 -22.731  16.618  32.027  0.0269 -14.731  16.618  32.027  0.0269 
   519.000 -23.203  16.188  33.480  0.0266 -15.203  16.188  33.480  0.0266 
   519.500 -24.229  15.670  34.593  0.0865 -16.229  15.670  34.593  0.0865 
   520.000 -25.137  15.200  35.743  0.2629 -17.137  15.200  35.743  0.2629 
   520.500 -24.751  14.781  36.553  1.1095 -16.751  14.781  36.553  1.1095 
   521.000 -24.290  14.444  36.364  4.2812 -16.290  14.444  36.364  4.2812 
   521.500 -23.779  14.089  36.118  6.0508 -15.779  14.089  36.118  6.0508 
   522.000 -23.301  13.706  35.209  9.9981 -15.301  13.706  35.209  9.9981 
   522.500 -22.808  13.286  33.442  11.193 -14.808  13.286  33.442  11.193 
   523.000 -22.303  12.900  31.221  12.090 -14.303  12.900  31.221  12.090 
   523.500 -21.797  12.462  29.501  13.764 -13.797  12.462  29.501  13.764 
   524.000 -21.325  12.002  27.667  14.385 -13.325  12.002  27.667  14.385 
   524.500 -20.908  11.561  26.084  14.991 -12.908  11.561  26.084  14.991 
   525.000 -20.532  11.117  24.704  15.274 -12.532  11.117  24.704  15.274 
   525.500 -20.145  10.757  23.593  14.985 -12.145  10.757  23.593  14.985 
   526.000 -19.898  10.609  22.613  14.809 -11.898  10.609  22.613  14.809 
   526.500 -20.024  10.609  22.364  14.661 -12.024  10.609  22.364  14.661 
   527.000 -20.578  10.622  22.139  15.033 -12.578  10.622  22.139  15.033 
   527.500 -21.292  10.658  21.913  15.089 -13.292  10.658  21.913  15.089 
   528.000 -21.972  10.708  21.687  15.224 -13.972  10.708  21.687  15.224 
   528.500 -22.773  10.743  21.461  16.236 -14.773  10.743  21.461  16.236 
   529.000 -23.439  10.713  21.235  16.773 -15.439  10.713  21.235  16.773 
   529.500 -23.816  10.641  21.009  17.603 -15.816  10.641  21.009  17.603 
   530.000 -24.109  10.545  20.784  18.272 -16.109  10.545  20.784  18.272 
   530.500 -23.795  10.497  20.558  18.562 -15.795  10.497  20.558  18.562 
   531.000 -23.378  10.677  20.332  19.315 -15.378  10.677  20.332  19.315 
   531.500 -23.154  10.771  20.106  19.920 -15.154  10.771  20.106  19.920 
   532.000 -23.585  10.841  19.880  20.831 -15.585  10.841  19.880  20.831 
   532.500 -24.848  10.889  19.654  22.292 -16.848  10.889  19.654  22.292 
   533.000 -26.431  10.925  19.429  23.925 -18.431  10.925  19.429  23.925 
   533.500 -27.574  10.960  19.203  24.676 -19.574  10.960  19.203  24.676 
   534.000 -27.710  10.959  18.977  25.117 -19.710  10.959  18.977  25.117 
   534.500 -27.216  10.896  18.751  25.012 -19.216  10.896  18.751  25.012 
   535.000 -26.144  10.733  18.525  24.244 -18.144  10.733  18.525  24.244 
   535.500 -24.515  10.472  18.299  22.723 -16.515  10.472  18.299  22.723 
   536.000 -24.048  10.182  17.478  21.229 -16.048  10.182  17.478  21.229 
   536.500 -24.082  9.9111  16.368  20.094 -16.082  9.9111  16.368  20.094 
   537.000 -24.270  9.6775  15.275  19.013 -16.270  9.6775  15.275  19.013 
   537.500 -24.089  9.4601  14.753  18.498 -16.089  9.4601  14.753  18.498 
   538.000 -23.386  9.2919  14.038  17.851 -15.386  9.2919  14.038  17.851 
   538.500 -22.536  9.2222  13.391  17.251 -14.536  9.2222  13.391  17.251 
   539.000 -21.893  9.1974  12.691  16.355 -13.893  9.1974  12.691  16.355 
   539.500 -21.498  9.2449  12.019  15.522 -13.498  9.2449  12.019  15.522 
   540.000 -21.470  9.3431  11.404  15.045 -13.470  9.3431  11.404  15.045 
   540.500 -21.814  9.6954  10.902  14.883 -13.814  9.6954  10.902  14.883 
   541.000 -22.222  10.126  11.184  16.340 -14.222  10.126  11.184  16.340 
   541.500 -22.618  10.464  11.589  16.989 -14.618  10.464  11.589  16.989 
   542.000 -23.018  10.747  12.037  17.336 -15.018  10.747  12.037  17.336 
   542.500 -23.330  10.948  12.647  17.612 -15.330  10.948  12.647  17.612 
   543.000 -23.706  11.058  13.495  17.700 -15.706  11.058  13.495  17.700 
   543.500 -24.070  11.116  13.966  17.413 -16.070  11.116  13.966  17.413 
   544.000 -24.403  11.128  14.087  17.190 -16.403  11.128  14.087  17.190 
   544.500 -24.741  11.103  14.135  16.917 -16.741  11.103  14.135  16.917 
   545.000 -25.079  11.058  14.144  16.454 -17.079  11.058  14.144  16.454 
   545.500 -25.414  11.017  14.014  16.078 -17.414  11.017  14.014  16.078 
   546.000 -25.752  10.996  13.840  15.805 -17.752  10.996  13.840  15.805 
   546.500 -26.065  11.049  13.680  15.579 -18.065  11.049  13.680  15.579 
   547.000 -26.135  11.127  13.587  15.540 -18.135  11.127  13.587  15.540 
   547.500 -26.105  11.255  13.537  15.787 -18.105  11.255  13.537  15.787 
   548.000 -26.107  11.436  13.532  16.285 -18.107  11.436  13.532  16.285 
   548.500 -26.111  11.619  13.699  16.808 -18.111  11.619  13.699  16.808 
   549.000 -25.897  11.760  14.047  17.318 -17.897  11.760  14.047  17.318 
   549.500 -25.690  11.886  14.046  17.827 -17.690  11.886  14.046  17.827 
   550.000 -26.400  11.973  14.045  18.038 -18.400  11.973  14.045  18.038 
   550.500 -26.937  12.044  14.065  18.130 -18.937  12.044  14.065  18.130 
   551.000 -27.288  12.095  14.605  18.217 -19.288  12.095  14.605  18.217 
   551.500 -27.595  12.122  16.204  18.315 -19.595  12.122  16.204  18.315 
   552.000 -27.851  12.137  16.675  18.404 -19.851  12.137  16.675  18.404 
   552.500 -28.048  12.129  17.133  18.386 -20.048  12.129  17.133  18.386 
