~Version Information
VERS.                     2.0: CWLS log ASCII Standard Version 2.00
WRAP.                      NO: One line per depth step
~Well Information Block
#MNEM.UNIT                               Data Type  Information
#---------                               ---------  -----------
STRT.FT                                   500.0000:
STOP.FT                                  8200.0000:
STEP.FT                                     0.5000:
NULL.                 -999.25                     :
COMP.                                             :COMPANY            
WELL.     CCMO 87-20                              :WELL               
FLD .                                             :FIELD              
CTRY.                                             :COUNTRY            
STAT.                                             :STATE              
LOC .                                             :LOCATION           
UWI .                                             :UNIQUE WELL ID     
SRVC.                                             :Service company    
DATE.                                             :LOG DATE           
~Curve Information
#MNEM.UNIT           API CODE  Curve Description
#---------           --------  -----------------
DEPT.FT                      :   1 DEPTH
SP  .MV                      :   2
AM16.OHMM                    :   3
AO10.OHMM                    :   4
AO19.OHMM                    :   5
SBL .MV                      :   6
RS  .OHMM                    :   7
RM  .OHMM                    :   8
RD  .OHMM                    :   9
~A
# ...
  1507.000 -7.7776  3.6004  4.5822  5.1648 -3.1988  3.6004  4.5822  5.1648 
  1507.500 -7.8107  3.5839  4.6286  5.2487 -3.2350  3.5839  4.6286  5.2487 
  1508.000 -7.9469  3.6030  4.7073  5.3882 -3.3742  3.6030  4.7073  5.3882 
  1508.500 -8.1623  3.6558  4.7938  5.5092 -3.5926  3.6558  4.7938  5.5092 
  1509.000 -8.4281  3.8047  4.8864  5.5896 -3.8614  3.8047  4.8864  5.5896 
  1509.500 -8.7139  3.9985  4.9766  5.6672 -4.1503  3.9985  4.9766  5.6672 
  1510.000 -8.9931  4.1961  5.0376  5.7371 -4.4325  4.1961  5.0376  5.7371 
  1510.500 -9.2939  4.3804  5.0956  5.8005 -4.7363  4.3804  5.0956  5.8005 
  1511.000 -9.6184  4.5431  5.1669  5.8668 -5.0638  4.5431  5.1669  5.8668 
  1511.500 -9.9879  4.7039  5.2682  5.9436 -5.4364  4.7039  5.2682  5.9436 
  1512.000 -10.514  4.8605  5.4481  6.3636 -5.9659  4.8605  5.4481  6.3636 
  1512.500 -11.624  5.0212  5.9020  6.7394 -7.0781  5.0212  5.9020  6.7394 
  1513.000 -13.438  5.1896  6.3337  7.0653 -8.8953  5.1896  6.3337  7.0653 
  1513.500 -15.486  5.3845  6.6769  7.4052 -10.947  5.3845  6.6769  7.4052 
  1514.000 -17.103  5.5626  6.9620  7.7161 -12.567  5.5626  6.9620  7.7161 
  1514.500 -18.467  5.7208  7.2130  8.0023 -13.934  5.7208  7.2130  8.0023 
  1515.000 -19.589  5.8661  7.4333  8.2698 -15.059  5.8661  7.4333  8.2698 
  1515.500 -20.778  5.9879  7.6123  8.5356 -16.251  5.9879  7.6123  8.5356 
  1516.000 -21.722  6.0775  7.7633  8.8359 -17.197  6.0775  7.7633  8.8359 
  1516.500 -22.714  6.0981  7.8927  9.0853 -18.193  6.0981  7.8927  9.0853 
  1517.000 -23.256  6.0777  8.0059  9.3124 -18.738  6.0777  8.0059  9.3124 
  1517.500 -23.529  5.9701  8.1133  9.5089 -19.014  5.9701  8.1133  9.5089 
  1518.000 -23.013  5.7552  8.2095  9.6380 -18.501  5.7552  8.2095  9.6380 
  1518.500 -21.640  5.5482  8.2760  9.6851 -17.130  5.5482  8.2760  9.6851 
  1519.000 -20.043  5.3700  8.3075  9.5653 -15.536  5.3700  8.3075  9.5653 
  1519.500 -18.204  5.1902  8.1744  9.2271 -13.701  5.1902  8.1744  9.2271 
  1520.000 -15.831  5.0084  7.8056  7.9511 -11.331  5.0084  7.8056  7.9511 
  1520.500 -13.940  4.8337  6.7933  6.8808 -9.4427  4.8337  6.7933  6.8808 
  1521.000 -12.784  4.6670  5.8619  6.3844 -8.2898  4.6670  5.8619  6.3844 
  1521.500 -12.229  4.4991  5.3733  6.0154 -7.7379  4.4991  5.3733  6.0154 
  1522.000 -12.568  4.3337  5.0685  5.7321 -8.0805  4.3337  5.0685  5.7321 
  1522.500 -13.312  4.1771  4.9200  5.7786 -8.8269  4.1771  4.9200  5.7786 
  1523.000 -13.818  4.0781  4.9958  5.8393 -9.3359  4.0781  4.9958  5.8393 
  1523.500 -14.230  3.9931  5.0904  5.8889 -9.7517  3.9931  5.0904  5.8889 
  1524.000 -14.015  3.9238  5.1264  5.9032 -9.5390  3.9238  5.1264  5.9032 
  1524.500 -13.538  3.8667  5.0529  5.6274 -9.0651  3.8667  5.0529  5.6274 
  1525.000 -10.798  3.8379  4.9826  5.3316 -6.3281  3.8379  4.9826  5.3316 
  1525.500 -8.7445  3.8147  4.8967  5.0408 -4.2778  3.8147  4.8967  5.0408 
  1526.000 -7.4901  3.8068  4.8477  4.7781 -3.0265  3.8068  4.8477  4.7781 
  1526.500 -6.9244  3.8348  4.8538  4.6972 -2.4638  3.8348  4.8538  4.6972 
  1527.000 -6.7988  3.8740  4.9567  4.7546 -2.3412  3.8740  4.9567  4.7546 
  1527.500 -6.7818  3.9307  5.2751  4.8870 -2.3273  3.9307  5.2751  4.8870 
  1528.000 -7.6442  4.0130  5.6264  5.1121 -3.1927  4.0130  5.6264  5.1121 
  1528.500 -9.5830  4.0901  6.0085  5.3338 -5.1345  4.0901  6.0085  5.3338 
  1529.000 -11.437  4.1650  6.4025  5.5349 -6.9913  4.1650  6.4025  5.5349 
  1529.500 -12.760  4.2178  6.7262  5.7205 -8.3181  4.2178  6.7262  5.7205 
  1530.000 -13.863  4.2518  6.9256  5.8671 -9.4237  4.2518  6.9256  5.8671 
  1530.500 -14.065  4.2619  7.0138  5.9415 -9.6283  4.2619  7.0138  5.9415 
  1531.000 -11.334  4.1358  7.0047  5.7337 -6.9008  4.1358  7.0047  5.7337 
  1531.500 -9.9825  4.0525  6.9373  5.5799 -5.5522  4.0525  6.9373  5.5799 
  1532.000 -9.0496  3.9586  6.8526  5.4355 -4.6224  3.9586  6.8526  5.4355 
  1532.500 -8.2315  3.8687  6.5708  5.3053 -3.8073  3.8687  6.5708  5.3053 
  1533.000 -7.5091  3.7864  6.1904  5.1850 -3.0879  3.7864  6.1904  5.1850 
  1533.500 -6.9315  3.7232  5.8817  5.0805 -2.5133  3.7232  5.8817  5.0805 
  1534.000 -6.5777  3.6796  5.5532  4.9841 -2.1625  3.6796  5.5532  4.9841 
  1534.500 -6.3666  3.6547  5.3355  4.8918 -1.9545  3.6547  5.3355  4.8918 
  1535.000 -6.2260  3.7567  5.1772  4.8216 -1.8169  3.7567  5.1772  4.8216 
  1535.500 -6.2267  3.8773  5.0487  4.9226 -1.8207  3.8773  5.0487  4.9226 
  1536.000 -6.2437  3.9878  4.9406  5.1598 -1.8406  3.9878  4.9406  5.1598 
  1536.500 -6.2874  4.0917  4.8685  5.5457 -1.8874  4.0917  4.8685  5.5457 
  1537.000 -6.4291  4.1880  4.8517  5.9374 -2.0321  4.1880  4.8517  5.9374 
  1537.500 -6.7935  4.2770  4.9448  6.2977 -2.3996  4.2770  4.9448  6.2977 
  1538.000 -7.5960  4.3704  5.1431  6.6393 -3.2051  4.3704  5.1431  6.6393 
  1538.500 -8.4897  4.4560  5.4458  6.9969 -4.1018  4.4560  5.4458  6.9969 
  1539.000 -9.6765  4.5072  5.7822  7.3198 -5.2916  4.5072  5.7822  7.3198 
  1539.500 -10.747  4.5515  6.2076  7.6100 -6.3654  4.5515  6.2076  7.6100 
  1540.000 -11.839  4.5267  6.6086  7.8934 -7.4598  4.5267  6.6086  7.8934 
  1540.500 -12.893  4.4577  7.0040  8.1006 -8.5176  4.4577  7.0040  8.1006 
  1541.000 -13.711  4.3794  7.2359  8.2376 -9.3387  4.3794  7.2359  8.2376 
  1541.500 -14.157  4.2598  7.3599  8.3034 -9.7876  4.2598  7.3599  8.3034 
  1542.000 -13.012  4.1386  7.3455  7.8994 -8.6452  4.1386  7.3455  7.8994 
  1542.500 -11.808  4.0160  7.1843  7.1717 -7.4443  4.0160  7.1843  7.1717 
  1543.000 -10.787  3.8916  6.8398  6.6710 -6.4261  3.8916  6.8398  6.6710 
  1543.500 -9.8534  3.7782  6.1450  6.2041 -5.4958  3.7782  6.1450  6.2041 
  1544.000 -9.2070  3.6733  5.5057  5.7801 -4.8524  3.6733  5.5057  5.7801 
  1544.500 -8.8457  3.5883  5.1747  5.4589 -4.4942  3.5883  5.1747  5.4589 
  1545.000 -8.5461  3.5275  4.8972  5.2253 -4.1976  3.5275  4.8972  5.2253 
  1545.500 -8.2609  3.4718  4.6846  5.0254 -3.9155  3.4718  4.6846  5.0254 
  1546.000 -7.9043  3.4401  4.5020  4.8754 -3.5619  3.4401  4.5020  4.8754 
  1546.500 -7.4927  3.4303  4.3279  4.7584 -3.1533  3.4303  4.3279  4.7584 
  1547.000 -6.9994  3.4737  4.2026  4.6460 -2.6631  3.4737  4.2026  4.6460 
  1547.500 -6.5826  3.5367  4.1500  4.5926 -2.2493  3.5367  4.1500  4.5926 
  1548.000 -6.0724  3.6087  4.2039  4.7854 -1.7421  3.6087  4.2039  4.7854 
  1548.500 -6.9137  3.6808  4.3305  4.9800 -2.5864  3.6808  4.3305  4.9800 
  1549.000 -7.9633  3.7428  4.5464  5.2050 -3.6391  3.7428  4.5464  5.2050 
  1549.500 -9.1294  3.8040  4.8180  5.4738 -4.8082  3.8040  4.8180  5.4738 
  1550.000 -10.556  3.8646  5.0914  5.6926 -6.2374  3.8646  5.0914  5.6926 
  1550.500 -11.796  3.9251  5.3153  5.8448 -7.4805  3.9251  5.3153  5.8448 
  1551.000 -12.726  3.9790  5.4976  5.9077 -8.4139  3.9790  5.4976  5.9077 
  1551.500 -13.071  4.0257  5.6333  5.8717 -8.7616  4.0257  5.6333  5.8717 
  1552.000 -12.438  4.0724  5.7456  5.8127 -8.1323  4.0724  5.7456  5.8127 
  1552.500 -10.683  4.1191  5.8169  5.6793 -6.3795  4.1191  5.8169  5.6793 
  1553.000 -9.1317  4.1677  5.6772  5.5421 -4.8317  4.1677  5.6772  5.5421 
  1553.500 -7.9695  4.2166  5.5072  5.4317 -3.6725  4.2166  5.5072  5.4317 
  1554.000 -7.2426  4.2625  5.4273  5.3835 -2.9486  4.2625  5.4273  5.3835 
  1554.500 -6.7981  4.3028  5.3957  5.5444 -2.5072  4.3028  5.3957  5.5444 
  1555.000 -6.9186  4.3431  5.4644  5.8422 -2.6308  4.3431  5.4644  5.8422 
  1555.500 -8.1136  4.3779  5.6538  6.1096 -3.8287  4.3779  5.6538  6.1096 
  1556.000 -10.280  4.4114  5.8936  6.3497 -5.9980  4.4114  5.8936  6.3497 
  1556.500 -11.959  4.3155  6.1287  6.5490 -7.6800  4.3155  6.1287  6.5490 
  1557.000 -12.964  4.2614  6.3110  6.6929 -8.6885  4.2614  6.3110  6.6929 
  1557.500 -13.367  4.1400  6.4388  6.7946 -9.0946  4.1400  6.4388  6.7946 
  1558.000 -13.368  4.0045  6.4808  6.8550 -9.0985  4.0045  6.4808  6.8550 
  1558.500 -12.850  3.8776  6.4921  6.8693 -8.5836  3.8776  6.4921  6.8693 
  1559.000 -11.668  3.7531  6.4995  6.6872 -7.4039  3.7531  6.4995  6.6872 
  1559.500 -9.8459  3.6290  6.3835  6.3185 -5.5853  3.6290  6.3835  6.3185 
