~Version Information
VERS.                     2.0: CWLS log ASCII Standard Version 2.00
WRAP.                      NO: One line per depth step
~Well Information Block
#MNEM.UNIT                               Data Type  Information
#---------                               ---------  -----------
STRT.FT                                   500.0000:
STOP.FT                                  8200.0000:
STEP.FT                                     0.5000:
NULL.                 -999.25                     :
COMP.                                             :COMPANY            
WELL.     CCMO 87-20                              :WELL               
FLD .                                             :FIELD              
CTRY.                                             :COUNTRY            
STAT.                                             :STATE              
LOC .                                             :LOCATION           
UWI .                                             :UNIQUE WELL ID     
SRVC.                                             :Service company    
DATE.                                             :LOG DATE           
~Curve Information
#MNEM.UNIT           API CODE  Curve Description
#---------           --------  -----------------
DEPT.FT                      :   1 DEPTH
SP  .MV                      :   2
AM16.OHMM                    :   3
AO10.OHMM                    :   4
AO19.OHMM                    :   5
SBL .MV                      :   6
RS  .OHMM                    :   7
RM  .OHMM                    :   8
RD  .OHMM                    :   9
~A
# ...
  5058.000 -21.623  4.4841  4.3858  4.2399 -19.681  4.4841  4.3858  4.2399 
  5058.500 -20.139  4.3640  4.6592  4.3292 -18.199  4.3640  4.6592  4.3292 
  5059.000 -17.742  4.2893  5.4476  4.4042 -15.804  4.2893  5.4476  4.4042 
  5059.500 -14.809  4.2265  5.9525  4.2448 -12.872  4.2265  5.9525  4.2448 
  5060.000 -13.390  4.1974  6.0816  3.7943 -11.455  4.1974  6.0816  3.7943 
  5060.500 -13.333  4.1769  5.1453  3.4293 -11.399  4.1769  5.1453  3.4293 
  5061.000 -13.274  4.2157  4.8124  3.1640 -11.341  4.2157  4.8124  3.1640 
  5061.500 -13.205  4.2729  4.6131  3.0592 -11.274  4.2729  4.6131  3.0592 
  5062.000 -13.151  4.3754  4.5371  3.0589 -11.222  4.3754  4.5371  3.0589 
  5062.500 -13.744  4.5430  4.5235  3.2983 -11.816  4.5430  4.5235  3.2983 
  5063.000 -14.563  4.8271  4.7898  3.4041 -12.636  4.8271  4.7898  3.4041 
  5063.500 -15.580  5.0828  5.1088  3.5439 -13.655  5.0828  5.1088  3.5439 
  5064.000 -17.603  5.4083  5.4503  3.7573 -15.679  5.4083  5.4503  3.7573 
  5064.500 -22.413  5.7385  5.7754  4.0110 -20.490  5.7385  5.7754  4.0110 
  5065.000 -30.412  6.1338  6.1334  4.2565 -28.491  6.1338  6.1334  4.2565 
  5065.500 -35.845  6.4786  6.4274  4.4580 -33.926  6.4786  6.4274  4.4580 
  5066.000 -38.373  6.7324  6.6731  4.5853 -36.454  6.7324  6.6731  4.5853 
  5066.500 -39.680  6.7747  6.7420  4.6829 -37.763  6.7747  6.7420  4.6829 
  5067.000 -40.566  6.8024  6.6685  4.7495 -38.651  6.8024  6.6685  4.7495 
  5067.500 -41.006  6.8309  6.4824  4.8131 -39.092  6.8309  6.4824  4.8131 
  5068.000 -40.409  6.8640  6.2523  4.9026 -38.496  6.8640  6.2523  4.9026 
  5068.500 -40.180  6.8967  6.0718  5.0025 -38.269  6.8967  6.0718  5.0025 
  5069.000 -40.121  6.9268  5.9556  5.1273 -38.211  6.9268  5.9556  5.1273 
  5069.500 -40.259  7.0021  5.8828  5.2842 -38.351  7.0021  5.8828  5.2842 
  5070.000 -41.235  7.2763  5.8252  5.4401 -39.328  7.2763  5.8252  5.4401 
  5070.500 -43.591  7.7303  5.7835  5.6189 -41.686  7.7303  5.7835  5.6189 
  5071.000 -46.702  8.1850  5.7514  5.8134 -44.798  8.1850  5.7514  5.8134 
  5071.500 -48.808  8.5407  5.7743  6.0030 -46.905  8.5407  5.7743  6.0030 
  5072.000 -50.307  8.8927  5.7951  6.1689 -48.406  8.8927  5.7951  6.1689 
  5072.500 -51.594  9.2298  5.8400  6.3403 -49.694  9.2298  5.8400  6.3403 
  5073.000 -52.384  9.5472  5.8923  6.5273 -50.486  9.5472  5.8923  6.5273 
  5073.500 -52.966  9.8458  5.9543  6.7361 -51.069  9.8458  5.9543  6.7361 
  5074.000 -53.096  10.209  6.1374  6.9496 -51.201  10.209  6.1374  6.9496 
  5074.500 -52.948  10.487  6.5518  7.1782 -51.054  10.487  6.5518  7.1782 
  5075.000 -52.705  10.694  7.1066  7.3289 -50.812  10.694  7.1066  7.3289 
  5075.500 -51.893  10.785  7.5735  7.3786 -50.001  10.785  7.5735  7.3786 
  5076.000 -50.155  10.821  7.9373  7.3783 -48.265  10.821  7.9373  7.3783 
  5076.500 -48.420  10.827  8.2400  7.3167 -46.532  10.827  8.2400  7.3167 
  5077.000 -47.112  10.588  8.4762  6.8371 -45.225  10.588  8.4762  6.8371 
  5077.500 -45.324  10.186  8.6580  6.8999 -43.439  10.186  8.6580  6.8999 
  5078.000 -43.072  9.4572  8.8086  6.9486 -41.189  9.4572  8.8086  6.9486 
  5078.500 -40.665  7.8612  8.8490  6.9634 -38.783  7.8612  8.8490  6.9634 
  5079.000 -36.952  6.7758  8.6729  6.8919 -35.071  6.7758  8.6729  6.8919 
  5079.500 -32.331  5.7767  8.4374  6.6462 -30.451  5.7767  8.4374  6.6462 
  5080.000 -28.302  5.0138  7.9146  6.1113 -26.424  5.0138  7.9146  6.1113 
  5080.500 -23.908  4.4282  7.1032  5.1546 -22.031  4.4282  7.1032  5.1546 
  5081.000 -19.633  3.9737  5.1121  3.9716 -17.758  3.9737  5.1121  3.9716 
  5081.500 -18.063  3.5717  4.3765  3.1362 -16.189  3.5717  4.3765  3.1362 
  5082.000 -17.741  3.3150  3.9406  2.9163 -15.869  3.3150  3.9406  2.9163 
  5082.500 -17.395  3.2102  3.7692  2.8182 -15.524  3.2102  3.7692  2.8182 
  5083.000 -17.044  3.2373  3.7304  2.8406 -15.174  3.2373  3.7304  2.8406 
  5083.500 -16.045  3.2679  3.8169  2.8879 -14.177  3.2679  3.8169  2.8879 
  5084.000 -15.259  3.3013  3.9217  2.9352 -13.392  3.3013  3.9217  2.9352 
  5084.500 -14.804  3.3839  4.0397  3.0169 -12.939  3.3839  4.0397  3.0169 
  5085.000 -15.251  3.4940  4.1908  3.1210 -13.387  3.4940  4.1908  3.1210 
  5085.500 -16.722  3.6331  4.3822  3.2585 -14.860  3.6331  4.3822  3.2585 
  5086.000 -21.932  3.8152  4.6787  3.4254 -20.071  3.8152  4.6787  3.4254 
  5086.500 -25.741  4.2317  5.1034  3.6496 -23.882  4.2317  5.1034  3.6496 
  5087.000 -29.082  4.8201  5.4553  3.9448 -27.224  4.8201  5.4553  3.9448 
  5087.500 -32.633  5.6582  5.7853  4.2984 -30.777  5.6582  5.7853  4.2984 
  5088.000 -36.784  6.4200  6.1133  4.7185 -34.929  6.4200  6.1133  4.7185 
  5088.500 -39.932  7.1674  6.4452  5.0879 -38.079  7.1674  6.4452  5.0879 
  5089.000 -44.629  7.7237  6.7349  5.4329 -42.776  7.7237  6.7349  5.4329 
  5089.500 -48.247  8.3068  6.8911  5.7059 -46.396  8.3068  6.8911  5.7059 
  5090.000 -50.811  8.7198  6.9622  5.9433 -48.962  8.7198  6.9622  5.9433 
  5090.500 -52.521  8.9637  6.9847  6.1315 -50.673  8.9637  6.9847  6.1315 
  5091.000 -53.890  9.1173  6.9766  6.2878 -52.043  9.1173  6.9766  6.2878 
  5091.500 -54.725  9.2030  6.9459  6.3940 -52.880  9.2030  6.9459  6.3940 
  5092.000 -55.415  9.2529  6.8253  6.4523 -53.572  9.2529  6.8253  6.4523 
  5092.500 -55.906  9.2916  6.6187  6.4819 -54.063  9.2916  6.6187  6.4819 
  5093.000 -55.504  9.2251  6.3564  6.4965 -53.663  9.2251  6.3564  6.4965 
  5093.500 -54.988  9.1019  6.0954  6.4916 -53.149  9.1019  6.0954  6.4916 
  5094.000 -54.467  8.9010  5.9187  6.4722 -52.629  8.9010  5.9187  6.4722 
  5094.500 -54.004  8.7355  5.7146  6.4206 -52.167  8.7355  5.7146  6.4206 
  5095.000 -53.838  8.6094  5.5540  6.3663 -52.003  8.6094  5.5540  6.3663 
  5095.500 -53.764  8.5744  5.4087  6.2729 -51.930  8.5744  5.4087  6.2729 
  5096.000 -53.660  8.5799  5.2693  6.1738 -51.828  8.5799  5.2693  6.1738 
  5096.500 -53.559  8.6528  5.1700  6.0758 -51.729  8.6528  5.1700  6.0758 
  5097.000 -53.481  8.7893  5.1122  5.9968 -51.652  8.7893  5.1122  5.9968 
  5097.500 -53.403  9.1114  5.0850  5.9512 -51.575  9.1114  5.0850  5.9512 
  5098.000 -53.305  9.4312  5.1800  6.1540 -51.478  9.4312  5.1800  6.1540 
  5098.500 -53.190  9.7287  5.2945  6.2733 -51.365  9.7287  5.2945  6.2733 
  5099.000 -53.405  9.9715  5.4970  6.3583 -51.581  9.9715  5.4970  6.3583 
  5099.500 -54.147  10.175  5.8258  6.4119 -52.325  10.175  5.8258  6.4119 
  5100.000 -54.895  10.336  6.2933  6.4377 -53.074  10.336  6.2933  6.4377 
  5100.500 -55.621  10.457  7.1309  6.2168 -53.802  10.457  7.1309  6.2168 
  5101.000 -56.277  10.530  7.7102  6.1419 -54.459  10.530  7.7102  6.1419 
  5101.500 -56.902  10.576  8.0139  6.1374 -55.085  10.576  8.0139  6.1374 
  5102.000 -57.508  10.563  8.2918  6.1367 -55.693  10.563  8.2918  6.1367 
  5102.500 -58.153  10.544  8.5014  6.1322 -56.339  10.544  8.5014  6.1322 
  5103.000 -58.786  10.501  8.6542  6.1123 -56.974  10.501  8.6542  6.1123 
  5103.500 -59.852  10.457  8.7383  6.0594 -58.041  10.457  8.7383  6.0594 
  5104.000 -59.602  10.417  8.7921  5.9454 -57.793  10.417  8.7921  5.9454 
  5104.500 -59.165  10.376  8.8308  5.8015 -57.357  10.376  8.8308  5.8015 
  5105.000 -58.743  10.325  8.8647  5.6674 -56.936  10.325  8.8647  5.6674 
  5105.500 -58.335  10.270  8.8924  5.5212 -56.530  10.270  8.8924  5.5212 
  5106.000 -57.832  10.210  9.0206  5.5494 -56.029  10.210  9.0206  5.5494 
  5106.500 -57.314  10.147  9.1219  5.5985 -55.512  10.147  9.1219  5.5985 
  5107.000 -56.803  10.084  9.2331  5.6654 -55.002  10.084  9.2331  5.6654 
  5107.500 -55.843  10.018  9.3667  5.7521 -54.044  10.018  9.3667  5.7521 
  5108.000 -54.771  9.9679  9.5097  5.8573 -52.973  9.9679  9.5097  5.8573 
  5108.500 -53.789  9.9104  9.6418  5.9646 -51.993  9.9104  9.6418  5.9646 
  5109.000 -52.624  9.8454  9.7385  6.0624 -50.829  9.8454  9.7385  6.0624 
  5109.500 -51.187  9.6921  9.7870  6.1439 -49.394  9.6921  9.7870  6.1439 
  5110.000 -49.296  9.4210  9.7863  6.1966 -47.504  9.4210  9.7863  6.1966 
  5110.500 -47.008  9.0188  9.7635  6.2195 -45.217  9.0188  9.7635  6.2195 
