~Version Information
VERS.                     2.0: CWLS log ASCII Standard Version 2.00
WRAP.                      NO: One line per depth step
~Well Information Block
#MNEM.UNIT                               Data Type  Information
#---------                               ---------  -----------
STRT.FT                                  6300.0000:
STOP.FT                                  6960.0000:
STEP.FT                                     0.5000:
NULL.                 -999.25                     :
COMP.                                             :COMPANY            
WELL.     SAN EMIDIO A 25-19 REDRILL              :WELL               
FLD .                                             :FIELD              
CTRY.                                             :COUNTRY            
STAT.                                             :STATE              
LOC .                                             :LOCATION           
UWI .                                             :UNIQUE WELL ID     
SRVC.                                             :Service company    
DATE.                                             :LOG DATE           
~Curve Information
#MNEM.UNIT           API CODE  Curve Description
#---------           --------  -----------------
DEPT.FT                      :   1 DEPTH
SP  .MV                      :   2
AM16.OHMM                    :   3
AO10.OHMM                    :   4
AO19.OHMM                    :   5
SBL .MV                      :   6
RS  .OHMM                    :   7
RM  .OHMM                    :   8
RD  .OHMM                    :   9
~A
# ...
  6353.000 -21.811  2.1330  2.4210  2.5750 -5.8115  2.1330  2.4210  2.5750 
  6353.500 -22.270  2.1320  2.4200  2.5920 -6.2696  2.1320  2.4200  2.5920 
  6354.000 -22.549  2.1660  2.4190  2.5900 -6.5486  2.1660  2.4190  2.5900 
  6354.500 -22.827  2.1640  2.3800  2.5880 -6.8267  2.1640  2.3800  2.5880 
  6355.000 -23.378  2.1630  2.3790  2.5870 -7.3784  2.1630  2.3790  2.5870 
  6355.500 -23.566  2.1610  2.3770  2.5860 -7.5656  2.1610  2.3770  2.5860 
  6356.000 -23.753  2.1590  2.3760  2.5840 -7.7528  2.1590  2.3760  2.5840 
  6356.500 -24.125  2.1400  2.3740  2.6180 -8.1245  2.1400  2.3740  2.6180 
  6357.000 -24.314  2.1200  2.3720  2.6170 -8.3135  2.1200  2.3720  2.6170 
  6357.500 -24.682  2.1360  2.3710  2.6510 -8.6816  2.1360  2.3710  2.6510 
  6358.000 -25.230  2.1530  2.3690  2.6500 -9.2297  2.1530  2.3690  2.6500 
  6358.500 -25.419  2.1510  2.3670  2.6490 -9.4187  2.1510  2.3670  2.6490 
  6359.000 -25.428  2.1500  2.4020  2.6460 -9.4277  2.1500  2.4020  2.6460 
  6359.500 -25.435  2.1480  2.4360  2.6450 -9.4349  2.1480  2.4360  2.6450 
  6360.000 -25.442  2.1470  2.4700  2.6430 -9.4421  2.1470  2.4700  2.6430 
  6360.500 -25.451  2.1630  2.4690  2.6060 -9.4511  2.1630  2.4690  2.6060 
  6361.000 -25.460  2.1800  2.4670  2.6040 -9.4601  2.1800  2.4670  2.6040 
  6361.500 -25.828  2.1960  2.4660  2.5850 -9.8282  2.1960  2.4660  2.5850 
  6362.000 -26.197  2.2130  2.4640  2.5660 -10.197  2.2130  2.4640  2.5660 
  6362.500 -27.108  2.2110  2.4450  2.5470 -11.108  2.2110  2.4450  2.5470 
  6363.000 -28.199  2.2090  2.4250  2.5270 -12.199  2.2090  2.4250  2.5270 
  6363.500 -27.665  2.2080  2.4230  2.4890 -11.665  2.2080  2.4230  2.4890 
  6364.000 -27.131  2.2060  2.4220  2.4870 -11.131  2.2060  2.4220  2.4870 
  6364.500 -25.886  2.2400  2.4210  2.4500 -9.8858  2.2400  2.4210  2.4500 
  6365.000 -24.637  2.2570  2.4190  2.4480 -8.6366  2.2570  2.4190  2.4480 
  6365.500 -23.207  2.2730  2.4170  2.4470 -7.2074  2.2730  2.4170  2.4470 
  6366.000 -21.958  2.2720  2.4150  2.4100 -5.9582  2.2720  2.4150  2.4100 
  6366.500 -21.607  2.2700  2.4140  2.3720 -5.6072  2.2700  2.4140  2.3720 
  6367.000 -21.077  2.3040  2.4130  2.3700 -5.0771  2.3040  2.4130  2.3700 
  6367.500 -21.086  2.3020  2.3740  2.4050 -5.0861  2.3020  2.3740  2.4050 
  6368.000 -21.454  2.3010  2.3730  2.4210 -5.4542  2.3010  2.3730  2.4210 
  6368.500 -21.463  2.3000  2.3710  2.4380 -5.4632  2.3000  2.3710  2.4380 
  6369.000 -21.832  2.2800  2.3330  2.5080 -5.8322  2.2800  2.3330  2.5080 
  6369.500 -22.200  2.2600  2.3320  2.5070 -6.2003  2.2600  2.3320  2.5070 
  6370.000 -22.477  2.2580  2.3660  2.5410 -6.4775  2.2580  2.3660  2.5410 
  6370.500 -22.755  2.2560  2.4010  2.5760 -6.7547  2.2560  2.4010  2.5760 
  6371.000 -23.303  2.2550  2.4000  2.5740 -7.3028  2.2550  2.4000  2.5740 
  6371.500 -23.851  2.2710  2.3980  2.5910 -7.8509  2.2710  2.3980  2.5910 
  6372.000 -25.481  2.2880  2.4320  2.6080 -9.4808  2.2880  2.4320  2.6080 
  6372.500 -26.209  2.3040  2.4300  2.5880 -10.209  2.3040  2.4300  2.5880 
  6373.000 -27.839  2.3210  2.4290  2.5680 -11.839  2.3210  2.4290  2.5680 
  6373.500 -29.286  2.3190  2.4100  2.5300 -13.286  2.3190  2.4100  2.5300 
  6374.000 -30.374  2.3360  2.3900  2.5290 -14.374  2.3360  2.3900  2.5290 
  6374.500 -31.641  2.3520  2.3880  2.5280 -15.641  2.3520  2.3880  2.5280 
  6375.000 -29.852  2.3500  2.3860  2.5080 -13.852  2.3500  2.3860  2.5080 
  6375.500 -29.142  2.3480  2.3850  2.4880 -13.142  2.3480  2.3850  2.4880 
  6376.000 -28.073  2.3470  2.3830  2.4690 -12.073  2.3470  2.3830  2.4690 
  6376.500 -26.644  2.3450  2.3810  2.4490 -10.644  2.3450  2.3810  2.4490 
  6377.000 -26.110  2.3440  2.3800  2.4470 -10.110  2.3440  2.3800  2.4470 
  6377.500 -24.861  2.3420  2.3780  2.4460 -8.8607  2.3420  2.3780  2.4460 
  6378.000 -24.151  2.3400  2.3760  2.4080 -8.1506  2.3400  2.3760  2.4080 
  6378.500 -23.441  2.3390  2.3390  2.4070 -7.4405  2.3390  2.3390  2.4070 
  6379.000 -22.910  2.3550  2.3550  2.4060 -6.9104  2.3550  2.3550  2.4060 
  6379.500 -22.559  2.3710  2.3720  2.4160 -6.5594  2.3710  2.3720  2.4160 
  6380.000 -22.928  2.3700  2.3700  2.4270 -6.9284  2.3700  2.3700  2.4270 
  6380.500 -23.117  2.3690  2.3690  2.4370 -7.1165  2.3690  2.3690  2.4370 
  6381.000 -23.666  2.3670  2.3310  2.4530 -7.6655  2.3670  2.3310  2.4530 
  6381.500 -23.315  2.3650  2.3470  2.4690 -7.3145  2.3650  2.3470  2.4690 
  6382.000 -22.963  2.3630  2.3630  2.5040 -6.9626  2.3630  2.3630  2.5040 
  6382.500 -22.610  2.3620  2.3620  2.5210 -6.6098  2.3620  2.3620  2.5210 
  6383.000 -22.260  2.3420  2.3610  2.5380 -6.2597  2.3420  2.3610  2.5380 
  6383.500 -21.909  2.3220  2.3940  2.5350 -5.9087  2.3220  2.3940  2.5350 
  6384.000 -21.741  2.3210  2.4110  2.5340 -5.7413  2.3210  2.4110  2.5340 
  6384.500 -21.571  2.3190  2.4270  2.5320 -5.5712  2.3190  2.4270  2.5320 
  6385.000 -21.578  2.3180  2.4440  2.5310 -5.5784  2.3180  2.4440  2.5310 
  6385.500 -21.586  2.3160  2.4610  2.5290 -5.5856  2.3160  2.4610  2.5290 
  6386.000 -21.777  2.3150  2.4770  2.5280 -5.7773  2.3150  2.4770  2.5280 
  6386.500 -21.786  2.3130  2.4930  2.5270 -5.7863  2.3130  2.4930  2.5270 
  6387.000 -22.155  2.3120  2.5270  2.5610 -6.1553  2.3120  2.5270  2.5610 
  6387.500 -22.343  2.3100  2.5260  2.5590 -6.3434  2.3100  2.5260  2.5590 
  6388.000 -22.352  2.3080  2.5240  2.5580 -6.3524  2.3080  2.5240  2.5580 
  6388.500 -21.822  2.3060  2.5230  2.5560 -5.8223  2.3060  2.5230  2.5560 
  6389.000 -21.292  2.3050  2.5210  2.5550 -5.2922  2.3050  2.5210  2.5550 
  6389.500 -20.762  2.3210  2.4830  2.5530 -4.7621  2.3210  2.4830  2.5530 
  6390.000 -20.591  2.3370  2.4810  2.5340 -4.5911  2.3370  2.4810  2.5340 
  6390.500 -20.420  2.3360  2.4800  2.5150 -4.4201  2.3360  2.4800  2.5150 
  6391.000 -20.429  2.3340  2.4790  2.5490 -4.4291  2.3340  2.4790  2.5490 
  6391.500 -20.796  2.3330  2.4410  2.5470 -4.7963  2.3330  2.4410  2.5470 
  6392.000 -21.163  2.3320  2.4210  2.5450 -5.1626  2.3320  2.4210  2.5450 
  6392.500 -21.442  2.3290  2.4020  2.5440 -5.4416  2.3290  2.4020  2.5440 
  6393.000 -21.720  2.3280  2.4360  2.5420 -5.7197  2.3280  2.4360  2.5420 
  6393.500 -22.451  2.3270  2.4530  2.5410 -6.4514  2.3270  2.4530  2.5410 
  6394.000 -22.640  2.3430  2.4690  2.5750 -6.6404  2.3430  2.4690  2.5750 
  6394.500 -23.007  2.3600  2.5030  2.5740 -7.0067  2.3600  2.5030  2.5740 
  6395.000 -23.374  2.4290  2.5380  2.6080 -7.3739  2.4290  2.5380  2.6080 
  6395.500 -23.473  2.4640  2.5720  2.6610 -7.4729  2.4640  2.5720  2.6610 
  6396.000 -23.571  2.5160  2.6250  2.7140 -7.5710  2.5160  2.6250  2.7140 
  6396.500 -23.764  2.5690  2.6770  2.8200 -7.7636  2.5690  2.6770  2.8200 
  6397.000 -23.593  2.6220  2.7300  2.7820 -7.5926  2.6220  2.7300  2.7820 
  6397.500 -23.422  2.6740  2.7820  2.7450 -7.4216  2.6740  2.7820  2.7450 
  6398.000 -22.891  2.6900  2.7980  2.7260 -6.8915  2.6900  2.7980  2.7260 
  6398.500 -22.541  2.7070  2.8150  2.7060 -6.5414  2.7070  2.8150  2.7060 
  6399.000 -22.190  2.6680  2.7760  2.6320 -6.1904  2.6680  2.7760  2.6320 
  6399.500 -21.840  2.5950  2.7030  2.6130 -5.8403  2.5950  2.7030  2.6130 
  6400.000 -21.489  2.5220  2.6650  2.5940 -5.4893  2.5220  2.6650  2.5940 
  6400.500 -20.957  2.4490  2.5920  2.5560 -4.9565  2.4490  2.5920  2.5560 
  6401.000 -20.963  2.3760  2.5200  2.5190 -4.9628  2.3760  2.5200  2.5190 
  6401.500 -21.149  2.3020  2.4820  2.4810 -5.1491  2.3020  2.4820  2.4810 
  6402.000 -21.514  2.3010  2.4810  2.4430 -5.5145  2.3010  2.4810  2.4430 
  6402.500 -21.701  2.3000  2.4800  2.4420 -5.7008  2.3000  2.4800  2.4420 
  6403.000 -21.707  2.2990  2.5150  2.4410 -5.7071  2.2990  2.5150  2.4410 
  6403.500 -21.622  2.2980  2.5140  2.4400 -5.6216  2.2980  2.5140  2.4400 
  6404.000 -21.536  2.3330  2.5130  2.4380 -5.5361  2.3330  2.5130  2.4380 
  6404.500 -21.186  2.3670  2.5120  2.4550 -5.1860  2.3670  2.5120  2.4550 
  6405.000 -21.101  2.3790  2.5100  2.4710 -5.1014  2.3790  2.5100  2.4710 
  6405.500 -21.016  2.3900  2.5100  2.4700 -5.0159  2.3900  2.5100  2.4700 
