~Version Information
VERS.                     2.0: CWLS log ASCII Standard Version 2.00
WRAP.                      NO: One line per depth step
~Well Information Block
#MNEM.UNIT                               Data Type  Information
#---------                               ---------  -----------
STRT.FT                                  6300.0000:
STOP.FT                                  6960.0000:
STEP.FT                                     0.5000:
NULL.                 -999.25                     :
COMP.                                             :COMPANY            
WELL.     SAN EMIDIO A 25-19 REDRILL              :WELL               
FLD .                                             :FIELD              
CTRY.                                             :COUNTRY            
STAT.                                             :STATE              
LOC .                                             :LOCATION           
UWI .                                             :UNIQUE WELL ID     
SRVC.                                             :Service company    
DATE.                                             :LOG DATE           
~Curve Information
#MNEM.UNIT           API CODE  Curve Description
#---------           --------  -----------------
DEPT.FT                      :   1 DEPTH
SP  .MV                      :   2
AM16.OHMM                    :   3
AO10.OHMM                    :   4
AO19.OHMM                    :   5
SBL .MV                      :   6
RS  .OHMM                    :   7
RM  .OHMM                    :   8
RD  .OHMM                    :   9
~A
# ...
  6459.000 -31.223  2.5380  2.5370  2.5320 -15.223  2.5380  2.5370  2.5320 
  6459.500 -31.227  2.6440  2.6440  2.5840 -15.227  2.6440  2.6440  2.5840 
  6460.000 -31.054  2.7160  2.6980  2.6370 -15.054  2.7160  2.6980  2.6370 
  6460.500 -30.880  2.7870  2.7510  2.7430 -14.880  2.7870  2.7510  2.7430 
  6461.000 -30.351  2.9290  2.8930  2.8140 -14.351  2.9290  2.8930  2.8140 
  6461.500 -29.458  2.9650  2.9640  2.9200 -13.458  2.9650  2.9640  2.9200 
  6462.000 -28.925  3.0000  3.0000  3.0270 -12.925  3.0000  3.0000  3.0270 
  6462.500 -28.212  3.1070  3.0710  2.9900 -12.212  3.1070  3.0710  2.9900 
  6463.000 -28.577  3.1420  3.1420  2.9520 -12.577  3.1420  3.1420  2.9520 
  6463.500 -28.940  3.1410  3.1410  2.8970 -12.940  3.1410  3.1410  2.8970 
  6464.000 -30.028  3.1390  3.1030  2.8420 -14.028  3.1390  3.1030  2.8420 
  6464.500 -30.393  3.1020  2.9580  2.7680 -14.393  3.1020  2.9580  2.7680 
  6465.000 -30.757  2.9210  2.8490  2.6950 -14.757  2.9210  2.8490  2.6950 
  6465.500 -30.947  2.8470  2.7030  2.5490 -14.947  2.8470  2.7030  2.5490 
  6466.000 -30.773  2.7380  2.6300  2.5290 -14.773  2.7380  2.6300  2.5290 
  6466.500 -30.777  2.6650  2.5930  2.5100 -14.777  2.6650  2.5930  2.5100 
  6467.000 -30.782  2.6470  2.5930  2.4720 -14.782  2.6470  2.5930  2.4720 
  6467.500 -30.612  2.6280  2.5920  2.5250 -14.612  2.6280  2.5920  2.5250 
  6468.000 -30.439  2.5180  2.6260  2.5780 -14.439  2.5180  2.6260  2.5780 
  6468.500 -30.265  2.4810  2.6250  2.6660 -14.265  2.4810  2.6250  2.6660 
  6469.000 -30.090  2.5160  2.6960  2.7540 -14.090  2.5160  2.6960  2.7540 
  6469.500 -29.915  2.5870  2.7310  2.8250 -13.915  2.5870  2.7310  2.8250 
  6470.000 -29.565  2.6220  2.7660  2.8600 -13.565  2.6220  2.7660  2.8600 
  6470.500 -29.120  2.6930  2.8730  2.8580 -13.120  2.6930  2.8730  2.8580 
  6471.000 -28.675  2.7280  2.9080  2.8570 -12.675  2.7280  2.9080  2.8570 
  6471.500 -27.787  2.7270  2.9430  2.8550 -11.787  2.7270  2.9430  2.8550 
  6472.000 -27.253  2.6890  2.9780  2.8180 -11.253  2.6890  2.9780  2.8180 
  6472.500 -27.619  2.6530  2.9760  2.7810 -11.619  2.6530  2.9760  2.7810 
  6473.000 -27.805  2.6160  2.9750  2.6350 -11.805  2.6160  2.9750  2.6350 
  6473.500 -27.989  2.5430  2.9380  2.4890 -11.989  2.5430  2.9380  2.4890 
  6474.000 -28.174  2.4690  2.8650  2.4160 -12.174  2.4690  2.8650  2.4160 
  6474.500 -28.270  2.4320  2.7920  2.4150 -12.270  2.4320  2.7920  2.4150 
  6475.000 -28.366  2.3950  2.7730  2.4130 -12.366  2.3950  2.7730  2.4130 
  6475.500 -27.743  2.3580  2.7550  2.4120 -11.743  2.3580  2.7550  2.4120 
  6476.000 -27.121  2.3570  2.7170  2.4470 -11.121  2.3570  2.7170  2.4470 
  6476.500 -26.228  2.3560  2.7160  2.4820 -10.228  2.3560  2.7160  2.4820 
  6477.000 -25.695  2.3370  2.7150  2.4980 -9.6950  2.3370  2.7150  2.4980 
  6477.500 -25.520  2.3180  2.7140  2.5150 -9.5195  2.3180  2.7140  2.5150 
  6478.000 -25.344  2.3170  2.7130  2.5130 -9.3440  2.3170  2.7130  2.5130 
  6478.500 -24.815  2.3160  2.7300  2.5290 -8.8148  2.3160  2.7300  2.5290 
  6479.000 -24.641  2.3150  2.7470  2.5460 -8.6411  2.3150  2.7470  2.5460 
  6479.500 -24.288  2.3140  2.7460  2.5630 -8.2883  2.3140  2.7460  2.5630 
  6480.000 -24.115  2.3480  2.7450  2.5790 -8.1146  2.3480  2.7450  2.5790 
  6480.500 -23.941  2.3470  2.7430  2.6130 -7.9409  2.3470  2.7430  2.6130 
  6481.000 -23.766  2.3470  2.7420  2.5760 -7.7663  2.3470  2.7420  2.5760 
  6481.500 -23.591  2.3450  2.7050  2.5740 -7.5908  2.3450  2.7050  2.5740 
  6482.000 -23.241  2.3440  2.7040  2.5730 -7.2407  2.3440  2.7040  2.5730 
  6482.500 -23.247  2.3430  2.6670  2.5720 -7.2470  2.3430  2.6670  2.5720 
  6483.000 -23.252  2.3420  2.6660  2.5700 -7.2515  2.3420  2.6660  2.5700 
  6483.500 -23.256  2.3410  2.6650  2.6050 -7.2560  2.3410  2.6650  2.6050 
  6484.000 -24.165  2.3580  2.6640  2.6390 -8.1650  2.3580  2.6640  2.6390 
  6484.500 -24.529  2.3750  2.6630  2.6560 -8.5286  2.3750  2.6630  2.6560 
  6485.000 -24.893  2.3730  2.6610  2.6730 -8.8931  2.3730  2.6610  2.6730 
  6485.500 -25.985  2.3720  2.6600  2.7430 -9.9848  2.3720  2.6600  2.7430 
  6486.000 -26.170  2.3720  2.6590  2.7600 -10.170  2.3720  2.6590  2.7600 
  6486.500 -26.536  2.3710  2.6580  2.7770 -10.536  2.3710  2.6580  2.7770 
  6487.000 -26.902  2.3880  2.6570  2.7930 -10.902  2.3880  2.6570  2.7930 
  6487.500 -26.727  2.4050  2.6560  2.8090 -10.727  2.4050  2.6560  2.8090 
  6488.000 -26.552  2.4220  2.6550  2.8080 -10.552  2.4220  2.6550  2.8080 
  6488.500 -26.741  2.4390  2.6540  2.7890 -10.741  2.4390  2.6540  2.7890 
  6489.000 -27.107  2.4370  2.6890  2.7700 -11.107  2.4370  2.6890  2.7700 
  6489.500 -27.472  2.4360  2.6880  2.7680 -11.472  2.4360  2.6880  2.7680 
  6490.000 -28.378  2.4350  2.6870  2.7660 -12.378  2.4350  2.6870  2.7660 
  6490.500 -28.652  2.4340  2.6860  2.7650 -12.652  2.4340  2.6860  2.7650 
  6491.000 -28.926  2.4690  2.7570  2.7810 -12.926  2.4690  2.7570  2.7810 
  6491.500 -30.014  2.5040  2.7740  2.7980 -14.014  2.5040  2.7740  2.7980 
  6492.000 -30.380  2.5390  2.7910  2.8680 -14.380  2.5390  2.7910  2.8680 
  6492.500 -31.106  2.5740  2.8080  2.9390 -15.106  2.5740  2.8080  2.9390 
  6493.000 -31.291  2.6080  2.8250  2.9730 -15.291  2.6080  2.8250  2.9730 
  6493.500 -31.837  2.6260  2.8590  3.0080 -15.837  2.6260  2.8590  3.0080 
  6494.000 -32.203  2.6430  2.8580  2.9710 -16.203  2.6430  2.8580  2.9710 
  6494.500 -32.928  2.6770  2.8750  2.9690 -16.928  2.6770  2.8750  2.9690 
  6495.000 -34.556  2.6760  2.8930  2.9320 -18.556  2.6760  2.8930  2.9320 
  6495.500 -34.203  2.6570  2.8740  2.8940 -18.203  2.6570  2.8740  2.8940 
  6496.000 -33.486  2.6380  2.8550  2.8570 -17.486  2.6380  2.8550  2.8570 
  6496.500 -33.133  2.6010  2.8170  2.8200 -17.133  2.6010  2.8170  2.8200 
  6497.000 -32.241  2.5820  2.7800  2.8000 -16.241  2.5820  2.7800  2.8000 
  6497.500 -31.708  2.5630  2.7070  2.7800 -15.708  2.5630  2.7070  2.7800 
  6498.000 -30.635  2.5620  2.6870  2.7070 -14.635  2.5620  2.6870  2.7070 
  6498.500 -31.180  2.5600  2.6680  2.7060 -15.180  2.5600  2.6680  2.7060 
  6499.000 -31.727  2.5230  2.6500  2.7050 -15.727  2.5230  2.6500  2.7050 
  6499.500 -32.631  2.5230  2.6310  2.6310 -16.631  2.5230  2.6310  2.6310 
  6500.000 -32.996  2.5220  2.6300  2.5570 -16.996  2.5220  2.6300  2.5570 
  6500.500 -33.360  2.5020  2.6280  2.5560 -17.360  2.5020  2.6280  2.5560 
  6501.000 -32.293  2.4830  2.5900  2.5540 -16.293  2.4830  2.5900  2.5540 
  6501.500 -31.581  2.4810  2.5520  2.4980 -15.581  2.4810  2.5520  2.4980 
  6502.000 -31.408  2.4790  2.5510  2.4420 -15.408  2.4790  2.5510  2.4420 
  6502.500 -31.774  2.4780  2.5500  2.4410 -15.774  2.4780  2.5500  2.4410 
  6503.000 -32.142  2.4760  2.5480  2.4390 -16.142  2.4760  2.5480  2.4390 
  6503.500 -32.508  2.4740  2.5470  2.4370 -16.508  2.4740  2.5470  2.4370 
  6504.000 -32.693  2.4550  2.5450  2.4350 -16.693  2.4550  2.5450  2.4350 
  6504.500 -32.879  2.4350  2.5430  2.4340 -16.879  2.4350  2.5430  2.4340 
  6505.000 -33.252  2.4330  2.5410  2.4310 -17.252  2.4330  2.5410  2.4310 
  6505.500 -33.076  2.4310  2.5390  2.4290 -17.076  2.4310  2.5390  2.4290 
  6506.000 -32.900  2.4180  2.5380  2.4280 -16.900  2.4180  2.5380  2.4280 
  6506.500 -31.832  2.4050  2.5370  2.4260 -15.832  2.4050  2.5370  2.4260 
  6507.000 -32.198  2.3910  2.5890  2.4240 -16.198  2.3910  2.5890  2.4240 
  6507.500 -32.566  2.3890  2.6420  2.4220 -16.566  2.3890  2.6420  2.4220 
  6508.000 -33.115  2.3870  2.6390  2.4030 -17.115  2.3870  2.6390  2.4030 
  6508.500 -33.303  2.3860  2.7100  2.3830 -17.303  2.3860  2.7100  2.3830 
  6509.000 -33.130  2.3840  2.7440  2.3810 -17.130  2.3840  2.7440  2.3810 
  6509.500 -32.777  2.4010  2.7600  2.3800 -16.777  2.4010  2.7600  2.3800 
  6510.000 -32.964  2.4170  2.7770  2.3770 -16.964  2.4170  2.7770  2.3770 
  6510.500 -33.150  2.4520  2.7750  2.3940 -17.150  2.4520  2.7750  2.3940 
  6511.000 -33.335  2.4860  2.7740  2.4100 -17.335  2.4860  2.7740  2.4100 
  6511.500 -32.711  2.5200  2.7720  2.4450 -16.711  2.5200  2.7720  2.4450 
