~Version Information
VERS.                     2.0: CWLS log ASCII Standard Version 2.00
WRAP.                      NO: One line per depth step
~Well Information Block
#MNEM.UNIT                               Data Type  Information
#---------                               ---------  -----------
STRT.FT                                   450.0000:
STOP.FT                                  6780.0000:
STEP.FT                                     0.5000:
NULL.                 -999.25                     :
COMP.                                             :COMPANY            
WELL.     SAN EMIDIO A 25-19                      :WELL               
FLD .                                             :FIELD              
CTRY.                                             :COUNTRY            
STAT.                                             :STATE              
LOC .                                             :LOCATION           
UWI .                                             :UNIQUE WELL ID     
SRVC.                                             :Service company    
DATE.                                             :LOG DATE           
~Curve Information
#MNEM.UNIT           API CODE  Curve Description
#---------           --------  -----------------
DEPT.FT                      :   1 DEPTH
SP  .MV                      :   2
AM16.OHMM                    :   3
AO10.OHMM                    :   4
AO19.OHMM                    :   5
SBL .MV                      :   6
RS  .OHMM                    :   7
RM  .OHMM                    :   8
RD  .OHMM                    :   9
~A
# ...
  4213.000 -31.456  8.7660  7.0740  8.3750 -27.329  8.7660  7.0740  8.3750 
  4213.500 -31.641  8.8370  7.0370  8.4100 -27.506  8.8370  7.0370  8.4100 
  4214.000 -31.825  8.8370  7.0730  8.5180 -27.682  8.8370  7.0730  8.5180 
  4214.500 -32.551  8.9080  7.1080  8.5890 -28.401  8.9080  7.1080  8.5890 
  4215.000 -33.097  8.9790  7.2150  8.6250 -28.939  8.9790  7.2150  8.6250 
  4215.500 -33.099  9.0140  7.3580  8.5880 -28.933  9.0140  7.3580  8.5880 
  4216.000 -33.463  9.0500  7.4660  8.5510 -29.289  9.0500  7.4660  8.5510 
  4216.500 -33.827  9.1210  7.5730  8.5330 -29.645  9.1210  7.5730  8.5330 
  4217.000 -34.193  9.1560  7.7520  8.5150 -30.003  9.1560  7.7520  8.5150 
  4217.500 -34.557  9.1920  7.8600  8.4780 -30.359  9.1920  7.8600  8.4780 
  4218.000 -34.741  9.3350  8.0030  8.4410 -30.535  9.3350  8.0030  8.4410 
  4218.500 -34.925  9.4060  8.0740  8.3690 -30.711  9.4060  8.0740  8.3690 
  4219.000 -35.289  9.4780  8.2170  8.2960 -31.067  9.4780  8.2170  8.2960 
  4219.500 -35.563  9.5490  8.4330  8.1160 -31.333  9.5490  8.4330  8.1160 
  4220.000 -35.837  9.6380  8.5760  8.0070 -31.599  9.6380  8.5760  8.0070 
  4220.500 -36.203  9.7280  8.6470  7.9710 -31.957  9.7280  8.6470  7.9710 
  4221.000 -36.386  9.7810  8.7190  7.9340 -32.133  9.7810  8.7190  7.9340 
  4221.500 -36.569  9.8340  8.9340  7.8620 -32.308  9.8340  8.9340  7.8620 
  4222.000 -36.752  9.9050  9.0410  7.8970 -32.483  9.9050  9.0410  7.8970 
  4222.500 -37.299  9.9770  9.1120  7.9680 -33.022  9.9770  9.1120  7.9680 
  4223.000 -37.664  10.048  9.2200  7.9680 -33.379  10.048  9.2200  7.9680 
  4223.500 -38.209  10.119  9.3270  8.0030 -33.916  10.119  9.3270  8.0030 
  4224.000 -38.574  10.173  9.3980  8.0390 -34.273  10.173  9.3980  8.0390 
  4224.500 -38.576  10.226  9.4700  8.0740 -34.267  10.226  9.4700  8.0740 
  4225.000 -38.398  10.333  9.5230  8.0740 -34.081  10.333  9.5230  8.0740 
  4225.500 -38.401  10.404  9.5760  8.0730 -34.076  10.404  9.5760  8.0730 
  4226.000 -38.403  10.475  9.6830  8.0370 -34.070  10.475  9.6830  8.0370 
  4226.500 -38.406  10.547  9.7190  7.9280 -34.065  10.547  9.7190  7.9280 
  4227.000 -38.409  10.582  9.7180  7.8920 -34.060  10.582  9.7180  7.8920 
  4227.500 -38.592  10.617  9.7530  7.9630 -34.236  10.617  9.7530  7.9630 
  4228.000 -38.776  10.635  9.7530  8.0350 -34.412  10.635  9.7530  8.0350 
  4228.500 -38.959  10.652  9.7520  8.0700 -34.587  10.652  9.7520  8.0700 
  4229.000 -39.142  10.795  9.7510  8.1060 -34.762  10.795  9.7510  8.1060 
  4229.500 -39.326  10.938  9.7510  8.1410 -34.938  10.938  9.7510  8.1410 
  4230.000 -39.328  11.226  9.7860  8.1040 -34.932  11.226  9.7860  8.1040 
  4230.500 -39.331  11.297  9.7850  8.1040 -34.927  11.297  9.7850  8.1040 
  4231.000 -39.243  11.692  9.8200  8.1750 -34.831  11.692  9.8200  8.1750 
  4231.500 -39.156  11.872  9.8550  8.2470 -34.736  11.872  9.8550  8.2470 
  4232.000 -38.978  12.123  9.8910  8.3540 -34.550  12.123  9.8910  8.3540 
  4232.500 -38.799  12.230  9.9620  8.4260 -34.363  12.230  9.9620  8.4260 
  4233.000 -38.803  12.338  10.034  8.5690 -34.359  12.338  10.034  8.5690 
  4233.500 -38.805  13.201  10.213  8.7490 -34.354  13.201  10.213  8.7490 
  4234.000 -38.807  13.776  10.392  8.8560 -34.348  13.776  10.392  8.8560 
  4234.500 -38.450  14.172  10.859  9.1440 -33.983  14.172  10.859  9.1440 
  4235.000 -38.271  14.531  11.363  9.9710 -33.796  14.531  11.363  9.9710 
  4235.500 -38.183  15.214  11.758  10.403 -33.700  15.214  11.758  10.403 
  4236.000 -38.095  15.754  12.081  10.690 -33.604  15.754  12.081  10.690 
  4236.500 -38.099  16.041  12.404  10.798 -33.600  16.041  12.404  10.798 
  4237.000 -38.282  16.436  12.656  10.977 -33.775  16.436  12.656  10.977 
  4237.500 -38.284  16.327  12.907  11.012 -33.769  16.327  12.907  11.012 
  4238.000 -38.286  16.039  13.303  10.940 -33.763  16.039  13.303  10.940 
  4238.500 -39.014  15.786  13.518  10.868 -34.483  15.786  13.518  10.868 
  4239.000 -39.740  15.353  13.517  10.687 -35.201  15.353  13.517  10.687 
  4239.500 -40.828  14.777  13.408  10.434 -36.281  14.777  13.408  10.434 
  4240.000 -41.736  14.200  13.372  10.110 -37.182  14.200  13.372  10.110 
  4240.500 -42.100  13.803  13.191  9.5690 -37.538  13.803  13.191  9.5690 
  4241.000 -42.012  13.370  13.082  9.2090 -37.442  13.370  13.082  9.2090 
  4241.500 -41.925  13.046  12.253  9.0280 -37.347  13.046  12.253  9.0280 
  4242.000 -41.746  12.541  11.532  8.8110 -37.160  12.541  11.532  8.8110 
  4242.500 -41.567  12.216  11.388  8.6670 -36.973  12.216  11.388  8.6670 
  4243.000 -41.298  11.963  11.297  8.5580 -36.696  11.963  11.297  8.5580 
  4243.500 -41.030  11.638  11.207  8.5040 -36.420  11.638  11.207  8.5040 
  4244.000 -40.491  11.350  11.188  8.4500 -35.873  11.350  11.188  8.4500 
  4244.500 -39.951  11.097  11.169  8.3770 -35.325  11.097  11.169  8.3770 
  4245.000 -39.230  10.772  11.276  8.3400 -34.596  10.772  11.276  8.3400 
  4245.500 -38.509  10.591  11.419  8.3040 -33.867  10.591  11.419  8.3040 
  4246.000 -37.969  10.411  11.635  8.2310 -33.319  10.411  11.635  8.2310 
  4246.500 -37.068  10.158  11.778  8.2130 -32.411  10.158  11.778  8.2130 
  4247.000 -36.528  9.8330  12.137  8.1940 -31.863  9.8330  12.137  8.1940 
  4247.500 -35.986  9.5080  12.533  8.1220 -31.313  9.5080  12.533  8.1220 
  4248.000 -35.446  9.1840  12.532  8.0850 -30.765  9.1840  12.532  8.0850 
  4248.500 -34.545  8.6790  12.531  7.9760 -29.856  8.6790  12.531  7.9760 
  4249.000 -33.824  8.2820  12.411  7.9400 -29.127  8.2820  12.411  7.9400 
  4249.500 -32.741  7.9580  12.290  7.9040 -28.036  7.9580  12.290  7.9040 
  4250.000 -31.297  7.5610  12.169  7.7590 -26.584  7.5610  12.169  7.7590 
  4250.500 -30.214  7.1640  11.880  7.7040 -25.493  7.1640  11.880  7.7040 
  4251.000 -28.046  6.6950  11.556  7.6500 -23.317  6.6950  11.556  7.6500 
  4251.500 -25.335  6.4060  11.015  7.4870 -20.598  6.4060  11.015  7.4870 
  4252.000 -23.710  6.1540  10.546  7.3250 -18.965  6.1540  10.546  7.3250 
  4252.500 -21.723  6.0090  9.9690  7.0000 -16.971  6.0090  9.9690  7.0000 
  4253.000 -18.650  5.9720  9.5010  6.7830 -13.890  5.9720  9.5010  6.7830 
  4253.500 -15.759  5.9720  9.0680  6.6750 -10.991  5.9720  9.0680  6.6750 
  4254.000 -13.952  5.9710  8.6710  6.8900 -9.1758  5.9710  8.6710  6.8900 
  4254.500 -12.145  6.1140  8.4540  6.9800 -7.3608  6.1140  8.4540  6.9800 
  4255.000 -12.149  6.1130  8.0570  7.0690 -7.3569  6.1130  8.0570  7.0690 
  4255.500 -12.694  6.3290  8.0210  7.5370 -7.8940  6.3290  8.0210  7.5370 
  4256.000 -13.601  6.5440  8.1280  7.8240 -8.7931  6.5440  8.1280  7.8240 
  4256.500 -14.509  7.0470  8.1990  8.2560 -9.6932  7.0470  8.1990  8.2560 
  4257.000 -15.415  7.3340  8.3430  8.4710 -10.591  7.3340  8.3430  8.4710 
  4257.500 -16.322  7.9100  8.4860  8.6870 -11.490  7.9100  8.4860  8.6870 
  4258.000 -18.135  8.4130  8.5570  9.0820 -13.295  8.4130  8.5570  9.0820 
  4258.500 -20.851  8.8090  8.6110  9.3700 -16.003  8.8090  8.6110  9.3700 
  4259.000 -23.748  9.2040  8.6640  9.5850 -18.893  9.2040  8.6640  9.5850 
  4259.500 -32.072  9.6890  8.8070  9.8730 -27.209  9.6890  8.8070  9.8730 
  4260.000 -34.426  10.175  8.8780  10.232 -29.555  10.175  8.8780  10.232 
  4260.500 -35.152  11.002  8.9860  10.556 -30.273  11.002  8.9860  10.556 
  4261.000 -35.336  12.045  9.3810  10.699 -30.449  12.045  9.3810  10.699 
  4261.500 -35.158  12.333  10.244  11.059 -30.263  12.333  10.244  11.059 
  4262.000 -34.980  12.584  10.604  11.382 -30.077  12.584  10.604  11.382 
  4262.500 -34.982  12.799  10.927  11.742 -30.071  12.799  10.927  11.742 
  4263.000 -34.985  13.158  11.178  12.173 -30.066  13.158  11.178  12.173 
  4263.500 -34.987  13.590  11.430  12.641 -30.060  13.590  11.430  12.641 
  4264.000 -35.352  14.021  11.573  12.928 -30.417  14.021  11.573  12.928 
  4264.500 -36.440  15.137  11.536  13.179 -31.497  15.137  11.536  13.179 
  4265.000 -37.349  16.072  11.427  13.215 -32.399  16.072  11.427  13.215 
  4265.500 -38.075  18.699  11.103  13.143 -33.117  18.699  11.103  13.143 
