~Version Information
VERS.                     2.0: CWLS log ASCII Standard Version 2.00
WRAP.                      NO: One line per depth step
~Well Information Block
#MNEM.UNIT                               Data Type  Information
#---------                               ---------  -----------
STRT.FT                                  6300.0000:
STOP.FT                                  6960.0000:
STEP.FT                                     0.5000:
NULL.                 -999.25                     :
COMP.                                             :COMPANY            
WELL.     SAN EMIDIO A 25-19 REDRILL              :WELL               
FLD .                                             :FIELD              
CTRY.                                             :COUNTRY            
STAT.                                             :STATE              
LOC .                                             :LOCATION           
UWI .                                             :UNIQUE WELL ID     
SRVC.                                             :Service company    
DATE.                                             :LOG DATE           
~Curve Information
#MNEM.UNIT           API CODE  Curve Description
#---------           --------  -----------------
DEPT.FT                      :   1 DEPTH
SP  .MV                      :   2
AM16.OHMM                    :   3
AO10.OHMM                    :   4
AO19.OHMM                    :   5
SBL .MV                      :   6
RS  .OHMM                    :   7
RM  .OHMM                    :   8
RD  .OHMM                    :   9
~A
# ...
  6618.000 -26.420  2.3550  2.4630  2.5480 -10.420  2.3550  2.4630  2.5480 
  6618.500 -26.427  2.3890  2.4610  2.5460 -10.427  2.3890  2.4610  2.5460 
  6619.000 -26.078  2.3880  2.4600  2.5450 -10.078  2.3880  2.4600  2.5450 
  6619.500 -25.726  2.3860  2.4580  2.5440 -9.7256  2.3860  2.4580  2.5440 
  6620.000 -25.194  2.4030  2.4560  2.5430 -9.1937  2.4030  2.4560  2.5430 
  6620.500 -25.019  2.4190  2.4550  2.5420 -9.0191  2.4190  2.4550  2.5420 
  6621.000 -24.845  2.4170  2.4540  2.5230 -8.8454  2.4170  2.4540  2.5230 
  6621.500 -24.856  2.4150  2.4510  2.5040 -8.8562  2.4150  2.4510  2.5040 
  6622.000 -25.042  2.4140  2.4500  2.4840 -9.0425  2.4140  2.4500  2.4840 
  6622.500 -25.230  2.4130  2.4490  2.4650 -9.2297  2.4130  2.4490  2.4650 
  6623.000 -25.237  2.4290  2.4820  2.4270 -9.2369  2.4290  2.4820  2.4270 
  6623.500 -25.512  2.4450  2.4810  2.4260 -9.5123  2.4450  2.4810  2.4260 
  6624.000 -25.788  2.4430  2.4800  2.4250 -9.7877  2.4430  2.4800  2.4250 
  6624.500 -26.158  2.4410  2.4780  2.4240 -10.158  2.4410  2.4780  2.4240 
  6625.000 -26.524  2.4760  2.4760  2.4220 -10.524  2.4760  2.4760  2.4220 
  6625.500 -26.709  2.5100  2.4740  2.4210 -10.709  2.5100  2.4740  2.4210 
  6626.000 -26.895  2.5270  2.4910  2.4380 -10.895  2.5270  2.4910  2.4380 
  6626.500 -27.172  2.5440  2.5080  2.4550 -11.172  2.5440  2.5080  2.4550 
  6627.000 -27.448  2.5420  2.5060  2.4890 -11.448  2.5420  2.5060  2.4890 
  6627.500 -27.819  2.5400  2.5040  2.5240 -11.819  2.5400  2.5040  2.5240 
  6628.000 -27.826  2.5570  2.5150  2.5230 -11.826  2.5570  2.5150  2.5230 
  6628.500 -27.473  2.5730  2.5250  2.5220 -11.473  2.5730  2.5250  2.5220 
  6629.000 -27.481  2.5900  2.5350  2.5560 -11.481  2.5900  2.5350  2.5560 
  6629.500 -27.488  2.6070  2.5330  2.5910 -11.488  2.6070  2.5330  2.5910 
  6630.000 -27.495  2.6040  2.5500  2.6260 -11.495  2.6040  2.5500  2.6260 
  6630.500 -27.862  2.6390  2.5670  2.6240 -11.862  2.6390  2.5670  2.6240 
  6631.000 -28.227  2.6730  2.5650  2.6230 -12.227  2.6730  2.5650  2.6230 
  6631.500 -28.592  2.7070  2.5630  2.6220 -12.592  2.7070  2.5630  2.6220 
  6632.000 -28.962  2.7420  2.5800  2.5480 -12.962  2.7420  2.5800  2.5480 
  6632.500 -29.149  2.8120  2.5970  2.5290 -13.149  2.8120  2.5970  2.5290 
  6633.000 -29.336  2.8470  2.5940  2.5100 -13.336  2.8470  2.5940  2.5100 
  6633.500 -29.615  2.8810  2.6290  2.5090 -13.615  2.8810  2.6290  2.5090 
  6634.000 -29.893  2.9150  2.6630  2.4710 -13.893  2.9150  2.6630  2.4710 
  6634.500 -29.897  2.9500  2.6800  2.4700 -13.897  2.9500  2.6800  2.4700 
  6635.000 -29.901  2.9850  2.6970  2.4690 -13.901  2.9850  2.6970  2.4690 
  6635.500 -27.934  3.0540  2.7660  2.4860 -11.934  3.0540  2.7660  2.4860 
  6636.000 -27.761  3.0890  2.8010  2.5030 -11.761  3.0890  2.8010  2.5030 
  6636.500 -27.949  3.1060  2.8350  2.5370 -11.949  3.1060  2.8350  2.5370 
  6637.000 -27.954  3.1220  2.9060  2.6080 -11.954  3.1220  2.9060  2.6080 
  6637.500 -27.959  3.1390  2.9760  2.6430 -11.959  3.1390  2.9760  2.6430 
  6638.000 -28.150  3.1550  3.0100  2.6780 -12.150  3.1550  3.0100  2.6780 
  6638.500 -28.516  3.1530  3.0810  2.7480 -12.516  3.1530  3.0810  2.7480 
  6639.000 -28.704  3.1520  3.1150  2.7830 -12.704  3.1520  3.1150  2.7830 
  6639.500 -28.891  3.1490  3.1130  2.7450 -12.891  3.1490  3.1130  2.7450 
  6640.000 -29.076  3.1300  3.0760  2.6720 -13.076  3.1300  3.0760  2.6720 
  6640.500 -29.262  3.1110  3.0210  2.6000 -13.262  3.1110  3.0210  2.6000 
  6641.000 -29.359  3.0550  2.9650  2.5260 -13.359  3.0550  2.9650  2.5260 
  6641.500 -29.455  3.0000  2.9090  2.4880 -13.455  3.0000  2.9090  2.4880 
  6642.000 -29.644  2.9250  2.8530  2.4510 -13.644  2.9250  2.8530  2.4510 
  6642.500 -29.833  2.8880  2.8160  2.3780 -13.833  2.8880  2.8160  2.3780 
  6643.000 -30.020  2.8860  2.7790  2.3760 -14.020  2.8860  2.7790  2.3760 
  6643.500 -30.026  2.8670  2.7760  2.3750 -14.026  2.8670  2.7760  2.3750 
  6644.000 -30.031  2.8470  2.7750  2.4100 -14.031  2.8470  2.7750  2.4100 
  6644.500 -29.858  2.8460  2.7910  2.4450 -13.858  2.8460  2.7910  2.4450 
  6645.000 -29.686  2.8440  2.8080  2.4620 -13.686  2.8440  2.8080  2.4620 
  6645.500 -29.604  2.8610  2.8420  2.4790 -13.604  2.8610  2.8420  2.4790 
  6646.000 -29.521  2.8770  2.8400  2.5310 -13.521  2.8770  2.8400  2.5310 
  6646.500 -28.453  2.8930  2.8750  2.5840 -12.453  2.8930  2.8750  2.5840 
  6647.000 -27.382  2.9090  2.8910  2.5820 -11.382  2.9090  2.8910  2.5820 
  6647.500 -27.117  2.9200  2.9080  2.5810 -11.117  2.9200  2.9080  2.5810 
  6648.000 -26.853  2.9300  2.9780  2.5980 -10.853  2.9300  2.9780  2.5980 
  6648.500 -26.145  2.9410  2.9940  2.6150 -10.145  2.9410  2.9940  2.6150 
  6649.000 -26.332  2.9570  3.0110  2.6320 -10.332  2.9570  3.0110  2.6320 
  6649.500 -26.338  2.9740  3.0810  2.6490 -10.338  2.9740  3.0810  2.6490 
  6650.000 -26.343  3.0790  3.1150  2.6830 -10.343  3.0790  3.1150  2.6830 
  6650.500 -26.354  3.1140  3.1680  2.7000 -10.354  3.1140  3.1680  2.7000 
  6651.000 -26.540  3.1480  3.2210  2.7170 -10.540  3.1480  3.2210  2.7170 
  6651.500 -26.635  3.1100  3.2900  2.7510 -10.635  3.1100  3.2900  2.7510 
  6652.000 -26.731  3.0730  3.2890  2.7500 -10.731  3.0730  3.2890  2.7500 
  6652.500 -26.922  3.0710  3.2870  2.7490 -10.922  3.0710  3.2870  2.7490 
  6653.000 -27.017  3.0700  3.2500  2.7120 -11.017  3.0700  3.2500  2.7120 
  6653.500 -27.112  3.0320  3.2120  2.6750 -11.112  3.0320  3.2120  2.6750 
  6654.000 -27.120  2.9940  3.1750  2.6550 -11.120  2.9940  3.1750  2.6550 
  6654.500 -27.127  2.9570  3.1730  2.6360 -11.127  2.9570  3.1730  2.6360 
  6655.000 -26.956  2.9550  3.1350  2.5980 -10.956  2.9550  3.1350  2.5980 
  6655.500 -26.785  2.9170  3.0970  2.6150 -10.785  2.9170  3.0970  2.6150 
  6656.000 -26.611  2.9160  3.0600  2.6320 -10.611  2.9160  3.0600  2.6320 
  6656.500 -26.437  2.8780  3.0580  2.6310 -10.437  2.8780  3.0580  2.6310 
  6657.000 -26.175  2.8590  3.0560  2.6300 -10.175  2.8590  3.0560  2.6300 
  6657.500 -25.912  2.8390  3.0550  2.6830 -9.9119  2.8390  3.0550  2.6830 
  6658.000 -25.384  2.8020  3.0530  2.7350 -9.3836  2.8020  3.0530  2.7350 
  6658.500 -25.391  2.7640  3.1240  2.7520 -9.3908  2.7640  3.1240  2.7520 
  6659.000 -25.396  2.7980  3.1580  2.7690 -9.3962  2.7980  3.1580  2.7690 
  6659.500 -25.402  2.8330  3.2110  2.8040 -9.4016  2.8330  3.2110  2.8040 
  6660.000 -25.412  2.8670  3.2630  2.8390 -9.4124  2.8670  3.2630  2.8390 
  6660.500 -25.418  2.9380  3.3160  2.9090 -9.4178  2.9380  3.3160  2.9090 
  6661.000 -25.423  3.0080  3.3680  2.9440 -9.4232  3.0080  3.3680  2.9440 
  6661.500 -25.250  3.1140  3.4750  2.9790 -9.2504  3.1140  3.4750  2.9790 
  6662.000 -25.256  3.1480  3.5450  3.0850 -9.2558  3.1480  3.5450  3.0850 
  6662.500 -25.262  3.1830  3.6160  3.1020 -9.2621  3.1830  3.6160  3.1020 
  6663.000 -25.179  3.2180  3.7220  3.1190 -9.1793  3.2180  3.7220  3.1190 
  6663.500 -25.097  3.2340  3.7560  3.1900 -9.0965  3.2340  3.7560  3.1900 
  6664.000 -25.014  3.2510  3.7550  3.1880 -9.0137  3.2510  3.7550  3.1880 
  6664.500 -24.931  3.2850  3.7530  3.1870 -8.9309  3.2850  3.7530  3.1870 
  6665.000 -24.760  3.2650  3.7160  3.1860 -8.7599  3.2650  3.7160  3.1860 
  6665.500 -24.590  3.2460  3.6780  3.1840 -8.5898  3.2460  3.6780  3.1840 
  6666.000 -24.237  3.2080  3.6040  3.1830 -8.2370  3.2080  3.6040  3.1830 
  6666.500 -24.152  3.1700  3.5670  3.1460 -8.1524  3.1700  3.5670  3.1460 
  6667.000 -24.069  3.1330  3.5290  3.1090 -8.0687  3.1330  3.5290  3.1090 
  6667.500 -24.076  3.1310  3.4910  3.1070 -8.0759  3.1310  3.4910  3.1070 
  6668.000 -24.083  3.0930  3.4530  3.0700 -8.0831  3.0930  3.4530  3.0700 
  6668.500 -24.090  3.0740  3.3800  3.0330 -8.0903  3.0740  3.3800  3.0330 
  6669.000 -24.098  3.0540  3.3780  3.0320 -8.0975  3.0540  3.3780  3.0320 
  6669.500 -24.374  3.0890  3.3770  3.0310 -8.3738  3.0890  3.3770  3.0310 
  6670.000 -24.651  3.0870  3.3930  2.9930 -8.6510  3.0870  3.3930  2.9930 
  6670.500 -24.748  3.1570  3.4100  2.9920 -8.7482  3.1570  3.4100  2.9920 
