~Version Information
VERS.                     2.0: CWLS log ASCII Standard Version 2.00
WRAP.                      NO: One line per depth step
~Well Information Block
#MNEM.UNIT                               Data Type  Information
#---------                               ---------  -----------
STRT.FT                                   450.0000:
STOP.FT                                  6780.0000:
STEP.FT                                     0.5000:
NULL.                 -999.25                     :
COMP.                                             :COMPANY            
WELL.     SAN EMIDIO A 25-19                      :WELL               
FLD .                                             :FIELD              
CTRY.                                             :COUNTRY            
STAT.                                             :STATE              
LOC .                                             :LOCATION           
UWI .                                             :UNIQUE WELL ID     
SRVC.                                             :Service company    
DATE.                                             :LOG DATE           
~Curve Information
#MNEM.UNIT           API CODE  Curve Description
#---------           --------  -----------------
DEPT.FT                      :   1 DEPTH
SP  .MV                      :   2
AM16.OHMM                    :   3
AO10.OHMM                    :   4
AO19.OHMM                    :   5
SBL .MV                      :   6
RS  .OHMM                    :   7
RM  .OHMM                    :   8
RD  .OHMM                    :   9
~A
# ...
  2517.000 -21.973  5.5950  5.5410  6.8700 -9.4221  5.5950  5.5410  6.8700 
  2517.500 -23.235  5.7210  5.7210  6.9420 -10.685  5.7210  5.7210  6.9420 
  2518.000 -25.398  6.0440  5.8650  7.1580 -12.849  6.0440  5.8650  7.1580 
  2518.500 -29.365  6.5830  5.9370  7.2840 -16.817  6.5830  5.9370  7.2840 
  2519.000 -31.889  6.8710  6.0810  7.4100 -19.342  6.8710  6.0810  7.4100 
  2519.500 -34.233  7.1950  6.1880  7.5180 -21.687  7.1950  6.1880  7.5180 
  2520.000 -36.757  7.7340  6.2960  7.5360 -24.212  7.7340  6.2960  7.5360 
  2520.500 -38.560  7.8420  6.2970  7.5550 -26.016  7.8420  6.2970  7.5550 
  2521.000 -39.641  8.2020  6.4050  7.5730 -27.098  8.2020  6.4050  7.5730 
  2521.500 -40.542  8.4890  6.4410  7.5910 -28.000  8.4890  6.4410  7.5910 
  2522.000 -41.624  8.6330  6.4770  7.5910 -29.083  8.6330  6.4770  7.5910 
  2522.500 -41.983  8.7410  6.5130  7.5910 -29.443  8.7410  6.5130  7.5910 
  2523.000 -42.524  8.7770  6.5490  7.5730 -29.985  8.7770  6.5490  7.5730 
  2523.500 -42.883  8.7780  6.5670  7.5560 -30.345  8.7780  6.5670  7.5560 
  2524.000 -43.243  8.7060  6.5850  7.4840 -30.706  8.7060  6.5850  7.4840 
  2524.500 -43.603  8.6340  6.5860  7.4480 -31.067  8.6340  6.5860  7.4480 
  2525.000 -43.422  8.5440  6.5860  7.3760 -30.886  8.5440  6.5860  7.3760 
  2525.500 -42.880  8.4550  6.5680  7.3230 -30.345  8.4550  6.5680  7.3230 
  2526.000 -42.518  8.2030  6.5500  7.2690 -29.984  8.2030  6.5500  7.2690 
  2526.500 -42.157  7.8080  6.5320  7.1610 -29.624  7.8080  6.5320  7.1610 
  2527.000 -40.893  7.5570  6.5150  7.0540 -28.361  7.5570  6.5150  7.0540 
  2527.500 -39.630  7.2340  6.4430  6.9100 -27.099  7.2340  6.4430  6.9100 
  2528.000 -37.465  7.1260  6.4430  6.8380 -24.935  7.1260  6.4430  6.8380 
  2528.500 -35.299  7.0900  6.4430  6.6950 -22.770  7.0900  6.4430  6.6950 
  2529.000 -34.396  7.0900  6.4440  6.6230 -21.868  7.0900  6.4440  6.6230 
  2529.500 -33.674  7.0910  6.4800  6.5520 -21.147  7.0910  6.4800  6.5520 
  2530.000 -31.870  7.1270  6.5160  6.4080 -19.344  7.1270  6.5160  6.4080 
  2530.500 -30.606  7.2350  6.6240  6.3360 -18.081  7.2350  6.6240  6.3360 
  2531.000 -31.327  7.2890  6.7320  6.4800 -18.803  7.2890  6.7320  6.4800 
  2531.500 -32.588  7.3430  7.0910  6.5700 -20.065  7.3430  7.0910  6.5700 
  2532.000 -34.571  7.6310  7.3070  6.6600 -22.049  7.6310  7.3070  6.6600 
  2532.500 -36.194  7.9180  7.5230  6.8040 -23.673  7.9180  7.5230  6.8040 
  2533.000 -37.636  8.0980  7.6310  6.7860 -25.116  8.0980  7.6310  6.7860 
  2533.500 -38.897  8.3860  7.7390  6.7690 -26.378  8.3860  7.7390  6.7690 
  2534.000 -39.438  8.5300  7.8470  6.6970 -26.920  8.5300  7.8470  6.6970 
  2534.500 -40.699  8.6740  8.2060  6.6610 -28.182  8.6740  8.2060  6.6610 
  2535.000 -41.059  8.9970  8.4580  6.6250 -28.543  8.9970  8.4580  6.6250 
  2535.500 -41.599  9.2130  8.6020  6.7150 -29.084  9.2130  8.6020  6.7150 
  2536.000 -42.140  9.3570  8.7460  6.8050 -29.626  9.3570  8.7460  6.8050 
  2536.500 -43.221  9.5550  8.8900  6.9130 -30.708  9.5550  8.8900  6.9130 
  2537.000 -43.761  9.7530  9.1420  7.0570 -31.249  9.7530  9.1420  7.0570 
  2537.500 -43.940  10.184  9.3580  7.1290 -31.428  10.184  9.3580  7.1290 
  2538.000 -44.300  10.508  9.4300  7.2010 -31.789  10.508  9.4300  7.2010 
  2538.500 -44.660  10.760  9.5020  7.3630 -32.150  10.760  9.5020  7.3630 
  2539.000 -44.930  11.011  9.5920  7.5250 -32.421  11.011  9.5920  7.5250 
  2539.500 -45.199  11.263  9.6820  7.6510 -32.691  11.263  9.6820  7.6510 
  2540.000 -45.559  11.371  9.7540  7.7770 -33.052  11.371  9.7540  7.7770 
  2540.500 -45.919  11.515  9.7540  8.0290 -33.413  11.515  9.7540  8.0290 
  2541.000 -46.459  11.587  9.7900  8.1370 -33.954  11.587  9.7900  8.1370 
  2541.500 -46.819  11.677  9.8620  8.2090 -34.315  11.677  9.8620  8.2090 
  2542.000 -45.916  11.767  9.8620  8.3170 -33.413  11.767  9.8620  8.3170 
  2542.500 -45.735  12.127  9.9700  8.4250 -33.233  12.127  9.9700  8.4250 
  2543.000 -45.554  12.450  10.042  8.4970 -33.053  12.450  10.042  8.4970 
  2543.500 -45.192  12.666  10.114  8.5690 -32.692  12.666  10.114  8.5690 
  2544.000 -45.552  12.774  10.366  8.8210 -33.053  12.774  10.366  8.8210 
  2544.500 -45.912  12.882  10.474  9.0370 -33.414  12.882  10.474  9.0370 
  2545.000 -48.075  13.278  10.582  9.3240 -35.578  13.278  10.582  9.3240 
  2545.500 -48.976  13.493  10.798  9.3960 -36.480  13.493  10.798  9.3960 
  2546.000 -50.779  13.709  10.906  9.5400 -38.284  13.709  10.906  9.5400 
  2546.500 -51.319  14.105  11.014  9.6480 -38.825  14.105  11.014  9.6480 
  2547.000 -51.859  14.357  11.122  9.7200 -39.366  14.357  11.122  9.7200 
  2547.500 -52.579  14.572  11.374  9.7920 -40.087  14.572  11.374  9.7920 
  2548.000 -52.759  14.752  11.518  9.8640 -40.268  14.752  11.518  9.8640 
  2548.500 -52.938  14.932  11.769  9.9370 -40.448  14.932  11.769  9.9370 
  2549.000 -53.118  15.040  12.273  9.9910 -40.629  15.040  12.273  9.9910 
  2549.500 -53.478  15.130  12.525  10.045 -40.990  15.130  12.525  10.045 
  2550.000 -53.567  15.220  12.776  10.027 -41.079  15.220  12.776  10.027 
  2550.500 -53.657  15.472  13.100  10.009 -41.170  15.472  13.100  10.009 
  2551.000 -53.836  15.688  13.280  10.045 -41.350  15.688  13.280  10.045 
  2551.500 -54.015  15.868  13.352  10.045 -41.530  15.868  13.352  10.045 
  2552.000 -54.195  16.012  13.424  10.118 -41.711  16.012  13.424  10.118 
  2552.500 -54.374  16.155  13.568  10.190 -41.891  16.155  13.568  10.190 
  2553.000 -54.734  16.371  13.712  10.298 -42.252  16.371  13.712  10.298 
  2553.500 -54.823  16.551  13.856  10.442 -42.342  16.551  13.856  10.442 
  2554.000 -54.913  16.659  14.036  10.585 -42.433  16.659  14.036  10.585 
  2554.500 -55.092  16.731  14.287  10.729 -42.613  16.731  14.287  10.729 
  2555.000 -55.272  16.767  14.575  10.945 -42.794  16.767  14.575  10.945 
  2555.500 -55.451  16.803  14.827  10.981 -42.974  16.803  14.827  10.981 
  2556.000 -55.630  16.804  15.150  11.017 -43.154  16.804  15.150  11.017 
  2556.500 -55.629  16.768  15.654  11.054 -43.154  16.768  15.654  11.054 
  2557.000 -55.809  16.732  16.085  11.054 -43.335  16.732  16.085  11.054 
  2557.500 -55.718  16.445  16.445  11.054 -43.245  16.445  16.445  11.054 
  2558.000 -55.627  16.086  16.768  10.910 -43.155  16.086  16.768  10.910 
  2558.500 -55.446  15.726  16.876  10.839 -42.975  15.726  16.876  10.839 
  2559.000 -55.265  15.565  16.984  10.695 -42.795  15.565  16.984  10.695 
  2559.500 -54.723  15.403  17.272  10.623 -42.254  15.403  17.272  10.623 
  2560.000 -54.181  14.685  17.362  10.534 -41.713  14.685  17.362  10.534 
  2560.500 -53.458  14.074  17.452  10.444 -40.991  14.074  17.452  10.444 
  2561.000 -52.555  13.679  17.524  10.300 -40.089  13.679  17.524  10.300 
  2561.500 -51.112  13.248  17.309  10.247 -38.647  13.248  17.309  10.247 
  2562.000 -51.742  13.176  16.985  10.193 -39.278  13.176  16.985  10.193 
  2562.500 -52.372  13.176  16.518  9.9420 -39.908  13.176  16.518  9.9420 
  2563.000 -53.273  13.284  16.411  9.9060 -40.810  13.284  16.411  9.9060 
  2563.500 -53.993  13.392  16.447  9.8880 -41.531  13.392  16.447  9.8880 
  2564.000 -54.083  13.608  16.483  9.8700 -41.622  13.608  16.483  9.8700 
  2564.500 -54.172  13.860  16.555  9.9060 -41.712  13.860  16.555  9.9060 
  2565.000 -54.893  14.004  16.591  9.9420 -42.434  14.004  16.591  9.9420 
  2565.500 -55.252  14.094  16.627  9.9790 -42.794  14.094  16.627  9.9790 
  2566.000 -55.432  14.184  16.645  10.087 -42.975  14.184  16.645  10.087 
  2566.500 -55.612  14.328  16.664  10.195 -43.156  14.328  16.664  10.195 
  2567.000 -55.971  14.328  16.628  10.303 -43.516  14.328  16.628  10.303 
  2567.500 -55.790  14.184  16.592  10.590 -43.336  14.184  16.592  10.590 
  2568.000 -55.609  14.077  16.520  10.698 -43.156  14.077  16.520  10.698 
  2568.500 -55.428  13.933  16.449  10.806 -42.976  13.933  16.449  10.806 
  2569.000 -55.246  13.646  16.269  10.842 -42.795  13.646  16.269  10.842 
  2569.500 -54.524  13.430  16.126  10.915 -42.074  13.430  16.126  10.915 
