~Version Information
VERS.                     2.0: CWLS log ASCII Standard Version 2.00
WRAP.                      NO: One line per depth step
~Well Information Block
#MNEM.UNIT                               Data Type  Information
#---------                               ---------  -----------
STRT.FT                                  6300.0000:
STOP.FT                                  6960.0000:
STEP.FT                                     0.5000:
NULL.                 -999.25                     :
COMP.                                             :COMPANY            
WELL.     SAN EMIDIO A 25-19 REDRILL              :WELL               
FLD .                                             :FIELD              
CTRY.                                             :COUNTRY            
STAT.                                             :STATE              
LOC .                                             :LOCATION           
UWI .                                             :UNIQUE WELL ID     
SRVC.                                             :Service company    
DATE.                                             :LOG DATE           
~Curve Information
#MNEM.UNIT           API CODE  Curve Description
#---------           --------  -----------------
DEPT.FT                      :   1 DEPTH
SP  .MV                      :   2
AM16.OHMM                    :   3
AO10.OHMM                    :   4
AO19.OHMM                    :   5
SBL .MV                      :   6
RS  .OHMM                    :   7
RM  .OHMM                    :   8
RD  .OHMM                    :   9
~A
# ...
  6512.000 -32.088  2.5190  2.7710  2.4790 -16.088  2.5190  2.7710  2.4790 
  6512.500 -33.180  2.5170  2.7510  2.5120 -17.180  2.5170  2.7510  2.5120 
  6513.000 -33.547  2.5150  2.7320  2.5820 -17.547  2.5150  2.7320  2.5820 
  6513.500 -33.732  2.5140  2.7300  2.6170 -17.732  2.5140  2.7300  2.6170 
  6514.000 -33.917  2.4940  2.7290  2.6150 -17.917  2.4940  2.7290  2.6150 
  6514.500 -33.385  2.4740  2.6900  2.6490 -17.385  2.4740  2.6900  2.6490 
  6515.000 -32.853  2.4730  2.6530  2.6300 -16.853  2.4730  2.6530  2.6300 
  6515.500 -32.144  2.4710  2.6510  2.6100 -16.144  2.4710  2.6510  2.6100 
  6516.000 -31.789  2.4700  2.6500  2.6080 -15.789  2.4700  2.6500  2.6080 
  6516.500 -31.077  2.4680  2.6300  2.6060 -15.077  2.4680  2.6300  2.6060 
  6517.000 -30.365  2.4660  2.6100  2.6040 -14.365  2.4660  2.6100  2.6040 
  6517.500 -29.653  2.4650  2.6090  2.6030 -13.653  2.4650  2.6090  2.6030 
  6518.000 -29.300  2.4640  2.6080  2.5830 -13.300  2.4640  2.6080  2.5830 
  6518.500 -28.589  2.4620  2.5690  2.5630 -12.589  2.4620  2.5690  2.5630 
  6519.000 -28.415  2.4600  2.5680  2.5610 -12.415  2.4600  2.5680  2.5610 
  6519.500 -28.240  2.4350  2.5670  2.5590 -12.240  2.4350  2.5670  2.5590 
  6520.000 -28.431  2.4090  2.5470  2.5760 -12.431  2.4090  2.5470  2.5760 
  6520.500 -28.977  2.3840  2.5280  2.5920 -12.977  2.3840  2.5280  2.5920 
  6521.000 -29.524  2.3640  2.5260  2.6260 -13.524  2.3640  2.5260  2.6260 
  6521.500 -30.070  2.3440  2.5240  2.5880 -14.070  2.3440  2.5240  2.5880 
  6522.000 -30.437  2.3420  2.5580  2.5500 -14.437  2.3420  2.5580  2.5500 
  6522.500 -30.803  2.3410  2.5560  2.5130 -14.803  2.3410  2.5560  2.5130 
  6523.000 -30.809  2.3390  2.5550  2.4750 -14.809  2.3390  2.5550  2.4750 
  6523.500 -30.814  2.3380  2.5170  2.5810 -14.814  2.3380  2.5170  2.5810 
  6524.000 -30.731  2.3360  2.5160  2.6150 -14.731  2.3360  2.5160  2.6150 
  6524.500 -30.649  2.3340  2.5140  2.6130 -14.649  2.3340  2.5140  2.6130 
  6525.000 -30.479  2.3680  2.5130  2.6120 -14.479  2.3680  2.5130  2.6120 
  6525.500 -30.487  2.3670  2.5110  2.6100 -14.487  2.3670  2.5110  2.6100 
  6526.000 -30.315  2.3650  2.5090  2.6080 -14.315  2.3650  2.5090  2.6080 
  6526.500 -30.501  2.3630  2.5080  2.6060 -14.501  2.3630  2.5080  2.6060 
  6527.000 -31.051  2.3620  2.5060  2.6050 -15.051  2.3620  2.5060  2.6050 
  6527.500 -31.597  2.3960  2.5050  2.6030 -15.597  2.3960  2.5050  2.6030 
  6528.000 -32.504  2.3950  2.5030  2.6010 -16.504  2.3950  2.5030  2.6010 
  6528.500 -33.050  2.4290  2.5190  2.5810 -17.050  2.4290  2.5190  2.5810 
  6529.000 -33.415  2.4270  2.5350  2.5610 -17.415  2.4270  2.5350  2.5610 
  6529.500 -33.780  2.4260  2.5340  2.5590 -17.780  2.4260  2.5340  2.5590 
  6530.000 -34.690  2.4240  2.5680  2.5570 -18.690  2.4240  2.5680  2.5570 
  6530.500 -35.146  2.4230  2.5670  2.5560 -19.146  2.4230  2.5670  2.5560 
  6531.000 -35.602  2.4220  2.5650  2.5540 -19.602  2.4220  2.5650  2.5540 
  6531.500 -35.969  2.4190  2.5630  2.5520 -19.969  2.4190  2.5630  2.5520 
  6532.000 -35.257  2.4170  2.5620  2.5510 -19.257  2.4170  2.5620  2.5510 
  6532.500 -34.905  2.4150  2.5610  2.5480 -18.905  2.4150  2.5610  2.5480 
  6533.000 -34.551  2.4140  2.5770  2.5470 -18.551  2.4140  2.5770  2.5470 
  6533.500 -34.196  2.4120  2.5930  2.5450 -18.196  2.4120  2.5930  2.5450 
  6534.000 -34.028  2.4110  2.5910  2.5430 -18.028  2.4110  2.5910  2.5430 
  6534.500 -34.034  2.4090  2.5900  2.5600 -18.034  2.4090  2.5900  2.5600 
  6535.000 -34.039  2.4070  2.5880  2.5760 -18.039  2.4070  2.5880  2.5760 
  6535.500 -33.866  2.4060  2.5690  2.5740 -17.866  2.4060  2.5690  2.5740 
  6536.000 -33.693  2.4050  2.5490  2.5720 -17.693  2.4050  2.5490  2.5720 
  6536.500 -33.431  2.4030  2.5480  2.5700 -17.431  2.4030  2.5480  2.5700 
  6537.000 -33.169  2.4020  2.5460  2.5860 -17.169  2.4020  2.5460  2.5860 
  6537.500 -32.727  2.4000  2.5260  2.6020 -16.727  2.4000  2.5260  2.6020 
  6538.000 -32.284  2.3800  2.5060  2.6010 -16.284  2.3800  2.5060  2.6010 
  6538.500 -31.216  2.3610  2.4870  2.5990 -15.216  2.3610  2.4870  2.5990 
  6539.000 -30.505  2.3940  2.4670  2.6150 -14.505  2.3940  2.4670  2.6150 
  6539.500 -30.150  2.3930  2.4470  2.6320 -14.150  2.3930  2.4470  2.6320 
  6540.000 -29.796  2.3910  2.4270  2.6300 -13.796  2.3910  2.4270  2.6300 
  6540.500 -29.622  2.3900  2.4260  2.6280 -13.622  2.3900  2.4260  2.6280 
  6541.000 -29.448  2.3890  2.4250  2.6260 -13.448  2.3890  2.4250  2.6260 
  6541.500 -29.726  2.3870  2.4220  2.6250 -13.726  2.3870  2.4220  2.6250 
  6542.000 -30.004  2.3850  2.4210  2.6220 -14.004  2.3850  2.4210  2.6220 
  6542.500 -30.375  2.3830  2.4200  2.6200 -14.375  2.3830  2.4200  2.6200 
  6543.000 -30.382  2.3820  2.4360  2.6190 -14.382  2.3820  2.4360  2.6190 
  6543.500 -30.208  2.3800  2.4530  2.6170 -14.208  2.3800  2.4530  2.6170 
  6544.000 -30.033  2.3790  2.4500  2.6150 -14.033  2.3790  2.4500  2.6150 
  6544.500 -29.685  2.3650  2.4850  2.6140 -13.685  2.3650  2.4850  2.6140 
  6545.000 -29.332  2.3520  2.4830  2.6120 -13.332  2.3520  2.4830  2.6120 
  6545.500 -28.976  2.3380  2.5000  2.6100 -12.976  2.3380  2.5000  2.6100 
  6546.000 -28.624  2.3240  2.5160  2.6070 -12.624  2.3240  2.5160  2.6070 
  6546.500 -28.092  2.3100  2.5150  2.6230 -12.092  2.3100  2.5150  2.6230 
  6547.000 -27.380  2.2960  2.5130  2.6400 -11.380  2.2960  2.5130  2.6400 
  6547.500 -26.848  2.3190  2.5470  2.6740 -10.848  2.3190  2.5470  2.6740 
  6548.000 -26.675  2.3410  2.5460  2.7090 -10.675  2.3410  2.5460  2.7090 
  6548.500 -26.682  2.3640  2.5440  2.7070 -10.682  2.3640  2.5440  2.7070 
  6549.000 -26.778  2.3800  2.5780  2.7050 -10.778  2.3800  2.5780  2.7050 
  6549.500 -26.873  2.3960  2.5950  2.7390 -10.873  2.3960  2.5950  2.7390 
  6550.000 -27.152  2.4310  2.6120  2.7740 -11.152  2.4310  2.6120  2.7740 
  6550.500 -27.430  2.4660  2.6640  2.8080 -11.430  2.4660  2.6640  2.8080 
  6551.000 -27.617  2.5000  2.7160  2.8430 -11.617  2.5000  2.7160  2.8430 
  6551.500 -27.804  2.5700  2.7500  2.8770 -11.804  2.5700  2.7500  2.8770 
  6552.000 -28.079  2.6040  2.7670  2.9110 -12.079  2.6040  2.7670  2.9110 
  6552.500 -28.354  2.6030  2.7840  2.9450 -12.354  2.6030  2.7840  2.9450 
  6553.000 -28.728  2.6730  2.8540  2.9790 -12.728  2.6730  2.8540  2.9790 
  6553.500 -28.823  2.7440  2.9960  3.1930 -12.823  2.7440  2.9960  3.1930 
  6554.000 -28.919  2.7780  3.1030  3.3350 -12.919  2.7780  3.1030  3.3350 
  6554.500 -29.016  2.8130  3.2450  3.4050 -13.016  2.8130  3.2450  3.4050 
  6555.000 -29.112  2.8830  3.3870  3.6920 -13.112  2.8830  3.3870  3.6920 
  6555.500 -29.123  2.9360  3.4940  3.9060 -13.123  2.9360  3.4940  3.9060 
  6556.000 -28.950  2.9890  3.7800  4.0840 -12.950  2.9890  3.7800  4.0840 
  6556.500 -28.958  3.1310  3.9950  4.3340 -12.958  3.1310  3.9950  4.3340 
  6557.000 -28.786  3.1650  4.2100  4.5130 -12.786  3.1650  4.2100  4.5130 
  6557.500 -28.433  3.2000  4.2080  4.5470 -12.433  3.2000  4.2080  4.5470 
  6558.000 -28.348  3.2340  4.0980  4.4010 -12.348  3.2340  4.0980  4.4010 
  6558.500 -28.264  3.2680  3.8800  4.0750 -12.264  3.2680  3.8800  4.0750 
  6559.000 -28.271  3.3750  3.5910  3.9290 -12.271  3.3750  3.5910  3.9290 
  6559.500 -28.278  3.4090  2.9770  3.5320 -12.278  3.4090  2.9770  3.5320 
  6560.000 -28.467  3.3710  2.4340  2.9900 -12.467  3.3710  2.4340  2.9900 
  6560.500 -28.656  3.2260  2.1450  2.7710 -12.656  3.2260  2.1450  2.7710 
  6561.000 -28.752  3.0800  2.0710  2.4450 -12.752  3.0800  2.0710  2.4450 
  6561.500 -28.850  2.9700  2.0520  2.3710 -12.850  2.9700  2.0520  2.3710 
  6562.000 -28.857  2.8780  2.0320  2.3340 -12.857  2.8780  2.0320  2.3340 
  6562.500 -28.864  2.7860  2.0310  2.2970 -12.864  2.7860  2.0310  2.2970 
  6563.000 -28.959  2.7490  2.0290  2.2220 -12.959  2.7490  2.0290  2.2220 
  6563.500 -29.055  2.7470  2.0270  2.2200 -13.055  2.7470  2.0270  2.2200 
  6564.000 -28.886  2.7460  2.0610  2.2370 -12.886  2.7460  2.0610  2.2370 
  6564.500 -28.622  2.7450  2.0960  2.2530 -12.622  2.7450  2.0960  2.2530 
