~Version Information
VERS.                     2.0: CWLS log ASCII Standard Version 2.00
WRAP.                      NO: One line per depth step
~Well Information Block
#MNEM.UNIT                               Data Type  Information
#---------                               ---------  -----------
STRT.FT                                   450.0000:
STOP.FT                                  6780.0000:
STEP.FT                                     0.5000:
NULL.                 -999.25                     :
COMP.                                             :COMPANY            
WELL.     SAN EMIDIO A 25-19                      :WELL               
FLD .                                             :FIELD              
CTRY.                                             :COUNTRY            
STAT.                                             :STATE              
LOC .                                             :LOCATION           
UWI .                                             :UNIQUE WELL ID     
SRVC.                                             :Service company    
DATE.                                             :LOG DATE           
~Curve Information
#MNEM.UNIT           API CODE  Curve Description
#---------           --------  -----------------
DEPT.FT                      :   1 DEPTH
SP  .MV                      :   2
AM16.OHMM                    :   3
AO10.OHMM                    :   4
AO19.OHMM                    :   5
SBL .MV                      :   6
RS  .OHMM                    :   7
RM  .OHMM                    :   8
RD  .OHMM                    :   9
~A
# ...
  5432.000 -24.095  1.8360  1.9440  1.2770 -12.095  1.8360  1.9440  1.2770 
  5432.500 -24.639  1.8350  1.9610  1.2770 -12.639  1.8350  1.9610  1.2770 
  5433.000 -25.906  1.8350  1.9790  1.2760 -13.906  1.8350  1.9790  1.2760 
  5433.500 -27.172  1.8340  1.9780  1.2760 -15.172  1.8340  1.9780  1.2760 
  5434.000 -27.175  1.8340  1.9780  1.2750 -15.175  1.8340  1.9780  1.2750 
  5434.500 -27.358  1.8330  1.9770  1.2750 -15.358  1.8330  1.9770  1.2750 
  5435.000 -27.181  1.8330  1.9590  1.2750 -15.181  1.8330  1.9590  1.2750 
  5435.500 -27.184  1.8320  1.9400  1.2920 -15.184  1.8320  1.9400  1.2920 
  5436.000 -27.187  1.8310  1.9390  1.3100 -15.187  1.8310  1.9390  1.3100 
  5436.500 -27.009  1.8430  1.9390  1.3090 -15.009  1.8430  1.9390  1.3090 
  5437.000 -27.012  1.8540  1.9380  1.3090 -15.012  1.8540  1.9380  1.3090 
  5437.500 -27.014  1.8660  1.9380  1.3090 -15.014  1.8660  1.9380  1.3090 
  5438.000 -27.016  1.8770  1.9370  1.3080 -15.016  1.8770  1.9370  1.3080 
  5438.500 -26.839  1.8890  1.9370  1.3080 -14.839  1.8890  1.9370  1.3080 
  5439.000 -26.842  1.9000  1.9360  1.3250 -14.842  1.9000  1.9360  1.3250 
  5439.500 -26.845  1.9000  1.9180  1.3430 -14.845  1.9000  1.9180  1.3430 
  5440.000 -26.757  1.8990  1.8990  1.3430 -14.757  1.8990  1.8990  1.3430 
  5440.500 -26.669  1.8990  1.8990  1.3420 -14.669  1.8990  1.8990  1.3420 
  5441.000 -26.492  1.8980  1.8980  1.3600 -14.492  1.8980  1.8980  1.3600 
  5441.500 -26.314  1.8980  1.8980  1.3770 -14.314  1.8980  1.8980  1.3770 
  5442.000 -26.317  1.8970  1.9090  1.3770 -14.317  1.8970  1.9090  1.3770 
  5442.500 -26.229  1.8970  1.9210  1.3770 -14.229  1.8970  1.9210  1.3770 
  5443.000 -26.140  1.8960  1.9320  1.3760 -14.140  1.8960  1.9320  1.3760 
  5443.500 -25.602  1.8950  1.9310  1.3940 -13.602  1.8950  1.9310  1.3940 
  5444.000 -25.425  1.8950  1.9310  1.4110 -13.425  1.8950  1.9310  1.4110 
  5444.500 -25.156  1.8940  1.9300  1.4110 -13.156  1.8940  1.9300  1.4110 
  5445.000 -24.888  1.8940  1.9300  1.4110 -12.888  1.8940  1.9300  1.4110 
  5445.500 -24.169  1.8930  1.9290  1.4100 -12.169  1.8930  1.9290  1.4100 
  5446.000 -23.991  1.8930  1.9470  1.4280 -11.991  1.8930  1.9470  1.4280 
  5446.500 -23.813  1.8920  1.9640  1.4450 -11.813  1.8920  1.9640  1.4450 
  5447.000 -23.635  1.8920  1.9640  1.4450 -11.635  1.8920  1.9640  1.4450 
  5447.500 -23.637  1.8910  1.9630  1.4620 -11.637  1.8910  1.9630  1.4620 
  5448.000 -23.888  1.8910  1.9630  1.4800 -11.888  1.8910  1.9630  1.4800 
  5448.500 -24.139  1.8900  1.9620  1.5160 -12.139  1.8900  1.9620  1.5160 
  5449.000 -24.390  1.8900  1.9620  1.5150 -12.390  1.8900  1.9620  1.5150 
  5449.500 -24.641  1.8890  1.9610  1.5150 -12.641  1.8890  1.9610  1.5150 
  5450.000 -24.892  1.8890  1.9600  1.5140 -12.892  1.8890  1.9600  1.5140 
  5450.500 -25.144  1.8880  1.9600  1.5140 -13.144  1.8880  1.9600  1.5140 
  5451.000 -25.395  1.8870  1.9590  1.5140 -13.395  1.8870  1.9590  1.5140 
  5451.500 -25.646  1.8870  1.9590  1.5130 -13.646  1.8870  1.9590  1.5130 
  5452.000 -25.648  1.8860  1.9580  1.5130 -13.648  1.8860  1.9580  1.5130 
  5452.500 -25.651  1.8860  1.9580  1.5120 -13.651  1.8860  1.9580  1.5120 
  5453.000 -25.473  1.8850  1.9570  1.5120 -13.473  1.8850  1.9570  1.5120 
  5453.500 -25.205  1.8850  1.9570  1.5120 -13.205  1.8850  1.9570  1.5120 
  5454.000 -24.936  1.8840  1.9560  1.5110 -12.936  1.8840  1.9560  1.5110 
  5454.500 -24.398  1.9010  1.9560  1.5110 -12.398  1.9010  1.9560  1.5110 
  5455.000 -24.040  1.9190  1.9550  1.5100 -12.040  1.9190  1.9550  1.5100 
  5455.500 -23.501  1.9360  1.9540  1.5100 -11.501  1.9360  1.9540  1.5100 
  5456.000 -22.601  1.9540  1.9540  1.5100 -10.601  1.9540  1.9540  1.5100 
  5456.500 -21.701  1.9530  1.9530  1.5270 -9.7010  1.9530  1.9530  1.5270 
  5457.000 -21.162  1.9530  1.9530  1.5450 -9.1620  1.9530  1.9530  1.5450 
  5457.500 -20.081  1.9520  1.9520  1.5450 -8.0810  1.9520  1.9520  1.5450 
  5458.000 -19.904  1.9520  1.9520  1.5440 -7.9040  1.9520  1.9520  1.5440 
  5458.500 -19.906  1.9510  1.9510  1.5430 -7.9060  1.9510  1.9510  1.5430 
  5459.000 -19.909  1.9330  1.9510  1.5430 -7.9090  1.9330  1.9510  1.5430 
  5459.500 -20.453  1.9140  1.9500  1.5430 -8.4530  1.9140  1.9500  1.5430 
  5460.000 -20.636  1.9140  1.9500  1.5420 -8.6360  1.9140  1.9500  1.5420 
  5460.500 -20.639  1.9130  1.9490  1.5420 -8.6390  1.9130  1.9490  1.5420 
  5461.000 -20.642  1.9120  1.9480  1.5420 -8.6420  1.9120  1.9480  1.5420 
  5461.500 -20.645  1.9120  1.9480  1.5410 -8.6450  1.9120  1.9480  1.5410 
  5462.000 -20.466  1.9120  1.9480  1.5230 -8.4660  1.9120  1.9480  1.5230 
  5462.500 -20.288  1.9110  1.9470  1.5040 -8.2880  1.9110  1.9470  1.5040 
  5463.000 -20.200  1.9280  1.9460  1.5040 -8.2000  1.9280  1.9460  1.5040 
  5463.500 -20.113  1.9460  1.9460  1.5040 -8.1130  1.9460  1.9460  1.5040 
  5464.000 -19.936  1.9450  1.9450  1.5030 -7.9360  1.9450  1.9450  1.5030 
  5464.500 -19.848  1.9450  1.9450  1.5030 -7.8480  1.9450  1.9450  1.5030 
  5465.000 -19.760  1.9440  1.9440  1.5020 -7.7600  1.9440  1.9440  1.5020 
  5465.500 -19.672  1.9440  1.9440  1.5020 -7.6720  1.9440  1.9440  1.5020 
  5466.000 -19.585  1.9430  1.9430  1.5020 -7.5850  1.9430  1.9430  1.5020 
  5466.500 -19.587  1.9430  1.9430  1.6450 -7.5870  1.9430  1.9430  1.6450 
  5467.000 -19.590  1.9420  1.9420  1.6320 -7.5900  1.9420  1.9420  1.6320 
  5467.500 -19.594  1.9420  1.9420  1.6180 -7.5940  1.9420  1.9420  1.6180 
  5468.000 -19.686  1.9410  1.9410  1.6050 -7.6860  1.9410  1.9410  1.6050 
  5468.500 -19.779  1.9400  1.9400  1.5910 -7.7790  1.9400  1.9400  1.5910 
  5469.000 -19.962  1.9400  1.9400  1.5780 -7.9620  1.9400  1.9400  1.5780 
  5469.500 -20.145  1.9390  1.9390  1.5640 -8.1450  1.9390  1.9390  1.5640 
  5470.000 -20.690  1.9390  1.9390  1.5510 -8.6900  1.9390  1.9390  1.5510 
  5470.500 -21.235  1.9380  1.9380  1.5370 -9.2350  1.9380  1.9380  1.5370 
  5471.000 -21.779  1.9380  1.9380  1.5240 -9.7790  1.9380  1.9380  1.5240 
  5471.500 -22.684  1.9370  1.9370  1.5100 -10.684  1.9370  1.9370  1.5100 
  5472.000 -23.590  1.9370  1.9550  1.4970 -11.590  1.9370  1.9550  1.4970 
  5472.500 -23.954  1.9360  1.9720  1.4970 -11.954  1.9360  1.9720  1.4970 
  5473.000 -24.046  1.9360  1.9890  1.4960 -12.046  1.9360  1.9890  1.4960 
  5473.500 -24.139  1.9530  2.0070  1.4960 -12.139  1.9530  2.0070  1.4960 
  5474.000 -23.781  1.9700  2.0060  1.4950 -11.781  1.9700  2.0060  1.4950 
  5474.500 -23.423  1.9820  2.0060  1.4950 -11.423  1.9820  2.0060  1.4950 
  5475.000 -22.884  1.9930  2.0230  1.4940 -10.884  1.9930  2.0230  1.4940 
  5475.500 -22.345  2.0050  2.0410  1.4940 -10.345  2.0050  2.0410  1.4940 
  5476.000 -21.626  2.0040  2.0400  1.4940 -9.6260  2.0040  2.0400  1.4940 
  5476.500 -21.267  2.0040  2.0400  1.4930 -9.2670  2.0040  2.0400  1.4930 
  5477.000 -20.548  2.0210  2.0390  1.4930 -8.5480  2.0210  2.0390  1.4930 
  5477.500 -20.369  2.0390  2.0390  1.5110 -8.3690  2.0390  2.0390  1.5110 
  5478.000 -20.191  2.0560  2.0380  1.5280 -8.1910  2.0560  2.0380  1.5280 
  5478.500 -20.104  2.0730  2.0370  1.5280 -8.1040  2.0730  2.0370  1.5280 
  5479.000 -20.016  2.0730  2.0370  1.5280 -8.0160  2.0730  2.0370  1.5280 
  5479.500 -20.019  2.0730  2.0360  1.5270 -8.0190  2.0730  2.0360  1.5270 
  5480.000 -20.021  2.0720  2.0360  1.5270 -8.0210  2.0720  2.0360  1.5270 
  5480.500 -20.115  2.0710  2.0350  1.5260 -8.1150  2.0710  2.0350  1.5260 
  5481.000 -20.208  2.0710  2.0350  1.5260 -8.2080  2.0710  2.0350  1.5260 
  5481.500 -20.301  2.0700  2.0340  1.5250 -8.3010  2.0700  2.0340  1.5250 
  5482.000 -20.394  2.0700  2.0340  1.5250 -8.3940  2.0700  2.0340  1.5250 
  5482.500 -20.487  2.0690  2.0510  1.5610 -8.4870  2.0690  2.0510  1.5610 
  5483.000 -20.579  2.0690  2.0690  1.5600 -8.5790  2.0690  2.0690  1.5600 
  5483.500 -20.583  2.0680  2.0680  1.5600 -8.5830  2.0680  2.0680  1.5600 
  5484.000 -20.586  2.0680  2.0680  1.5960 -8.5860  2.0680  2.0680  1.5960 
  5484.500 -20.769  2.0670  2.0670  1.6310 -8.7690  2.0670  2.0670  1.6310 
