~Version Information
VERS.                     2.0: CWLS log ASCII Standard Version 2.00
WRAP.                      NO: One line per depth step
~Well Information Block
#MNEM.UNIT                               Data Type  Information
#---------                               ---------  -----------
STRT.FT                                   450.0000:
STOP.FT                                  6780.0000:
STEP.FT                                     0.5000:
NULL.                 -999.25                     :
COMP.                                             :COMPANY            
WELL.     SAN EMIDIO A 25-19                      :WELL               
FLD .                                             :FIELD              
CTRY.                                             :COUNTRY            
STAT.                                             :STATE              
LOC .                                             :LOCATION           
UWI .                                             :UNIQUE WELL ID     
SRVC.                                             :Service company    
DATE.                                             :LOG DATE           
~Curve Information
#MNEM.UNIT           API CODE  Curve Description
#---------           --------  -----------------
DEPT.FT                      :   1 DEPTH
SP  .MV                      :   2
AM16.OHMM                    :   3
AO10.OHMM                    :   4
AO19.OHMM                    :   5
SBL .MV                      :   6
RS  .OHMM                    :   7
RM  .OHMM                    :   8
RD  .OHMM                    :   9
~A
# ...
  2093.000 -42.938  13.654  19.512  11.605 -29.573  13.654  19.512  11.605 
  2093.500 -42.938  13.331  19.405  11.533 -29.574  13.331  19.405  11.533 
  2094.000 -43.838  13.152  19.189  11.785 -30.475  13.152  19.189  11.785 
  2094.500 -44.920  13.295  18.866  12.037 -31.558  13.295  18.866  12.037 
  2095.000 -45.640  13.475  18.686  12.253 -32.279  13.475  18.686  12.253 
  2095.500 -45.549  13.727  18.435  12.504 -32.189  13.727  18.435  12.504 
  2096.000 -45.458  13.835  18.220  12.792 -32.099  13.835  18.220  12.792 
  2096.500 -44.916  13.727  18.112  13.296 -31.558  13.727  18.112  13.296 
  2097.000 -43.472  13.548  17.932  13.835 -30.115  13.548  17.932  13.835 
  2097.500 -41.668  13.117  17.825  14.230 -28.312  13.117  17.825  14.230 
  2098.000 -39.683  12.758  17.717  14.698 -26.328  12.758  17.717  14.698 
  2098.500 -36.255  9.9550  17.574  15.094 -22.901  9.9550  17.574  15.094 
  2099.000 -34.090  9.2360  17.430  15.417 -20.737  9.2360  17.430  15.417 
  2099.500 -32.646  8.4450  17.071  15.310 -19.294  8.4450  17.071  15.310 
  2100.000 -29.759  6.7210  16.748  13.190 -16.408  6.7210  16.748  13.190 
  2100.500 -27.773  5.3910  16.353  10.710 -14.423  5.3910  16.353  10.710 
  2101.000 -26.868  5.0680  16.065  10.064 -13.519  5.0680  16.065  10.064 
  2101.500 -25.874  4.9430  14.916  9.5970 -12.526  4.9430  14.916  9.5970 
  2102.000 -24.879  4.8170  11.610  8.8780 -11.532  4.8170  11.610  8.8780 
  2102.500 -23.073  4.5660  10.748  8.2680 -9.7266  4.5660  10.748  8.2680 
  2103.000 -22.529  4.4950  10.245  7.7290 -9.1835  4.4950  10.245  7.7290 
  2103.500 -21.985  4.4230  8.5560  7.1180 -8.6405  4.4230  8.5560  7.1180 
  2104.000 -21.622  4.3160  7.8740  6.8310 -8.2784  4.3160  7.8740  6.8310 
  2104.500 -21.438  4.2620  6.4000  6.7240 -8.0954  4.2620  6.4000  6.7240 
  2105.000 -21.165  4.2080  6.3650  6.7060 -7.8234  4.2080  6.3650  6.7060 
  2105.500 -20.892  4.1550  6.3290  6.6890 -7.5513  4.1550  6.3290  6.6890 
  2106.000 -20.709  4.1010  6.3300  6.6710 -7.3693  4.1010  6.3300  6.6710 
  2106.500 -20.887  4.0840  6.3660  6.6530 -7.5482  4.0840  6.3660  6.6530 
  2107.000 -20.884  4.0660  6.4020  6.6720 -7.5462  4.0660  6.4020  6.6720 
  2107.500 -20.881  4.0480  6.5100  6.6900 -7.5441  4.0480  6.5100  6.6900 
  2108.000 -20.878  4.0310  6.6190  6.7260 -7.5421  4.0310  6.6190  6.7260 
  2108.500 -20.876  4.0310  6.7630  6.7630 -7.5411  4.0310  6.7630  6.7630 
  2109.000 -20.873  4.0320  6.9070  6.7990 -7.5390  4.0320  6.9070  6.7990 
  2109.500 -20.871  4.0320  7.0870  6.8350 -7.5380  4.0320  7.0870  6.8350 
  2110.000 -20.687  4.0320  7.1230  6.9790 -7.3549  4.0320  7.1230  6.9790 
  2110.500 -20.685  4.0330  7.2310  7.0520 -7.3539  4.0330  7.2310  7.0520 
  2111.000 -20.682  4.0330  7.2680  7.1240 -7.3519  4.0330  7.2680  7.1240 
  2111.500 -20.499  4.0510  7.2320  7.3760 -7.1698  4.0510  7.2320  7.3760 
  2112.000 -20.316  4.0700  7.2140  7.5560 -6.9878  4.0700  7.2140  7.5560 
  2112.500 -20.313  4.0700  7.1970  7.6100 -6.9857  4.0700  7.1970  7.6100 
  2113.000 -20.311  4.0700  7.1610  7.6640 -6.9847  4.0700  7.1610  7.6640 
  2113.500 -20.398  4.0890  7.1260  7.7010 -7.0727  4.0890  7.1260  7.7010 
  2114.000 -20.485  4.1070  7.0180  7.7370 -7.1606  4.1070  7.0180  7.7370 
  2114.500 -20.483  4.1430  6.9470  7.6650 -7.1596  4.1430  6.9470  7.6650 
  2115.000 -20.480  4.1800  6.8750  7.6660 -7.1575  4.1800  6.8750  7.6660 
  2115.500 -20.658  4.2160  6.8040  7.7380 -7.3365  4.2160  6.8040  7.7380 
  2116.000 -20.655  4.2160  6.7320  7.8100 -7.3345  4.2160  6.7320  7.8100 
  2116.500 -20.652  4.2530  6.6610  8.1340 -7.3324  4.2530  6.6610  8.1340 
  2117.000 -20.469  4.2890  6.5890  8.2060 -7.1504  4.2890  6.5890  8.2060 
  2117.500 -20.286  4.3250  6.5180  8.2790 -6.9683  4.3250  6.5180  8.2790 
  2118.000 -20.103  4.3620  6.4820  8.3510 -6.7863  4.3620  6.4820  8.3510 
  2118.500 -20.100  4.3800  6.4100  8.4230 -6.7843  4.3800  6.4100  8.4230 
  2119.000 -20.098  4.3980  6.3390  8.4230 -6.7832  4.3980  6.3390  8.4230 
  2119.500 -20.095  4.4700  6.2310  8.4240 -6.7812  4.4700  6.2310  8.4240 
  2120.000 -20.272  4.5070  6.1240  8.3880 -6.9591  4.5070  6.1240  8.3880 
  2120.500 -20.450  4.5430  6.0880  8.3530 -7.1381  4.5430  6.0880  8.3530 
  2121.000 -20.628  4.5790  6.0530  8.3170 -7.3171  4.5790  6.0530  8.3170 
  2121.500 -20.625  4.6340  5.9810  8.2460 -7.3150  4.6340  5.9810  8.2460 
  2122.000 -20.622  4.6880  5.9460  8.1740 -7.3130  4.6880  5.9460  8.1740 
  2122.500 -20.439  4.7240  5.9100  8.1020 -7.1309  4.7240  5.9100  8.1020 
  2123.000 -20.256  4.7600  5.8750  8.0670 -6.9489  4.7600  5.8750  8.0670 
  2123.500 -19.712  4.7970  5.8030  7.9590 -6.4059  4.7970  5.8030  7.9590 
  2124.000 -19.349  4.8690  5.7670  7.8880 -6.0438  4.8690  5.7670  7.8880 
  2124.500 -19.166  4.9770  5.7320  7.8160 -5.8618  4.9770  5.7320  7.8160 
  2125.000 -18.442  5.0130  5.7320  7.6730 -5.1387  5.0130  5.7320  7.6730 
  2125.500 -18.078  5.0860  5.7330  7.6370 -4.7757  5.0860  5.7330  7.6370 
  2126.000 -18.076  5.1580  5.7330  7.6020 -4.7747  5.1580  5.7330  7.6020 
  2126.500 -18.163  5.4820  5.7690  7.6740 -4.8626  5.4820  5.7690  7.6740 
  2127.000 -18.251  5.5900  5.8060  7.7460 -4.9516  5.5900  5.8060  7.7460 
  2127.500 -19.691  5.5900  5.8780  7.7830 -6.3925  5.5900  5.8780  7.7830 
  2128.000 -20.590  5.5730  5.9500  7.7830 -7.2925  5.5730  5.9500  7.7830 
  2128.500 -23.112  5.5550  6.0940  7.7830 -9.8155  5.5550  6.0940  7.7830 
  2129.000 -24.913  5.5200  6.1660  7.6400 -11.617  5.5200  6.1660  7.6400 
  2129.500 -25.632  5.5020  6.2030  7.6040 -12.337  5.5020  6.2030  7.6040 
  2130.000 -27.072  5.4840  6.2030  7.4250 -13.778  5.4840  6.2030  7.4250 
  2130.500 -26.348  5.3770  6.0960  7.0300 -13.055  5.3770  6.0960  7.0300 
  2131.000 -25.804  5.3410  5.8800  6.7790 -12.512  5.3410  5.8800  6.7790 
  2131.500 -24.900  5.2700  5.6290  6.5990 -11.609  5.2700  5.6290  6.5990 
  2132.000 -23.454  5.1980  5.3420  6.3480 -10.164  5.1980  5.3420  6.3480 
  2132.500 -22.730  5.1270  5.0910  6.0970 -9.4411  5.1270  5.0910  6.0970 
  2133.000 -21.104  5.0550  4.9830  5.9540 -7.8161  5.0550  4.9830  5.9540 
  2133.500 -19.658  4.9840  4.9300  5.8100 -6.3711  4.9840  4.9300  5.8100 
  2134.000 -19.115  4.9120  4.8760  5.7390 -5.8290  4.9120  4.8760  5.7390 
  2134.500 -18.571  4.8410  4.8410  5.7390 -5.2860  4.8410  4.8410  5.7390 
  2135.000 -17.486  4.8410  4.8410  5.7390 -4.2019  4.8410  4.8410  5.7390 
  2135.500 -17.123  4.8410  4.8410  5.7400 -3.8399  4.8410  4.8410  5.7400 
  2136.000 -16.759  4.8420  4.8420  5.7400 -3.4769  4.8420  4.8420  5.7400 
  2136.500 -16.756  4.8420  4.8420  5.7760 -3.4748  4.8420  4.8420  5.7760 
  2137.000 -16.664  4.8420  4.9140  5.8130 -3.3838  4.8420  4.9140  5.8130 
  2137.500 -16.571  4.8790  4.9690  5.8310 -3.2917  4.8790  4.9690  5.8310 
  2138.000 -16.388  4.9150  5.0230  5.8490 -3.1097  4.9150  5.0230  5.8490 
  2138.500 -16.565  4.9690  5.2030  5.8860 -3.2876  4.9690  5.2030  5.8860 
  2139.000 -16.563  5.0240  5.3110  5.9040 -3.2866  5.0240  5.3110  5.9040 
  2139.500 -16.560  5.0960  5.4910  5.9220 -3.2846  5.0960  5.4910  5.9220 
  2140.000 -16.557  5.1320  5.7070  5.9230 -3.2825  5.1320  5.7070  5.9230 
  2140.500 -16.555  5.1680  5.7430  5.9230 -3.2815  5.1680  5.7430  5.9230 
  2141.000 -16.552  5.2050  5.8520  5.9230 -3.2794  5.2050  5.8520  5.9230 
  2141.500 -16.639  5.2230  5.8520  5.9240 -3.3674  5.2230  5.8520  5.9240 
  2142.000 -16.727  5.2410  5.8700  5.8880 -3.4564  5.2410  5.8700  5.8880 
  2142.500 -16.814  5.2780  5.8890  5.9250 -3.5443  5.2780  5.8890  5.9250 
  2143.000 -16.902  5.3140  5.9250  5.9250 -3.6333  5.3140  5.9250  5.9250 
  2143.500 -17.259  5.3500  5.9610  5.9970 -3.9912  5.3500  5.9610  5.9970 
  2144.000 -17.257  5.4580  5.9980  6.0330 -3.9902  5.4580  5.9980  6.0330 
  2144.500 -17.254  5.4950  5.9980  6.1060 -3.9882  5.4950  5.9980  6.1060 
  2145.000 -17.792  5.5310  6.0340  6.1600 -4.5271  5.5310  6.0340  6.1600 
  2145.500 -18.691  5.6570  6.0700  6.2140 -5.4271  5.6570  6.0700  6.2140 
