~Version Information
VERS.                     2.0: CWLS log ASCII Standard Version 2.00
WRAP.                      NO: One line per depth step
~Well Information Block
#MNEM.UNIT                               Data Type  Information
#---------                               ---------  -----------
STRT.FT                                   450.0000:
STOP.FT                                  6780.0000:
STEP.FT                                     0.5000:
NULL.                 -999.25                     :
COMP.                                             :COMPANY            
WELL.     SAN EMIDIO A 25-19                      :WELL               
FLD .                                             :FIELD              
CTRY.                                             :COUNTRY            
STAT.                                             :STATE              
LOC .                                             :LOCATION           
UWI .                                             :UNIQUE WELL ID     
SRVC.                                             :Service company    
DATE.                                             :LOG DATE           
~Curve Information
#MNEM.UNIT           API CODE  Curve Description
#---------           --------  -----------------
DEPT.FT                      :   1 DEPTH
SP  .MV                      :   2
AM16.OHMM                    :   3
AO10.OHMM                    :   4
AO19.OHMM                    :   5
SBL .MV                      :   6
RS  .OHMM                    :   7
RM  .OHMM                    :   8
RD  .OHMM                    :   9
~A
# ...
  6704.000 -16.492  5.9550  4.9640  4.3180 -4.4920  5.9550  4.9640  4.3180 
  6704.500 -16.407  5.9370  4.9640  4.3180 -4.4070  5.9370  4.9640  4.3180 
  6705.000 -16.323  5.9350  4.9630  4.3170 -4.3230  5.9350  4.9630  4.3170 
  6705.500 -15.791  5.8260  5.0700  4.3880 -3.7910  5.8260  5.0700  4.3880 
  6706.000 -15.796  5.7890  5.2130  4.4240 -3.7960  5.7890  5.2130  4.4240 
  6706.500 -15.800  5.6440  5.3200  4.4950 -3.8000  5.6440  5.3200  4.4950 
  6707.000 -15.803  5.5000  5.1750  4.5660 -3.8030  5.5000  5.1750  4.5660 
  6707.500 -15.811  5.4090  5.0310  4.6380 -3.8110  5.4090  5.0310  4.6380 
  6708.000 -15.905  5.3180  4.8500  4.6730 -3.9050  5.3180  4.8500  4.6730 
  6708.500 -15.998  5.1010  4.7410  4.7090 -3.9980  5.1010  4.7410  4.7090 
  6709.000 -16.365  5.0280  4.6860  4.7450 -4.3650  5.0280  4.6860  4.7450 
  6709.500 -16.550  5.3160  4.6320  4.7620 -4.5500  5.3160  4.6320  4.7620 
  6710.000 -16.644  5.3870  4.5770  4.7800 -4.6440  5.3870  4.5770  4.7800 
  6710.500 -16.738  5.4760  4.5220  4.7790 -4.7380  5.4760  4.5220  4.7790 
  6711.000 -16.925  5.5660  4.4130  4.7790 -4.9250  5.5660  4.4130  4.7790 
  6711.500 -17.110  5.6190  4.4120  4.8140 -5.1100  5.6190  4.4120  4.8140 
  6712.000 -17.115  5.6720  4.4470  4.8850 -5.1150  5.6720  4.4470  4.8850 
  6712.500 -17.119  5.6900  4.4830  4.9030 -5.1190  5.6900  4.4830  4.9030 
  6713.000 -17.123  5.7070  4.5180  4.9200 -5.1230  5.7070  4.5180  4.9200 
  6713.500 -17.219  5.6690  4.6250  5.0990 -5.2190  5.6690  4.6250  5.0990 
  6714.000 -17.315  5.5610  4.6960  5.1350 -5.3150  5.5610  4.6960  5.1350 
  6714.500 -17.319  5.5060  4.7680  5.1340 -5.3190  5.5060  4.7680  5.1340 
  6715.000 -17.323  5.4520  4.8390  5.0980 -5.3230  5.4520  4.8390  5.0980 
  6715.500 -17.238  5.3780  4.9460  4.9890 -5.2380  5.3780  4.9460  4.9890 
  6716.000 -17.153  5.3420  4.8730  4.8810 -5.1530  5.3420  4.8730  4.8810 
  6716.500 -17.158  5.3050  4.8010  4.7720 -5.1580  5.3050  4.8010  4.7720 
  6717.000 -17.163  5.2680  4.5840  4.6640 -5.1630  5.2680  4.5840  4.6640 
  6717.500 -17.170  5.1950  4.5110  4.5910 -5.1700  5.1950  4.5110  4.5910 
  6718.000 -17.085  5.2300  4.4380  4.5540 -5.0850  5.2300  4.4380  4.5540 
  6718.500 -17.001  5.2290  4.3660  4.5900 -5.0010  5.2290  4.3660  4.5900 
  6719.000 -17.006  5.3010  4.2560  4.6250 -5.0060  5.3010  4.2560  4.6250 
  6719.500 -16.920  5.3360  4.2560  4.6790 -4.9200  5.3360  4.2560  4.6790 
  6720.000 -16.834  5.3890  4.2550  4.7320 -4.8340  5.3890  4.2550  4.7320 
  6720.500 -16.659  5.4430  4.3260  4.8760 -4.6590  5.4430  4.3260  4.8760 
  6721.000 -16.484  5.4780  4.3250  5.0550 -4.4840  5.4780  4.3250  5.0550 
  6721.500 -16.312  5.7290  4.3790  5.1990 -4.3120  5.7290  4.3790  5.1990 
  6722.000 -16.316  5.8000  4.4320  5.2700 -4.3160  5.8000  4.4320  5.2700 
  6722.500 -16.320  6.0520  4.5390  5.3410 -4.3200  6.0520  4.5390  5.3410 
  6723.000 -16.327  6.3750  4.5740  5.4130 -4.3270  6.3750  4.5740  5.4130 
  6723.500 -16.512  6.5910  4.6100  5.5560 -4.5120  6.5910  4.6100  5.5560 
  6724.000 -16.695  6.7340  4.6450  5.7000 -4.6950  6.7340  4.6450  5.7000 
  6724.500 -16.879  7.1650  4.7520  5.7720 -4.8790  7.1650  4.7520  5.7720 
  6725.000 -17.246  8.6050  4.9310  5.8430 -5.2460  8.6050  4.9310  5.8430 
  6725.500 -17.970  9.2160  5.0740  6.0940 -5.9700  9.2160  5.0740  6.0940 
  6726.000 -18.694  9.4320  5.4700  6.5980 -6.6940  9.4320  5.4700  6.5980 
  6726.500 -19.960  10.044  5.7930  6.9220 -7.9600  10.044  5.7930  6.9220 
  6727.000 -20.505  10.439  6.0440  7.2450 -8.5050  10.439  6.0440  7.2450 
  6727.500 -21.049  12.384  6.5120  7.7850 -9.0490  12.384  6.5120  7.7850 
  6728.000 -20.783  13.931  6.7640  8.0010 -8.7830  13.931  6.7640  8.0010 
  6728.500 -20.518  15.444  7.3750  7.9280 -8.5180  15.444  7.3750  7.9280 
  6729.000 -19.806  15.154  7.3380  7.5670 -7.8060  15.154  7.3380  7.5670 
  6729.500 -19.092  14.685  7.1930  7.1700 -7.0920  14.685  7.1930  7.1700 
  6730.000 -18.736  14.360  6.2200  6.9180 -6.7360  14.360  6.2200  6.9180 
  6730.500 -18.380  13.927  6.0750  6.5210 -6.3800  13.927  6.0750  6.5210 
  6731.000 -17.845  13.278  5.7500  6.3040 -5.8450  13.278  5.7500  6.3040 
  6731.500 -17.309  13.025  5.6050  6.1960 -5.3090  13.025  5.6050  6.1960 
  6732.000 -17.046  13.349  5.4960  6.0150 -5.0460  13.349  5.4960  6.0150 
  6732.500 -16.782  13.528  5.3520  5.9430 -4.7820  13.528  5.3520  5.9430 
  6733.000 -16.786  14.104  5.1710  6.1940 -4.7860  14.104  5.1710  6.1940 
  6733.500 -16.790  16.516  4.9900  6.3380 -4.7900  16.516  4.9900  6.3380 
  6734.000 -16.798  16.659  5.3490  6.4810 -4.7980  16.659  5.3490  6.4810 
  6734.500 -16.803  16.911  6.3570  6.5890 -4.8030  16.911  6.3570  6.5890 
  6735.000 -16.806  17.054  6.4640  6.7320 -4.8060  17.054  6.4640  6.7320 
  6735.500 -16.810  17.305  6.6070  6.8760 -4.8100  17.305  6.6070  6.8760 
  6736.000 -16.818  17.485  6.7870  6.9470 -4.8180  17.485  6.7870  6.9470 
  6736.500 -16.643  17.700  6.9300  6.9830 -4.6430  17.700  6.9300  6.9830 
  6737.000 -16.468  18.203  7.1100  6.9820 -4.4680  18.203  7.1100  6.9820 
  6737.500 -16.473  20.664  7.2890  7.0170 -4.4730  20.664  7.2890  7.0170 
  6738.000 -16.478  21.495  7.4680  7.0890 -4.4780  21.495  7.4680  7.0890 
  6738.500 -16.394  22.326  7.7200  7.1430 -4.3940  22.326  7.7200  7.1430 
  6739.000 -16.309  23.157  8.3310  7.1960 -4.3090  23.157  8.3310  7.1960 
  6739.500 -16.223  23.509  9.6990  7.3400 -4.2230  23.509  9.6990  7.3400 
  6740.000 -16.137  23.862  9.8780  7.4830 -4.1370  23.862  9.8780  7.4830 
  6740.500 -16.144  23.494  10.562  7.7700 -4.1440  23.494  10.562  7.7700 
  6741.000 -16.058  22.765  11.245  7.7700 -4.0580  22.765  11.245  7.7700 
  6741.500 -15.972  22.398  11.137  7.7330 -3.9720  22.398  11.137  7.7330 
  6742.000 -16.067  21.669  10.992  7.6610 -4.0670  21.669  10.992  7.6610 
  6742.500 -16.162  21.484  10.883  7.5880 -4.1620  21.484  10.883  7.5880 
  6743.000 -16.169  21.298  10.774  7.5160 -4.1690  21.298  10.774  7.5160 
  6743.500 -16.716  21.286  10.684  7.2990 -4.7160  21.286  10.684  7.2990 
  6744.000 -16.810  22.358  10.593  7.1540 -4.8100  22.358  10.593  7.1540 
  6744.500 -16.904  23.431  10.736  7.3700 -4.9040  23.431  10.736  7.3700 
  6745.000 -17.178  24.506  10.987  7.5860 -5.1780  24.506  10.987  7.5860 
  6745.500 -17.453  25.581  12.031  8.0170 -5.4530  25.581  12.031  8.0170 
  6746.000 -17.729  28.449  12.282  8.1960 -5.7290  28.449  12.282  8.1960 
  6746.500 -18.005  29.522  12.641  8.6280 -6.0050  29.522  12.641  8.6280 
  6747.000 -18.190  30.234  13.001  9.1320 -6.1900  30.234  13.001  9.1320 
  6747.500 -18.464  30.226  13.288  9.6000 -6.4640  30.226  13.288  9.6000 
  6748.000 -18.739  30.579  14.224  10.319 -6.7390  30.579  14.224  10.319 
  6748.500 -18.924  30.211  14.043  10.787 -6.9240  30.211  14.043  10.787 
  6749.000 -18.929  29.843  13.970  11.147 -6.9290  29.843  13.970  11.147 
  6749.500 -18.575  28.754  13.790  11.074 -6.5750  28.754  13.790  11.074 
  6750.000 -18.580  28.029  15.878  10.749 -6.5800  28.029  15.878  10.749 
  6750.500 -18.225  27.303  16.129  10.569 -6.2250  27.303  16.129  10.569 
  6751.000 -18.139  26.570  15.966  10.316 -6.1390  26.570  15.966  10.316 
  6751.500 -18.053  26.745  15.804  10.100 -6.0530  26.745  15.804  10.100 
  6752.000 -17.878  26.919  15.406  9.9910 -5.8780  26.919  15.406  9.9910 
  6752.500 -17.704  27.987  15.010  10.206 -5.7040  27.987  15.010  10.206 
  6753.000 -17.711  29.060  15.189  10.404 -5.7110  29.060  15.189  10.404 
  6753.500 -17.716  31.213  15.296  10.602 -5.7160  31.213  15.296  10.602 
  6754.000 -18.081  32.285  15.619  11.285 -6.0810  32.285  15.619  11.285 
  6754.500 -18.445  32.277  16.159  11.501 -6.4450  32.277  16.159  11.501 
  6755.000 -18.810  31.549  17.239  11.860 -6.8100  31.549  17.239  11.860 
  6755.500 -18.994  30.461  17.742  12.112 -6.9940  30.461  17.742  12.112 
  6756.000 -19.177  29.373  18.354  12.651 -7.1770  29.373  18.354  12.651 
  6756.500 -18.645  28.284  18.461  12.579 -6.6450  28.284  18.461  12.579 
