~Version Information
VERS.                     2.0: CWLS log ASCII Standard Version 2.00
WRAP.                      NO: One line per depth step
~Well Information Block
#MNEM.UNIT                               Data Type  Information
#---------                               ---------  -----------
STRT.FT                                   450.0000:
STOP.FT                                  6780.0000:
STEP.FT                                     0.5000:
NULL.                 -999.25                     :
COMP.                                             :COMPANY            
WELL.     SAN EMIDIO A 25-19                      :WELL               
FLD .                                             :FIELD              
CTRY.                                             :COUNTRY            
STAT.                                             :STATE              
LOC .                                             :LOCATION           
UWI .                                             :UNIQUE WELL ID     
SRVC.                                             :Service company    
DATE.                                             :LOG DATE           
~Curve Information
#MNEM.UNIT           API CODE  Curve Description
#---------           --------  -----------------
DEPT.FT                      :   1 DEPTH
SP  .MV                      :   2
AM16.OHMM                    :   3
AO10.OHMM                    :   4
AO19.OHMM                    :   5
SBL .MV                      :   6
RS  .OHMM                    :   7
RM  .OHMM                    :   8
RD  .OHMM                    :   9
~A
# ...
  3365.000 -53.611  13.178  10.588  10.912 -36.251  13.178  10.588  10.912 
  3365.500 -54.335  13.358  10.624  10.804 -36.970  13.358  10.624  10.804 
  3366.000 -54.607  13.645  10.660  10.768 -37.238  13.645  10.660  10.768 
  3366.500 -54.879  13.933  10.767  10.785 -37.505  13.933  10.767  10.785 
  3367.000 -55.784  14.364  10.875  10.803 -38.405  14.364  10.875  10.803 
  3367.500 -55.604  14.652  11.019  10.821 -38.220  14.652  11.019  10.821 
  3368.000 -56.328  14.904  11.199  10.839 -38.939  14.904  11.199  10.839 
  3368.500 -56.690  14.975  11.450  10.875 -39.297  14.975  11.450  10.875 
  3369.000 -57.233  15.047  11.702  10.892 -39.835  15.047  11.702  10.892 
  3369.500 -57.776  15.083  11.953  10.910 -40.373  15.083  11.953  10.910 
  3370.000 -58.139  15.083  12.169  10.946 -40.731  15.083  12.169  10.946 
  3370.500 -58.320  15.011  12.295  10.982 -40.908  15.011  12.295  10.982 
  3371.000 -58.321  14.974  12.421  11.054 -40.904  14.974  12.421  11.054 
  3371.500 -58.141  14.866  12.600  11.089 -40.719  14.866  12.600  11.089 
  3372.000 -57.961  14.776  12.780  10.981 -40.534  14.776  12.780  10.981 
  3372.500 -57.420  14.686  12.492  10.909 -39.988  14.686  12.492  10.909 
  3373.000 -57.060  14.398  12.708  10.765 -39.624  14.398  12.708  10.765 
  3373.500 -56.518  14.272  12.851  10.585 -39.077  14.272  12.851  10.585 
  3374.000 -56.339  14.146  12.959  10.441 -38.893  14.146  12.959  10.441 
  3374.500 -56.068  13.678  13.247  10.333 -38.617  13.678  13.247  10.333 
  3375.000 -55.798  13.390  13.354  10.243 -38.343  13.390  13.354  10.243 
  3375.500 -55.347  13.282  13.462  10.153 -37.887  13.282  13.462  10.153 
  3376.000 -54.896  13.174  13.462  9.9730 -37.431  13.174  13.462  9.9730 
  3376.500 -54.717  13.066  13.462  9.8290 -37.247  13.066  13.462  9.8290 
  3377.000 -54.537  12.958  13.462  9.8280 -37.062  12.958  13.462  9.8280 
  3377.500 -54.176  12.958  13.461  9.7200 -36.697  12.958  13.461  9.7200 
  3378.000 -53.816  12.958  13.497  9.7920 -36.332  12.958  13.497  9.7920 
  3378.500 -53.636  12.993  13.569  9.7920 -36.147  12.993  13.569  9.7920 
  3379.000 -53.456  13.101  13.641  9.7920 -35.962  13.101  13.641  9.7920 
  3379.500 -53.276  13.245  13.712  9.7560 -35.778  13.245  13.712  9.7560 
  3380.000 -53.096  13.353  13.928  9.7550 -35.593  13.353  13.928  9.7550 
  3380.500 -52.736  13.496  14.072  9.8270 -35.228  13.496  14.072  9.8270 
  3381.000 -52.737  13.568  14.215  9.9710 -35.224  13.568  14.215  9.9710 
  3381.500 -52.738  13.604  14.323  10.007 -35.220  13.604  14.323  10.007 
  3382.000 -52.829  13.640  14.503  10.222 -35.307  13.640  14.503  10.222 
  3382.500 -52.920  13.639  14.647  10.330 -35.393  13.639  14.647  10.330 
  3383.000 -53.102  13.621  14.826  10.402 -35.570  13.621  14.826  10.402 
  3383.500 -53.464  13.603  15.006  10.474 -35.927  13.603  15.006  10.474 
  3384.000 -53.646  13.549  15.114  10.581 -36.105  13.549  15.114  10.581 
  3384.500 -53.827  13.495  15.221  10.671 -36.281  13.495  15.221  10.671 
  3385.000 -53.828  13.315  15.257  10.761 -36.277  13.315  15.257  10.761 
  3385.500 -54.010  13.099  15.257  10.833 -36.454  13.099  15.257  10.833 
  3386.000 -53.830  12.847  15.221  10.904 -36.269  12.847  15.221  10.904 
  3386.500 -53.650  12.667  15.113  10.904 -36.085  12.667  15.113  10.904 
  3387.000 -53.470  12.559  15.005  10.904 -35.900  12.559  15.005  10.904 
  3387.500 -53.110  12.379  14.861  10.868 -35.535  12.379  14.861  10.868 
  3388.000 -52.749  12.306  14.717  10.832 -35.169  12.306  14.717  10.832 
  3388.500 -52.931  12.198  14.608  10.760 -35.347  12.198  14.608  10.760 
  3389.000 -53.293  12.162  14.428  10.687 -35.704  12.162  14.428  10.687 
  3389.500 -54.017  12.018  14.320  10.615 -36.423  12.018  14.320  10.615 
  3390.000 -54.018  11.874  14.248  10.543 -36.419  11.874  14.248  10.543 
  3390.500 -53.658  11.676  14.068  10.471 -36.054  11.676  14.068  10.471 
  3391.000 -53.297  11.478  13.924  10.147 -35.689  11.478  13.924  10.147 
  3391.500 -52.033  10.435  13.816  10.003 -34.420  10.435  13.816  10.003 
  3392.000 -48.781  9.7150  13.636  9.8950 -31.163  9.7150  13.636  9.8950 
  3392.500 -47.697  9.2470  13.420  9.7870 -30.074  9.2470  13.420  9.7870 
  3393.000 -45.349  8.7800  13.168  9.5710 -27.722  8.7800  13.168  9.5710 
  3393.500 -43.723  8.2760  12.412  9.3550 -26.091  8.2760  12.412  9.3550 
  3394.000 -41.194  7.8440  11.801  9.0670 -23.557  7.8440  11.801  9.0670 
  3394.500 -38.845  7.5560  11.441  8.7430 -21.203  7.5560  11.441  8.7430 
  3395.000 -36.678  7.0520  11.009  8.4550 -19.032  7.0520  11.009  8.4550 
  3395.500 -35.414  6.6920  10.469  8.2930 -17.763  6.6920  10.469  8.2930 
  3396.000 -34.149  6.4400  9.9650  8.1310 -16.493  6.4400  9.9650  8.1310 
  3396.500 -31.259  6.2600  9.4260  7.8430 -13.598  6.2600  9.4260  7.8430 
  3397.000 -30.717  6.0800  9.1020  7.7530 -13.051  6.0800  9.1020  7.7530 
  3397.500 -30.357  6.0080  8.7420  7.6630 -12.687  6.0080  8.7420  7.6630 
  3398.000 -30.358  5.9360  8.5980  7.5910 -12.683  5.9360  8.5980  7.5910 
  3398.500 -30.359  5.9360  8.5260  7.5550 -12.679  5.9360  8.5260  7.5550 
  3399.000 -30.360  5.9360  8.4540  7.6260 -12.675  5.9360  8.4540  7.6260 
  3399.500 -30.903  5.9170  8.4170  7.7340 -13.214  5.9170  8.4170  7.7340 
  3400.000 -32.169  5.8990  8.4890  7.9500 -14.475  5.8990  8.4890  7.9500 
  3400.500 -33.433  5.8630  8.5250  8.0580 -15.734  5.8630  8.5250  8.0580 
  3401.000 -33.613  5.8630  8.5970  8.1300 -15.909  5.8630  8.5970  8.1300 
  3401.500 -32.889  5.8810  8.6330  8.1660 -15.180  5.8810  8.6330  8.1660 
  3402.000 -31.804  5.8990  8.5970  8.2020 -14.091  5.8990  8.5970  8.2020 
  3402.500 -30.176  5.8990  8.5610  8.2740 -12.458  5.8990  8.5610  8.2740 
  3403.000 -29.814  5.9710  8.5250  8.3100 -12.091  5.9710  8.5250  8.3100 
  3403.500 -29.994  6.0250  8.4530  8.4190 -12.266  6.0250  8.4530  8.4190 
  3404.000 -30.354  6.0790  8.4890  8.5630 -12.622  6.0790  8.4890  8.5630 
  3404.500 -30.895  6.1510  8.6330  8.7790 -13.158  6.1510  8.6330  8.7790 
  3405.000 -31.979  6.2230  8.8850  8.9590 -14.237  6.2230  8.8850  8.9590 
  3405.500 -32.520  6.2950  9.0290  9.0670 -14.773  6.2950  9.0290  9.0670 
  3406.000 -33.061  6.3670  9.0650  9.2470 -15.309  6.3670  9.0650  9.2470 
  3406.500 -33.603  6.4210  9.1010  9.3190 -15.847  6.4210  9.1010  9.3190 
  3407.000 -33.963  6.4750  9.1370  9.4270 -16.202  6.4750  9.1370  9.4270 
  3407.500 -34.324  6.4570  9.1910  9.4990 -16.558  6.4570  9.1910  9.4990 
  3408.000 -34.865  6.4390  9.2450  9.5350 -17.094  6.4390  9.2450  9.5350 
  3408.500 -35.587  6.3310  9.3530  9.5710 -17.812  6.3310  9.3530  9.5710 
  3409.000 -35.767  6.2770  9.3710  9.6440 -17.987  6.2770  9.3710  9.6440 
  3409.500 -35.766  6.2230  9.3880  9.6260 -17.981  6.2230  9.3880  9.6260 
  3410.000 -35.946  6.0790  9.3170  9.5720 -18.156  6.0790  9.3170  9.5720 
  3410.500 -35.764  5.9350  9.1730  8.8170 -17.969  5.9350  9.1730  8.8170 
  3411.000 -35.402  5.8090  8.9210  8.4570 -17.603  5.8090  8.9210  8.4570 
  3411.500 -34.497  5.6830  8.5610  8.1700 -16.693  5.6830  8.5610  8.1700 
  3412.000 -33.231  5.5400  8.2730  8.0800 -15.422  5.5400  8.2730  8.0800 
  3412.500 -31.242  5.3960  7.9140  7.9900 -13.428  5.3960  7.9140  7.9900 
  3413.000 -28.169  5.2160  7.4820  7.7380 -10.351  5.2160  7.4820  7.7380 
  3413.500 -26.542  5.1440  7.2300  7.4870 -8.7188  5.1440  7.2300  7.4870 
  3414.000 -26.722  5.0720  6.7990  7.1630 -8.8940  5.0720  6.7990  7.1630 
  3414.500 -26.405  4.8920  6.4030  6.8760 -8.5722  4.8920  6.4030  6.8760 
  3415.000 -26.087  4.8200  6.1510  6.6960 -8.2494  4.8200  6.1510  6.6960 
  3415.500 -25.770  4.7120  5.8270  6.4800 -7.9276  4.7120  5.8270  6.4800 
  3416.000 -25.453  4.6400  5.6830  6.3730 -7.6059  4.6400  5.6830  6.3730 
  3416.500 -25.271  4.5680  5.6120  6.1930 -7.4191  4.5680  5.6120  6.1930 
  3417.000 -25.270  4.4600  5.5220  6.0490 -7.4133  4.4600  5.5220  6.0490 
  3417.500 -25.270  4.4240  5.4320  5.9960 -7.4085  4.4240  5.4320  5.9960 
