~Version Information
VERS.                     2.0: CWLS log ASCII Standard Version 2.00
WRAP.                      NO: One line per depth step
~Well Information Block
#MNEM.UNIT                               Data Type  Information
#---------                               ---------  -----------
STRT.FT                                  6300.0000:
STOP.FT                                  6960.0000:
STEP.FT                                     0.5000:
NULL.                 -999.25                     :
COMP.                                             :COMPANY            
WELL.     SAN EMIDIO A 25-19 REDRILL              :WELL               
FLD .                                             :FIELD              
CTRY.                                             :COUNTRY            
STAT.                                             :STATE              
LOC .                                             :LOCATION           
UWI .                                             :UNIQUE WELL ID     
SRVC.                                             :Service company    
DATE.                                             :LOG DATE           
~Curve Information
#MNEM.UNIT           API CODE  Curve Description
#---------           --------  -----------------
DEPT.FT                      :   1 DEPTH
SP  .MV                      :   2
AM16.OHMM                    :   3
AO10.OHMM                    :   4
AO19.OHMM                    :   5
SBL .MV                      :   6
RS  .OHMM                    :   7
RM  .OHMM                    :   8
RD  .OHMM                    :   9
~A
# ...
  6671.000 -24.845  3.2100  3.4440  2.9910 -8.8454  3.2100  3.4440  2.9910 
  6671.500 -25.395  3.2630  3.4790  3.0250 -9.3953  3.2630  3.4790  3.0250 
  6672.000 -25.581  3.3150  3.5310  3.2040 -9.5807  3.3150  3.5310  3.2040 
  6672.500 -25.766  3.3670  3.5840  3.2030 -9.7661  3.3670  3.5840  3.2030 
  6673.000 -26.316  3.5090  3.6530  3.1840 -10.316  3.5090  3.6530  3.1840 
  6673.500 -26.862  3.5440  3.6880  3.1650 -10.862  3.5440  3.6880  3.1650 
  6674.000 -27.409  3.6140  3.7220  3.0910 -11.409  3.6140  3.7220  3.0910 
  6674.500 -27.776  3.6840  3.8280  3.0900 -11.776  3.6840  3.8280  3.0900 
  6675.000 -28.505  3.7190  3.9350  3.0710 -12.505  3.7190  3.9350  3.0710 
  6675.500 -29.411  3.7170  4.0770  3.0520 -13.411  3.7170  4.0770  3.0520 
  6676.000 -29.957  3.7160  4.1480  3.0860 -13.957  3.7160  4.1480  3.0860 
  6676.500 -30.413  3.6420  4.2000  3.1210 -14.413  3.6420  4.2000  3.1210 
  6677.000 -30.867  3.6040  4.2530  3.1560 -14.867  3.6040  4.2530  3.1560 
  6677.500 -31.774  3.5310  4.2510  3.1730 -15.774  3.5310  4.2510  3.1730 
  6678.000 -32.679  3.4580  4.2490  3.1900 -16.679  3.4580  4.2490  3.1900 
  6678.500 -33.769  3.3830  4.1390  3.1880 -17.769  3.3830  4.1390  3.1880 
  6679.000 -33.953  3.3640  4.0480  3.0780 -17.953  3.3640  4.0480  3.0780 
  6679.500 -34.139  3.3450  3.9570  3.0410 -18.139  3.3450  3.9570  3.0410 
  6680.000 -34.689  3.3430  3.8100  2.9320 -18.689  3.3430  3.8100  2.9320 
  6680.500 -34.876  3.3410  3.8090  2.8940 -18.876  3.3410  3.8090  2.8940 
  6681.000 -35.063  3.4830  3.8430  2.8570 -19.063  3.4830  3.8430  2.8570 
  6681.500 -35.250  3.4820  3.9500  2.9280 -19.250  3.4820  3.9500  2.9280 
  6682.000 -35.257  3.4800  3.9840  3.0350 -19.257  3.4800  3.9840  3.0350 
  6682.500 -34.993  3.4420  4.0540  3.1050 -18.993  3.4420  4.0540  3.1050 
  6683.000 -34.729  3.3690  4.0530  3.1040 -18.729  3.3690  4.0530  3.1040 
  6683.500 -34.200  3.3490  4.0520  3.1390 -18.200  3.3490  4.0520  3.1390 
  6684.000 -34.567  3.3300  4.0320  3.1380 -18.567  3.3300  4.0320  3.1380 
  6684.500 -34.933  3.2560  4.0130  3.1370 -18.933  3.2560  4.0130  3.1370 
  6685.000 -35.301  3.1830  3.9020  3.1180 -19.301  3.1830  3.9020  3.1180 
  6685.500 -35.396  3.1270  3.8650  3.0990 -19.396  3.1270  3.8650  3.0990 
  6686.000 -35.492  3.0710  3.6830  3.0610 -19.492  3.0710  3.6830  3.0610 
  6686.500 -35.678  2.9610  3.5730  3.0230 -19.678  2.9610  3.5730  3.0230 
  6687.000 -35.865  2.9600  3.5360  2.9860 -19.865  2.9600  3.5360  2.9860 
  6687.500 -35.874  2.9220  3.4990  2.9850 -19.874  2.9220  3.4990  2.9850 
  6688.000 -35.883  2.9210  3.4600  2.9840 -19.883  2.9210  3.4600  2.9840 
  6688.500 -35.978  2.9190  3.4410  2.9820 -19.978  2.9190  3.4410  2.9820 
  6689.000 -36.074  2.9170  3.4220  2.9810 -20.074  2.9170  3.4220  2.9810 
  6689.500 -36.081  2.9160  3.4190  2.9980 -20.081  2.9160  3.4190  2.9980 
  6690.000 -36.088  2.9140  3.4180  3.0150 -20.088  2.9140  3.4180  3.0150 
  6690.500 -36.279  2.9300  3.4520  3.0490 -20.279  2.9300  3.4520  3.0490 
  6691.000 -36.286  2.9470  3.4510  3.0840 -20.286  2.9470  3.4510  3.0840 
  6691.500 -36.472  2.9630  3.4500  3.1190 -20.472  2.9630  3.4500  3.1190 
  6692.000 -36.480  2.9790  3.4840  3.1540 -20.480  2.9790  3.4840  3.1540 
  6692.500 -36.488  2.9780  3.5180  3.1890 -20.488  2.9780  3.5180  3.1890 
  6693.000 -36.493  2.9760  3.5520  3.2410 -20.493  2.9760  3.5520  3.2410 
  6693.500 -36.499  2.9750  3.6230  3.2940 -20.499  2.9750  3.6230  3.2940 
  6694.000 -36.326  2.9730  3.6210  3.3110 -20.326  2.9730  3.6210  3.3110 
  6694.500 -36.153  2.9710  3.6200  3.3280 -20.153  2.9710  3.6200  3.3280 
  6695.000 -35.625  2.9520  3.6180  3.3390 -19.625  2.9520  3.6180  3.3390 
  6695.500 -35.452  2.9330  3.5810  3.3490 -19.452  2.9330  3.5810  3.3490 
  6696.000 -34.561  2.9130  3.5430  3.3600 -18.561  2.9130  3.5430  3.3600 
  6696.500 -33.849  2.8930  3.5170  3.3580 -17.849  2.8930  3.5170  3.3580 
  6697.000 -33.404  2.8550  3.4920  3.3570 -17.404  2.8550  3.4920  3.3570 
  6697.500 -32.958  2.8530  3.4660  3.3560 -16.958  2.8530  3.4660  3.3560 
  6698.000 -31.890  2.7800  3.3920  3.3550 -15.890  2.7800  3.3920  3.3550 
  6698.500 -30.998  2.7420  3.3730  3.3890 -14.998  2.7420  3.3730  3.3890 
  6699.000 -30.646  2.7400  3.3530  3.3880 -14.646  2.7400  3.3530  3.3880 
  6699.500 -29.754  2.7030  3.3150  3.3870 -13.754  2.7030  3.3150  3.3870 
  6700.000 -29.222  2.7020  3.2770  3.3860 -13.222  2.7020  3.2770  3.3860 
  6700.500 -28.689  2.7010  3.2400  3.3840 -12.689  2.7010  3.2400  3.3840 
  6701.000 -28.424  2.6990  3.2390  3.3830 -12.424  2.6990  3.2390  3.3830 
  6701.500 -28.159  2.7330  3.2200  3.3820 -12.159  2.7330  3.2200  3.3820 
  6702.000 -27.989  2.7680  3.2000  3.3800 -11.989  2.7680  3.2000  3.3800 
  6702.500 -27.815  2.8030  3.1990  3.3960 -11.815  2.8030  3.1990  3.3960 
  6703.000 -27.912  2.8380  3.1980  3.4130 -11.912  2.8380  3.1980  3.4130 
  6703.500 -28.008  2.8720  3.1970  3.4110 -12.008  2.8720  3.1970  3.4110 
  6704.000 -28.012  2.8710  3.1590  3.4100 -12.012  2.8710  3.1590  3.4100 
  6704.500 -28.017  2.8700  3.1580  3.3910 -12.017  2.8700  3.1580  3.3910 
  6705.000 -28.027  2.9050  3.1570  3.3720 -12.027  2.9050  3.1570  3.3720 
  6705.500 -28.032  2.9040  3.1740  3.3700 -12.032  2.9040  3.1740  3.3700 
  6706.000 -27.860  2.9020  3.1910  3.3690 -11.860  2.9020  3.1910  3.3690 
  6706.500 -27.686  2.8650  3.1900  3.3310 -11.686  2.8650  3.1900  3.3310 
  6707.000 -27.512  2.8280  3.1890  3.2930 -11.512  2.8280  3.1890  3.2930 
  6707.500 -27.427  2.7550  3.1690  3.2560 -11.427  2.7550  3.1690  3.2560 
  6708.000 -27.341  2.7530  3.1490  3.2180 -11.341  2.7530  3.1490  3.2180 
  6708.500 -27.171  2.7340  3.0760  3.1810 -11.171  2.7340  3.0760  3.1810 
  6709.000 -26.998  2.7150  3.0750  3.1430 -10.998  2.7150  3.0750  3.1430 
  6709.500 -26.824  2.6960  3.0740  3.1420 -10.824  2.6960  3.0740  3.1420 
  6710.000 -26.292  2.6770  3.0730  3.1770 -10.292  2.6770  3.0730  3.1770 
  6710.500 -25.579  2.7110  3.0710  3.2470 -9.5789  2.7110  3.0710  3.2470 
  6711.000 -25.045  2.7100  3.0700  3.3180 -9.0452  2.7100  3.0700  3.3180 
  6711.500 -24.512  2.7090  3.0690  3.3350 -8.5124  2.7090  3.0690  3.3350 
  6712.000 -24.339  2.7250  3.0670  3.3520 -8.3387  2.7250  3.0670  3.3520 
  6712.500 -24.074  2.7420  3.0840  3.3680 -8.0741  2.7420  3.0840  3.3680 
  6713.000 -23.809  2.7230  3.1020  3.3850 -7.8086  2.7230  3.1020  3.3850 
  6713.500 -23.639  2.7040  3.2080  3.3830 -7.6385  2.7040  3.2080  3.3830 
  6714.000 -23.645  2.7020  3.2250  3.3820 -7.6448  2.7020  3.2250  3.3820 
  6714.500 -23.651  2.7010  3.2420  3.3440 -7.6511  2.7010  3.2420  3.3440 
  6715.000 -23.657  2.7000  3.2400  3.2700 -7.6574  2.7000  3.2400  3.2700 
  6715.500 -23.664  2.6620  3.2390  3.2150 -7.6637  2.6620  3.2390  3.2150 
  6716.000 -23.670  2.6250  3.2380  3.1600 -7.6700  2.6250  3.2380  3.1600 
  6716.500 -23.676  2.5870  3.1820  3.1220 -7.6763  2.5870  3.1820  3.1220 
  6717.000 -23.683  2.5860  3.1260  3.0490 -7.6826  2.5860  3.1260  3.0490 
  6717.500 -23.687  2.5860  3.0890  3.0470 -7.6871  2.5860  3.0890  3.0470 
  6718.000 -23.692  2.5840  3.0880  3.0100 -7.6916  2.5840  3.0880  3.0100 
  6718.500 -23.698  2.5830  3.0690  3.0080 -7.6979  2.5830  3.0690  3.0080 
  6719.000 -23.704  2.6170  3.0500  3.0790 -7.7042  2.6170  3.0500  3.0790 
  6719.500 -23.714  2.6520  3.0120  3.2210 -7.7141  2.6520  3.0120  3.2210 
  6720.000 -23.540  2.6870  3.0110  3.3280 -7.5404  2.6870  3.0110  3.3280 
  6720.500 -23.637  2.6850  2.9730  3.5070 -7.6367  2.6850  2.9730  3.5070 
  6721.000 -23.732  2.7200  2.9730  3.4330 -7.7321  2.7200  2.9730  3.4330 
  6721.500 -23.738  2.7370  2.9720  3.2160 -7.7384  2.7370  2.9720  3.2160 
  6722.000 -23.745  2.7540  3.0060  3.1420 -7.7447  2.7540  3.0060  3.1420 
  6722.500 -23.751  2.7700  3.0400  2.9610 -7.7510  2.7700  3.0400  2.9610 
  6723.000 -23.757  2.7870  3.0390  2.8870 -7.7573  2.7870  3.0390  2.8870 
  6723.500 -23.762  2.8040  3.0740  2.8500 -7.7618  2.8040  3.0740  2.8500 
