~Version Information
VERS.                     2.0: CWLS log ASCII Standard Version 2.00
WRAP.                      NO: One line per depth step
~Well Information Block
#MNEM.UNIT                               Data Type  Information
#---------                               ---------  -----------
STRT.FT                                   450.0000:
STOP.FT                                  6780.0000:
STEP.FT                                     0.5000:
NULL.                 -999.25                     :
COMP.                                             :COMPANY            
WELL.     SAN EMIDIO A 25-19                      :WELL               
FLD .                                             :FIELD              
CTRY.                                             :COUNTRY            
STAT.                                             :STATE              
LOC .                                             :LOCATION           
UWI .                                             :UNIQUE WELL ID     
SRVC.                                             :Service company    
DATE.                                             :LOG DATE           
~Curve Information
#MNEM.UNIT           API CODE  Curve Description
#---------           --------  -----------------
DEPT.FT                      :   1 DEPTH
SP  .MV                      :   2
AM16.OHMM                    :   3
AO10.OHMM                    :   4
AO19.OHMM                    :   5
SBL .MV                      :   6
RS  .OHMM                    :   7
RM  .OHMM                    :   8
RD  .OHMM                    :   9
~A
# ...
  3789.000 -59.257  11.371  8.8170  6.1470 -47.723  11.371  8.8170  6.1470 
  3789.500 -59.800  11.479  8.8710  6.1470 -48.275  11.479  8.8710  6.1470 
  3790.000 -59.982  11.514  8.9240  6.1120 -48.466  11.514  8.9240  6.1120 
  3790.500 -60.344  11.586  9.1400  6.0760 -48.837  11.586  9.1400  6.0760 
  3791.000 -60.164  11.586  9.2840  6.0760 -48.666  11.586  9.2840  6.0760 
  3791.500 -59.894  11.550  9.4280  6.0760 -48.405  11.550  9.4280  6.0760 
  3792.000 -59.624  11.514  9.4990  5.9320 -48.144  11.514  9.4990  5.9320 
  3792.500 -58.541  11.370  9.6430  6.0050 -47.070  11.370  9.6430  6.0050 
  3793.000 -57.819  11.190  9.7510  6.0770 -46.357  11.190  9.7510  6.0770 
  3793.500 -57.097  10.830  9.8220  6.0770 -45.644  10.830  9.8220  6.0770 
  3794.000 -56.375  10.542  9.8220  6.0770 -44.931  10.542  9.8220  6.0770 
  3794.500 -54.930  10.110  9.7860  6.0770 -43.495  10.110  9.7860  6.0770 
  3795.000 -52.943  9.6420  9.6780  6.0590 -41.517  9.6420  9.6780  6.0590 
  3795.500 -44.630  8.7070  9.6060  6.0420 -33.213  8.7070  9.6060  6.0420 
  3796.000 -40.655  8.2750  9.2100  6.0060 -29.247  8.2750  9.2100  6.0060 
  3796.500 -38.126  7.5910  8.8860  5.9700 -26.728  7.5910  8.8860  5.9700 
  3797.000 -35.236  7.1590  8.5620  5.8980 -23.847  7.1590  8.5620  5.8980 
  3797.500 -31.622  6.6560  8.0940  5.7540 -20.242  6.6560  8.0940  5.7540 
  3798.000 -29.816  6.1160  7.7350  5.6470 -18.445  6.1160  7.7350  5.6470 
  3798.500 -27.467  5.8640  7.4830  5.5390 -16.105  5.8640  7.4830  5.5390 
  3799.000 -25.480  5.7560  7.3390  5.6470 -14.127  5.7560  7.3390  5.6470 
  3799.500 -24.577  5.6840  7.3380  5.7010 -13.233  5.6840  7.3380  5.7010 
  3800.000 -23.855  5.6120  7.4100  5.7550 -12.520  5.6120  7.4100  5.7550 
  3800.500 -23.312  5.4680  7.4460  5.9350 -11.986  5.4680  7.4460  5.9350 
  3801.000 -23.131  5.3960  7.4460  5.9890 -11.814  5.3960  7.4460  5.9890 
  3801.500 -22.949  5.3600  7.4100  6.0430 -11.641  5.3600  7.4100  6.0430 
  3802.000 -23.039  5.3600  7.3740  6.0960 -11.740  5.3600  7.3740  6.0960 
  3802.500 -23.128  5.3600  7.3380  6.1500 -11.838  5.3600  7.3380  6.1500 
  3803.000 -23.669  5.3600  7.3200  6.1860 -12.388  5.3600  7.3200  6.1860 
  3803.500 -24.211  5.4320  7.3020  6.2040 -12.939  5.4320  7.3020  6.2040 
  3804.000 -25.113  5.4860  7.3380  6.2220 -13.850  5.4860  7.3380  6.2220 
  3804.500 -26.197  5.5400  7.4460  6.2750 -14.943  5.5400  7.4460  6.2750 
  3805.000 -27.822  5.7550  7.5900  6.3290 -16.577  5.7550  7.5900  6.3290 
  3805.500 -29.990  5.8630  7.7340  6.4190 -18.755  5.8630  7.7340  6.4190 
  3806.000 -32.339  5.9710  7.8060  6.5090 -21.113  5.9710  7.8060  6.5090 
  3806.500 -34.326  6.1150  7.8780  6.7240 -23.109  6.1150  7.8780  6.7240 
  3807.000 -36.132  6.3310  7.8780  6.7960 -24.924  6.3310  7.8780  6.7960 
  3807.500 -36.312  6.4750  7.9140  6.9040 -25.113  6.4750  7.9140  6.9040 
  3808.000 -35.588  6.5470  7.9140  7.0120 -24.398  6.5470  7.9140  7.0120 
  3808.500 -35.226  6.7630  7.8780  7.1010 -24.045  6.7630  7.8780  7.1010 
  3809.000 -34.321  6.9780  7.8060  7.1910 -23.149  6.9780  7.8060  7.1910 
  3809.500 -34.320  7.1220  7.7700  7.4070 -23.157  7.1220  7.7700  7.4070 
  3810.000 -34.861  7.3380  7.6980  7.5140 -23.707  7.3380  7.6980  7.5140 
  3810.500 -35.222  7.5540  7.6440  7.5860 -24.077  7.5540  7.6440  7.5860 
  3811.000 -35.583  7.6620  7.5900  7.6940 -24.447  7.6620  7.5900  7.6940 
  3811.500 -37.027  7.7340  7.4460  7.8020 -25.900  7.7340  7.4460  7.8020 
  3812.000 -38.653  7.9500  7.4100  7.8730 -27.535  7.9500  7.4100  7.8730 
  3812.500 -39.375  8.1300  7.3740  7.9450 -28.266  8.1300  7.3740  7.9450 
  3813.000 -42.085  8.2370  7.3200  8.0170 -30.985  8.2370  7.3200  8.0170 
  3813.500 -44.433  8.4170  7.2660  8.0890 -33.342  8.4170  7.2660  8.0890 
  3814.000 -45.698  8.5250  7.1940  8.2320 -34.617  8.5250  7.1940  8.2320 
  3814.500 -47.504  8.6330  7.1580  8.2860 -36.432  8.6330  7.1580  8.2860 
  3815.000 -48.949  8.7410  7.1400  8.3400 -37.886  8.7410  7.1400  8.3400 
  3815.500 -50.032  9.0650  7.1220  8.4840 -38.978  9.0650  7.1220  8.4840 
  3816.000 -51.839  9.2450  7.1580  8.5550 -40.794  9.2450  7.1580  8.5550 
  3816.500 -52.741  9.5320  7.2300  8.6090 -41.705  9.5320  7.2300  8.6090 
  3817.000 -53.192  9.7840  7.3020  8.6630 -42.165  9.7840  7.3020  8.6630 
  3817.500 -53.643  10.036  7.3920  8.7170 -42.625  10.036  7.3920  8.7170 
  3818.000 -54.907  10.288  7.4820  8.7700 -43.898  10.288  7.4820  8.7700 
  3818.500 -55.358  10.683  7.6080  8.8060 -44.358  10.683  7.6080  8.8060 
  3819.000 -55.809  10.971  7.7340  8.8060 -44.818  10.971  7.7340  8.8060 
  3819.500 -56.260  11.223  7.8960  8.7700 -45.278  11.223  7.8960  8.7700 
  3820.000 -56.711  11.511  8.0580  8.7700 -45.738  11.511  8.0580  8.7700 
  3820.500 -57.162  11.835  8.2730  8.7700 -46.198  11.835  8.2730  8.7700 
  3821.000 -57.613  12.086  8.3810  8.7510 -46.658  12.086  8.3810  8.7510 
  3821.500 -57.973  12.338  8.4350  8.7330 -47.027  12.338  8.4350  8.7330 
  3822.000 -58.334  12.482  8.4890  8.7150 -47.397  12.482  8.4890  8.7150 
  3822.500 -58.785  12.734  8.6330  8.6970 -47.857  12.734  8.6330  8.6970 
  3823.000 -59.236  12.806  8.7230  8.7330 -48.318  12.806  8.7230  8.7330 
  3823.500 -59.506  12.878  8.8130  8.7330 -48.597  12.878  8.8130  8.7330 
  3824.000 -59.776  12.842  8.9210  8.7320 -48.876  12.842  8.9210  8.7320 
  3824.500 -60.136  12.842  9.0290  8.6240 -49.245  12.842  9.0290  8.6240 
  3825.000 -60.497  12.806  9.1730  8.5880 -49.615  12.806  9.1730  8.5880 
  3825.500 -61.038  12.806  9.2630  8.5520 -50.165  12.806  9.2630  8.5520 
  3826.000 -61.128  12.806  9.3530  8.5160 -50.264  12.806  9.3530  8.5160 
  3826.500 -61.217  12.842  9.5680  8.4800 -50.362  12.842  9.5680  8.4800 
  3827.000 -61.578  12.878  9.6580  8.4440 -50.732  12.878  9.6580  8.4440 
  3827.500 -61.758  12.950  9.7480  8.4070 -50.921  12.950  9.7480  8.4070 
  3828.000 -61.757  13.004  9.9640  8.3710 -50.929  13.004  9.9640  8.3710 
  3828.500 -61.575  13.058  10.108  8.3350 -50.756  13.058  10.108  8.3350 
  3829.000 -61.213  13.094  10.288  8.2990 -50.403  13.094  10.288  8.2990 
  3829.500 -60.850  13.201  10.378  8.2630 -50.049  13.201  10.378  8.2630 
  3830.000 -60.669  13.237  10.468  8.2270 -49.877  13.237  10.468  8.2270 
  3830.500 -60.487  13.273  10.576  8.1900 -49.704  13.273  10.576  8.1900 
  3831.000 -60.486  13.309  10.683  8.1540 -49.712  13.309  10.683  8.1540 
  3831.500 -60.485  13.345  10.845  8.1180 -49.720  13.345  10.845  8.1180 
  3832.000 -60.304  13.381  11.007  8.1360 -49.549  13.381  11.007  8.1360 
  3832.500 -60.483  13.453  11.151  8.1540 -49.737  13.453  11.151  8.1540 
  3833.000 -60.483  13.489  11.295  8.2970 -49.746  13.489  11.295  8.2970 
  3833.500 -60.843  13.525  11.439  8.2970 -50.115  13.525  11.439  8.2970 
  3834.000 -61.023  13.561  11.547  8.2610 -50.304  13.561  11.547  8.2610 
  3834.500 -61.022  13.561  11.583  8.2250 -50.312  13.561  11.583  8.2250 
  3835.000 -60.840  13.597  11.619  8.1530 -50.139  13.597  11.619  8.1530 
  3835.500 -60.478  13.633  11.547  8.1350 -49.786  13.633  11.547  8.1350 
  3836.000 -59.935  13.633  11.583  8.1170 -49.252  13.633  11.583  8.1170 
  3836.500 -59.573  13.633  11.727  8.1880 -48.899  13.633  11.727  8.1880 
  3837.000 -59.391  13.633  11.799  8.2600 -48.726  13.633  11.799  8.2600 
  3837.500 -59.390  13.561  11.871  8.4040 -48.734  13.561  11.871  8.4040 
  3838.000 -59.389  13.525  12.014  8.5120 -48.742  13.525  12.014  8.5120 
  3838.500 -59.659  13.417  12.158  8.6550 -49.021  13.417  12.158  8.6550 
  3839.000 -59.930  13.417  12.230  8.6910 -49.301  13.417  12.230  8.6910 
  3839.500 -60.290  13.273  12.302  8.7270 -49.670  13.273  12.302  8.7270 
  3840.000 -60.651  13.219  12.374  8.7630 -50.040  13.219  12.374  8.7630 
  3840.500 -61.011  13.165  12.338  8.7980 -50.409  13.165  12.338  8.7980 
  3841.000 -61.191  13.058  12.302  8.8340 -50.599  13.058  12.302  8.8340 
  3841.500 -61.913  13.022  12.194  8.9060 -51.330  13.022  12.194  8.9060 
