~Version Information
VERS.                     2.0: CWLS log ASCII Standard Version 2.00
WRAP.                      NO: One line per depth step
~Well Information Block
#MNEM.UNIT                               Data Type  Information
#---------                               ---------  -----------
STRT.FT                                   450.0000:
STOP.FT                                  6780.0000:
STEP.FT                                     0.5000:
NULL.                 -999.25                     :
COMP.                                             :COMPANY            
WELL.     SAN EMIDIO A 25-19                      :WELL               
FLD .                                             :FIELD              
CTRY.                                             :COUNTRY            
STAT.                                             :STATE              
LOC .                                             :LOCATION           
UWI .                                             :UNIQUE WELL ID     
SRVC.                                             :Service company    
DATE.                                             :LOG DATE           
~Curve Information
#MNEM.UNIT           API CODE  Curve Description
#---------           --------  -----------------
DEPT.FT                      :   1 DEPTH
SP  .MV                      :   2
AM16.OHMM                    :   3
AO10.OHMM                    :   4
AO19.OHMM                    :   5
SBL .MV                      :   6
RS  .OHMM                    :   7
RM  .OHMM                    :   8
RD  .OHMM                    :   9
~A
# ...
  5061.000 -14.463  2.4020  2.0780  1.8400 -2.4630  2.4020  2.0780  1.8400 
  5061.500 -14.284  2.4380  2.0780  1.8580 -2.2840  2.4380  2.0780  1.8580 
  5062.000 -14.285  2.4730  2.0780  1.9650 -2.2850  2.4730  2.0780  1.9650 
  5062.500 -14.466  2.5090  2.0950  2.0010 -2.4660  2.5090  2.0950  2.0010 
  5063.000 -15.189  2.6520  2.1130  2.0360 -3.1890  2.6520  2.1130  2.0360 
  5063.500 -17.356  2.7960  2.1840  2.0720 -5.3560  2.7960  2.1840  2.0720 
  5064.000 -20.065  2.8670  2.2020  2.0720 -8.0650  2.8670  2.2020  2.0720 
  5064.500 -27.108  3.0110  2.2200  2.0710 -15.108  3.0110  2.2200  2.0710 
  5065.000 -35.233  3.1190  2.3630  2.0350 -23.233  3.1190  2.3630  2.0350 
  5065.500 -41.733  3.3340  2.4710  2.0340 -29.733  3.3340  2.4710  2.0340 
  5066.000 -44.081  3.4780  2.4700  1.9980 -32.081  3.4780  2.4700  1.9980 
  5066.500 -47.151  3.5670  2.4700  1.9980 -35.151  3.5670  2.4700  1.9980 
  5067.000 -49.319  3.6570  2.5420  2.0330 -37.319  3.6570  2.5420  2.0330 
  5067.500 -52.389  3.8000  2.5770  2.0690 -40.389  3.8000  2.5770  2.0690 
  5068.000 -52.028  3.8360  2.5770  2.1040 -40.028  3.8360  2.5770  2.1040 
  5068.500 -51.127  3.6560  2.5760  2.1040 -39.127  3.6560  2.5760  2.1040 
  5069.000 -48.058  3.5650  2.5400  2.1040 -36.058  3.5650  2.5400  2.1040 
  5069.500 -46.073  3.4750  2.4680  2.1030 -34.073  3.4750  2.4680  2.1030 
  5070.000 -44.269  3.2230  2.4320  2.1030 -32.269  3.2230  2.4320  2.1030 
  5070.500 -35.965  3.0790  2.3950  2.1020 -23.965  3.0790  2.3950  2.1020 
  5071.000 -29.467  2.9340  2.3590  2.0660 -17.467  2.9340  2.3590  2.0660 
  5071.500 -21.343  2.8620  2.3230  2.0660 -9.3430  2.8620  2.3230  2.0660 
  5072.000 -19.358  2.8800  2.2860  2.0650 -7.3580  2.8800  2.2860  2.0650 
  5072.500 -18.818  2.8980  2.2500  2.0110 -6.8180  2.8980  2.2500  2.0110 
  5073.000 -18.638  2.9690  2.2140  1.9570 -6.6380  2.9690  2.2140  1.9570 
  5073.500 -19.542  3.0770  2.1770  1.9200 -7.5420  3.0770  2.1770  1.9200 
  5074.000 -21.348  3.1120  2.1770  1.9560 -9.3480  3.1120  2.1770  1.9560 
  5074.500 -23.696  3.2920  2.1770  1.9550 -11.696  3.2920  2.1770  1.9550 
  5075.000 -25.231  3.5430  2.2120  2.0270 -13.231  3.5430  2.2120  2.0270 
  5075.500 -26.766  3.7590  2.3020  2.0620 -14.766  3.7590  2.3020  2.0620 
  5076.000 -42.655  3.9020  2.3910  2.0980 -30.655  3.9020  2.3910  2.0980 
  5076.500 -47.170  4.1180  2.4630  2.1700 -35.170  4.1180  2.4630  2.1700 
  5077.000 -48.254  4.2070  2.5350  2.2410 -36.254  4.2070  2.5350  2.2410 
  5077.500 -49.338  4.2970  2.6780  2.2770 -37.338  4.2970  2.6780  2.2770 
  5078.000 -49.881  4.4040  2.7500  2.3120 -37.881  4.4040  2.7500  2.3120 
  5078.500 -49.520  4.4760  2.8930  2.3480 -37.520  4.4760  2.8930  2.3480 
  5079.000 -49.159  4.4390  2.9290  2.4020 -37.159  4.4390  2.9290  2.4020 
  5079.500 -46.453  4.3310  3.0360  2.4550 -34.453  4.3310  3.0360  2.4550 
  5080.000 -41.580  3.7550  3.0720  2.5270 -29.580  3.7550  3.0720  2.5270 
  5080.500 -38.149  3.5750  3.0720  2.4720 -26.149  3.5750  3.0720  2.4720 
  5081.000 -35.442  3.2870  3.0350  2.4180 -23.442  3.2870  3.0350  2.4180 
  5081.500 -32.193  3.1430  2.9810  2.2740 -20.193  3.1430  2.9810  2.2740 
  5082.000 -27.139  3.0340  2.9270  2.2010 -15.139  3.0340  2.9270  2.2010 
  5082.500 -24.613  2.9620  2.7100  2.1290 -12.613  2.9620  2.7100  2.1290 
  5083.000 -22.447  2.9800  2.4940  1.9490 -10.447  2.9800  2.4940  1.9490 
  5083.500 -20.643  2.9980  2.1700  1.8040 -8.6430  2.9980  2.1700  1.8040 
  5084.000 -20.282  3.0690  2.0620  1.7320 -8.2820  3.0690  2.0620  1.7320 
  5084.500 -20.103  3.1410  1.9890  1.6960 -8.1030  3.1410  1.9890  1.6960 
  5085.000 -20.826  3.2120  1.9530  1.7130 -8.8260  3.2120  1.9530  1.7130 
  5085.500 -22.632  3.3560  1.9530  1.7310 -10.632  3.3560  1.9530  1.7310 
  5086.000 -26.063  3.4630  2.0240  1.8380 -14.063  3.4630  2.0240  1.8380 
  5086.500 -28.049  3.6790  2.1680  1.8740 -16.049  3.6790  2.1680  1.8740 
  5087.000 -30.036  3.8940  2.2390  1.9100 -18.036  3.8940  2.2390  1.9100 
  5087.500 -35.996  3.9660  2.2750  1.9450 -23.996  3.9660  2.2750  1.9450 
  5088.000 -45.566  4.0730  2.3110  1.9810 -33.566  4.0730  2.3110  1.9810 
  5088.500 -53.149  4.0730  2.3100  1.9440 -41.149  4.0730  2.3100  1.9440 
  5089.000 -57.483  4.0910  2.3100  1.9440 -45.483  4.0910  2.3100  1.9440 
  5089.500 -61.456  4.1080  2.3100  1.9080 -49.456  4.1080  2.3100  1.9080 
  5090.000 -63.803  4.1440  2.3450  1.8890 -51.803  4.1440  2.3450  1.8890 
  5090.500 -69.221  4.1430  2.4170  1.8710 -57.221  4.1430  2.4170  1.8710 
  5091.000 -69.583  4.1430  2.4160  1.8700 -57.583  4.1430  2.4160  1.8700 
  5091.500 -69.945  4.1430  2.4700  1.8340 -57.945  4.1430  2.4700  1.8340 
  5092.000 -70.307  4.1420  2.5240  1.8340 -58.307  4.1420  2.5240  1.8340 
  5092.500 -70.578  4.1420  2.5950  1.8330 -58.578  4.1420  2.5950  1.8330 
  5093.000 -70.850  4.1780  2.5950  1.7970 -58.850  4.1780  2.5950  1.7970 
  5093.500 -71.574  4.1770  2.6300  1.7600 -59.574  4.1770  2.6300  1.7600 
  5094.000 -71.755  4.1770  2.6660  1.7960 -59.755  4.1770  2.6660  1.7960 
  5094.500 -72.117  4.1760  2.6480  1.7960 -60.117  4.1760  2.6480  1.7960 
  5095.000 -72.118  4.1040  2.6300  1.8310 -60.118  4.1040  2.6300  1.8310 
  5095.500 -71.577  4.0320  2.6290  1.8670 -59.577  4.0320  2.6290  1.8670 
  5096.000 -70.134  3.9600  2.6650  1.9380 -58.134  3.9600  2.6650  1.9380 
  5096.500 -68.149  3.8510  2.7360  2.0460 -56.149  3.8510  2.7360  2.0460 
  5097.000 -63.817  3.7430  2.8440  2.1530 -51.817  3.7430  2.8440  2.1530 
  5097.500 -62.012  3.6530  3.0230  2.5130 -50.012  3.6530  3.0230  2.5130 
  5098.000 -59.486  3.5630  3.1310  2.6200 -47.486  3.5630  3.1310  2.6200 
  5098.500 -54.250  3.3460  3.2380  2.6380 -42.250  3.3460  3.2380  2.6380 
  5099.000 -51.182  3.2380  3.3100  2.6550 -39.182  3.2380  3.3100  2.6550 
  5099.500 -48.655  3.1660  3.2380  2.6190 -36.655  3.1660  3.2380  2.6190 
  5100.000 -45.406  3.0570  3.1650  2.6190 -33.406  3.0570  3.1650  2.6190 
  5100.500 -39.450  2.9490  3.0930  2.5820 -27.450  2.9490  3.0930  2.5820 
  5101.000 -37.284  2.9130  3.0210  2.5460 -25.284  2.9130  3.0210  2.5460 
  5101.500 -33.313  2.8770  2.9130  2.5090 -21.313  2.8770  2.9130  2.5090 
  5102.000 -28.259  2.8050  2.8050  2.4910 -16.259  2.8050  2.8050  2.4910 
  5102.500 -26.274  2.7690  2.7150  2.4730 -14.274  2.7690  2.7150  2.4730 
  5103.000 -24.289  2.7690  2.6250  2.4360 -12.289  2.7690  2.6250  2.4360 
  5103.500 -22.665  2.8040  2.4450  2.4360 -10.665  2.8040  2.4450  2.4360 
  5104.000 -21.944  2.8400  2.4450  2.4360 -9.9440  2.8400  2.4450  2.4360 
  5104.500 -21.945  2.9480  2.4080  2.4350 -9.9450  2.9480  2.4080  2.4350 
  5105.000 -22.307  3.0200  2.3720  2.5070 -10.307  3.0200  2.3720  2.5070 
  5105.500 -22.578  3.0920  2.4080  2.5600 -10.578  3.0920  2.4080  2.5600 
  5106.000 -22.849  3.1450  2.4800  2.6140 -10.849  3.1450  2.4800  2.6140 
  5106.500 -23.393  3.1990  2.5880  2.7210 -11.393  3.1990  2.5880  2.7210 
  5107.000 -23.574  3.1990  2.6950  2.8290 -11.574  3.1990  2.6950  2.8290 
  5107.500 -23.394  3.1990  2.8390  2.8640 -11.394  3.1990  2.8390  2.8640 
  5108.000 -22.673  3.1810  2.9470  2.9000 -10.673  3.1810  2.9470  2.9000 
  5108.500 -21.230  3.1630  2.9820  2.9000 -9.2300  3.1630  2.9820  2.9000 
  5109.000 -21.050  3.1260  2.9460  2.8810 -9.0500  3.1260  2.9460  2.8810 
  5109.500 -19.968  3.1260  2.8740  2.8630 -7.9680  3.1260  2.8740  2.8630 
  5110.000 -19.427  3.1260  2.8380  2.7910 -7.4270  3.1260  2.8380  2.7910 
  5110.500 -18.886  3.1260  2.8020  2.7180 -6.8860  3.1260  2.8020  2.7180 
  5111.000 -18.526  3.1440  2.6580  2.6280 -6.5260  3.1440  2.6580  2.6280 
  5111.500 -17.985  3.1610  2.5500  2.5380 -5.9850  3.1610  2.5500  2.5380 
  5112.000 -17.625  3.1430  2.5140  2.3930 -5.6250  3.1430  2.5140  2.3930 
  5112.500 -17.446  3.1250  2.4780  2.3210 -5.4460  3.1250  2.4780  2.3210 
  5113.000 -17.265  3.1250  2.4410  2.2490 -5.2650  3.1250  2.4410  2.2490 
  5113.500 -17.085  3.1250  2.4050  2.2120 -5.0850  3.1250  2.4050  2.2120 
