~Version Information
VERS.                     2.0: CWLS log ASCII Standard Version 2.00
WRAP.                      NO: One line per depth step
~Well Information Block
#MNEM.UNIT                               Data Type  Information
#---------                               ---------  -----------
STRT.FT                                   450.0000:
STOP.FT                                  6780.0000:
STEP.FT                                     0.5000:
NULL.                 -999.25                     :
COMP.                                             :COMPANY            
WELL.     SAN EMIDIO A 25-19                      :WELL               
FLD .                                             :FIELD              
CTRY.                                             :COUNTRY            
STAT.                                             :STATE              
LOC .                                             :LOCATION           
UWI .                                             :UNIQUE WELL ID     
SRVC.                                             :Service company    
DATE.                                             :LOG DATE           
~Curve Information
#MNEM.UNIT           API CODE  Curve Description
#---------           --------  -----------------
DEPT.FT                      :   1 DEPTH
SP  .MV                      :   2
AM16.OHMM                    :   3
AO10.OHMM                    :   4
AO19.OHMM                    :   5
SBL .MV                      :   6
RS  .OHMM                    :   7
RM  .OHMM                    :   8
RD  .OHMM                    :   9
~A
# ...
  1298.000 -49.198  13.832  16.131  11.747 -34.307  13.832  16.131  11.747 
  1298.500 -49.198  13.616  16.094  11.855 -34.308  13.616  16.094  11.855 
  1299.000 -49.198  13.436  16.094  11.891 -34.309  13.436  16.094  11.891 
  1299.500 -48.295  13.184  16.058  11.962 -33.407  13.184  16.058  11.962 
  1300.000 -47.392  12.932  15.950  11.998 -32.505  12.932  15.950  11.998 
  1300.500 -45.227  12.645  15.824  12.034 -30.341  12.645  15.824  12.034 
  1301.000 -43.061  12.501  15.698  12.124 -28.176  12.501  15.698  12.124 
  1301.500 -41.076  12.357  15.231  12.213 -26.192  12.357  15.231  12.213 
  1302.000 -38.549  12.321  14.980  12.321 -23.666  12.321  14.980  12.321 
  1302.500 -38.370  12.286  14.728  12.464 -23.488  12.286  14.728  12.464 
  1303.000 -38.551  12.465  14.585  12.680 -23.670  12.465  14.585  12.680 
  1303.500 -38.823  12.609  14.513  12.859 -23.943  12.609  14.513  12.859 
  1304.000 -39.094  12.788  14.585  13.110 -24.215  12.788  14.585  13.110 
  1304.500 -40.359  13.399  14.764  13.362 -25.481  13.399  14.764  13.362 
  1305.000 -41.805  13.830  15.159  13.649 -26.928  13.830  15.159  13.649 
  1305.500 -44.514  14.405  15.626  13.936 -29.638  14.405  15.626  13.936 
  1306.000 -46.862  14.800  16.165  14.151 -31.987  14.800  16.165  14.151 
  1306.500 -48.307  15.123  16.740  14.367 -33.433  15.123  16.740  14.367 
  1307.000 -49.210  15.519  17.063  14.762 -34.337  15.519  17.063  14.762 
  1307.500 -49.933  15.770  17.602  14.905 -35.061  15.770  17.602  14.905 
  1308.000 -50.295  16.093  17.854  15.121 -35.424  16.093  17.854  15.121 
  1308.500 -50.657  16.237  18.249  15.372 -35.787  16.237  18.249  15.372 
  1309.000 -50.658  16.381  18.500  15.479 -35.789  16.381  18.500  15.479 
  1309.500 -50.569  16.309  18.644  15.587 -35.700  16.309  18.644  15.587 
  1310.000 -50.479  16.165  18.716  15.551 -35.611  16.165  18.716  15.551 
  1310.500 -50.119  15.842  18.698  15.515 -35.252  15.842  18.698  15.515 
  1311.000 -50.030  15.483  18.680  15.425 -35.164  15.483  18.680  15.425 
  1311.500 -49.940  14.585  18.500  15.335 -35.075  14.585  18.500  15.335 
  1312.000 -48.678  14.261  18.392  15.011 -33.814  14.261  18.392  15.011 
  1312.500 -45.790  13.687  18.213  14.652 -30.927  13.687  18.213  14.652 
  1313.000 -44.347  13.148  17.997  14.005 -29.485  13.148  17.997  14.005 
  1313.500 -41.639  12.357  17.099  13.502 -26.778  12.357  17.099  13.502 
  1314.000 -38.029  11.423  16.596  13.107 -23.169  11.423  16.596  13.107 
  1314.500 -36.767  10.777  16.165  12.676 -21.908  10.777  16.165  12.676 
  1315.000 -35.865  10.633  14.585  12.352 -21.007  10.633  14.585  12.352 
  1315.500 -35.866  10.705  14.154  12.352 -21.009  10.705  14.154  12.352 
  1316.000 -36.047  10.921  13.902  12.603 -21.191  10.921  13.902  12.603 
  1316.500 -37.131  11.136  13.902  13.178 -22.276  11.136  13.902  13.178 
  1317.000 -37.854  11.639  14.046  13.680 -23.000  11.639  14.046  13.680 
  1317.500 -38.848  12.142  14.225  14.506 -23.995  12.142  14.225  14.506 
  1318.000 -39.842  12.717  14.405  14.937 -24.990  12.717  14.405  14.937 
  1318.500 -45.981  13.507  15.088  15.512 -31.130  13.507  15.088  15.512 
  1319.000 -47.607  13.938  15.662  15.835 -32.757  13.938  15.662  15.835 
  1319.500 -48.511  14.621  17.602  16.050 -33.662  14.621  17.602  16.050 
  1320.000 -48.873  15.698  18.069  16.122 -34.025  15.698  18.069  16.122 
  1320.500 -49.234  15.914  18.231  16.050 -34.387  15.914  18.231  16.050 
  1321.000 -49.597  15.932  18.392  15.978 -34.751  15.932  18.392  15.978 
  1321.500 -49.959  15.950  18.500  15.798 -35.114  15.950  18.500  15.798 
  1322.000 -49.960  15.914  18.375  15.583 -35.115  15.914  18.375  15.583 
  1322.500 -49.960  15.878  18.249  15.475 -35.116  15.878  18.249  15.475 
  1323.000 -49.961  15.770  17.854  15.439 -35.118  15.770  17.854  15.439 
  1323.500 -49.962  15.698  17.494  15.762 -35.120  15.698  17.494  15.762 
  1324.000 -49.963  15.626  17.171  15.869 -35.122  15.626  17.171  15.869 
  1324.500 -49.422  15.555  16.956  16.085 -34.582  15.555  16.956  16.085 
  1325.000 -49.243  15.483  16.848  16.192 -34.404  15.483  16.848  16.192 
  1325.500 -48.702  15.339  16.848  16.408 -33.864  15.339  16.848  16.408 
  1326.000 -48.161  15.231  16.848  16.479 -33.324  15.231  16.848  16.479 
  1326.500 -47.621  15.088  16.848  16.623 -32.785  15.088  16.848  16.623 
  1327.000 -47.080  14.944  16.866  16.551 -32.245  14.944  16.866  16.551 
  1327.500 -46.178  14.944  16.884  16.443 -31.344  14.944  16.884  16.443 
  1328.000 -45.637  14.980  17.027  16.371 -30.804  14.980  17.027  16.371 
  1328.500 -45.819  15.016  17.207  16.299 -30.987  15.016  17.207  16.299 
  1329.000 -46.271  15.195  17.387  16.155 -31.440  15.195  17.387  16.155 
  1329.500 -46.723  15.303  17.602  16.047 -31.893  15.303  17.602  16.047 
  1330.000 -47.627  15.411  17.746  16.298 -32.798  15.411  17.746  16.298 
  1330.500 -47.808  15.429  18.105  16.621 -32.980  15.429  18.105  16.621 
  1331.000 -48.170  15.447  18.752  16.765 -33.343  15.447  18.752  16.765 
  1331.500 -48.171  15.447  19.003  16.944 -33.345  15.447  19.003  16.944 
  1332.000 -48.172  15.411  19.003  17.016 -33.347  15.411  19.003  17.016 
  1332.500 -47.993  15.303  19.003  16.980 -33.169  15.303  19.003  16.980 
  1333.000 -47.813  15.088  18.967  16.836 -32.990  15.088  18.967  16.836 
  1333.500 -47.633  14.836  18.895  16.728 -32.811  14.836  18.895  16.728 
  1334.000 -46.551  14.333  18.859  16.261 -31.730  14.333  18.859  16.261 
  1334.500 -45.649  13.866  18.824  15.865 -30.828  13.866  18.824  15.865 
  1335.000 -44.386  13.399  18.752  15.650 -29.566  13.399  18.752  15.650 
  1335.500 -43.304  12.681  18.644  15.147 -28.485  12.681  18.644  15.147 
  1336.000 -42.221  12.142  18.572  14.320 -27.403  12.142  18.572  14.320 
  1336.500 -41.139  11.387  18.321  13.709 -26.322  11.387  18.321  13.709 
  1337.000 -39.335  10.885  17.099  13.134 -24.519  10.885  17.099  13.134 
  1337.500 -37.530  10.382  16.848  12.811 -22.715  10.382  16.848  12.811 
  1338.000 -36.087  10.022  16.560  12.595 -21.273  10.022  16.560  12.595 
  1338.500 -35.004  9.6990  15.770  12.236 -20.191  9.6990  15.770  12.236 
  1339.000 -33.922  9.2680  14.513  11.769 -19.110  9.2680  14.513  11.769 
  1339.500 -32.118  9.1240  13.507  11.517 -17.307  9.1240  13.507  11.517 
  1340.000 -30.313  9.0880  12.788  11.445 -15.503  9.0880  12.788  11.445 
  1340.500 -30.404  9.1240  12.393  12.271 -15.595  9.1240  12.393  12.271 
  1341.000 -30.495  9.4840  12.250  13.169 -15.687  9.4840  12.250  13.169 
  1341.500 -31.941  9.8430  12.286  13.672 -17.134  9.8430  12.286  13.672 
  1342.000 -33.025  10.920  12.932  14.067 -18.219  10.920  12.932  14.067 
  1342.500 -35.192  11.459  13.938  14.569 -20.387  11.459  13.938  14.569 
  1343.000 -37.360  11.926  14.656  14.892 -22.556  11.926  14.656  14.892 
  1343.500 -39.346  12.286  14.908  15.108 -24.543  12.286  14.908  15.108 
  1344.000 -41.694  12.681  15.159  15.323 -26.892  12.681  15.159  15.323 
  1344.500 -44.403  13.076  15.662  15.682 -29.602  13.076  15.662  15.682 
  1345.000 -45.668  13.255  16.022  15.898 -30.868  13.255  16.022  15.898 
  1345.500 -46.752  13.399  16.201  16.113 -31.953  13.399  16.201  16.113 
  1346.000 -47.475  13.417  16.273  16.185 -32.677  13.417  16.273  16.185 
  1346.500 -47.837  13.435  16.345  16.256 -33.039  13.435  16.345  16.256 
  1347.000 -48.200  13.435  16.381  16.328 -33.403  13.435  16.381  16.328 
  1347.500 -47.658  13.184  16.309  16.328 -32.862  13.184  16.309  16.328 
  1348.000 -46.937  12.824  16.201  16.130 -32.142  12.824  16.201  16.130 
  1348.500 -46.035  12.286  16.093  15.932 -31.241  12.286  16.093  15.932 
  1349.000 -44.953  11.567  15.806  15.681 -30.160  11.567  15.806  15.681 
  1349.500 -43.149  10.525  15.555  15.429 -28.357  10.525  15.555  15.429 
  1350.000 -41.164  9.7710  15.088  14.962 -26.373  9.7710  15.088  14.962 
  1350.500 -39.540  9.1960  14.800  14.674 -24.750  9.1960  14.800  14.674 
