~Version Information
VERS.                     2.0: CWLS log ASCII Standard Version 2.00
WRAP.                      NO: One line per depth step
~Well Information Block
#MNEM.UNIT                               Data Type  Information
#---------                               ---------  -----------
STRT.FT                                  6300.0000:
STOP.FT                                  6960.0000:
STEP.FT                                     0.5000:
NULL.                 -999.25                     :
COMP.                                             :COMPANY            
WELL.     SAN EMIDIO A 25-19 REDRILL              :WELL               
FLD .                                             :FIELD              
CTRY.                                             :COUNTRY            
STAT.                                             :STATE              
LOC .                                             :LOCATION           
UWI .                                             :UNIQUE WELL ID     
SRVC.                                             :Service company    
DATE.                                             :LOG DATE           
~Curve Information
#MNEM.UNIT           API CODE  Curve Description
#---------           --------  -----------------
DEPT.FT                      :   1 DEPTH
SP  .MV                      :   2
AM16.OHMM                    :   3
AO10.OHMM                    :   4
AO19.OHMM                    :   5
SBL .MV                      :   6
RS  .OHMM                    :   7
RM  .OHMM                    :   8
RD  .OHMM                    :   9
~A
# ...
  6406.000 -21.112  2.4010  2.5090  2.4680 -5.1122  2.4010  2.5090  2.4680 
  6406.500 -21.208  2.3990  2.5070  2.5020 -5.2085  2.3990  2.5070  2.5020 
  6407.000 -21.304  2.3980  2.5060  2.5010 -5.3039  2.3980  2.5060  2.5010 
  6407.500 -21.400  2.3730  2.5050  2.5000 -5.4002  2.3730  2.5050  2.5000 
  6408.000 -21.590  2.3480  2.5050  2.4990 -5.5901  2.3480  2.5050  2.4990 
  6408.500 -22.135  2.3240  2.5040  2.4970 -6.1355  2.3240  2.5040  2.4970 
  6409.000 -22.861  2.2500  2.5020  2.4960 -6.8609  2.2500  2.5020  2.4960 
  6409.500 -23.226  2.2310  2.5010  2.4940 -7.2263  2.2310  2.5010  2.4940 
  6410.000 -25.393  2.2120  2.5000  2.4560 -9.3935  2.2120  2.5000  2.4560 
  6410.500 -27.377  2.1740  2.5170  2.4550 -11.377  2.1740  2.5170  2.4550 
  6411.000 -29.181  2.1740  2.5340  2.4530 -13.181  2.1740  2.5340  2.4530 
  6411.500 -30.625  2.1730  2.5330  2.4340 -14.625  2.1730  2.5330  2.4340 
  6412.000 -29.193  2.1720  2.5320  2.4150 -13.193  2.1720  2.5320  2.4150 
  6412.500 -28.121  2.1710  2.5310  2.4130 -12.121  2.1710  2.5310  2.4130 
  6413.000 -27.766  2.1870  2.5290  2.4120 -11.766  2.1870  2.5290  2.4120 
  6413.500 -27.411  2.2040  2.5100  2.4110 -11.411  2.2040  2.5100  2.4110 
  6414.000 -27.177  2.2030  2.4910  2.4100 -11.177  2.2030  2.4910  2.4100 
  6414.500 -26.944  2.2020  2.4900  2.4070 -10.944  2.2020  2.4900  2.4070 
  6415.000 -26.711  2.2010  2.4900  2.4420 -10.711  2.2010  2.4900  2.4420 
  6415.500 -26.541  2.2000  2.4880  2.4410 -10.541  2.2000  2.4880  2.4410 
  6416.000 -26.367  2.1990  2.4690  2.4400 -10.367  2.1990  2.4690  2.4400 
  6416.500 -26.194  2.1980  2.4500  2.4380 -10.194  2.1980  2.4500  2.4380 
  6417.000 -26.108  2.1970  2.4490  2.4720 -10.108  2.1970  2.4490  2.4720 
  6417.500 -26.024  2.1950  2.4480  2.5070 -10.024  2.1950  2.4480  2.5070 
  6418.000 -25.850  2.1940  2.4470  2.5050 -9.8498  2.1940  2.4470  2.5050 
  6418.500 -25.676  2.1930  2.4580  2.5040 -9.6761  2.1930  2.4580  2.5040 
  6419.000 -25.506  2.1920  2.4690  2.5030 -9.5060  2.1920  2.4690  2.5030 
  6419.500 -25.331  2.1910  2.4800  2.5020 -9.3314  2.1910  2.4800  2.5020 
  6420.000 -25.156  2.1900  2.4780  2.5000 -9.1559  2.1900  2.4780  2.5000 
  6420.500 -24.986  2.1890  2.4770  2.4980 -8.9858  2.1890  2.4770  2.4980 
  6421.000 -24.632  2.1870  2.4770  2.4970 -8.6321  2.1870  2.4770  2.4970 
  6421.500 -24.459  2.1860  2.4750  2.4960 -8.4593  2.1860  2.4750  2.4960 
  6422.000 -24.106  2.1850  2.4740  2.4940 -8.1056  2.1850  2.4740  2.4940 
  6422.500 -23.932  2.1840  2.4730  2.4930 -7.9319  2.1840  2.4730  2.4930 
  6423.000 -23.399  2.1830  2.4720  2.4920 -7.3991  2.1830  2.4720  2.4920 
  6423.500 -23.225  2.1820  2.4710  2.4720 -7.2254  2.1820  2.4710  2.4720 
  6424.000 -23.053  2.1810  2.4690  2.4530 -7.0526  2.1810  2.4690  2.4530 
  6424.500 -22.699  2.1800  2.4690  2.4510 -6.6989  2.1800  2.4690  2.4510 
  6425.000 -22.525  2.1790  2.4680  2.4490 -6.5252  2.1790  2.4680  2.4490 
  6425.500 -22.532  2.1780  2.4660  2.4840 -6.5315  2.1780  2.4660  2.4840 
  6426.000 -22.538  2.1760  2.4480  2.4830 -6.5378  2.1760  2.4480  2.4830 
  6426.500 -22.542  2.1930  2.4290  2.4820 -6.5423  2.1930  2.4290  2.4820 
  6427.000 -22.548  2.2100  2.4270  2.4790 -6.5477  2.2100  2.4270  2.4790 
  6427.500 -23.276  2.2090  2.4260  2.4780 -7.2758  2.2090  2.4260  2.4780 
  6428.000 -23.462  2.2080  2.4250  2.4950 -7.4621  2.2080  2.4250  2.4950 
  6428.500 -24.547  2.1890  2.4240  2.5120 -8.5466  2.1890  2.4240  2.5120 
  6429.000 -25.811  2.1700  2.4230  2.5460 -9.8111  2.1700  2.4230  2.5460 
  6429.500 -27.076  2.1690  2.4220  2.5450 -11.076  2.1690  2.4220  2.5450 
  6430.000 -29.239  2.1680  2.4210  2.5430 -13.239  2.1680  2.4210  2.5430 
  6430.500 -29.246  2.1670  2.4190  2.5410 -13.246  2.1670  2.4190  2.5410 
  6431.000 -28.801  2.1540  2.4360  2.5400 -12.801  2.1540  2.4360  2.5400 
  6431.500 -28.356  2.1410  2.4530  2.5390 -12.356  2.1410  2.4530  2.5390 
  6432.000 -28.365  2.1280  2.4520  2.5370 -12.365  2.1280  2.4520  2.5370 
  6432.500 -28.730  2.1270  2.4500  2.5360 -12.730  2.1270  2.4500  2.5360 
  6433.000 -29.093  2.1260  2.4500  2.5350 -13.093  2.1260  2.4500  2.5350 
  6433.500 -30.182  2.1250  2.4490  2.5330 -14.182  2.1250  2.4490  2.5330 
  6434.000 -30.368  2.1240  2.4480  2.5310 -14.368  2.1240  2.4480  2.5310 
  6434.500 -30.194  2.1230  2.4470  2.5300 -14.194  2.1230  2.4470  2.5300 
  6435.000 -30.021  2.1220  2.4450  2.4920 -14.021  2.1220  2.4450  2.4920 
  6435.500 -29.489  2.1560  2.4440  2.5090 -13.489  2.1560  2.4440  2.5090 
  6436.000 -29.315  2.1550  2.4430  2.5260 -13.315  2.1550  2.4430  2.5260 
  6436.500 -29.409  2.1540  2.4430  2.5790 -13.409  2.1540  2.4430  2.5790 
  6437.000 -29.504  2.1890  2.4050  2.6310 -13.504  2.1890  2.4050  2.6310 
  6437.500 -30.053  2.2240  2.4400  2.5930 -14.053  2.2240  2.4400  2.5930 
  6438.000 -31.860  2.3310  2.4210  2.5560 -15.860  2.3310  2.4210  2.5560 
  6438.500 -32.134  2.3660  2.4020  2.5190 -16.134  2.3660  2.4020  2.5190 
  6439.000 -32.408  2.3830  2.4010  2.5000 -16.408  2.3830  2.4010  2.5000 
  6439.500 -33.137  2.4000  2.4000  2.4800 -17.137  2.4000  2.4000  2.4800 
  6440.000 -33.322  2.5060  2.4170  2.4430 -17.322  2.5060  2.4170  2.4430 
  6440.500 -33.509  2.5770  2.4330  2.4050 -17.509  2.5770  2.4330  2.4050 
  6441.000 -33.695  2.6130  2.4680  2.3670 -17.695  2.6130  2.4680  2.3670 
  6441.500 -34.061  2.6490  2.4670  2.3660 -18.061  2.6490  2.4670  2.3660 
  6442.000 -34.067  2.7910  2.5020  2.3640 -18.067  2.7910  2.5020  2.3640 
  6442.500 -34.253  2.8260  2.5370  2.3990 -18.253  2.8260  2.5370  2.3990 
  6443.000 -34.439  2.8970  2.5720  2.4330 -18.439  2.8970  2.5720  2.4330 
  6443.500 -33.187  2.9680  2.6080  2.4680 -17.187  2.9680  2.6080  2.4680 
  6444.000 -32.115  3.0390  2.6430  2.5030 -16.115  3.0390  2.6430  2.5030 
  6444.500 -31.222  3.0730  2.6780  2.6450 -15.222  3.0730  2.6780  2.6450 
  6445.000 -31.047  3.0720  2.8200  2.7160 -15.047  3.0720  2.8200  2.7160 
  6445.500 -30.872  3.0720  2.9270  2.8220 -14.872  3.0720  2.9270  2.8220 
  6446.000 -30.702  3.0710  2.9260  2.9650 -14.702  3.0710  2.9260  2.9650 
  6446.500 -31.068  2.9610  2.9610  2.9990 -15.068  2.9610  2.9610  2.9990 
  6447.000 -31.252  2.8880  2.9600  2.9440 -15.252  2.8880  2.9600  2.9440 
  6447.500 -31.436  2.8150  2.9410  2.8890 -15.436  2.8150  2.9410  2.8890 
  6448.000 -31.626  2.6690  2.9230  2.8340 -15.626  2.6690  2.9230  2.8340 
  6448.500 -31.632  2.5960  2.8130  2.7780 -15.632  2.5960  2.8130  2.7780 
  6449.000 -31.367  2.5590  2.7220  2.6680 -15.367  2.5590  2.7220  2.6680 
  6449.500 -31.102  2.5220  2.6310  2.5950 -15.102  2.5220  2.6310  2.5950 
  6450.000 -30.752  2.5570  2.5210  2.5210 -14.752  2.5570  2.5210  2.5210 
  6450.500 -31.477  2.5560  2.4480  2.4840 -15.477  2.5560  2.4480  2.4840 
  6451.000 -31.841  2.5910  2.4470  2.5180 -15.841  2.5910  2.4470  2.5180 
  6451.500 -32.206  2.6080  2.4460  2.5890 -16.206  2.6080  2.4460  2.5890 
  6452.000 -32.035  2.6250  2.4450  2.5870 -16.035  2.6250  2.4450  2.5870 
  6452.500 -31.503  2.6230  2.4440  2.5860 -15.503  2.6230  2.4440  2.5860 
  6453.000 -30.610  2.5860  2.4780  2.5130 -14.610  2.5860  2.4780  2.5130 
  6453.500 -30.436  2.5490  2.4950  2.5110 -14.436  2.5490  2.4950  2.5110 
  6454.000 -30.442  2.4400  2.5120  2.4920 -14.442  2.4400  2.5120  2.4920 
  6454.500 -30.447  2.4030  2.5110  2.4730 -14.447  2.4030  2.5110  2.4730 
  6455.000 -30.451  2.3660  2.5110  2.4350 -14.451  2.3660  2.5110  2.4350 
  6455.500 -30.461  2.3290  2.5450  2.4340 -14.461  2.3290  2.5450  2.4340 
  6456.000 -30.468  2.3280  2.5260  2.4330 -14.468  2.3280  2.5260  2.4330 
  6456.500 -30.654  2.3630  2.5080  2.4310 -14.654  2.3630  2.5080  2.4310 
  6457.000 -30.839  2.3620  2.4700  2.4300 -14.839  2.3620  2.4700  2.4300 
  6457.500 -31.026  2.4330  2.4690  2.4280 -15.026  2.4330  2.4690  2.4280 
  6458.000 -31.212  2.4320  2.4860  2.4620 -15.212  2.4320  2.4860  2.4620 
  6458.500 -31.218  2.4850  2.5030  2.4970 -15.218  2.4850  2.5030  2.4970 
