~Version Information
VERS.                     2.0: CWLS log ASCII Standard Version 2.00
WRAP.                      NO: One line per depth step
~Well Information Block
#MNEM.UNIT                               Data Type  Information
#---------                               ---------  -----------
STRT.FT                                   450.0000:
STOP.FT                                  6780.0000:
STEP.FT                                     0.5000:
NULL.                 -999.25                     :
COMP.                                             :COMPANY            
WELL.     SAN EMIDIO A 25-19                      :WELL               
FLD .                                             :FIELD              
CTRY.                                             :COUNTRY            
STAT.                                             :STATE              
LOC .                                             :LOCATION           
UWI .                                             :UNIQUE WELL ID     
SRVC.                                             :Service company    
DATE.                                             :LOG DATE           
~Curve Information
#MNEM.UNIT           API CODE  Curve Description
#---------           --------  -----------------
DEPT.FT                      :   1 DEPTH
SP  .MV                      :   2
AM16.OHMM                    :   3
AO10.OHMM                    :   4
AO19.OHMM                    :   5
SBL .MV                      :   6
RS  .OHMM                    :   7
RM  .OHMM                    :   8
RD  .OHMM                    :   9
~A
# ...
  6280.000 -40.244  3.7750  3.0540  3.1050 -28.244  3.7750  3.0540  3.1050 
  6280.500 -39.981  3.7020  2.9460  3.1040 -27.981  3.7020  2.9460  3.1040 
  6281.000 -39.627  3.6290  2.9090  3.0490 -27.627  3.6290  2.9090  3.0490 
  6281.500 -39.452  3.5920  2.8360  2.9940 -27.452  3.5920  2.8360  2.9940 
  6282.000 -39.278  3.5200  2.7640  2.9210 -27.278  3.5200  2.7640  2.9210 
  6282.500 -39.282  3.4830  2.6550  2.8480 -27.282  3.4830  2.6550  2.8480 
  6283.000 -39.286  3.4280  2.5460  2.7740 -27.286  3.4280  2.5460  2.7740 
  6283.500 -39.382  3.3740  2.4370  2.7010 -27.382  3.3740  2.4370  2.7010 
  6284.000 -39.477  3.3190  2.4180  2.6460 -27.477  3.3190  2.4180  2.6460 
  6284.500 -40.204  3.2650  2.4000  2.5910 -28.204  3.2650  2.4000  2.5910 
  6285.000 -40.748  3.1190  2.3990  2.5180 -28.748  3.1190  2.3990  2.5180 
  6285.500 -41.293  3.0460  2.4340  2.4450 -29.293  3.0460  2.4340  2.4450 
  6286.000 -41.298  2.9730  2.4690  2.3900 -29.298  2.9730  2.4690  2.3900 
  6286.500 -41.392  2.9370  2.4870  2.3350 -29.392  2.9370  2.4870  2.3350 
  6287.000 -41.486  2.8640  2.5040  2.2970 -29.486  2.8640  2.5040  2.2970 
  6287.500 -41.222  2.7920  2.5750  2.2240 -29.222  2.7920  2.5750  2.2240 
  6288.000 -40.958  2.7010  2.6460  2.2050 -28.958  2.7010  2.6460  2.2050 
  6288.500 -40.426  2.6100  2.6640  2.1860 -28.426  2.6100  2.6640  2.1860 
  6289.000 -39.712  2.5730  2.6810  2.1850 -27.712  2.5730  2.6810  2.1850 
  6289.500 -39.358  2.5360  2.6990  2.1480 -27.358  2.5360  2.6990  2.1480 
  6290.000 -38.824  2.5000  2.7160  2.1110 -26.824  2.5000  2.7160  2.1110 
  6290.500 -38.558  2.4630  2.7150  2.0740 -26.558  2.4630  2.7150  2.0740 
  6291.000 -38.293  2.4260  2.7150  2.0730 -26.293  2.4260  2.7150  2.0730 
  6291.500 -37.849  2.4260  2.7320  2.0710 -25.849  2.4260  2.7320  2.0710 
  6292.000 -37.404  2.4250  2.7490  2.0890 -25.404  2.4250  2.7490  2.0890 
  6292.500 -36.781  2.3520  2.7480  2.1060 -24.781  2.3520  2.7480  2.1060 
  6293.000 -36.157  2.3330  2.7830  2.1760 -24.157  2.3330  2.7830  2.1760 
  6293.500 -35.085  2.3150  2.7830  2.1750 -23.085  2.3150  2.7830  2.1750 
  6294.000 -34.551  2.2960  2.7820  2.2100 -22.551  2.2960  2.7820  2.2100 
  6294.500 -34.286  2.2780  2.7820  2.2810 -22.286  2.2780  2.7820  2.2810 
  6295.000 -34.020  2.2760  2.7810  2.3160 -22.020  2.2760  2.7810  2.3160 
  6295.500 -33.668  2.2580  2.7800  2.3690 -21.668  2.2580  2.7800  2.3690 
  6296.000 -33.854  2.2390  2.7790  2.4220 -21.854  2.2390  2.7790  2.4220 
  6296.500 -34.039  2.2200  2.7790  2.4570 -22.039  2.2200  2.7790  2.4570 
  6297.000 -34.133  2.2010  2.7780  2.4920 -22.133  2.2010  2.7780  2.4920 
  6297.500 -34.227  2.1830  2.7780  2.5620 -22.227  2.1830  2.7780  2.5620 
  6298.000 -34.234  2.1640  2.7400  2.6150 -22.234  2.1640  2.7400  2.6150 
  6298.500 -33.880  2.1990  2.7040  2.6680 -21.880  2.1990  2.7040  2.6680 
  6299.000 -33.526  2.1980  2.6300  2.6850 -21.526  2.1980  2.6300  2.6850 
  6299.500 -32.632  2.1980  2.5940  2.7030 -20.632  2.1980  2.5940  2.7030 
  6300.000 -32.098  2.1970  2.5210  2.7730 -20.098  2.1970  2.5210  2.7730 
  6300.500 -32.462  2.1960  2.5200  2.8800 -20.462  2.1960  2.5200  2.8800 
  6301.000 -32.647  2.2670  2.5190  2.9150 -20.647  2.2670  2.5190  2.9150 
  6301.500 -33.190  2.2660  2.5190  2.9500 -21.190  2.2660  2.5190  2.9500 
  6302.000 -33.554  2.2660  2.5180  3.0220 -21.554  2.2660  2.5180  3.0220 
  6302.500 -33.921  2.3190  2.5170  3.0210 -21.921  2.3190  2.5170  3.0210 
  6303.000 -33.746  2.3720  2.5160  3.0560 -21.746  2.3720  2.5160  3.0560 
  6303.500 -33.659  2.4970  2.5870  3.0910 -21.659  2.4970  2.5870  3.0910 
  6304.000 -33.572  2.6220  2.6220  3.1080 -21.572  2.6220  2.6220  3.1080 
  6304.500 -33.220  2.6570  2.6390  3.1260 -21.220  2.6570  2.6390  3.1260 
  6305.000 -32.143  2.6200  2.6560  3.1240 -20.143  2.6200  2.6560  3.1240 
  6305.500 -30.350  2.6190  2.6550  3.0870 -18.350  2.6190  2.6550  3.0870 
  6306.000 -28.916  2.5460  2.6540  3.0140 -16.916  2.5460  2.6540  3.0140 
  6306.500 -28.201  2.5280  2.6540  2.9780 -16.201  2.5280  2.6540  2.9780 
  6307.000 -26.587  2.5090  2.6530  2.9230 -14.587  2.5090  2.6530  2.9230 
  6307.500 -25.693  2.4900  2.6160  2.8680 -13.693  2.4900  2.6160  2.8680 
  6308.000 -24.798  2.4710  2.5790  2.8310 -12.798  2.4710  2.5790  2.8310 
  6308.500 -24.443  2.4520  2.5420  2.8300 -12.443  2.4520  2.5420  2.8300 
  6309.000 -24.177  2.4330  2.5050  2.8290 -12.177  2.4330  2.5050  2.8290 
  6309.500 -23.911  2.4140  2.4860  2.8460 -11.911  2.4140  2.4860  2.8460 
  6310.000 -23.645  2.3950  2.4680  2.8640 -11.645  2.3950  2.4680  2.8640 
  6310.500 -23.380  2.4120  2.4660  2.8990 -11.380  2.4120  2.4660  2.8990 
  6311.000 -23.207  2.4290  2.4830  2.9340 -11.207  2.4290  2.4830  2.9340 
  6311.500 -23.212  2.4470  2.5000  2.9330 -11.212  2.4470  2.5000  2.9330 
  6312.000 -23.125  2.4640  2.4990  2.9320 -11.125  2.4640  2.4990  2.9320 
  6312.500 -23.038  2.4630  2.4990  2.9310 -11.038  2.4630  2.4990  2.9310 
  6313.000 -23.133  2.4980  2.4980  2.9300 -11.133  2.4980  2.4980  2.9300 
  6313.500 -23.227  2.5330  2.4970  2.9300 -11.227  2.5330  2.4970  2.9300 
  6314.000 -23.414  2.6400  2.5680  2.9650 -11.414  2.6400  2.5680  2.9650 
  6314.500 -23.598  2.6750  2.6030  3.0000 -11.598  2.6750  2.6030  3.0000 
  6315.000 -23.782  2.7110  2.6380  3.0530 -11.782  2.7110  2.6380  3.0530 
  6315.500 -23.967  2.7280  2.6740  3.1060 -11.967  2.7280  2.6740  3.1060 
  6316.000 -23.970  2.7450  2.7440  3.1410 -11.970  2.7450  2.7440  3.1410 
  6316.500 -23.973  2.7260  2.7440  3.1400 -11.973  2.7260  2.7440  3.1400 
  6317.000 -24.340  2.7070  2.7430  3.1030 -12.340  2.7070  2.7430  3.1030 
  6317.500 -24.524  2.7060  2.7420  3.0660 -12.524  2.7060  2.7420  3.0660 
  6318.000 -24.797  2.7050  2.7410  3.0650 -12.797  2.7050  2.7410  3.0650 
  6318.500 -25.070  2.6680  2.7400  3.0280 -13.070  2.6680  2.7400  3.0280 
  6319.000 -25.976  2.6310  2.7390  3.0100 -13.976  2.6310  2.7390  3.0100 
  6319.500 -26.519  2.6300  2.7380  2.9910 -14.519  2.6300  2.7380  2.9910 
  6320.000 -26.883  2.6300  2.7370  2.9540 -14.883  2.6300  2.7370  2.9540 
  6320.500 -26.888  2.5930  2.7370  2.9170 -14.888  2.5930  2.7370  2.9170 
  6321.000 -26.533  2.5550  2.6990  2.8800 -14.533  2.5550  2.6990  2.8800 
  6321.500 -25.818  2.5370  2.6630  2.8790 -13.818  2.5370  2.6630  2.8790 
  6322.000 -25.103  2.5180  2.6620  2.8420 -13.103  2.5180  2.6620  2.8420 
  6322.500 -24.029  2.4810  2.6610  2.8050 -12.029  2.4810  2.6610  2.8050 
  6323.000 -23.583  2.4800  2.6240  2.7680 -11.583  2.4800  2.6240  2.7680 
  6323.500 -23.137  2.4790  2.5870  2.7310 -11.137  2.4790  2.5870  2.7310 
  6324.000 -22.692  2.4600  2.5500  2.6940 -10.692  2.4600  2.5500  2.6940 
  6324.500 -22.247  2.4420  2.5130  2.6570 -10.247  2.4420  2.5130  2.6570 
  6325.000 -21.534  2.4040  2.4770  2.6380 -9.5340  2.4040  2.4770  2.6380 
  6325.500 -20.460  2.3850  2.4750  2.6200 -8.4600  2.3850  2.4750  2.6200 
  6326.000 -20.014  2.3660  2.4380  2.6000 -8.0140  2.3660  2.4380  2.6000 
  6326.500 -19.568  2.3660  2.4560  2.5810 -7.5680  2.3660  2.4560  2.5810 
  6327.000 -18.676  2.3650  2.4730  2.5810 -6.6760  2.3650  2.4730  2.5810 
  6327.500 -18.321  2.3640  2.5080  2.5800 -6.3210  2.3640  2.5080  2.5800 
  6328.000 -18.325  2.3630  2.5430  2.5970 -6.3250  2.3630  2.5430  2.5970 
  6328.500 -19.768  2.3620  2.5780  2.6140 -7.7680  2.3620  2.5780  2.6140 
  6329.000 -21.930  2.3970  2.6140  2.6310 -9.9300  2.3970  2.6140  2.6310 
  6329.500 -23.552  2.4330  2.6840  2.6480 -11.552  2.4330  2.6840  2.6480 
  6330.000 -24.815  2.4500  2.7190  2.6650 -12.815  2.4500  2.7190  2.6650 
  6330.500 -26.078  2.4670  2.7540  2.6820 -14.078  2.4670  2.7540  2.6820 
  6331.000 -28.602  2.5020  2.7900  2.7170 -16.602  2.5020  2.7900  2.7170 
  6331.500 -29.865  2.5370  2.7890  2.7160 -17.865  2.5370  2.7890  2.7160 
  6332.000 -30.229  2.5180  2.7880  2.7160 -18.229  2.5180  2.7880  2.7160 
  6332.500 -30.054  2.4990  2.7510  2.6790 -18.054  2.4990  2.7510  2.6790 
