~Version Information
VERS.                     2.0: CWLS log ASCII Standard Version 2.00
WRAP.                      NO: One line per depth step
~Well Information Block
#MNEM.UNIT                               Data Type  Information
#---------                               ---------  -----------
STRT.FT                                   450.0000:
STOP.FT                                  6780.0000:
STEP.FT                                     0.5000:
NULL.                 -999.25                     :
COMP.                                             :COMPANY            
WELL.     SAN EMIDIO A 25-19                      :WELL               
FLD .                                             :FIELD              
CTRY.                                             :COUNTRY            
STAT.                                             :STATE              
LOC .                                             :LOCATION           
UWI .                                             :UNIQUE WELL ID     
SRVC.                                             :Service company    
DATE.                                             :LOG DATE           
~Curve Information
#MNEM.UNIT           API CODE  Curve Description
#---------           --------  -----------------
DEPT.FT                      :   1 DEPTH
SP  .MV                      :   2
AM16.OHMM                    :   3
AO10.OHMM                    :   4
AO19.OHMM                    :   5
SBL .MV                      :   6
RS  .OHMM                    :   7
RM  .OHMM                    :   8
RD  .OHMM                    :   9
~A
# ...
   874.000 -42.414  15.753  12.526  11.745 -26.710  15.753  12.526  11.745 
   874.500 -42.509  15.788  12.991  11.780 -26.806  15.788  12.991  11.780 
   875.000 -42.877  15.822  13.814  11.797 -27.175  15.822  13.814  11.797 
   875.500 -43.061  15.893  14.494  11.814 -27.359  15.893  14.494  11.814 
   876.000 -43.245  16.017  15.138  11.813 -27.544  16.017  15.138  11.813 
   876.500 -44.157  16.142  15.819  11.848 -28.457  16.142  15.819  11.848 
   877.000 -44.341  16.356  17.395  11.846 -28.642  16.356  17.395  11.846 
   877.500 -44.525  16.570  18.649  11.881 -28.827  16.570  18.649  11.881 
   878.000 -44.893  17.106  19.114  11.916 -29.196  17.106  19.114  11.916 
   878.500 -45.077  17.606  19.435  11.987 -29.381  17.606  19.435  11.987 
   879.000 -45.262  18.107  19.793  12.075 -29.567  18.107  19.793  12.075 
   879.500 -45.449  18.285  19.939  12.164 -29.755  18.285  19.939  12.164 
   880.000 -45.453  18.463  20.085  12.234 -29.760  18.463  20.085  12.234 
   880.500 -45.638  18.462  20.231  12.341 -29.946  18.462  20.231  12.341 
   881.000 -45.823  18.425  20.377  12.448 -30.132  18.425  20.377  12.448 
   881.500 -46.007  18.388  20.211  12.518 -30.317  18.388  20.211  12.518 
   882.000 -46.011  18.351  20.046  12.643 -30.322  18.351  20.046  12.643 
   882.500 -46.016  18.314  19.880  12.768 -30.328  18.314  19.880  12.768 
   883.000 -45.930  18.277  19.714  13.089 -30.243  18.277  19.714  13.089 
   883.500 -45.844  18.240  19.549  13.303 -30.158  18.240  19.549  13.303 
   884.000 -45.489  18.202  19.383  13.481 -29.804  18.202  19.383  13.481 
   884.500 -45.402  18.201  19.218  13.839 -29.718  18.201  19.218  13.839 
   885.000 -45.315  18.236  19.201  14.089 -29.632  18.236  19.201  14.089 
   885.500 -45.322  18.270  19.189  14.518 -29.640  18.270  19.189  14.518 
   886.000 -45.146  18.341  19.535  14.803 -29.465  18.341  19.535  14.803 
   886.500 -45.149  18.429  19.522  15.233 -29.469  18.429  19.522  15.233 
   887.000 -45.152  18.518  19.868  15.662 -29.473  18.518  19.868  15.662 
   887.500 -45.157  18.803  20.217  16.092 -29.478  18.803  20.217  16.092 
   888.000 -45.161  19.089  20.565  17.023 -29.483  19.089  20.565  17.023 
   888.500 -45.347  19.661  20.732  19.972 -29.670  19.661  20.732  19.972 
   889.000 -45.532  19.839  20.898  20.678 -29.856  19.839  20.898  20.678 
   889.500 -45.628  19.981  21.599  21.384 -29.953  19.981  21.599  21.384 
   890.000 -45.723  20.034  21.586  22.091 -30.049  20.034  21.586  22.091 
   890.500 -45.728  20.087  22.291  22.797 -30.055  20.087  22.291  22.797 
   891.000 -45.823  20.103  22.637  23.504 -30.151  20.103  22.637  23.504 
   891.500 -45.918  20.120  22.983  24.210 -30.247  20.120  22.983  24.210 
   892.000 -45.831  20.190  23.688  24.916 -30.161  20.190  23.688  24.916 
   892.500 -45.744  20.189  24.034  25.619 -30.075  20.189  24.034  25.619 
   893.000 -45.750  20.188  24.561  25.968 -30.082  20.188  24.561  25.968 
   893.500 -45.663  20.222  25.089  26.318 -29.996  20.222  25.089  26.318 
   894.000 -45.576  20.185  25.614  26.487 -29.910  20.185  25.614  26.487 
   894.500 -45.222  20.166  26.139  26.655 -29.557  20.166  26.139  26.655 
   895.000 -45.045  20.147  26.836  26.999 -29.381  20.147  26.836  26.999 
   895.500 -44.508  20.074  27.186  27.347 -28.845  20.074  27.186  27.347 
   896.000 -43.970  20.073  27.528  27.336 -28.308  20.073  27.528  27.336 
   896.500 -43.252  20.000  27.157  27.326 -27.591  20.000  27.157  27.326 
   897.000 -42.534  19.927  26.788  27.315 -26.874  19.927  26.788  27.315 
   897.500 -41.996  19.710  26.419  26.948 -26.337  19.710  26.419  26.948 
   898.000 -41.820  19.422  24.968  26.581 -26.162  19.422  24.968  26.581 
   898.500 -41.824  19.457  24.597  25.853 -26.167  19.457  24.597  25.853 
   899.000 -42.371  19.527  23.150  25.125 -26.715  19.527  23.150  25.125 
   899.500 -43.098  19.562  22.062  24.756 -27.443  19.562  22.062  24.756 
   900.000 -45.092  19.686  21.873  24.387 -29.437  19.686  21.873  24.387 
   900.500 -45.638  19.811  21.683  24.013 -29.984  19.811  21.683  24.013 
   901.000 -46.183  19.988  22.025  24.361 -30.530  19.988  22.025  24.361 
   901.500 -46.551  20.095  22.013  24.532 -30.899  20.095  22.013  24.532 
   902.000 -46.555  20.165  22.717  24.702 -30.904  20.165  22.717  24.702 
   902.500 -46.558  20.200  23.422  25.046 -30.908  20.200  23.422  25.046 
   903.000 -46.653  20.234  23.768  25.752 -31.004  20.234  23.768  25.752 
   903.500 -46.748  20.269  24.472  26.102 -31.100  20.269  24.472  26.102 
   904.000 -46.663  20.268  24.460  26.452 -31.016  20.268  24.460  26.452 
   904.500 -46.578  20.266  24.987  26.977 -30.932  20.266  24.987  26.977 
   905.000 -46.402  20.301  25.515  27.502 -30.757  20.301  25.515  27.502 
   905.500 -46.226  20.300  25.861  28.209 -30.582  20.300  25.861  28.209 
   906.000 -46.139  20.299  26.207  28.559 -30.496  20.299  26.207  28.559 
   906.500 -46.052  20.298  27.266  28.909 -30.410  20.298  27.266  28.909 
   907.000 -45.876  20.296  27.612  29.611 -30.235  20.296  27.612  29.611 
   907.500 -45.699  20.295  27.781  30.317 -30.059  20.295  27.781  30.317 
   908.000 -45.614  20.294  27.950  30.488 -29.975  20.294  27.950  30.488 
   908.500 -45.528  20.292  28.650  30.658 -29.890  20.292  28.650  30.658 
   909.000 -45.534  20.327  28.638  31.186 -29.897  20.327  28.638  31.186 
   909.500 -45.538  20.326  28.625  31.713 -29.902  20.326  28.625  31.713 
   910.000 -45.541  20.325  28.613  32.056 -29.906  20.325  28.613  32.056 
   910.500 -45.726  20.323  28.600  32.227 -30.092  20.323  28.600  32.227 
   911.000 -45.911  20.286  28.588  32.398 -30.278  20.286  28.588  32.398 
   911.500 -46.099  20.321  28.575  32.741 -30.467  20.321  28.575  32.741 
   912.000 -46.192  20.283  28.563  32.731 -30.561  20.283  28.563  32.731 
   912.500 -46.286  20.282  28.192  32.901 -30.655  20.282  28.192  32.901 
   913.000 -46.474  20.281  28.179  33.072 -30.844  20.281  28.179  33.072 
   913.500 -46.477  20.244  28.169  33.241 -30.848  20.244  28.169  33.241 
   914.000 -46.480  20.243  28.159  33.409 -30.852  20.243  28.159  33.409 
   914.500 -46.487  20.242  28.323  33.394 -30.860  20.242  28.323  33.394 
   915.000 -46.672  20.168  28.488  33.384 -31.046  20.168  28.488  33.384 
   915.500 -46.495  20.095  28.476  33.014 -30.870  20.095  28.476  33.014 
   916.000 -46.318  20.022  28.465  32.645 -30.694  20.022  28.465  32.645 
   916.500 -46.143  19.950  28.455  32.455 -30.520  19.950  28.455  32.455 
   917.000 -45.425  19.697  28.080  32.265 -29.803  19.697  28.080  32.265 
   917.500 -44.345  19.445  27.711  31.533 -28.724  19.445  27.711  31.533 
   918.000 -43.446  19.085  27.342  31.345 -27.826  19.085  27.342  31.345 
   918.500 -42.186  18.654  26.971  31.158 -26.567  18.654  26.971  31.158 
   919.000 -40.745  17.254  26.600  30.607 -25.127  17.254  26.600  30.607 
   919.500 -39.665  16.894  25.862  30.056 -24.048  16.894  25.862  30.056 
   920.000 -38.043  16.677  24.415  29.689 -22.427  16.677  24.415  29.689 
   920.500 -36.964  16.533  24.047  29.322 -21.349  16.533  24.047  29.322 
   921.000 -36.426  16.424  23.678  28.949 -20.812  16.424  23.678  28.949 
   921.500 -36.792  16.602  22.227  28.221 -21.179  16.602  22.227  28.221 
   922.000 -38.061  16.923  21.497  28.033 -22.449  16.923  21.497  28.033 
   922.500 -39.331  17.281  20.768  27.845 -23.720  17.281  20.768  27.845 
   923.000 -41.684  17.530  21.114  27.834 -26.074  17.530  21.114  27.834 
   923.500 -43.134  17.763  21.818  27.824 -27.525  17.763  21.818  27.824 
   924.000 -44.404  17.995  22.165  27.809 -28.796  17.995  22.165  27.809 
   924.500 -45.314  18.316  22.513  27.980 -29.707  18.316  22.513  27.980 
   925.000 -45.588  18.529  22.861  28.150 -29.981  18.529  22.861  28.150 
   925.500 -45.863  18.743  23.561  28.498 -30.257  18.743  23.561  28.498 
   926.000 -46.048  18.886  23.551  28.846 -30.443  18.886  23.551  28.846 
   926.500 -46.233  19.028  23.540  29.194 -30.629  19.028  23.540  29.194 
