~Version Information
VERS.                     2.0: CWLS log ASCII Standard Version 2.00
WRAP.                      NO: One line per depth step
~Well Information Block
#MNEM.UNIT                               Data Type  Information
#---------                               ---------  -----------
STRT.FT                                  6300.0000:
STOP.FT                                  6960.0000:
STEP.FT                                     0.5000:
NULL.                 -999.25                     :
COMP.                                             :COMPANY            
WELL.     SAN EMIDIO A 25-19 REDRILL              :WELL               
FLD .                                             :FIELD              
CTRY.                                             :COUNTRY            
STAT.                                             :STATE              
LOC .                                             :LOCATION           
UWI .                                             :UNIQUE WELL ID     
SRVC.                                             :Service company    
DATE.                                             :LOG DATE           
~Curve Information
#MNEM.UNIT           API CODE  Curve Description
#---------           --------  -----------------
DEPT.FT                      :   1 DEPTH
SP  .MV                      :   2
AM16.OHMM                    :   3
AO10.OHMM                    :   4
AO19.OHMM                    :   5
SBL .MV                      :   6
RS  .OHMM                    :   7
RM  .OHMM                    :   8
RD  .OHMM                    :   9
~A
  6300.000 -37.674 -999.25  2.5930 -999.25 -21.674 -999.25  2.5930 -999.25 
  6300.500 -37.324  2.2310  2.5860 -999.25 -21.324  2.2310  2.5860 -999.25 
  6301.000 -36.973  2.2540  2.5780 -999.25 -20.973  2.2540  2.5780 -999.25 
  6301.500 -36.711  2.2760  2.5710 -999.25 -20.711  2.2760  2.5710 -999.25 
  6302.000 -36.448  2.2990  2.5630 -999.25 -20.448  2.2990  2.5630 -999.25 
  6302.500 -35.742  2.3210  2.5560 -999.25 -19.742  2.3210  2.5560 -999.25 
  6303.000 -35.659  2.3430  2.5480  2.8910 -19.659  2.3430  2.5480  2.8910 
  6303.500 -35.576  2.3660  2.6180  3.0150 -19.576  2.3660  2.6180  3.0150 
  6304.000 -35.230  2.3880  2.6520  3.1400 -19.230  2.3880  2.6520  3.1400 
  6304.500 -34.879  2.4110  2.6510  3.2460 -18.879  2.4110  2.6510  3.2460 
  6305.000 -34.168  2.4330  2.6490  3.2440 -18.168  2.4330  2.6490  3.2440 
  6305.500 -33.456  2.4550  2.6480  3.1710 -17.456  2.4550  2.6480  3.1710 
  6306.000 -32.742  2.4780  2.6460  3.1150 -16.742  2.4780  2.6460  3.1150 
  6306.500 -32.212  2.5000  2.6080  3.0600 -16.212  2.5000  2.6080  3.0600 
  6307.000 -31.681  2.4990  2.5350  2.9690 -15.681  2.4990  2.5350  2.9690 
  6307.500 -30.255  2.4610  2.4970  2.8770 -14.255  2.4610  2.4970  2.8770 
  6308.000 -29.725  2.4420  2.4950  2.8030 -13.725  2.4420  2.4950  2.8030 
  6308.500 -29.553  2.4220  2.4580  2.7660 -13.553  2.4220  2.4580  2.7660 
  6309.000 -29.380  2.4020  2.4560  2.7290 -13.380  2.4020  2.4560  2.7290 
  6309.500 -29.033  2.3820  2.4720  2.7260 -13.033  2.3820  2.4720  2.7260 
  6310.000 -29.402  2.3810  2.4890  2.7610 -13.402  2.3810  2.4890  2.7610 
  6310.500 -29.950  2.3980  2.4880  2.7950 -13.950  2.3980  2.4880  2.7950 
  6311.000 -30.318  2.4140  2.4860  2.9020 -14.318  2.4140  2.4860  2.9020 
  6311.500 -30.056  2.4480  2.4850  2.9720 -14.056  2.4480  2.4850  2.9720 
  6312.000 -29.794  2.4830  2.4830  3.0250 -13.794  2.4830  2.4830  3.0250 
  6312.500 -28.548  2.5170  2.4810  3.0780 -12.548  2.5170  2.4810  3.0780 
  6313.000 -27.658  2.5520  2.4790  2.9320 -11.658  2.5520  2.4790  2.9320 
  6313.500 -27.396  2.5860  2.4780  2.8580 -11.396  2.5860  2.4780  2.8580 
  6314.000 -27.133  2.5840  2.4760  2.8390 -11.133  2.5840  2.4760  2.8390 
  6314.500 -26.966  2.5650  2.4750  2.8200 -10.966  2.5650  2.4750  2.8200 
  6315.000 -26.975  2.5450  2.4730  2.8170 -10.975  2.5450  2.4730  2.8170 
  6315.500 -26.984  2.5260  2.5070  2.8150 -10.984  2.5260  2.5070  2.8150 
  6316.000 -27.352  2.5060  2.5420  2.8140 -11.352  2.5060  2.5420  2.8140 
  6316.500 -27.541  2.5040  2.5770  2.7760 -11.541  2.5040  2.5770  2.7760 
  6317.000 -27.730  2.5020  2.6110  2.7750 -11.730  2.5020  2.6110  2.7750 
  6317.500 -28.098  2.5370  2.6810  2.7730 -12.098  2.5370  2.6810  2.7730 
  6318.000 -28.646  2.6070  2.7150  2.7720 -12.646  2.6070  2.7150  2.7720 
  6318.500 -29.015  2.6240  2.7140  2.8420 -13.015  2.6240  2.7140  2.8420 
  6319.000 -29.563  2.6400  2.7120  2.9130 -13.563  2.6400  2.7120  2.9130 
  6319.500 -30.291  2.7100  2.7100  2.9830 -14.291  2.7100  2.7100  2.9830 
  6320.000 -30.839  2.7450  2.7090  2.9820 -14.839  2.7450  2.7090  2.9820 
  6320.500 -31.028  2.7070  2.6710  2.9630 -15.028  2.7070  2.6710  2.9630 
  6321.000 -30.498  2.6880  2.6690  2.9430 -14.498  2.6880  2.6690  2.9430 
  6321.500 -29.788  2.6680  2.6320  2.9240 -13.788  2.6680  2.6320  2.9240 
  6322.000 -29.437  2.6310  2.5940  2.9040 -13.437  2.6310  2.5940  2.9040 
  6322.500 -28.368  2.5930  2.5920  2.8490 -12.368  2.5930  2.5920  2.8490 
  6323.000 -28.017  2.5370  2.5550  2.7930 -12.017  2.5370  2.5550  2.7930 
  6323.500 -28.206  2.4810  2.5170  2.6830 -12.206  2.4810  2.5170  2.6830 
  6324.000 -28.574  2.4440  2.4980  2.6100 -12.574  2.4440  2.4980  2.6100 
  6324.500 -28.404  2.4060  2.4790  2.5000 -12.404  2.4060  2.4790  2.5000 
  6325.000 -28.141  2.3870  2.4760  2.4990 -12.141  2.3870  2.4760  2.4990 
  6325.500 -27.879  2.3670  2.4750  2.4980 -11.879  2.3670  2.4750  2.4980 
  6326.000 -26.453  2.3480  2.5270  2.5310 -10.453  2.3480  2.5270  2.5310 
  6326.500 -25.204  2.3280  2.5800  2.5660 -9.2036  2.3280  2.5800  2.5660 
  6327.000 -24.493  2.3260  2.5970  2.6010 -8.4935  2.3260  2.5970  2.6010 
  6327.500 -23.963  2.3240  2.6130  2.6360 -7.9634  2.3240  2.6130  2.6360 
  6328.000 -23.792  2.3590  2.6830  2.6330 -7.7924  2.3590  2.6830  2.6330 
  6328.500 -23.981  2.3930  2.7170  2.6680 -7.9814  2.3930  2.7170  2.6680 
  6329.000 -25.609  2.4280  2.7150  2.6660 -9.6086  2.4280  2.7150  2.6660 
  6329.500 -28.134  2.4620  2.7500  2.6650 -12.134  2.4620  2.7500  2.6650 
  6330.000 -30.120  2.4970  2.7840  2.6460 -14.120  2.4970  2.7840  2.6460 
  6330.500 -32.289  2.5130  2.7830  2.6260 -16.289  2.5130  2.7830  2.6260 
  6331.000 -33.017  2.5300  2.7810  2.5880 -17.017  2.5300  2.7810  2.5880 
  6331.500 -33.745  2.4740  2.7980  2.5870 -17.745  2.4740  2.7980  2.5870 
  6332.000 -34.654  2.4180  2.8140  2.5490 -18.654  2.4180  2.8140  2.5490 
  6332.500 -34.842  2.3800  2.7760  2.4760 -18.842  2.3800  2.7760  2.4760 
  6333.000 -34.672  2.3420  2.7210  2.4380 -18.672  2.3420  2.7210  2.4380 
  6333.500 -33.782  2.2680  2.6660  2.3650 -17.782  2.2680  2.6660  2.3650 
  6334.000 -31.993  2.2490  2.5910  2.3270 -15.993  2.2490  2.5910  2.3270 
  6334.500 -31.103  2.2300  2.5180  2.3260 -15.103  2.2300  2.5180  2.3260 
  6335.000 -30.479  2.1910  2.4070  2.3240 -14.479  2.1910  2.4070  2.3240 
  6335.500 -29.856  2.1540  2.3700  2.3230 -13.856  2.1540  2.3700  2.3230 
  6336.000 -27.711  2.1520  2.4040  2.3570 -11.711  2.1520  2.4040  2.3570 
  6336.500 -27.001  2.1510  2.4210  2.4100 -11.001  2.1510  2.4210  2.4100 
  6337.000 -26.830  2.1490  2.4380  2.4630 -10.830  2.1490  2.4380  2.4630 
  6337.500 -26.748  2.1470  2.4540  2.4960 -10.748  2.1470  2.4540  2.4960 
  6338.000 -26.665  2.1460  2.4700  2.5310 -10.665  2.1460  2.4700  2.5310 
  6338.500 -26.318  2.1450  2.5040  2.5660 -10.318  2.1450  2.5040  2.5660 
  6339.000 -25.968  2.1780  2.5380  2.5830 -9.9677  2.1780  2.5380  2.5830 
  6339.500 -25.258  2.1770  2.5730  2.5990 -9.2576  2.1770  2.5730  2.5990 
  6340.000 -24.727  2.1760  2.5720  2.6330 -8.7275  2.1760  2.5720  2.6330 
  6340.500 -24.377  2.1740  2.5700  2.6310 -8.3765  2.1740  2.5700  2.6310 
  6341.000 -24.025  2.1730  2.6050  2.6300 -8.0246  2.1730  2.6050  2.6300 
  6341.500 -23.672  2.1700  2.6030  2.6470 -7.6718  2.1700  2.6030  2.6470 
  6342.000 -22.965  2.1870  2.6010  2.6640 -6.9653  2.1870  2.6010  2.6640 
  6342.500 -22.703  2.2030  2.6000  2.6800 -6.7034  2.2030  2.6000  2.6800 
  6343.000 -22.441  2.2020  2.5980  2.6960 -6.4406  2.2020  2.5980  2.6960 
  6343.500 -22.992  2.2000  2.5970  2.6940 -6.9923  2.2000  2.5970  2.6940 
  6344.000 -23.540  2.1810  2.5950  2.6930 -7.5404  2.1810  2.5950  2.6930 
  6344.500 -24.089  2.1610  2.5930  2.6920 -8.0885  2.1610  2.5930  2.6920 
  6345.000 -24.817  2.1590  2.5740  2.6540 -8.8166  2.1590  2.5740  2.6540 
  6345.500 -25.365  2.1580  2.5540  2.6520 -9.3647  2.1580  2.5540  2.6520 
  6346.000 -25.734  2.1560  2.5160  2.6500 -9.7337  2.1560  2.5160  2.6500 
  6346.500 -25.922  2.1540  2.5140  2.6490 -9.9218  2.1540  2.5140  2.6490 
  6347.000 -26.111  2.1710  2.5130  2.6110 -10.111  2.1710  2.5130  2.6110 
  6347.500 -26.480  2.1880  2.5110  2.6090 -10.480  2.1880  2.5110  2.6090 
  6348.000 -27.028  2.1860  2.5100  2.6080 -11.028  2.1860  2.5100  2.6080 
  6348.500 -27.304  2.1840  2.5080  2.6070 -11.304  2.1840  2.5080  2.6070 
  6349.000 -27.581  2.1820  2.5070  2.6060 -11.581  2.1820  2.5070  2.6060 
  6349.500 -26.691  2.1800  2.5050  2.6030 -10.691  2.1800  2.5050  2.6030 
  6350.000 -25.802  2.1430  2.4670  2.6020 -9.8021  2.1430  2.4670  2.6020 
  6350.500 -22.938  2.1410  2.4650  2.6010 -6.9383  2.1410  2.4650  2.6010 
  6351.000 -21.689  2.1400  2.4820  2.5990 -5.6891  2.1400  2.4820  2.5990 
  6351.500 -20.979  2.1390  2.4990  2.5610 -4.9790  2.1390  2.4990  2.5610 
  6352.000 -21.166  2.1370  2.4790  2.5600 -5.1662  2.1370  2.4790  2.5600 
  6352.500 -21.352  2.1350  2.4590  2.5590 -5.3525  2.1350  2.4590  2.5590 
