~Version Information
VERS.                     2.0: CWLS log ASCII Standard Version 2.00
WRAP.                      NO: One line per depth step
~Well Information Block
#MNEM.UNIT                               Data Type  Information
#---------                               ---------  -----------
STRT.FT                                  6300.0000:
STOP.FT                                  6960.0000:
STEP.FT                                     0.5000:
NULL.                 -999.25                     :
COMP.                                             :COMPANY            
WELL.     SAN EMIDIO A 25-19 REDRILL              :WELL               
FLD .                                             :FIELD              
CTRY.                                             :COUNTRY            
STAT.                                             :STATE              
LOC .                                             :LOCATION           
UWI .                                             :UNIQUE WELL ID     
SRVC.                                             :Service company    
DATE.                                             :LOG DATE           
~Curve Information
#MNEM.UNIT           API CODE  Curve Description
#---------           --------  -----------------
DEPT.FT                      :   1 DEPTH
SP  .MV                      :   2
AM16.OHMM                    :   3
AO10.OHMM                    :   4
AO19.OHMM                    :   5
SBL .MV                      :   6
RS  .OHMM                    :   7
RM  .OHMM                    :   8
RD  .OHMM                    :   9
~A
# ...
  6565.000 -28.357  2.7430  2.0940  2.2700 -12.357  2.7430  2.0940  2.2700 
  6565.500 -28.094  2.7410  2.1650  2.2860 -12.094  2.7410  2.1650  2.2860 
  6566.000 -27.833  2.7220  2.1990  2.3020 -11.833  2.7220  2.1990  2.3020 
  6566.500 -27.663  2.7020  2.2340  2.3180 -11.663  2.7020  2.2340  2.3180 
  6567.000 -27.671  2.7000  2.5200  2.3520 -11.671  2.7000  2.5200  2.3520 
  6567.500 -27.946  2.6980  2.6260  2.3860 -11.946  2.6980  2.6260  2.3860 
  6568.000 -28.220  2.6970  2.8050  2.3840 -12.220  2.6970  2.8050  2.3840 
  6568.500 -28.770  2.6960  2.9830  2.3830 -12.770  2.6960  2.9830  2.3830 
  6569.000 -29.138  2.6930  3.1620  2.3810 -13.138  2.6930  3.1620  2.3810 
  6569.500 -29.504  2.6740  3.2690  2.3610 -13.504  2.6740  3.2690  2.3610 
  6570.000 -29.870  2.6550  3.2670  2.3410 -13.870  2.6550  3.2670  2.3410 
  6570.500 -29.696  2.6530  3.2290  2.3390 -13.696  2.6530  3.2290  2.3390 
  6571.000 -29.522  2.6520  3.2280  2.3380 -13.522  2.6520  3.2280  2.3380 
  6571.500 -28.634  2.6500  3.2260  2.3360 -12.634  2.6500  3.2260  2.3360 
  6572.000 -28.461  2.6480  3.1890  2.3340 -12.461  2.6480  3.1890  2.3340 
  6572.500 -28.828  2.6460  3.1520  2.3150 -12.828  2.6460  3.1520  2.3150 
  6573.000 -29.015  2.6450  3.0770  2.2950 -13.015  2.6450  3.0770  2.2950 
  6573.500 -29.561  2.6440  3.0750  2.2920 -13.561  2.6440  3.0750  2.2920 
  6574.000 -29.748  2.6420  3.0370  2.3090 -13.748  2.6420  3.0370  2.3090 
  6574.500 -29.304  2.6400  3.0360  2.3250 -13.304  2.6400  3.0360  2.3250 
  6575.000 -28.860  2.6390  2.9980  2.3590 -12.860  2.6390  2.9980  2.3590 
  6575.500 -28.332  2.6370  2.9600  2.3930 -12.332  2.6370  2.9600  2.3930 
  6576.000 -27.979  2.6350  2.9590  2.4280 -11.979  2.6350  2.9590  2.4280 
  6576.500 -27.806  2.6330  2.9570  2.4620 -11.806  2.6330  2.9570  2.4620 
  6577.000 -27.814  2.6320  2.9200  2.6040 -11.814  2.6320  2.9200  2.6040 
  6577.500 -27.821  2.6300  2.9180  2.8180 -11.821  2.6300  2.9180  2.8180 
  6578.000 -27.826  2.6290  2.9160  2.9600 -11.826  2.6290  2.9160  2.9600 
  6578.500 -27.832  2.6270  2.8790  3.0130 -11.832  2.6270  2.8790  3.0130 
  6579.000 -27.841  2.6260  2.8770  3.0650 -11.841  2.6260  2.8770  3.0650 
  6579.500 -27.850  2.6230  2.8570  3.0990 -11.850  2.6230  2.8570  3.0990 
  6580.000 -27.677  2.6220  2.8380  3.0970 -11.677  2.6220  2.8380  3.0970 
  6580.500 -27.325  2.6200  2.8370  3.0590 -11.325  2.6200  2.8370  3.0590 
  6581.000 -26.972  2.6070  2.8350  3.0580 -10.972  2.6070  2.8350  3.0580 
  6581.500 -26.440  2.5930  2.8220  3.0380 -10.440  2.5930  2.8220  3.0380 
  6582.000 -25.907  2.5800  2.8080  3.0190 -9.9065  2.5800  2.8080  3.0190 
  6582.500 -25.373  2.5960  2.7940  2.9990 -9.3728  2.5960  2.7940  2.9990 
  6583.000 -25.380  2.6120  2.7930  2.9790 -9.3800  2.6120  2.7930  2.9790 
  6583.500 -25.567  2.6110  2.7910  2.9590 -9.5672  2.6110  2.7910  2.9590 
  6584.000 -25.034  2.6090  2.7900  2.9390 -9.0344  2.6090  2.7900  2.9390 
  6584.500 -24.503  2.6430  2.7880  2.9370 -8.5025  2.6430  2.7880  2.9370 
  6585.000 -24.690  2.6780  2.7860  2.8990 -8.6897  2.6780  2.7860  2.8990 
  6585.500 -24.697  2.6760  2.7850  2.8610 -8.6969  2.6760  2.7850  2.8610 
  6586.000 -25.063  2.6750  2.7830  2.8420 -9.0632  2.6750  2.7830  2.8420 
  6586.500 -25.430  2.6740  2.7810  2.8220 -9.4304  2.6740  2.7810  2.8220 
  6587.000 -25.707  2.6720  2.7790  2.8020 -9.7067  2.6720  2.7790  2.8020 
  6587.500 -25.984  2.6700  2.7780  2.7820 -9.9839  2.6700  2.7780  2.7820 
  6588.000 -26.354  2.6680  2.7760  2.7630 -10.354  2.6680  2.7760  2.7630 
  6588.500 -26.449  2.6670  2.7750  2.7430 -10.449  2.6670  2.7750  2.7430 
  6589.000 -26.545  2.6650  2.7730  2.7410 -10.545  2.6650  2.7730  2.7410 
  6589.500 -26.552  2.6630  2.7710  2.7210 -10.552  2.6630  2.7710  2.7210 
  6590.000 -26.559  2.6440  2.7700  2.7020 -10.559  2.6440  2.7700  2.7020 
  6590.500 -26.296  2.6250  2.7680  2.6880 -10.296  2.6250  2.7680  2.6880 
  6591.000 -26.034  2.6230  2.7670  2.6740 -10.034  2.6230  2.7670  2.6740 
  6591.500 -25.951  2.6210  2.7650  2.6600 -9.9515  2.6210  2.7650  2.6600 
  6592.000 -25.869  2.6200  2.7630  2.6580 -9.8687  2.6200  2.7630  2.6580 
  6592.500 -25.520  2.6180  2.7620  2.6560 -9.5195  2.6180  2.7620  2.6560 
  6593.000 -25.347  2.6160  2.7610  2.6730 -9.3467  2.6160  2.7610  2.6730 
  6593.500 -25.175  2.6140  2.7580  2.6890 -9.1748  2.6140  2.7580  2.6890 
  6594.000 -25.090  2.6130  2.7570  2.6870 -9.0902  2.6130  2.7570  2.6870 
  6594.500 -25.006  2.6120  2.7550  2.7030 -9.0056  2.6120  2.7550  2.7030 
  6595.000 -25.283  2.6450  2.7540  2.7200 -9.2828  2.6450  2.7540  2.7200 
  6595.500 -25.559  2.6440  2.7520  2.7360 -9.5591  2.6440  2.7520  2.7360 
  6596.000 -26.109  2.6420  2.7680  2.7520 -10.109  2.6420  2.7680  2.7520 
  6596.500 -26.116  2.6770  2.7850  2.7860 -10.116  2.6770  2.7850  2.7860 
  6597.000 -26.662  2.6750  2.8190  2.8020 -10.662  2.6750  2.8190  2.8020 
  6597.500 -27.209  2.6920  2.8170  2.8190 -11.209  2.6920  2.8170  2.8190 
  6598.000 -27.396  2.7080  2.8160  2.8170 -11.396  2.7080  2.8160  2.8170 
  6598.500 -27.401  2.7070  2.7960  2.8150 -11.401  2.7070  2.7960  2.8150 
  6599.000 -27.407  2.7050  2.7770  2.7950 -11.407  2.7050  2.7770  2.7950 
  6599.500 -27.414  2.6670  2.7390  2.7760 -11.414  2.6670  2.7390  2.7760 
  6600.000 -27.421  2.6290  2.7010  2.7010 -11.421  2.6290  2.7010  2.7010 
  6600.500 -26.893  2.6280  2.6820  2.6640 -10.893  2.6280  2.6820  2.6640 
  6601.000 -26.720  2.5900  2.6630  2.5910 -10.720  2.5900  2.6630  2.5910 
  6601.500 -26.547  2.5520  2.6430  2.5530 -10.547  2.5520  2.6430  2.5530 
  6602.000 -26.374  2.5330  2.6230  2.5160 -10.374  2.5330  2.6230  2.5160 
  6602.500 -26.199  2.5140  2.6210  2.4970 -10.199  2.5140  2.6210  2.4970 
  6603.000 -26.030  2.4390  2.6190  2.4780 -10.030  2.4390  2.6190  2.4780 
  6603.500 -26.035  2.4380  2.6180  2.4770 -10.035  2.4380  2.6180  2.4770 
  6604.000 -26.041  2.4360  2.6170  2.4760 -10.041  2.4360  2.6170  2.4760 
  6604.500 -26.138  2.3980  2.6150  2.4920 -10.138  2.3980  2.6150  2.4920 
  6605.000 -26.235  2.4330  2.6130  2.5090 -10.235  2.4330  2.6130  2.5090 
  6605.500 -26.606  2.4310  2.6300  2.5260 -10.606  2.4310  2.6300  2.5260 
  6606.000 -26.701  2.4300  2.6460  2.5430 -10.701  2.4300  2.6460  2.5430 
  6606.500 -26.797  2.4460  2.6450  2.5770 -10.797  2.4460  2.6450  2.5770 
  6607.000 -27.526  2.4620  2.6430  2.5930 -11.526  2.4620  2.6430  2.5930 
  6607.500 -27.533  2.4970  2.6590  2.6100 -11.533  2.4970  2.6590  2.6100 
  6608.000 -27.540  2.4950  2.6750  2.6270 -11.540  2.4950  2.6750  2.6270 
  6608.500 -27.547  2.5120  2.6740  2.6440 -11.547  2.5120  2.6740  2.6440 
  6609.000 -27.375  2.5290  2.6720  2.6610 -11.375  2.5290  2.6720  2.6610 
  6609.500 -27.202  2.5260  2.6700  2.6780 -11.202  2.5260  2.6700  2.6780 
  6610.000 -27.030  2.4890  2.6510  2.6400 -11.030  2.4890  2.6510  2.6400 
  6610.500 -26.946  2.4870  2.6320  2.6030 -10.946  2.4870  2.6320  2.6030 
  6611.000 -26.861  2.4860  2.6300  2.5650 -10.861  2.4860  2.6300  2.5650 
  6611.500 -26.599  2.4660  2.6280  2.5460 -10.599  2.4660  2.6280  2.5460 
  6612.000 -26.337  2.4460  2.6090  2.5280 -10.337  2.4460  2.6090  2.5280 
  6612.500 -26.162  2.4440  2.5890  2.4900 -10.162  2.4440  2.5890  2.4900 
  6613.000 -25.988  2.4250  2.5880  2.4520 -9.9884  2.4250  2.5880  2.4520 
  6613.500 -25.998  2.4060  2.5860  2.4510 -9.9983  2.4060  2.5860  2.4510 
  6614.000 -26.185  2.4040  2.5720  2.4320 -10.185  2.4040  2.5720  2.4320 
  6614.500 -26.193  2.4030  2.5590  2.4120 -10.193  2.4030  2.5590  2.4120 
  6615.000 -26.290  2.4010  2.5450  2.4300 -10.290  2.4010  2.5450  2.4300 
  6615.500 -26.387  2.3990  2.5070  2.4470 -10.387  2.3990  2.5070  2.4470 
  6616.000 -26.394  2.3970  2.4690  2.4450 -10.394  2.3970  2.4690  2.4450 
  6616.500 -26.401  2.3950  2.4670  2.4620 -10.401  2.3950  2.4670  2.4620 
  6617.000 -26.407  2.3940  2.4660  2.4790 -10.407  2.3940  2.4660  2.4790 
  6617.500 -26.412  2.3750  2.4650  2.5130 -10.412  2.3750  2.4650  2.5130 
