~Version Information
VERS.                     2.0: CWLS log ASCII Standard Version 2.00
WRAP.                      NO: One line per depth step
~Well Information Block
#MNEM.UNIT                               Data Type  Information
#---------                               ---------  -----------
STRT.FT                                  6300.0000:
STOP.FT                                  6960.0000:
STEP.FT                                     0.5000:
NULL.                 -999.25                     :
COMP.                                             :COMPANY            
WELL.     SAN EMIDIO A 25-19 REDRILL              :WELL               
FLD .                                             :FIELD              
CTRY.                                             :COUNTRY            
STAT.                                             :STATE              
LOC .                                             :LOCATION           
UWI .                                             :UNIQUE WELL ID     
SRVC.                                             :Service company    
DATE.                                             :LOG DATE           
~Curve Information
#MNEM.UNIT           API CODE  Curve Description
#---------           --------  -----------------
DEPT.FT                      :   1 DEPTH
SP  .MV                      :   2
AM16.OHMM                    :   3
AO10.OHMM                    :   4
AO19.OHMM                    :   5
SBL .MV                      :   6
RS  .OHMM                    :   7
RM  .OHMM                    :   8
RD  .OHMM                    :   9
~A
# ...
  6724.000 -23.766  2.8210  3.0730  2.8490 -7.7663  2.8210  3.0730  2.8490 
  6724.500 -23.776  2.8380  3.0720  2.8480 -7.7762  2.8380  3.0720  2.8480 
  6725.000 -23.691  2.8550  3.0820  2.8820 -7.6907  2.8550  3.0820  2.8820 
  6725.500 -23.605  2.8720  3.0930  2.9160 -7.6052  2.8720  3.0930  2.9160 
  6726.000 -23.522  2.8880  3.1040  2.9150 -7.5215  2.8880  3.1040  2.9150 
  6726.500 -23.438  2.9050  3.1210  2.9130 -7.4378  2.9050  3.1210  2.9130 
  6727.000 -23.268  2.9210  3.1380  2.9120 -7.2677  2.9210  3.1380  2.9120 
  6727.500 -23.274  2.9200  3.1360  2.9100 -7.2740  2.9200  3.1360  2.9100 
  6728.000 -23.280  2.9190  3.1530  2.9090 -7.2803  2.9190  3.1530  2.9090 
  6728.500 -23.107  2.9180  3.1700  2.8720 -7.1066  2.9180  3.1700  2.8720 
  6729.000 -22.934  2.9170  3.1680  2.8700 -6.9338  2.9170  3.1680  2.8700 
  6729.500 -22.848  2.9160  3.1670  2.8690 -6.8483  2.9160  3.1670  2.8690 
  6730.000 -22.763  2.9140  3.1670  2.8670 -6.7628  2.9140  3.1670  2.8670 
  6730.500 -22.593  2.9310  3.1650  2.8660 -6.5927  2.9310  3.1650  2.8660 
  6731.000 -22.599  2.9480  3.1640  2.9000 -6.5990  2.9480  3.1640  2.9000 
  6731.500 -22.425  2.9650  3.1630  2.9350 -6.4253  2.9650  3.1630  2.9350 
  6732.000 -22.432  2.9810  3.1610  3.0060 -6.4316  2.9810  3.1610  3.0060 
  6732.500 -22.258  2.9980  3.1600  3.0040 -6.2579  2.9980  3.1600  3.0040 
  6733.000 -22.262  3.0150  3.1590  3.0030 -6.2624  3.0150  3.1590  3.0030 
  6733.500 -22.267  3.0320  3.1930  3.0730 -6.2669  3.0320  3.1930  3.0730 
  6734.000 -22.363  3.0490  3.2100  3.0900 -6.3632  3.0490  3.2100  3.0900 
  6734.500 -22.460  3.0830  3.2270  3.1070 -6.4595  3.0830  3.2270  3.1070 
  6735.000 -22.469  3.1180  3.2440  3.1410 -6.4694  3.1180  3.2440  3.1410 
  6735.500 -22.476  3.1530  3.2610  3.1760 -6.4757  3.1530  3.2610  3.1760 
  6736.000 -22.482  3.1700  3.2950  3.2100 -6.4820  3.1700  3.2950  3.2100 
  6736.500 -22.488  3.1860  3.3300  3.2090 -6.4883  3.1860  3.3300  3.2090 
  6737.000 -22.582  3.2560  3.3640  3.2080 -6.5819  3.2560  3.3640  3.2080 
  6737.500 -22.676  3.2910  3.4000  3.2240 -6.6764  3.2910  3.4000  3.2240 
  6738.000 -22.685  3.3260  3.4350  3.2410 -6.6845  3.3260  3.4350  3.2410 
  6738.500 -22.693  3.3610  3.4690  3.2750 -6.6926  3.3610  3.4690  3.2750 
  6739.000 -22.523  3.3960  3.5040  3.2740 -6.5225  3.3960  3.5040  3.2740 
  6739.500 -22.349  3.4660  3.5390  3.2730 -6.3488  3.4660  3.5390  3.2730 
  6740.000 -22.175  3.4830  3.5920  3.2700 -6.1751  3.4830  3.5920  3.2700 
  6740.500 -22.002  3.5000  3.6440  3.2870 -6.0023  3.5000  3.6440  3.2870 
  6741.000 -21.825  3.5700  3.7510  3.3040 -5.8250  3.5700  3.7510  3.3040 
  6741.500 -21.648  3.6410  3.7490  3.2660 -5.6477  3.6410  3.7490  3.2660 
  6742.000 -21.477  3.6760  3.8020  3.2650 -5.4767  3.6760  3.8020  3.2650 
  6742.500 -21.305  3.7110  3.8550  3.2630 -5.3048  3.7110  3.8550  3.2630 
  6743.000 -21.131  3.7460  3.9260  3.2610 -5.1311  3.7460  3.9260  3.2610 
  6743.500 -21.320  3.7810  3.9430  3.2600 -5.3201  3.7810  3.9430  3.2600 
  6744.000 -21.415  3.8510  3.9600  3.2410 -5.4146  3.8510  3.9600  3.2410 
  6744.500 -21.509  3.8140  3.8140  3.2220 -5.5091  3.8140  3.8140  3.2220 
  6745.000 -21.878  3.7770  3.7410  3.2200 -5.8781  3.7770  3.7410  3.2200 
  6745.500 -22.153  3.7580  3.5950  3.1830 -6.1526  3.7580  3.5950  3.1830 
  6746.000 -22.427  3.7390  3.5400  3.1450 -6.4271  3.7390  3.5400  3.1450 
  6746.500 -22.796  3.7370  3.4850  3.1070 -6.7961  3.7370  3.4850  3.1070 
  6747.000 -22.802  3.7360  3.4110  3.0700 -6.8024  3.7360  3.4110  3.0700 
  6747.500 -23.076  3.7340  3.3740  3.0320 -7.0760  3.7340  3.3740  3.0320 
  6748.000 -23.351  3.7150  3.4080  3.0130 -7.3505  3.7150  3.4080  3.0130 
  6748.500 -23.720  3.6960  3.4790  2.9940 -7.7195  3.6960  3.4790  2.9940 
  6749.000 -23.904  3.6950  3.5140  3.0100 -7.9040  3.6950  3.5140  3.0100 
  6749.500 -24.089  3.6930  3.5490  3.0270 -8.0885  3.6930  3.5490  3.0270 
  6750.000 -24.454  3.7270  3.6190  3.0610 -8.4539  3.7270  3.6190  3.0610 
  6750.500 -24.820  3.7260  3.6900  3.0600 -8.8202  3.7260  3.6900  3.0600 
  6751.000 -25.276  3.7260  3.7250  3.0590 -9.2756  3.7260  3.7250  3.0590 
  6751.500 -25.731  3.7780  3.7600  3.0760 -9.7310  3.7780  3.7600  3.0760 
  6752.000 -26.280  3.8310  3.7940  3.0920 -10.280  3.8310  3.7940  3.0920 
  6752.500 -26.825  3.8840  3.8300  3.0910 -10.825  3.8840  3.8300  3.0910 
  6753.000 -27.371  3.9370  3.8650  3.0890 -11.371  3.9370  3.8650  3.0890 
  6753.500 -27.557  4.0430  3.8990  3.1590 -11.557  4.0430  3.8990  3.1590 
  6754.000 -28.106  4.0600  3.9160  3.1760 -12.106  4.0600  3.9160  3.1760 
  6754.500 -28.472  4.0770  3.9330  3.1920 -12.472  4.0770  3.9330  3.1920 
  6755.000 -28.658  4.1110  3.9490  3.2090 -12.658  4.1110  3.9490  3.2090 
  6755.500 -28.842  4.1100  3.9660  3.2260 -12.842  4.1100  3.9660  3.2260 
  6756.000 -29.026  4.1090  3.9650  3.2780 -13.026  4.1090  3.9650  3.2780 
  6756.500 -29.755  4.1080  3.9640  3.3310 -13.755  4.1080  3.9640  3.3310 
  6757.000 -29.941  4.1060  3.9980  3.3650 -13.941  4.1060  3.9980  3.3650 
  6757.500 -30.307  4.1050  3.9970  3.4360 -14.307  4.1050  3.9970  3.4360 
  6758.000 -30.583  4.1400  3.9950  3.4530 -14.583  4.1400  3.9950  3.4530 
  6758.500 -30.858  4.2100  3.9940  3.4700 -14.858  4.2100  3.9940  3.4700 
  6759.000 -31.043  4.2810  4.0110  3.5040 -15.043  4.2810  4.0110  3.5040 
  6759.500 -31.227  4.3700  4.0280  3.5390 -15.227  4.3700  4.0280  3.5390 
  6760.000 -31.593  4.4590  4.0630  3.5730 -15.593  4.4590  4.0630  3.5730 
  6760.500 -31.958  4.5650  4.0980  3.6260 -15.958  4.5650  4.0980  3.6260 
  6761.000 -33.047  4.5640  4.1330  3.6790 -17.047  4.5640  4.1330  3.6790 
  6761.500 -33.952  4.5270  4.2390  3.7480 -17.952  4.5270  4.2390  3.7480 
  6762.000 -36.298  4.4900  4.2740  3.7830 -20.298  4.4900  4.2740  3.7830 
  6762.500 -37.203  4.4880  4.2360  3.8180 -21.203  4.4880  4.2360  3.8180 
  6763.000 -36.759  4.4330  4.2170  3.8340 -20.759  4.4330  4.2170  3.8340 
  6763.500 -36.313  4.3790  4.1990  3.8510 -20.313  4.3790  4.1990  3.8510 
  6764.000 -34.706  4.3590  4.1430  3.8680 -18.706  4.3590  4.1430  3.8680 
  6764.500 -33.813  4.3400  4.0870  3.8840 -17.813  4.3400  4.0870  3.8840 
  6765.000 -33.639  4.3390  4.0140  3.8820 -17.639  4.3390  4.0140  3.8820 
  6765.500 -33.646  4.3380  3.9770  3.8810 -17.646  4.3380  3.9770  3.8810 
  6766.000 -33.832  4.2640  3.9400  3.8440 -17.832  4.2640  3.9400  3.8440 
  6766.500 -34.916  4.2620  3.9380  3.8240 -18.916  4.2620  3.9380  3.8240 
  6767.000 -35.822  4.2610  3.9190  3.8050 -19.822  4.2610  3.9190  3.8050 
  6767.500 -36.546  4.3320  3.9000  3.8040 -20.546  4.3320  3.9000  3.8040 
  6768.000 -36.913  4.3310  3.9170  3.8020 -20.913  4.3310  3.9170  3.8020 
  6768.500 -36.919  4.3300  3.9340  3.8370 -20.919  4.3300  3.9340  3.8370 
  6769.000 -36.385  4.3280  4.0760  3.8710 -20.385  4.3280  4.0760  3.8710 
  6769.500 -36.032  4.3270  4.1110  3.9060 -20.032  4.3270  4.1110  3.9060 
  6770.000 -34.601  4.3260  4.2180  3.9400 -18.601  4.3260  4.2180  3.9400 
  6770.500 -33.888  4.3430  4.3240  3.9750 -17.888  4.3430  4.3240  3.9750 
  6771.000 -32.816  4.3600  4.3960  4.0460 -16.816  4.3600  4.3960  4.0460 
  6771.500 -32.103  4.3940  4.4670  4.1170 -16.103  4.3940  4.4670  4.1170 
  6772.000 -31.929  4.4650  4.5370  4.1870 -15.929  4.4650  4.5370  4.1870 
  6772.500 -31.576  4.4990  4.6080  4.2580 -15.576  4.4990  4.6080  4.2580 
  6773.000 -31.399  4.5340  4.7140  4.3640 -15.399  4.5340  4.7140  4.3640 
  6773.500 -31.222  4.6050  4.8570  4.4530 -15.222  4.6050  4.8570  4.4530 
  6774.000 -30.599  4.6760  4.9280  4.5410 -14.599  4.6760  4.9280  4.5410 
  6774.500 -29.976  4.7470  4.9990  4.6120 -13.976  4.7470  4.9990  4.6120 
  6775.000 -29.087  4.8170  5.0330  4.6830 -13.087  4.8170  5.0330  4.6830 
  6775.500 -28.374  4.8700  5.1400  4.7890 -12.374  4.8700  5.1400  4.7890 
  6776.000 -27.661  4.9230  5.1930  4.8060 -11.661  4.9230  5.1930  4.8060 
  6776.500 -26.590  5.0300  5.2460  4.8230 -10.590  5.0300  5.2460  4.8230 
