~Version Information
VERS.                     2.0: CWLS log ASCII Standard Version 2.00
WRAP.                      NO: One line per depth step
~Well Information Block
#MNEM.UNIT                               Data Type  Information
#---------                               ---------  -----------
STRT.FT                                   450.0000:
STOP.FT                                  6780.0000:
STEP.FT                                     0.5000:
NULL.                 -999.25                     :
COMP.                                             :COMPANY            
WELL.     SAN EMIDIO A 25-19                      :WELL               
FLD .                                             :FIELD              
CTRY.                                             :COUNTRY            
STAT.                                             :STATE              
LOC .                                             :LOCATION           
UWI .                                             :UNIQUE WELL ID     
SRVC.                                             :Service company    
DATE.                                             :LOG DATE           
~Curve Information
#MNEM.UNIT           API CODE  Curve Description
#---------           --------  -----------------
DEPT.FT                      :   1 DEPTH
SP  .MV                      :   2
AM16.OHMM                    :   3
AO10.OHMM                    :   4
AO19.OHMM                    :   5
SBL .MV                      :   6
RS  .OHMM                    :   7
RM  .OHMM                    :   8
RD  .OHMM                    :   9
~A
# ...
  5856.000 -14.928  2.3180  1.9940  1.6970 -2.9280  2.3180  1.9940  1.6970 
  5856.500 -15.021  2.3180  1.9760  1.7140 -3.0210  2.3180  1.9760  1.7140 
  5857.000 -15.113  2.3180  1.9580  1.7320 -3.1130  2.3180  1.9580  1.7320 
  5857.500 -15.206  2.3180  1.9580  1.7320 -3.2060  2.3180  1.9580  1.7320 
  5858.000 -15.389  2.3170  1.9580  1.7310 -3.3890  2.3170  1.9580  1.7310 
  5858.500 -15.572  2.3170  1.9580  1.7490 -3.5720  2.3170  1.9580  1.7490 
  5859.000 -15.937  2.3170  1.9570  1.7660 -3.9370  2.3170  1.9570  1.7660 
  5859.500 -16.210  2.3170  1.9750  1.7840 -4.2100  2.3170  1.9750  1.7840 
  5860.000 -16.483  2.3170  1.9930  1.8020 -4.4830  2.3170  1.9930  1.8020 
  5860.500 -16.847  2.3170  1.9750  1.8010 -4.8470  2.3170  1.9750  1.8010 
  5861.000 -17.211  2.3160  1.9560  1.8010 -5.2110  2.3160  1.9560  1.8010 
  5861.500 -17.665  2.3160  1.9560  1.8180 -5.6650  2.3160  1.9560  1.8180 
  5862.000 -18.119  2.3160  1.9560  1.8360 -6.1190  2.3160  1.9560  1.8360 
  5862.500 -18.845  2.3160  1.9560  1.8350 -6.8450  2.3160  1.9560  1.8350 
  5863.000 -18.667  2.3150  1.9560  1.8350 -6.6670  2.3150  1.9560  1.8350 
  5863.500 -18.128  2.2970  1.9560  1.8530 -6.1280  2.2970  1.9560  1.8530 
  5864.000 -17.860  2.2790  1.9550  1.8700 -5.8600  2.2790  1.9550  1.8700 
  5864.500 -17.592  2.2790  1.9550  1.8700 -5.5920  2.2790  1.9550  1.8700 
  5865.000 -17.414  2.2790  1.9550  1.8700 -5.4140  2.2790  1.9550  1.8700 
  5865.500 -17.236  2.2790  1.9550  1.8690 -5.2360  2.2790  1.9550  1.8690 
  5866.000 -17.057  2.2790  1.9550  1.8690 -5.0570  2.2790  1.9550  1.8690 
  5866.500 -16.880  2.2780  1.9540  1.8680 -4.8800  2.2780  1.9540  1.8680 
  5867.000 -16.883  2.2780  1.9360  1.8680 -4.8830  2.2780  1.9360  1.8680 
  5867.500 -16.705  2.2780  1.9180  1.8670 -4.7050  2.2780  1.9180  1.8670 
  5868.000 -16.527  2.2780  1.9180  1.8490 -4.5270  2.2780  1.9180  1.8490 
  5868.500 -16.349  2.2770  1.9180  1.8310 -4.3490  2.2770  1.9180  1.8310 
  5869.000 -16.261  2.2770  1.9180  1.8300 -4.2610  2.2770  1.9180  1.8300 
  5869.500 -16.173  2.2770  1.9170  1.8300 -4.1730  2.2770  1.9170  1.8300 
  5870.000 -15.816  2.2770  1.9170  1.8290 -3.8160  2.2770  1.9170  1.8290 
  5870.500 -15.819  2.3130  1.9170  1.8110 -3.8190  2.3130  1.9170  1.8110 
  5871.000 -15.641  2.3130  1.9170  1.7930 -3.6410  2.3130  1.9170  1.7930 
  5871.500 -15.643  2.3120  1.9170  1.7920 -3.6430  2.3120  1.9170  1.7920 
  5872.000 -15.645  2.3120  1.9170  1.7920 -3.6450  2.3120  1.9170  1.7920 
  5872.500 -15.648  2.3120  1.9160  1.7910 -3.6480  2.3120  1.9160  1.7910 
  5873.000 -15.651  2.2940  1.9160  1.7910 -3.6510  2.2940  1.9160  1.7910 
  5873.500 -15.654  2.2760  1.9160  1.8270 -3.6540  2.2760  1.9160  1.8270 
  5874.000 -15.657  2.2640  1.9160  1.8260 -3.6570  2.2640  1.9160  1.8260 
  5874.500 -15.660  2.2510  1.9160  1.8260 -3.6600  2.2510  1.9160  1.8260 
  5875.000 -15.662  2.3470  1.9160  1.8250 -3.6620  2.3470  1.9160  1.8250 
  5875.500 -15.664  2.3290  1.9150  1.8250 -3.6640  2.3290  1.9150  1.8250 
  5876.000 -15.577  2.3110  1.9150  1.8430 -3.5770  2.3110  1.9150  1.8430 
  5876.500 -15.489  2.3100  1.9150  1.8600 -3.4890  2.3100  1.9150  1.8600 
  5877.000 -14.951  2.3100  1.9150  1.8780 -2.9510  2.3100  1.9150  1.8780 
  5877.500 -14.683  2.3100  1.9150  1.8960 -2.6830  2.3100  1.9150  1.8960 
  5878.000 -14.414  2.3100  1.9140  1.8950 -2.4140  2.3100  1.9140  1.8950 
  5878.500 -14.056  2.3100  1.9140  1.8950 -2.0560  2.3100  1.9140  1.8950 
  5879.000 -14.239  2.3100  1.9140  1.8940 -2.2390  2.3100  1.9140  1.8940 
  5879.500 -14.422  2.3100  1.9140  1.8940 -2.4220  2.3100  1.9140  1.8940 
  5880.000 -14.696  2.3090  1.9140  1.8940 -2.6960  2.3090  1.9140  1.8940 
  5880.500 -14.969  2.3090  1.9130  1.8930 -2.9690  2.3090  1.9130  1.8930 
  5881.000 -15.062  2.3090  1.9130  1.8930 -3.0620  2.3090  1.9130  1.8930 
  5881.500 -15.155  2.3090  1.9490  1.8920 -3.1550  2.3090  1.9490  1.8920 
  5882.000 -15.429  2.3080  1.9490  1.8920 -3.4290  2.3080  1.9490  1.8920 
  5882.500 -15.702  2.3080  1.9490  1.8920 -3.7020  2.3080  1.9490  1.8920 
  5883.000 -16.428  2.3440  1.9480  1.8910 -4.4280  2.3440  1.9480  1.8910 
  5883.500 -16.792  2.3800  1.9480  1.8910 -4.7920  2.3800  1.9480  1.8910 
  5884.000 -17.336  2.3980  1.9480  1.8900 -5.3360  2.3980  1.9480  1.8900 
  5884.500 -17.700  2.4160  1.9480  1.8900 -5.7000  2.4160  1.9480  1.8900 
  5885.000 -17.522  2.4510  1.9480  1.8890 -5.5220  2.4510  1.9480  1.8890 
  5885.500 -16.983  2.5050  1.9480  1.8890 -4.9830  2.5050  1.9480  1.8890 
  5886.000 -16.805  2.5590  1.9470  1.8890 -4.8050  2.5590  1.9470  1.8890 
  5886.500 -16.266  2.5230  1.9470  1.8880 -4.2660  2.5230  1.9470  1.8880 
  5887.000 -16.088  2.4510  1.9470  1.9060 -4.0880  2.4510  1.9470  1.9060 
  5887.500 -15.910  2.4140  1.9470  1.9230 -3.9100  2.4140  1.9470  1.9230 
  5888.000 -15.010  2.3060  1.9470  1.9230 -3.0100  2.3060  1.9470  1.9230 
  5888.500 -14.472  2.2340  1.9470  1.9230 -2.4720  2.2340  1.9470  1.9230 
  5889.000 -14.294  2.1980  1.9460  1.8860 -2.2940  2.1980  1.9460  1.8860 
  5889.500 -13.935  2.1260  1.9460  1.9220 -1.9350  2.1260  1.9460  1.9220 
  5890.000 -13.757  2.0900  1.9460  1.9040 -1.7570  2.0900  1.9460  1.9040 
  5890.500 -13.940  2.0540  1.9460  1.8850 -1.9400  2.0540  1.9460  1.8850 
  5891.000 -14.123  2.0180  1.9460  1.8850 -2.1230  2.0180  1.9460  1.8850 
  5891.500 -14.306  2.0170  1.9450  1.8840 -2.3060  2.0170  1.9450  1.8840 
  5892.000 -14.490  2.0530  1.9450  1.8660 -2.4900  2.0530  1.9450  1.8660 
  5892.500 -15.034  2.0710  1.9450  1.8480 -3.0340  2.0710  1.9450  1.8480 
  5893.000 -15.578  2.0890  1.9450  1.8470 -3.5780  2.0890  1.9450  1.8470 
  5893.500 -16.123  2.1610  1.9450  1.8110 -4.1230  2.1610  1.9450  1.8110 
  5894.000 -16.307  2.1960  1.9450  1.8110 -4.3070  2.1960  1.9450  1.8110 
  5894.500 -16.129  2.2320  1.9450  1.8100 -4.1290  2.2320  1.9450  1.8100 
  5895.000 -15.951  2.2680  1.9440  1.8100 -3.9510  2.2680  1.9440  1.8100 
  5895.500 -15.593  2.3040  1.9440  1.8090 -3.5930  2.3040  1.9440  1.8090 
  5896.000 -15.595  2.3390  1.9440  1.8090 -3.5950  2.3390  1.9440  1.8090 
  5896.500 -15.598  2.3570  1.9440  1.7720 -3.5980  2.3570  1.9440  1.7720 
  5897.000 -15.600  2.3750  1.9790  1.7720 -3.6000  2.3750  1.9790  1.7720 
  5897.500 -15.784  2.3930  1.9790  1.7720 -3.7840  2.3930  1.9790  1.7720 
  5898.000 -16.148  2.4110  1.9790  1.7710 -4.1480  2.4110  1.9790  1.7710 
  5898.500 -16.331  2.4110  1.9610  1.7710 -4.3310  2.4110  1.9610  1.7710 
  5899.000 -15.792  2.4100  1.9430  1.7530 -3.7920  2.4100  1.9430  1.7530 
  5899.500 -15.253  2.4100  1.9790  1.7340 -3.2530  2.4100  1.9790  1.7340 
  5900.000 -14.353  2.4100  1.9780  1.7340 -2.3530  2.4100  1.9780  1.7340 
  5900.500 -12.909  2.4100  1.9780  1.7330 -0.9090  2.4100  1.9780  1.7330 
  5901.000 -12.549  2.4090  1.9770  1.7330 -0.5490  2.4090  1.9770  1.7330 
  5901.500 -12.549  2.3720  1.9770  1.7330 -0.5490  2.3720  1.9770  1.7330 
  5902.000 -13.634  2.3720  1.9760  1.7320 -1.6340  2.3720  1.9760  1.7320 
  5902.500 -13.815  2.3710  1.9760  1.7320 -1.8150  2.3710  1.9760  1.7320 
  5903.000 -13.995  2.3710  1.9750  1.7310 -1.9950  2.3710  1.9750  1.7310 
  5903.500 -14.176  2.3700  1.9750  1.7490 -2.1760  2.3700  1.9750  1.7490 
  5904.000 -13.996  2.3700  1.9740  1.7670 -1.9960  2.3700  1.9740  1.7670 
  5904.500 -13.816  2.3690  1.9740  1.7660 -1.8160  2.3690  1.9740  1.7660 
  5905.000 -13.456  2.3690  1.9730  1.7660 -1.4560  2.3690  1.9730  1.7660 
  5905.500 -13.275  2.3680  1.9720  1.7660 -1.2750  2.3680  1.9720  1.7660 
  5906.000 -13.095  2.3680  1.9720  1.7830 -1.0950  2.3680  1.9720  1.7830 
  5906.500 -12.735  2.3310  1.9710  1.8010 -0.7350  2.3310  1.9710  1.8010 
  5907.000 -12.735  2.3310  1.9710  1.8000 -0.7350  2.3310  1.9710  1.8000 
  5907.500 -13.277  2.3300  1.9700  1.8000 -1.2770  2.3300  1.9700  1.8000 
  5908.000 -13.639  2.3300  1.9700  1.8180 -1.6390  2.3300  1.9700  1.8180 
  5908.500 -13.639  2.3290  1.9690  1.8350 -1.6390  2.3290  1.9690  1.8350 
