~Version Information
VERS.                     2.0: CWLS log ASCII Standard Version 2.00
WRAP.                      NO: One line per depth step
~Well Information Block
#MNEM.UNIT                               Data Type  Information
#---------                               ---------  -----------
STRT.FT                                   450.0000:
STOP.FT                                  6780.0000:
STEP.FT                                     0.5000:
NULL.                 -999.25                     :
COMP.                                             :COMPANY            
WELL.     SAN EMIDIO A 25-19                      :WELL               
FLD .                                             :FIELD              
CTRY.                                             :COUNTRY            
STAT.                                             :STATE              
LOC .                                             :LOCATION           
UWI .                                             :UNIQUE WELL ID     
SRVC.                                             :Service company    
DATE.                                             :LOG DATE           
~Curve Information
#MNEM.UNIT           API CODE  Curve Description
#---------           --------  -----------------
DEPT.FT                      :   1 DEPTH
SP  .MV                      :   2
AM16.OHMM                    :   3
AO10.OHMM                    :   4
AO19.OHMM                    :   5
SBL .MV                      :   6
RS  .OHMM                    :   7
RM  .OHMM                    :   8
RD  .OHMM                    :   9
~A
# ...
  2941.000 -20.094  5.8290  7.4100  8.9990 -6.7851  5.8290  7.4100  8.9990 
  2941.500 -20.816  5.9360  7.4450  8.9620 -7.5023  5.9360  7.4450  8.9620 
  2942.000 -22.080  6.0250  7.4810  8.9620 -8.7615  6.0250  7.4810  8.9620 
  2942.500 -22.982  6.1150  7.5170  8.9620 -9.6588  6.1150  7.5170  8.9620 
  2943.000 -23.524  6.1870  7.5340  8.9620 -10.196  6.1870  7.5340  8.9620 
  2943.500 -24.247  6.1860  7.5520  8.8530 -10.914  6.1860  7.5520  8.8530 
  2944.000 -24.969  6.1860  7.5510  8.8530 -11.631  6.1860  7.5510  8.8530 
  2944.500 -26.773  6.1850  7.5330  8.7810 -13.431  6.1850  7.5330  8.7810 
  2945.000 -28.037  6.1850  7.5150  8.7270 -14.690  6.1850  7.5150  8.7270 
  2945.500 -28.759  6.1310  7.4430  8.6730 -15.407  6.1310  7.4430  8.6730 
  2946.000 -28.760  6.0770  7.4060  8.5290 -15.403  6.0770  7.4060  8.5290 
  2946.500 -28.400  5.9680  7.2980  8.4570 -15.039  5.9680  7.2980  8.4570 
  2947.000 -28.041  5.8600  7.1900  8.3130 -14.675  5.8600  7.1900  8.3130 
  2947.500 -26.418  5.8240  7.1000  8.2400 -13.047  5.8240  7.1000  8.2400 
  2948.000 -25.337  5.7520  7.0090  8.1320 -11.961  5.7520  7.0090  8.1320 
  2948.500 -24.616  5.6970  6.6860  8.0600 -11.235  5.6970  6.6860  8.0600 
  2949.000 -23.806  5.6430  6.5600  8.0240 -10.421  5.6430  6.5600  8.0240 
  2949.500 -22.995  5.5890  6.4330  8.0060 -9.6049  5.5890  6.4330  8.0060 
  2950.000 -21.012  5.5350  6.1100  7.9870 -7.6171  5.5350  6.1100  7.9870 
  2950.500 -20.111  5.5160  6.0010  7.9330 -6.7113  5.5160  6.0010  7.9330 
  2951.000 -19.751  5.4980  5.9650  7.8790 -6.3465  5.4980  5.9650  7.8790 
  2951.500 -19.572  5.5510  5.9290  7.8790 -6.1628  5.5510  5.9290  7.8790 
  2952.000 -19.573  5.6050  5.9640  7.8790 -6.1590  5.6050  5.9640  7.8790 
  2952.500 -20.024  5.7480  6.0000  8.1300 -6.6052  5.7480  6.0000  8.1300 
  2953.000 -20.476  5.8920  6.0360  8.3450 -7.0524  5.8920  6.0360  8.3450 
  2953.500 -21.108  6.0710  6.0710  8.6680 -7.6797  6.0710  6.0710  8.6680 
  2954.000 -21.741  6.2860  6.3220  8.9560 -8.3079  6.2860  6.3220  8.9560 
  2954.500 -24.627  6.5380  6.5380  9.2070 -11.189  6.5380  6.5380  9.2070 
  2955.000 -26.792  7.2560  6.9690  9.5660 -13.349  7.2560  6.9690  9.5660 
  2955.500 -28.777  7.9390  7.1840  9.8170 -15.330  7.9390  7.1840  9.8170 
  2956.000 -40.321  9.9510  7.9740  10.069 -26.869  9.9510  7.9740  10.069 
  2956.500 -42.126  11.100  8.2610  10.176 -28.669  11.100  8.2610  10.176 
  2957.000 -43.930  11.963  8.3690  10.284 -30.468  11.963  8.3690  10.284 
  2957.500 -44.653  12.753  8.6920  10.355 -31.186  12.753  8.6920  10.355 
  2958.000 -45.736  13.795  8.8710  10.391 -32.265  13.795  8.8710  10.391 
  2958.500 -46.278  14.477  9.1220  10.355 -32.802  14.477  9.1220  10.355 
  2959.000 -46.820  14.872  9.2660  10.283 -33.339  14.872  9.2660  10.283 
  2959.500 -47.362  15.231  9.3550  10.246 -33.876  15.231  9.3550  10.246 
  2960.000 -47.904  15.626  9.4450  10.210 -34.414  15.626  9.4450  10.210 
  2960.500 -48.265  15.949  9.5520  10.390 -34.770  15.949  9.5520  10.390 
  2961.000 -48.627  16.416  9.5880  10.425 -35.127  16.416  9.5880  10.425 
  2961.500 -48.899  16.631  9.6050  10.425 -35.394  16.631  9.6050  10.425 
  2962.000 -49.170  16.739  9.6230  10.425 -35.660  16.739  9.6230  10.425 
  2962.500 -49.531  16.757  9.5870  10.317 -36.017  16.757  9.5870  10.317 
  2963.000 -49.623  16.774  9.5860  10.173 -36.104  16.774  9.5860  10.173 
  2963.500 -49.714  16.774  9.5500  9.9930 -36.190  16.774  9.5500  9.9930 
  2964.000 -49.895  16.773  9.5500  9.7770 -36.366  16.773  9.5500  9.7770 
  2964.500 -50.076  16.809  9.5850  9.7590 -36.543  16.809  9.5850  9.7590 
  2965.000 -50.258  16.881  9.7290  9.7400 -36.720  16.881  9.7290  9.7400 
  2965.500 -50.258  16.916  9.9440  9.6320 -36.715  16.916  9.9440  9.6320 
  2966.000 -50.259  17.095  10.267  9.6320 -36.711  17.095  10.267  9.6320 
  2966.500 -50.440  17.347  10.482  9.6320 -36.887  17.347  10.482  9.6320 
  2967.000 -50.441  17.418  10.949  9.6670 -36.884  17.418  10.949  9.6670 
  2967.500 -50.262  17.490  11.308  9.8110 -36.700  17.490  11.308  9.8110 
  2968.000 -50.173  17.435  11.667  9.6310 -36.606  17.435  11.667  9.6310 
  2968.500 -50.083  17.381  13.428  9.5230 -36.511  17.381  13.428  9.5230 
  2969.000 -50.084  17.165  13.751  9.4330 -36.508  17.165  13.751  9.4330 
  2969.500 -50.085  17.057  14.469  9.3430 -36.504  17.057  14.469  9.3430 
  2970.000 -50.267  16.733  14.792  9.1990 -36.681  16.733  14.792  9.1990 
  2970.500 -50.448  16.266  15.116  9.0550 -36.857  16.266  15.116  9.0550 
  2971.000 -50.629  15.978  15.295  8.9460 -37.033  15.978  15.295  8.9460 
  2971.500 -50.810  15.726  15.438  8.8740 -37.210  15.726  15.438  8.8740 
  2972.000 -50.991  15.654  15.654  8.8200 -37.386  15.654  15.654  8.8200 
  2972.500 -51.173  15.581  15.833  8.7660 -37.563  15.581  15.833  8.7660 
  2973.000 -51.174  15.509  15.940  8.6940 -37.559  15.509  15.940  8.6940 
  2973.500 -51.175  15.401  16.084  8.6220 -37.556  15.401  16.084  8.6220 
  2974.000 -50.995  15.293  16.119  8.6210 -37.371  15.293  16.119  8.6210 
  2974.500 -50.816  15.202  16.155  8.6930 -37.187  15.202  16.155  8.6930 
  2975.000 -50.456  15.112  16.208  8.8370 -36.822  15.112  16.208  8.8370 
  2975.500 -50.096  14.896  16.262  8.8900 -36.457  14.896  16.262  8.8900 
  2976.000 -49.736  14.788  16.369  8.9440 -36.093  14.788  16.369  8.9440 
  2976.500 -49.376  14.572  16.387  9.1230 -35.728  14.572  16.387  9.1230 
  2977.000 -49.287  14.464  16.405  9.1950 -35.634  14.464  16.405  9.1950 
  2977.500 -49.198  14.248  16.476  9.2660 -35.540  14.248  16.476  9.2660 
  2978.000 -49.199  14.032  16.512  9.4820 -35.537  14.032  16.512  9.4820 
  2978.500 -49.200  13.780  16.547  9.6250 -35.533  13.780  16.547  9.6250 
  2979.000 -49.020  13.528  16.619  9.6490 -35.348  13.528  16.619  9.6490 
  2979.500 -48.841  13.384  16.618  9.6730 -35.164  13.384  16.618  9.6730 
  2980.000 -48.661  12.952  16.618  9.6960 -34.979  12.952  16.618  9.6960 
  2980.500 -48.121  12.521  16.654  9.6960 -34.435  12.521  16.654  9.6960 
  2981.000 -47.882  12.305  16.474  9.6960 -34.191  12.305  16.474  9.6960 
  2981.500 -47.642  12.017  16.222  9.6960 -33.946  12.017  16.222  9.6960 
  2982.000 -47.403  11.693  16.042  9.6590 -33.702  11.693  16.042  9.6590 
  2982.500 -46.862  11.477  15.179  9.5150 -33.157  11.477  15.179  9.5150 
  2983.000 -46.322  11.117  14.567  9.4790 -32.612  11.117  14.567  9.4790 
  2983.500 -45.782  10.758  14.136  9.4430 -32.067  10.758  14.136  9.4430 
  2984.000 -45.061  10.362  13.884  9.2990 -31.341  10.362  13.884  9.2990 
  2984.500 -44.341  10.002  13.596  9.2270 -30.616  10.002  13.596  9.2270 
  2985.000 -43.620  9.6780  13.200  9.1190 -29.891  9.6780  13.200  9.1190 
  2985.500 -42.900  9.3900  12.913  9.0110 -29.166  9.3900  12.913  9.0110 
  2986.000 -41.819  8.9230  12.732  8.9740 -28.080  8.9230  12.732  8.9740 
  2986.500 -40.737  8.4910  12.445  8.9200 -26.993  8.4910  12.445  8.9200 
  2987.000 -38.664  7.9160  11.690  8.8660 -24.916  7.9160  11.690  8.8660 
  2987.500 -36.591  7.7360  11.114  8.7760 -22.838  7.7360  11.114  8.7760 
  2988.000 -31.902  7.1960  10.647  8.6860 -18.144  7.1960  10.647  8.6860 
  2988.500 -30.099  6.8010  10.359  8.3260 -16.336  6.8010  10.359  8.3260 
  2989.000 -26.854  6.2610  10.143  8.0740 -13.086  6.2610  10.143  8.0740 
  2989.500 -23.789  6.1170  9.6750  7.8220 -10.017  6.1170  9.6750  7.8220 
  2990.000 -21.625  6.0450  8.7760  7.5710 -7.8479  6.0450  8.7760  7.5710 
  2990.500 -21.265  5.9730  8.5240  7.3910 -7.4832  5.9730  8.5240  7.3910 
  2991.000 -21.357  5.9720  8.3800  7.3900 -7.5704  5.9720  8.3800  7.3900 
  2991.500 -21.448  5.9900  8.3800  7.4980 -7.6566  5.9900  8.3800  7.4980 
  2992.000 -21.809  6.0080  8.3800  7.6770 -8.0128  6.0080  8.3800  7.6770 
  2992.500 -22.892  6.1150  8.4510  7.9650 -9.0910  6.1150  8.4510  7.9650 
  2993.000 -25.057  6.2220  8.5230  8.1440 -11.251  6.2220  8.5230  8.1440 
  2993.500 -28.305  6.5100  8.6300  8.2510 -14.494  6.5100  8.6300  8.2510 
