~Version Information
VERS.                     2.0: CWLS log ASCII Standard Version 2.00
WRAP.                      NO: One line per depth step
~Well Information Block
#MNEM.UNIT                               Data Type  Information
#---------                               ---------  -----------
STRT.FT                                   450.0000:
STOP.FT                                  6780.0000:
STEP.FT                                     0.5000:
NULL.                 -999.25                     :
COMP.                                             :COMPANY            
WELL.     SAN EMIDIO A 25-19                      :WELL               
FLD .                                             :FIELD              
CTRY.                                             :COUNTRY            
STAT.                                             :STATE              
LOC .                                             :LOCATION           
UWI .                                             :UNIQUE WELL ID     
SRVC.                                             :Service company    
DATE.                                             :LOG DATE           
~Curve Information
#MNEM.UNIT           API CODE  Curve Description
#---------           --------  -----------------
DEPT.FT                      :   1 DEPTH
SP  .MV                      :   2
AM16.OHMM                    :   3
AO10.OHMM                    :   4
AO19.OHMM                    :   5
SBL .MV                      :   6
RS  .OHMM                    :   7
RM  .OHMM                    :   8
RD  .OHMM                    :   9
~A
   450.000 -20.242 -999.25 -999.25 -999.25 -4.2420 -999.25 -999.25 -999.25 
   450.500 -23.317 -999.25 -999.25 -999.25 -7.3170 -999.25 -999.25 -999.25 
   451.000 -23.319 -999.25  0.2850 -999.25 -7.3190 -999.25  0.2850 -999.25 
   451.500 -22.780 -999.25  0.2850 -999.25 -6.7800 -999.25  0.2850 -999.25 
   452.000 -21.698  19.791  0.2840 -999.25 -5.6980  19.791  0.2840 -999.25 
   452.500 -20.978  19.127  0.4270 -999.25 -4.9780  19.127  0.4270 -999.25 
   453.000 -20.439  18.463  0.7130 -999.25 -4.4390  18.463  0.7130 -999.25 
   453.500 -21.345  16.705  1.1780 -999.25 -5.3450  16.705  1.1780 -999.25 
   454.000 -22.974  16.095  2.1450 -999.25 -6.9740  16.095  2.1450 -999.25 
   454.500 -24.061  15.161  5.4370 -999.25 -8.0610  15.161  5.4370 -999.25 
   455.000 -24.064  14.694  8.7280 -999.25 -8.0640  14.694  8.7280 -999.25 
   455.500 -23.886  14.120  12.019 -999.25 -7.8860  14.120  12.019 -999.25 
   456.000 -23.346  13.904  15.310 -999.25 -7.3460  13.904  15.310 -999.25 
   456.500 -22.626  13.581  18.602 -999.25 -6.6260  13.581  18.602 -999.25 
   457.000 -21.725  13.544  14.548 -999.25 -5.7250  13.544  14.548 -999.25 
   457.500 -21.186  13.866  15.671 -999.25 -5.1860  13.866  15.671 -999.25 
   458.000 -21.007  14.403  16.794 -999.25 -5.0070  14.403  16.794 -999.25 
   458.500 -20.828  14.761  17.917 -999.25 -4.8280  14.761  17.917 -999.25 
   459.000 -22.278  15.119  19.953 -999.25 -6.2780  15.119  19.953 -999.25 
   459.500 -25.897  15.477  27.112 -999.25 -9.8970  15.477  27.112 -999.25 
   460.000 -27.345  15.871  29.260 -999.25 -11.345  15.871  29.260 -999.25 
   460.500 -27.166  15.906  26.739 -999.25 -11.166  15.906  26.739 -999.25 
   461.000 -26.987  15.942  23.505 -999.25 -10.987  15.942  23.505 -999.25 
   461.500 -26.450  15.977  20.271 -999.25 -10.450  15.977  20.271 -999.25 
   462.000 -26.091  16.012  19.019 -999.25 -10.091  16.012  19.019 -999.25 
   462.500 -27.539  16.297  17.767  0.0590 -11.539  16.297  17.767  0.0590 
   463.000 -28.807  16.369  16.978  0.5240 -12.807  16.369  16.978  0.5240 
   463.500 -30.797  16.440  16.690  0.9180 -14.797  16.440  16.690  0.9180 
   464.000 -32.607  16.475  16.439  1.3830 -16.607  16.475  16.439  1.3830 
   464.500 -33.151  16.438  17.370  4.2870 -17.151  16.438  17.370  4.2870 
   465.000 -33.696  16.348  17.800  9.0920 -17.696  16.348  17.800  9.0920 
   465.500 -33.788  16.258  17.942  11.852 -17.788  16.258  17.942  11.852 
   466.000 -33.880  15.826  17.942  12.390 -17.880  15.826  17.942  12.390 
   466.500 -34.066  15.646  17.905  12.855 -18.066  15.646  17.905  12.855 
   467.000 -34.249  15.215  17.797  13.249 -18.249  15.215  17.797  13.249 
   467.500 -34.071  14.246  17.509  14.934 -18.071  14.246  17.509  14.934 
   468.000 -33.893  13.815  17.258  15.185 -17.893  13.815  17.258  15.185 
   468.500 -33.354  13.420  16.791  16.475 -17.354  13.420  16.791  16.475 
   469.000 -32.995  13.133  16.432  16.295 -16.995  13.133  16.432  16.295 
   469.500 -31.371  12.702  16.216  15.936 -15.371  12.702  16.216  15.936 
   470.000 -29.386  12.307  16.466  15.433 -13.386  12.307  16.466  15.433 
   470.500 -27.040  11.911  16.465  13.962 -11.040  11.911  16.465  13.962 
   471.000 -25.055  11.929  16.142  13.567 -9.0550  11.929  16.142  13.567 
   471.500 -23.973  11.946  15.783  12.420 -7.9730  11.946  15.783  12.420 
   472.000 -22.711  12.053  15.172  12.347 -6.7110  12.053  15.172  12.347 
   472.500 -23.979  12.160  14.131  12.419 -7.9790  12.160  14.131  12.419 
   473.000 -25.427  12.768  13.593  12.580 -9.4270  12.768  13.593  12.580 
   473.500 -27.056  13.234  13.628  12.741 -11.056  13.234  13.628  12.741 
   474.000 -29.769  14.560  13.735  13.170 -13.769  14.560  13.735  13.170 
   474.500 -31.759  15.169  14.129  19.813 -15.759  15.169  14.129  19.813 
   475.000 -33.752  16.351  15.598  21.513 -17.752  16.351  15.598  21.513 
   475.500 -35.019  18.000  16.530  23.213 -19.019  18.000  16.530  23.213 
   476.000 -35.926  19.003  18.071  24.913 -19.926  19.003  18.071  24.913 
   476.500 -36.650  19.707  19.805  26.612 -20.650  19.707  19.805  26.612 
   477.000 -37.374  20.411  21.538  30.188 -21.374  20.411  21.538  30.188 
   477.500 -38.102  22.192  23.272  33.768 -22.102  22.192  23.272  33.768 
   478.000 -38.285  22.725  23.923  35.914 -22.285  22.725  23.923  35.914 
   478.500 -38.469  23.258  24.574  37.701 -22.469  23.258  24.574  37.701 
   479.000 -38.652  23.967  25.224  39.488 -22.652  23.967  25.224  39.488 
   479.500 -38.835  24.500  25.875  41.276 -22.835  24.500  25.875  41.276 
   480.000 -39.017  25.033  26.526  43.063 -23.017  25.033  26.526  43.063 
   480.500 -39.383  25.739  27.177  43.777 -23.383  25.739  27.177  43.777 
   481.000 -39.566  26.090  27.166  44.491 -23.566  26.090  27.166  44.491 
   481.500 -39.750  26.441  27.158  45.381 -23.750  26.441  27.158  45.381 
   482.000 -39.933  26.434  27.151  46.272 -23.933  26.434  27.151  46.272 
   482.500 -40.117  26.785  27.144  47.338 -24.117  26.785  27.144  47.338 
   483.000 -40.119  26.420  27.137  48.050 -24.119  26.420  27.137  48.050 
   483.500 -40.303  26.233  27.130  48.403 -24.303  26.233  27.130  48.403 
   484.000 -40.305  26.047  27.839  48.398 -24.305  26.047  27.839  48.398 
   484.500 -40.307  25.862  28.908  47.675 -24.307  25.862  28.908  47.675 
   485.000 -40.309  25.678  29.618  46.953 -24.309  25.678  29.618  46.953 
   485.500 -40.311  25.310  31.762  45.513 -24.311  25.310  31.762  45.513 
   486.000 -40.314  24.942  34.264  44.791 -24.314  24.942  34.264  44.791 
   486.500 -39.957  24.577  36.408  42.276 -23.957  24.577  36.408  42.276 
   487.000 -39.418  23.135  38.194  39.402 -23.418  23.135  38.194  39.402 
   487.500 -38.336  20.977  41.055  37.604 -22.336  20.977  41.055  37.604 
   488.000 -37.074  20.325  42.123  36.164 -21.074  20.325  42.123  36.164 
   488.500 -35.812  19.673  42.833  35.083 -19.812  19.673  42.833  35.083 
   489.000 -35.181  19.020  43.185  32.927 -19.181  19.020  43.185  32.927 
   489.500 -34.550  18.374  42.460  31.846 -18.550  18.374  42.460  31.846 
   490.000 -31.303  17.692  40.660  30.767 -15.303  17.692  40.660  30.767 
   490.500 -27.691  15.612  39.219  29.688 -11.691  15.612  39.219  29.688 
   491.000 -25.526  10.232  34.909  19.750 -9.5260  10.232  34.909  19.750 
   491.500 -24.713  8.9770  29.883  18.458 -8.7130  8.9770  29.883  18.458 
   492.000 -23.900  7.4340  25.215  16.521 -7.9000  7.4340  25.215  16.521 
   492.500 -23.002  6.9670  20.232  7.2690 -7.0020  6.9670  20.232  7.2690 
   493.000 -22.643  6.7510  15.250  6.8740 -6.6430  6.7510  15.250  6.8740 
   493.500 -22.284  6.3920  13.528  6.5870 -6.2840  6.3920  13.528  6.5870 
   494.000 -22.105  6.2480  10.479  6.4430 -6.1050  6.2480  10.479  6.4430 
   494.500 -21.926  6.2110  9.7970  6.3350 -5.9260  6.2110  9.7970  6.3350 
   495.000 -21.569  6.1750  9.3660  6.3340 -5.5690  6.1750  9.3660  6.3340 
   495.500 -21.390  6.1380  9.1140  6.4410 -5.3900  6.1380  9.1140  6.4410 
   496.000 -21.211  6.1370  8.7550  6.5840 -5.2110  6.1370  8.7550  6.5840 
   496.500 -21.033  6.1370  8.5030  7.0850 -5.0330  6.1370  8.5030  7.0850 
   497.000 -20.855  6.1720  8.3230  7.4790 -4.8550  6.1720  8.3230  7.4790 
   497.500 -20.679  6.2070  8.0720  7.6940 -4.6790  6.2070  8.0720  7.6940 
   498.000 -20.682  6.2420  7.9630  7.8370 -4.6820  6.2420  7.9630  7.8370 
   498.500 -20.685  6.3490  7.7470  7.9800 -4.6850  6.3490  7.7470  7.9800 
   499.000 -20.507  6.4920  7.7110  8.1590 -4.5070  6.4920  7.7110  8.1590 
   499.500 -20.510  6.5980  7.6560  8.4090 -4.5100  6.5980  7.6560  8.4090 
   500.000 -20.514  6.7050  7.6020  8.5520 -4.5140  6.7050  7.6020  8.5520 
   500.500 -20.517  6.8120  7.5650  8.9820 -4.5170  6.8120  7.5650  8.9820 
   501.000 -20.700  7.1340  7.5280  9.4120 -4.7000  7.1340  7.5280  9.4120 
   501.500 -21.245  7.7430  7.5280  9.6260 -5.2450  7.7430  7.5280  9.6260 
   502.000 -21.971  8.0290  7.5630  10.235 -5.9710  8.0290  7.5630  10.235 
   502.500 -22.696  8.7460  7.5980  10.665 -6.6960  8.7460  7.5980  10.665 
