~Version Information
VERS.                     2.0: CWLS log ASCII Standard Version 2.00
WRAP.                      NO: One line per depth step
~Well Information Block
#MNEM.UNIT                               Data Type  Information
#---------                               ---------  -----------
STRT.FT                                   450.0000:
STOP.FT                                  6780.0000:
STEP.FT                                     0.5000:
NULL.                 -999.25                     :
COMP.                                             :COMPANY            
WELL.     SAN EMIDIO A 25-19                      :WELL               
FLD .                                             :FIELD              
CTRY.                                             :COUNTRY            
STAT.                                             :STATE              
LOC .                                             :LOCATION           
UWI .                                             :UNIQUE WELL ID     
SRVC.                                             :Service company    
DATE.                                             :LOG DATE           
~Curve Information
#MNEM.UNIT           API CODE  Curve Description
#---------           --------  -----------------
DEPT.FT                      :   1 DEPTH
SP  .MV                      :   2
AM16.OHMM                    :   3
AO10.OHMM                    :   4
AO19.OHMM                    :   5
SBL .MV                      :   6
RS  .OHMM                    :   7
RM  .OHMM                    :   8
RD  .OHMM                    :   9
~A
# ...
  4637.000 -21.390  5.3970  5.3250  4.3660 -10.546  5.3970  5.3250  4.3660 
  4637.500 -24.830  5.5760  5.3960  4.3650 -13.979  5.5760  5.3960  4.3650 
  4638.000 -28.631  5.7550  5.5390  4.3650 -17.772  5.7550  5.5390  4.3650 
  4638.500 -31.346  5.8270  5.6830  4.5090 -20.479  5.8270  5.6830  4.5090 
  4639.000 -32.252  5.8980  5.7900  4.6160 -21.377  5.8980  5.7900  4.6160 
  4639.500 -32.616  5.8980  5.8260  4.6880 -21.733  5.8980  5.8260  4.6880 
  4640.000 -32.618  5.8970  5.8430  4.7240 -21.727  5.8970  5.8430  4.7240 
  4640.500 -31.353  5.6090  5.8610  4.6510 -20.454  5.6090  5.8610  4.6510 
  4641.000 -30.812  5.5540  5.7880  4.5970 -19.905  5.5540  5.7880  4.5970 
  4641.500 -29.186  5.5000  5.6650  4.5430 -18.271  5.5000  5.6650  4.5430 
  4642.000 -28.283  5.3190  5.5420  4.5600 -17.360  5.3190  5.5420  4.5600 
  4642.500 -28.285  5.1750  5.4190  4.5780 -17.354  5.1750  5.4190  4.5780 
  4643.000 -28.468  5.0300  5.2960  4.6130 -17.529  5.0300  5.2960  4.6130 
  4643.500 -28.470  4.9570  5.1730  4.6490 -17.523  4.9570  5.1730  4.6490 
  4644.000 -28.471  4.8490  5.0290  4.6130 -17.517  4.8490  5.0290  4.6130 
  4644.500 -27.930  4.7040  4.9560  4.5950 -16.968  4.7040  4.9560  4.5950 
  4645.000 -26.937  4.5600  4.8840  4.5760 -15.967  4.5600  4.8840  4.5760 
  4645.500 -25.943  4.4870  4.7750  4.5220 -14.965  4.4870  4.7750  4.5220 
  4646.000 -23.413  4.4150  4.7390  4.4680 -12.427  4.4150  4.7390  4.4680 
  4646.500 -22.149  4.2700  4.6660  4.4310 -11.155  4.2700  4.6660  4.4310 
  4647.000 -20.884  4.1970  4.5940  4.3770 -9.8820  4.1970  4.5940  4.3770 
  4647.500 -18.354  4.1250  4.5930  4.3220 -7.3441  4.1250  4.5930  4.3220 
  4648.000 -17.632  4.1060  4.5200  4.2860 -6.6142  4.1060  4.5200  4.2860 
  4648.500 -17.362  4.0880  4.4840  4.2490 -6.3363  4.0880  4.4840  4.2490 
  4649.000 -17.091  4.0880  4.4830  4.2130 -6.0573  4.0880  4.4830  4.2130 
  4649.500 -16.912  4.0870  4.4830  4.1770 -5.8704  4.0870  4.4830  4.1770 
  4650.000 -16.733  4.0680  4.4820  4.1400 -5.6835  4.0680  4.4820  4.1400 
  4650.500 -16.555  4.0500  4.4820  4.1040 -5.4976  4.0500  4.4820  4.1040 
  4651.000 -16.376  4.0310  4.4810  4.1580 -5.3107  4.0310  4.4810  4.1580 
  4651.500 -16.287  4.0130  4.4810  4.2110 -5.2137  4.0130  4.4810  4.2110 
  4652.000 -16.198  4.0480  4.4800  4.2290 -5.1168  4.0480  4.4800  4.2290 
  4652.500 -16.201  4.0840  4.4800  4.2470 -5.1119  4.0840  4.4800  4.2470 
  4653.000 -16.202  4.0830  4.5150  4.2100 -5.1050  4.0830  4.5150  4.2100 
  4653.500 -16.113  4.1180  4.5510  4.1020 -5.0081  4.1180  4.5510  4.1020 
  4654.000 -16.024  4.1540  4.5500  4.0290 -4.9111  4.1540  4.5500  4.0290 
  4654.500 -16.027  4.1890  4.5850  3.9570 -4.9062  4.1890  4.5850  3.9570 
  4655.000 -16.029  4.2250  4.6030  4.0650 -4.9003  4.2250  4.6030  4.0650 
  4655.500 -16.031  4.2600  4.6210  4.3160 -4.8944  4.2600  4.6210  4.3160 
  4656.000 -16.032  4.2960  4.6560  4.3880 -4.8874  4.2960  4.6560  4.3880 
  4656.500 -16.215  4.4390  4.6910  4.3700 -5.0625  4.4390  4.6910  4.3700 
  4657.000 -16.398  4.4750  4.7270  4.3520 -5.2376  4.4750  4.7270  4.3520 
  4657.500 -17.123  4.5820  4.7620  4.3150 -5.9547  4.5820  4.7620  4.3150 
  4658.000 -17.848  4.6720  4.7620  4.3870 -6.6718  4.6720  4.7620  4.3870 
  4658.500 -18.936  4.7610  4.8330  4.4400 -7.7518  4.7610  4.8330  4.4400 
  4659.000 -19.842  5.0130  4.8690  4.4940 -8.6499  5.0130  4.8690  4.4940 
  4659.500 -20.929  5.2640  4.8680  4.6020 -9.7290  5.2640  4.8680  4.6020 
  4660.000 -22.921  5.5160  4.9220  4.7450 -11.713  5.5160  4.9220  4.7450 
  4660.500 -26.722  5.7670  4.9750  4.8530 -15.506  5.7670  4.9750  4.8530 
  4661.000 -31.247  5.9470  5.0110  4.9600 -20.023  5.9470  5.0110  4.9600 
  4661.500 -35.952  6.1620  5.0820  5.0500 -24.720  6.1620  5.0820  5.0500 
  4662.000 -39.752  6.3780  5.1890  5.1400 -28.512  6.3780  5.1890  5.1400 
  4662.500 -46.628  6.6290  5.2610  5.2110 -35.380  6.6290  5.2610  5.2110 
  4663.000 -48.077  6.8810  5.3680  5.2290 -36.822  6.8810  5.3680  5.2290 
  4663.500 -47.536  6.7720  5.4040  5.2470 -36.273  6.7720  5.4040  5.2470 
  4664.000 -46.272  6.6630  5.4400  5.1390 -35.001  6.6630  5.4400  5.1390 
  4664.500 -44.284  6.5190  5.4750  5.0300 -33.005  6.5190  5.4750  5.0300 
  4665.000 -39.401  6.2660  5.4740  4.9220 -28.114  6.2660  5.4740  4.9220 
  4665.500 -35.423  6.1220  5.3300  4.7770 -24.128  6.1220  5.3300  4.7770 
  4666.000 -31.988  5.9410  5.1850  4.6690 -20.685  5.9410  5.1850  4.6690 
  4666.500 -27.648  5.8330  4.7890  4.4890 -16.337  5.8330  4.7890  4.4890 
  4667.000 -24.756  5.7600  4.5720  4.4160 -13.437  5.7600  4.5720  4.4160 
  4667.500 -24.758  5.9040  4.4640  4.4160 -13.431  5.9040  4.4640  4.4160 
  4668.000 -25.302  5.9390  4.4270  4.3790 -13.967  5.9390  4.4270  4.3790 
  4668.500 -26.570  6.0470  4.4260  4.3790 -15.227  6.0470  4.4260  4.3790 
  4669.000 -27.476  6.1540  4.4620  4.3790 -16.126  6.1540  4.4620  4.3790 
  4669.500 -35.980  6.3690  4.5330  4.4140 -24.622  6.3690  4.5330  4.4140 
  4670.000 -49.370  6.6930  4.6050  4.5580 -38.004  6.6930  4.6050  4.5580 
  4670.500 -53.351  6.9800  4.7120  4.6660 -41.977  6.9800  4.7120  4.6660 
  4671.000 -54.800  7.2680  4.7840  4.7370 -43.418  7.2680  4.7840  4.7370 
  4671.500 -55.434  7.4110  4.9990  4.8450 -44.044  7.4110  4.9990  4.8450 
  4672.000 -56.069  7.4470  5.1430  4.8450 -44.671  7.4470  5.1430  4.8450 
  4672.500 -57.338  7.4820  5.3580  4.7900 -45.932  7.4820  5.3580  4.7900 
  4673.000 -57.702  7.4820  5.5020  4.7360 -46.288  7.4820  5.5020  4.7360 
  4673.500 -57.884  7.4820  5.5370  4.5910 -46.462  7.4820  5.5370  4.5910 
  4674.000 -57.886  7.5170  5.5550  4.5550 -46.456  7.5170  5.5550  4.5550 
  4674.500 -57.888  7.4980  5.5720  4.5190 -46.450  7.4980  5.5720  4.5190 
  4675.000 -57.528  7.4800  5.5900  4.5000 -46.082  7.4800  5.5900  4.5000 
  4675.500 -57.168  7.4790  5.6070  4.4820 -45.715  7.4790  5.6070  4.4820 
  4676.000 -56.807  7.4250  5.5890  4.4640 -45.346  7.4250  5.5890  4.4640 
  4676.500 -56.447  7.3700  5.5700  4.4450 -44.978  7.3700  5.5700  4.4450 
  4677.000 -56.087  7.2980  5.5330  4.4450 -44.610  7.2980  5.5330  4.4450 
  4677.500 -55.727  7.2610  5.4610  4.4440 -44.242  7.2610  5.4610  4.4440 
  4678.000 -55.367  7.2240  5.4240  4.4440 -43.874  7.2240  5.4240  4.4440 
  4678.500 -55.007  7.1880  5.3520  4.4440 -43.506  7.1880  5.3520  4.4440 
  4679.000 -54.647  7.1510  5.3330  4.3710 -43.138  7.1510  5.3330  4.3710 
  4679.500 -53.926  7.1510  5.3150  4.3710 -42.409  7.1510  5.3150  4.3710 
  4680.000 -53.565  7.1140  5.2420  4.3350 -42.040  7.1140  5.2420  4.3350 
  4680.500 -53.205  7.0420  5.2770  4.3340 -41.672  7.0420  5.2770  4.3340 
  4681.000 -52.484  6.9870  5.3130  4.3340 -40.943  6.9870  5.3130  4.3340 
  4681.500 -51.581  6.9330  5.3480  4.3700 -40.032  6.9330  5.3480  4.3700 
  4682.000 -50.860  6.8600  5.3480  4.4050 -39.304  6.8600  5.3480  4.4050 
  4682.500 -50.500  6.7520  5.3480  4.4410 -38.936  6.7520  5.3480  4.4410 
  4683.000 -49.597  6.5710  5.3470  4.4590 -38.025  6.5710  5.3470  4.4590 
  4683.500 -48.875  6.3900  5.3460  4.4760 -37.295  6.3900  5.3460  4.4760 
  4684.000 -48.605  6.1380  5.3460  4.4760 -37.017  6.1380  5.3460  4.4760 
  4684.500 -48.335  5.9570  5.3090  4.4760 -36.739  5.9570  5.3090  4.4760 
  4685.000 -47.252  5.8490  5.2910  4.4570 -35.648  5.8490  5.2910  4.4570 
  4685.500 -46.531  5.5960  5.2720  4.4390 -34.919  5.5960  5.2720  4.4390 
  4686.000 -45.447  5.3800  5.2720  4.3850 -33.827  5.3800  5.2720  4.3850 
  4686.500 -44.183  5.1990  5.2350  4.3300 -32.555  5.1990  5.2350  4.3300 
  4687.000 -43.099  4.9100  5.1620  4.2940 -31.463  4.9100  5.1620  4.2940 
  4687.500 -41.473  4.7300  5.0900  4.2210 -29.829  4.7300  5.0900  4.2210 
  4688.000 -38.761  4.4770  4.9810  4.1490 -27.110  4.4770  4.9810  4.1490 
  4688.500 -32.431  4.2970  4.8370  4.0770 -20.772  4.2970  4.8370  4.0770 
  4689.000 -25.921  4.1160  4.7640  4.0050 -14.254  4.1160  4.7640  4.0050 
  4689.500 -23.933  3.9720  4.6920  3.8240 -12.258  3.9720  4.6920  3.8240 
