~Version Information
VERS.                     2.0: CWLS log ASCII Standard Version 2.00
WRAP.                      NO: One line per depth step
~Well Information Block
#MNEM.UNIT                               Data Type  Information
#---------                               ---------  -----------
STRT.FT                                   450.0000:
STOP.FT                                  6780.0000:
STEP.FT                                     0.5000:
NULL.                 -999.25                     :
COMP.                                             :COMPANY            
WELL.     SAN EMIDIO A 25-19                      :WELL               
FLD .                                             :FIELD              
CTRY.                                             :COUNTRY            
STAT.                                             :STATE              
LOC .                                             :LOCATION           
UWI .                                             :UNIQUE WELL ID     
SRVC.                                             :Service company    
DATE.                                             :LOG DATE           
~Curve Information
#MNEM.UNIT           API CODE  Curve Description
#---------           --------  -----------------
DEPT.FT                      :   1 DEPTH
SP  .MV                      :   2
AM16.OHMM                    :   3
AO10.OHMM                    :   4
AO19.OHMM                    :   5
SBL .MV                      :   6
RS  .OHMM                    :   7
RM  .OHMM                    :   8
RD  .OHMM                    :   9
~A
# ...
  1722.000 -23.149  7.6080  10.338  9.8710 -9.0722  7.6080  10.338  9.8710 
  1722.500 -23.421  7.7510  10.589  10.086 -9.3452  7.7510  10.589  10.086 
  1723.000 -25.047  7.8950  10.697  10.194 -10.972  7.8950  10.697  10.194 
  1723.500 -26.311  8.0380  10.984  10.301 -12.237  8.0380  10.984  10.301 
  1724.000 -27.576  8.3610  11.235  10.553 -13.503  8.3610  11.235  10.553 
  1724.500 -30.285  8.4690  11.343  10.696 -16.213  8.4690  11.343  10.696 
  1725.000 -33.355  8.7200  11.450  10.804 -19.284  8.7200  11.450  10.804 
  1725.500 -35.703  8.9710  11.486  10.875 -21.633  8.9710  11.486  10.875 
  1726.000 -37.148  9.0970  11.594  10.947 -23.079  9.0970  11.594  10.947 
  1726.500 -38.233  9.2230  11.629  11.126 -24.165  9.2230  11.629  11.126 
  1727.000 -39.497  9.4740  11.647  11.198 -25.430  9.4740  11.647  11.198 
  1727.500 -39.679  9.7250  11.665  11.342 -25.613  9.7250  11.665  11.342 
  1728.000 -40.041  9.9050  11.737  11.521 -25.976  9.9050  11.737  11.521 
  1728.500 -40.042  10.012  11.736  11.736 -25.978  10.012  11.736  11.736 
  1729.000 -40.042  10.263  11.772  12.095 -25.979  10.263  11.772  12.095 
  1729.500 -40.043  10.479  11.880  12.275 -25.981  10.479  11.880  12.275 
  1730.000 -40.134  10.586  12.023  12.490 -26.073  10.586  12.023  12.490 
  1730.500 -40.225  10.802  12.095  12.526 -26.165  10.802  12.095  12.526 
  1731.000 -40.768  11.089  12.059  12.562 -26.708  11.089  12.059  12.562 
  1731.500 -41.672  11.340  11.987  12.633 -27.613  11.340  11.987  12.633 
  1732.000 -42.575  11.879  11.879  12.669 -28.517  11.879  11.879  12.669 
  1732.500 -43.840  12.382  11.879  12.741 -29.783  12.382  11.879  12.741 
  1733.000 -45.827  12.705  11.843  12.777 -31.771  12.705  11.843  12.777 
  1733.500 -46.911  12.884  11.807  12.812 -32.856  12.884  11.807  12.812 
  1734.000 -47.634  13.135  11.878  12.920 -33.580  13.135  11.878  12.920 
  1734.500 -47.816  13.243  12.022  13.099 -33.763  13.243  12.022  13.099 
  1735.000 -47.726  13.351  12.237  13.171 -33.674  13.351  12.237  13.171 
  1735.500 -47.636  13.386  12.381  13.171 -33.585  13.386  12.381  13.171 
  1736.000 -47.457  13.422  12.560  13.171 -33.407  13.422  12.560  13.171 
  1736.500 -47.277  13.458  12.703  12.991 -33.228  13.458  12.703  12.991 
  1737.000 -47.098  13.494  12.775  12.883 -33.050  13.494  12.775  12.883 
  1737.500 -46.918  13.458  12.811  12.775 -32.871  13.458  12.811  12.775 
  1738.000 -46.378  13.350  12.811  12.559 -32.332  13.350  12.811  12.559 
  1738.500 -46.378  13.134  12.882  12.523 -32.333  13.134  12.882  12.523 
  1739.000 -46.018  12.631  12.918  12.451 -31.974  12.631  12.918  12.451 
  1739.500 -45.658  12.128  13.098  12.379 -31.615  12.128  13.098  12.379 
  1740.000 -45.298  11.768  13.708  12.307 -31.256  11.768  13.708  12.307 
  1740.500 -45.118  11.481  13.744  12.127 -31.077  11.481  13.744  12.127 
  1741.000 -44.578  10.798  13.762  11.660 -30.538  10.798  13.762  11.660 
  1741.500 -44.398  9.9360  13.779  11.157 -30.359  9.9360  13.779  11.157 
  1742.000 -44.218  8.8580  13.564  10.618 -30.180  8.8580  13.564  10.618 
  1742.500 -38.984  8.0310  13.384  10.223 -24.947  8.0310  13.384  10.223 
  1743.000 -36.096  7.5640  12.845  9.5400 -22.060  7.5640  12.845  9.5400 
  1743.500 -33.750  7.2050  12.414  9.2160 -19.714  7.2050  12.414  9.2160 
  1744.000 -31.765  6.9890  12.126  8.9290 -17.730  6.9890  12.126  8.9290 
  1744.500 -29.599  6.7370  11.910  8.6410 -15.565  6.7370  11.910  8.6410 
  1745.000 -27.253  6.4860  11.479  8.0310 -13.220  6.4860  11.479  8.0310 
  1745.500 -24.907  5.9830  11.048  7.6710 -10.875  5.9830  11.048  7.6710 
  1746.000 -23.102  5.8390  9.3950  7.3840 -9.0713  5.8390  9.3950  7.3840 
  1746.500 -22.200  5.6230  8.8200  7.1320 -8.1702  5.6230  8.8200  7.1320 
  1747.000 -20.938  5.4430  8.3530  6.9880 -6.9092  5.4430  8.3530  6.9880 
  1747.500 -20.216  5.2990  8.1010  6.8800 -6.1882  5.2990  8.1010  6.8800 
  1748.000 -19.314  5.1560  7.8860  6.8440 -5.2871  5.1560  7.8860  6.8440 
  1748.500 -18.954  5.0480  7.7420  6.8080 -4.9281  5.0480  7.7420  6.8080 
  1749.000 -18.774  4.8680  7.6340  6.8080 -4.7490  4.8680  7.6340  6.8080 
  1749.500 -18.595  4.8140  7.4900  6.8790 -4.5710  4.8140  7.4900  6.8790 
  1750.000 -18.235  4.7600  7.4360  6.9510 -4.2120  4.7600  7.4360  6.9510 
  1750.500 -18.055  4.6520  7.3820  6.9510 -4.0329  4.6520  7.3820  6.9510 
  1751.000 -18.056  4.6160  7.2740  6.9150 -4.0349  4.6160  7.2740  6.9150 
  1751.500 -18.057  4.5800  7.2560  6.9510 -4.0368  4.5800  7.2560  6.9510 
  1752.000 -18.058  4.5440  7.2380  7.0940 -4.0388  4.5440  7.2380  7.0940 
  1752.500 -18.059  4.5070  7.1660  7.1120 -4.0408  4.5070  7.1660  7.1120 
  1753.000 -18.240  4.4890  7.1300  7.1300 -4.2227  4.4890  7.1300  7.1300 
  1753.500 -18.421  4.4710  7.0930  7.1650 -4.4047  4.4710  7.0930  7.1650 
  1754.000 -18.603  4.4710  7.0570  7.2730 -4.5876  4.4710  7.0570  7.2730 
  1754.500 -18.604  4.5070  6.9850  7.3800 -4.5896  4.5070  6.9850  7.3800 
  1755.000 -18.514  4.5420  6.9490  7.4160 -4.5006  4.5420  6.9490  7.4160 
  1755.500 -18.425  4.5780  6.9130  7.4520 -4.4125  4.5780  6.9130  7.4520 
  1756.000 -18.426  4.6680  6.8770  7.5600 -4.4145  4.6680  6.8770  7.5600 
  1756.500 -18.427  4.7570  6.8410  7.7390 -4.4164  4.7570  6.8410  7.7390 
  1757.000 -18.428  4.9010  6.8050  7.9180 -4.4184  4.9010  6.8050  7.9180 
  1757.500 -18.609  5.0450  6.8050  7.9900 -4.6004  5.0450  6.8050  7.9900 
  1758.000 -18.790  5.1700  6.8050  8.0980 -4.7823  5.1700  6.8050  8.0980 
  1758.500 -19.243  5.2960  6.8040  8.2050 -5.2363  5.2960  6.8040  8.2050 
  1759.000 -19.695  5.5830  6.8040  8.2770 -5.6892  5.5830  6.8040  8.2770 
  1759.500 -21.321  5.7260  6.8220  8.4200 -7.3162  5.7260  6.8220  8.4200 
  1760.000 -23.127  5.8700  6.8400  8.6000 -9.1232  5.8700  6.8400  8.6000 
  1760.500 -25.475  6.0130  6.8400  8.6540 -11.472  6.0130  6.8400  8.6540 
  1761.000 -26.560  6.2290  6.8390  8.7070 -12.558  6.2290  6.8390  8.7070 
  1761.500 -26.380  6.3720  6.8030  8.9590 -12.379  6.3720  6.8030  8.9590 
  1762.000 -26.020  6.5520  6.7670  9.0300 -12.020  6.5520  6.7670  9.0300 
  1762.500 -26.201  6.6590  6.7490  9.0660 -12.202  6.6590  6.7490  9.0660 
  1763.000 -27.105  6.8390  6.7310  9.1020 -13.107  6.8390  6.7310  9.1020 
  1763.500 -28.369  6.9460  6.7130  9.1730 -14.372  6.9460  6.7130  9.1730 
  1764.000 -29.815  7.0540  6.6950  9.1730 -15.819  7.0540  6.6950  9.1730 
  1764.500 -32.163  7.1070  6.6580  9.1730 -18.168  7.1070  6.6580  9.1730 
  1765.000 -33.428  7.1610  6.6400  9.1370 -19.434  7.1610  6.6400  9.1370 
  1765.500 -34.692  7.2150  6.6220  9.1370 -20.699  7.2150  6.6220  9.1370 
  1766.000 -34.693  7.2690  6.6220  9.1010 -20.701  7.2690  6.6220  9.1010 
  1766.500 -34.604  7.3760  6.6220  9.0830 -20.613  7.3760  6.6220  9.0830 
  1767.000 -34.514  7.4120  6.5860  9.0640 -20.524  7.4120  6.5860  9.0640 
  1767.500 -33.071  7.4480  6.5680  8.9560 -19.082  7.4480  6.5680  8.9560 
  1768.000 -32.169  7.4830  6.5490  8.8480 -18.181  7.4830  6.5490  8.8480 
  1768.500 -31.087  7.5190  6.5490  8.8120 -17.099  7.5190  6.5490  8.8120 
  1769.000 -30.365  7.6630  6.5490  8.8120 -16.378  7.6630  6.5490  8.8120 
  1769.500 -29.644  7.9140  6.6930  8.9200 -15.658  7.9140  6.6930  8.9200 
  1770.000 -28.923  8.2010  6.7640  9.2070 -14.938  8.2010  6.7640  9.2070 
  1770.500 -28.744  8.5600  6.9440  9.3860 -14.760  8.5600  6.9440  9.3860 
  1771.000 -29.467  8.9190  7.3390  9.4940 -15.484  8.9190  7.3390  9.4940 
  1771.500 -31.273  9.6020  7.9130  9.6730 -17.291  9.6020  7.9130  9.6730 
  1772.000 -33.801  9.9610  8.2360  9.8530 -19.820  9.9610  8.2360  9.8530 
  1772.500 -36.871  10.284  8.5240  9.9960 -22.891  10.284  8.5240  9.9960 
  1773.000 -41.025  10.787  8.7210  10.212 -27.046  10.787  8.7210  10.212 
  1773.500 -42.470  11.289  8.9180  10.319 -28.492  11.289  8.9180  10.319 
  1774.000 -43.915  12.008  9.2770  10.427 -29.938  12.008  9.2770  10.427 
  1774.500 -46.263  12.726  9.4930  10.606 -32.287  12.726  9.4930  10.606 
