~Version Information
VERS.                     2.0: CWLS log ASCII Standard Version 2.00
WRAP.                      NO: One line per depth step
~Well Information Block
#MNEM.UNIT                               Data Type  Information
#---------                               ---------  -----------
STRT.FT                                  5780.0000:
STOP.FT                                  6850.0000:
STEP.FT                                     0.5000:
NULL.                 -999.25                     :
COMP.                                             :COMPANY            
WELL.     SAN EMIDIO A 35-19 REDRILL #1           :WELL               
FLD .                                             :FIELD              
CTRY.                                             :COUNTRY            
STAT.                                             :STATE              
LOC .                                             :LOCATION           
UWI .                                             :UNIQUE WELL ID     
SRVC.                                             :Service company    
DATE.                                             :LOG DATE           
~Curve Information
#MNEM.UNIT           API CODE  Curve Description
#---------           --------  -----------------
DEPT.FT                      :   1 DEPTH
SP  .MV                      :   2
AM16.OHMM                    :   3
AO10.OHMM                    :   4
AO19.OHMM                    :   5
SBL .MV                      :   6
RS  .OHMM                    :   7
RM  .OHMM                    :   8
RD  .OHMM                    :   9
~A
# ...
  6363.000 -26.651  2.3140  2.1350  2.1850 -14.651  2.3140  2.1350  2.1850 
  6363.500 -26.647  2.3110  2.1250  2.1940 -14.647  2.3110  2.1250  2.1940 
  6364.000 -26.642  2.3130  2.1050  2.2090 -14.642  2.3130  2.1050  2.2090 
  6364.500 -26.563  2.3140  2.0980  2.2060 -14.563  2.3140  2.0980  2.2060 
  6365.000 -26.449  2.3150  2.0930  2.2030 -14.449  2.3150  2.0930  2.2030 
  6365.500 -26.392  2.3230  2.0940  2.2010 -14.392  2.3230  2.0940  2.2010 
  6366.000 -26.335  2.3280  2.0950  2.1980 -14.335  2.3280  2.0950  2.1980 
  6366.500 -26.148  2.3320  2.0950  2.2060 -14.148  2.3320  2.0950  2.2060 
  6367.000 -25.961  2.3400  2.0960  2.2140 -13.961  2.3400  2.0960  2.2140 
  6367.500 -25.812  2.3480  2.1040  2.2220 -13.812  2.3480  2.1040  2.2220 
  6368.000 -25.735  2.3640  2.1120  2.2380 -13.735  2.3640  2.1120  2.2380 
  6368.500 -25.659  2.3790  2.1200  2.2530 -13.659  2.3790  2.1200  2.2530 
  6369.000 -25.583  2.4020  2.1290  2.3620 -13.583  2.4020  2.1290  2.3620 
  6369.500 -25.470  2.4240  2.1450  2.3510 -13.470  2.4240  2.1450  2.3510 
  6370.000 -25.358  2.4470  2.1600  2.3390 -13.358  2.4470  2.1600  2.3390 
  6370.500 -25.206  2.4550  2.1640  2.3270 -13.206  2.4550  2.1640  2.3270 
  6371.000 -25.165  2.4700  2.1680  2.3160 -13.165  2.4700  2.1680  2.3160 
  6371.500 -25.088  2.4860  2.1770  2.3390 -13.088  2.4860  2.1770  2.3390 
  6372.000 -25.010  2.4940  2.1850  2.3400 -13.010  2.4940  2.1850  2.3400 
  6372.500 -24.969  2.5020  2.1930  2.3550 -12.969  2.5020  2.1930  2.3550 
  6373.000 -25.001  2.5170  2.2010  2.3630 -13.001  2.5170  2.2010  2.3630 
  6373.500 -25.031  2.5330  2.2200  2.3710 -13.031  2.5330  2.2200  2.3710 
  6374.000 -25.135  2.5780  2.2390  2.3730 -13.135  2.5780  2.2390  2.3730 
  6374.500 -25.274  2.6070  2.2700  2.3810 -13.274  2.6070  2.2700  2.3810 
  6375.000 -25.521  2.6510  2.2850  2.3820 -13.521  2.6510  2.2850  2.3820 
  6375.500 -25.769  2.7020  2.3070  2.4190 -13.769  2.7020  2.3070  2.4190 
  6376.000 -26.340  2.7530  2.3230  2.5780 -14.340  2.7530  2.3230  2.5780 
  6376.500 -26.732  2.8480  2.3380  2.9090 -14.732  2.8480  2.3380  2.9090 
  6377.000 -27.266  2.9350  2.3530  3.2260 -15.266  2.9350  2.3530  3.2260 
  6377.500 -27.695  2.9790  2.5840  3.4140 -15.695  2.9790  2.5840  3.4140 
  6378.000 -28.266  3.0230  2.8290  3.6800 -16.266  3.0230  2.8290  3.6800 
  6378.500 -28.692  3.1250  3.0390  3.9260 -16.692  3.1250  3.0390  3.9260 
  6379.000 -28.977  3.1720  3.2330  4.2350 -16.977  3.1720  3.2330  4.2350 
  6379.500 -29.584  3.2200  3.6300  4.4090 -17.584  3.2200  3.6300  4.4090 
  6380.000 -30.083  3.3510  4.1120  4.4960 -18.083  3.3510  4.1120  4.4960 
  6380.500 -29.971  3.4090  4.2130  4.4750 -17.971  3.4090  4.2130  4.4750 
  6381.000 -28.201  3.4740  4.0200  4.2680 -16.201  3.4740  4.0200  4.2680 
  6381.500 -26.828  3.5180  3.6330  3.8300 -14.828  3.5180  3.6330  3.8300 
  6382.000 -26.536  3.4330  3.1240  3.0200 -14.536  3.4330  3.1240  3.0200 
  6382.500 -26.640  3.3180  2.5140  2.4320 -14.640  3.3180  2.5140  2.4320 
  6383.000 -26.620  3.1040  2.1410  2.1740 -14.620  3.1040  2.1410  2.1740 
  6383.500 -26.599  3.0470  2.0350  2.1390 -14.599  3.0470  2.0350  2.1390 
  6384.000 -25.727  2.9050  2.0140  2.1320 -13.727  2.9050  2.0140  2.1320 
  6384.500 -25.326  2.8330  2.0080  2.1470 -13.326  2.8330  2.0080  2.1470 
  6385.000 -24.998  2.7410  2.0160  2.1620 -12.998  2.7410  2.0160  2.1620 
  6385.500 -24.562  2.6910  2.0380  2.2070 -12.562  2.6910  2.0380  2.2070 
  6386.000 -24.378  2.6560  2.0530  2.2580 -12.378  2.6560  2.0530  2.2580 
  6386.500 -23.976  2.6210  2.0680  2.2800 -11.976  2.6210  2.0680  2.2800 
  6387.000 -23.757  2.5790  2.0830  2.3090 -11.757  2.5790  2.0830  2.3090 
  6387.500 -23.646  2.5690  2.1050  2.3250 -11.646  2.5690  2.1050  2.3250 
  6388.000 -23.713  2.5580  2.1350  2.3250 -11.713  2.5580  2.1350  2.3250 
  6388.500 -24.141  2.5300  2.1720  2.3120 -12.141  2.5300  2.1720  2.3120 
  6389.000 -24.426  2.5020  2.4170  2.3060 -12.426  2.5020  2.4170  2.3060 
  6389.500 -24.278  2.4680  2.5470  2.2780 -12.278  2.4680  2.5470  2.2780 
  6390.000 -23.661  2.4400  2.8210  2.2430 -11.661  2.4400  2.8210  2.2430 
  6390.500 -22.900  2.4260  2.9870  2.1860 -10.900  2.4260  2.9870  2.1860 
  6391.000 -22.968  2.4120  3.1020  2.1430 -10.968  2.4120  3.1020  2.1430 
  6391.500 -23.072  2.3990  3.2110  2.0870 -11.072  2.3990  3.2110  2.0870 
  6392.000 -23.536  2.4000  3.2260  2.0440 -11.536  2.4000  3.2260  2.0440 
  6392.500 -23.641  2.4010  3.2200  1.9950 -11.641  2.4010  3.2200  1.9950 
  6393.000 -23.347  2.4300  3.1850  1.9960 -11.347  2.4300  3.1850  1.9960 
  6393.500 -23.343  2.4490  3.1490  2.0110 -11.343  2.4490  3.1490  2.0110 
  6394.000 -23.484  2.4670  3.0930  2.1270 -11.484  2.4670  3.0930  2.1270 
  6394.500 -23.660  2.5330  3.0430  2.1630 -11.660  2.5330  3.0430  2.1630 
  6395.000 -24.017  2.5700  3.0300  2.2070 -12.017  2.5700  3.0300  2.2070 
  6395.500 -24.265  2.6070  3.0260  2.2220 -12.265  2.6070  3.0260  2.2220 
  6396.000 -23.920  2.6430  3.0230  2.2090 -11.920  2.6430  3.0230  2.2090 
  6396.500 -23.575  2.6660  3.0100  2.2020 -11.575  2.6660  3.0100  2.2020 
  6397.000 -22.919  2.6950  3.0180  2.1810 -10.919  2.6950  3.0180  2.1810 
  6397.500 -22.664  2.7070  3.0260  2.1600 -10.664  2.7070  3.0260  2.1600 
  6398.000 -22.551  2.7180  3.0340  2.2620 -10.551  2.7180  3.0340  2.2620 
  6398.500 -22.655  2.7340  3.0350  2.3780 -10.655  2.7340  3.0350  2.3780 
  6399.000 -22.904  2.7340  3.0180  2.5080 -10.904  2.7340  3.0180  2.5080 
  6399.500 -23.080  2.7310  3.0000  2.6520 -11.080  2.7310  3.0000  2.6520 
  6400.000 -23.363  2.7280  2.9510  2.7820 -11.363  2.7280  2.9510  2.7820 
  6400.500 -23.431  2.7220  2.9380  2.9410 -11.431  2.7220  2.9380  2.9410 
  6401.000 -23.427  2.7160  2.9530  3.0430 -11.427  2.7160  2.9530  3.0430 
  6401.500 -23.389  2.7020  2.9750  3.1150 -11.389  2.7020  2.9750  3.1150 
  6402.000 -23.350  2.6990  2.9830  3.1230 -11.350  2.6990  2.9830  3.1230 
  6402.500 -23.220  2.6960  2.9270  3.0950 -11.220  2.6960  2.9270  3.0950 
  6403.000 -23.090  2.6900  2.8700  3.0030 -11.090  2.6900  2.8700  3.0030 
  6403.500 -22.903  2.6840  2.8200  2.9250 -10.903  2.6840  2.8200  2.9250 
  6404.000 -22.828  2.6770  2.7990  2.8610 -10.828  2.6770  2.7990  2.8610 
  6404.500 -22.754  2.6740  2.7780  2.8400 -10.754  2.6740  2.7780  2.8400 
  6405.000 -22.529  2.6710  2.7510  2.8120 -10.529  2.6710  2.7510  2.8120 
  6405.500 -22.454  2.6730  2.7440  2.8130 -10.454  2.6730  2.7440  2.8130 
  6406.000 -22.305  2.6730  2.7460  2.8140 -10.305  2.6730  2.7460  2.8140 
  6406.500 -22.266  2.6740  2.7460  2.8360 -10.266  2.6740  2.7460  2.8360 
  6407.000 -22.189  2.6750  2.7540  2.8580 -10.189  2.6750  2.7540  2.8580 
  6407.500 -22.186  2.6790  2.7580  2.8660 -10.186  2.6790  2.7580  2.8660 
  6408.000 -22.362  2.6830  2.7620  2.8740 -10.362  2.6830  2.7620  2.8740 
  6408.500 -22.465  2.6910  2.7710  2.8390 -10.465  2.6910  2.7710  2.8390 
  6409.000 -22.569  2.6990  2.7790  2.7680 -10.569  2.6990  2.7790  2.7680 
  6409.500 -22.657  2.7150  2.7870  2.7040 -10.657  2.7150  2.7870  2.7040 
  6410.000 -22.745  2.7230  2.7910  2.6620 -10.745  2.7230  2.7910  2.6620 
  6410.500 -22.845  2.7310  2.7950  2.6550 -10.845  2.7310  2.7950  2.6550 
  6411.000 -22.897  2.7390  2.8000  2.7430 -10.897  2.7390  2.8000  2.7430 
  6411.500 -22.948  2.7460  2.8040  2.7940 -10.948  2.7460  2.8040  2.7940 
  6412.000 -22.963  2.7760  2.8050  2.8370 -10.963  2.7760  2.8050  2.8370 
  6412.500 -22.977  2.7910  2.8050  2.8740 -10.977  2.7910  2.8050  2.8740 
  6413.000 -23.187  2.7990  2.8070  2.8890 -11.187  2.7990  2.8070  2.8890 
  6413.500 -23.219  2.8000  2.8070  2.8970 -11.219  2.8000  2.8070  2.8970 
  6414.000 -24.044  2.7940  2.8040  2.8700 -12.044  2.7940  2.8040  2.8700 
  6414.500 -25.192  2.7840  2.8010  2.8480 -13.192  2.7840  2.8010  2.8480 
  6415.000 -25.404  2.7730  2.7950  2.8270 -13.404  2.7730  2.7950  2.8270 
  6415.500 -25.292  2.7460  2.7750  2.7710 -13.292  2.7460  2.7750  2.7710 
