~Version Information
VERS.                     2.0: CWLS log ASCII Standard Version 2.00
WRAP.                      NO: One line per depth step
~Well Information Block
#MNEM.UNIT                               Data Type  Information
#---------                               ---------  -----------
STRT.FT                                   370.0000:
STOP.FT                                  6710.0000:
STEP.FT                                     0.5000:
NULL.                 -999.25                     :
COMP.                                             :COMPANY            
WELL.     SAN EMIDIO 35-19 REDRILL #2             :WELL               
FLD .                                             :FIELD              
CTRY.                                             :COUNTRY            
STAT.                                             :STATE              
LOC .                                             :LOCATION           
UWI .                                             :UNIQUE WELL ID     
SRVC.                                             :Service company    
DATE.                                             :LOG DATE           
~Curve Information
#MNEM.UNIT           API CODE  Curve Description
#---------           --------  -----------------
DEPT.FT                      :   1 DEPTH
SP  .MV                      :   2
AM16.OHMM                    :   3
AO10.OHMM                    :   4
AO19.OHMM                    :   5
SBL .MV                      :   6
RS  .OHMM                    :   7
RM  .OHMM                    :   8
RD  .OHMM                    :   9
~A
# ...
  4981.000 -30.497  2.9580  3.0510  2.9040 -18.497  2.9580  3.0510  2.9040 
  4981.500 -27.879  2.9070  3.0010  2.8750 -15.879  2.9070  3.0010  2.8750 
  4982.000 -25.477  2.8500  2.9070  2.7600 -13.477  2.8500  2.9070  2.7600 
  4982.500 -22.715  2.8140  2.8780  2.6520 -10.715  2.8140  2.8780  2.6520 
  4983.000 -21.210  2.7630  2.8280  2.5870 -9.2100  2.7630  2.8280  2.5870 
  4983.500 -20.995  2.7340  2.8060  2.6270 -8.9950  2.7340  2.8060  2.6270 
  4984.000 -20.817  2.7490  2.8060  2.6660 -8.8170  2.7490  2.8060  2.6660 
  4984.500 -20.495  2.7840  2.8060  2.7520 -8.4950  2.7840  2.8060  2.7520 
  4985.000 -20.316  2.8490  2.8060  2.7950 -8.3160  2.8490  2.8060  2.7950 
  4985.500 -20.137  2.8920  2.8050  2.7590 -8.1370  2.8920  2.8050  2.7590 
  4986.000 -20.102  2.8630  2.7840  2.6940 -8.1020  2.8630  2.7840  2.6940 
  4986.500 -20.103  2.7690  2.7550  2.6510 -8.1030  2.7690  2.7550  2.6510 
  4987.000 -20.283  2.7260  2.7330  2.5930 -8.2830  2.7260  2.7330  2.5930 
  4987.500 -20.463  2.6470  2.7260  2.6430 -8.4630  2.6470  2.7260  2.6430 
  4988.000 -20.823  2.5890  2.7180  2.6790 -8.8230  2.5890  2.7180  2.6790 
  4988.500 -21.182  2.5890  2.7220  2.7220 -9.1820  2.5890  2.7220  2.7220 
  4989.000 -22.044  2.6390  2.7250  2.8080 -10.044  2.6390  2.7250  2.8080 
  4989.500 -24.520  2.7680  2.7470  2.8430 -12.520  2.7680  2.7470  2.8430 
  4990.000 -29.471  2.8680  2.7610  2.8650 -17.471  2.8680  2.7610  2.8650 
  4990.500 -35.498  3.0410  2.7960  2.8570 -23.498  3.0410  2.7960  2.8570 
  4991.000 -39.193  3.2490  2.8250  2.8500 -27.193  3.2490  2.8250  2.8500 
  4991.500 -41.812  3.4210  2.8610  2.8210 -29.820  3.4210  2.8610  2.8210 
  4992.000 -46.441  3.5570  2.9110  2.8070 -34.457  3.5570  2.9110  2.8070 
  4992.500 -48.558  3.6930  2.9250  2.8850 -36.582  3.6930  2.9250  2.8850 
  4993.000 -47.518  3.8010  2.9530  2.9860 -35.551  3.8010  2.9530  2.9860 
  4993.500 -46.658  3.8800  2.9680  3.0930 -34.699  3.8800  2.9680  3.0930 
  4994.000 -46.444  3.9440  2.9820  3.1360 -34.493  3.9440  2.9820  3.1360 
  4994.500 -47.126  3.9150  3.0030  3.1500 -35.183  3.9150  3.0030  3.1500 
  4995.000 -48.131  3.8430  3.0170  3.1860 -36.196  3.8430  3.0170  3.1860 
  4995.500 -49.674  3.7420  3.0320  3.2070 -37.747  3.7420  3.0320  3.2070 
  4996.000 -51.971  3.6920  3.0670  3.2360 -40.052  3.6920  3.0670  3.2360 
  4996.500 -54.770  3.7990  3.0890  3.3360 -42.860  3.7990  3.0890  3.3360 
  4997.000 -57.138  3.8850  3.1530  3.4510 -45.236  3.8850  3.1530  3.4510 
  4997.500 -59.757  3.9570  3.1890  3.5440 -47.863  3.9570  3.1890  3.5440 
  4998.000 -61.946  4.0070  3.2460  3.7160 -50.060  4.0070  3.2460  3.7160 
  4998.500 -63.955  4.0570  3.3540  3.8530 -52.077  4.0570  3.3540  3.8530 
  4999.000 -66.180  4.1000  3.4680  3.9820 -54.310  4.1000  3.4680  3.9820 
  4999.500 -67.401  4.1430  3.5610  4.1390 -55.539  4.1430  3.5610  4.1390 
  5000.000 -65.048  4.0010  3.7490  4.2300 -53.195  4.0010  3.7490  4.2300 
  5000.500 -63.612  4.0640  3.8130  4.2300 -51.767  4.0640  3.8130  4.2300 
  5001.000 -63.366  4.1570  3.8630  4.2430 -51.529  4.1570  3.8630  4.2430 
  5001.500 -63.372  4.4150  3.9190  4.3290 -51.543  4.4150  3.9190  4.3290 
  5002.000 -63.446  4.7160  3.9690  4.5070 -51.625  4.7160  3.9690  4.5070 
  5002.500 -65.720  5.0740  4.0680  4.7220 -53.907  5.0740  4.0680  4.7220 
  5003.000 -66.660  5.4180  4.2110  4.9150 -54.856  5.4180  4.2110  4.9150 
  5003.500 -67.315  5.7620  4.4190  5.1300 -55.519  5.7620  4.4190  5.1300 
  5004.000 -67.138  6.0770  4.6050  5.2800 -55.350  6.0770  4.6050  5.2800 
  5004.500 -66.674  6.3210  4.7120  5.4230 -54.894  6.3210  4.7120  5.4230 
  5005.000 -66.247  6.4280  4.7680  5.4510 -54.475  6.4280  4.7680  5.4510 
  5005.500 -67.440  6.4630  4.8180  5.4140 -55.676  6.4630  4.8180  5.4140 
  5006.000 -68.849  5.6500  4.8100  4.8880 -57.093  5.6500  4.8100  4.8880 
  5006.500 -70.368  5.3330  4.7730  4.4280 -58.621  5.3330  4.7730  4.4280 
  5007.000 -71.451  5.2100  4.6210  4.1180 -59.712  5.2100  4.6210  4.1180 
  5007.500 -73.184  5.0790  3.9450  3.7300 -61.453  5.0790  3.9450  3.7300 
  5008.000 -75.061  5.0000  3.4700  3.1830 -63.338  5.0000  3.4700  3.1830 
  5008.500 -74.706  4.8620  3.0380  2.8660 -62.991  4.8620  3.0380  2.8660 
  5009.000 -73.595  4.7320  2.7860  2.6130 -61.888  4.7320  2.7860  2.6130 
  5009.500 -71.872  4.5810  2.6270  2.3900 -60.173  4.5810  2.6270  2.3900 
  5010.000 -69.139  4.3500  2.5400  2.3240 -57.449  4.3500  2.5400  2.3240 
  5010.500 -65.291  4.1120  2.4890  2.3090 -53.609  4.1120  2.4890  2.3090 
  5011.000 -61.695  3.9030  2.5670  2.3370 -50.021  3.9030  2.5670  2.3370 
  5011.500 -56.299  3.6580  2.6590  2.3570 -44.633  3.6580  2.6590  2.3570 
  5012.000 -52.378  3.4410  2.7300  2.3570 -40.720  3.4410  2.7300  2.3570 
  5012.500 -49.107  3.2610  2.7580  2.3200 -37.457  3.2610  2.7580  2.3200 
  5013.000 -39.065  3.1160  2.7720  2.2190 -27.423  3.1160  2.7720  2.2190 
  5013.500 -33.670  2.9430  2.7850  2.1320 -22.037  2.9430  2.7850  2.1320 
  5014.000 -30.433  2.7770  2.7920  2.0730 -18.808  2.7770  2.7920  2.0730 
  5014.500 -27.989  2.6470  2.7980  2.0150 -16.372  2.6470  2.7980  2.0150 
  5015.000 -26.770  2.6170  2.9190  2.0710 -15.161  2.6170  2.9190  2.0710 
  5015.500 -25.623  2.7240  3.1340  2.1850 -14.022  2.7240  3.1340  2.1850 
  5016.000 -24.475  2.7660  3.3410  2.2490 -12.882  2.7660  3.3410  2.2490 
  5016.500 -23.436  2.8440  3.5050  2.3920 -11.851  2.8440  3.5050  2.3920 
  5017.000 -22.613  2.9080  3.6130  2.4780 -11.037  2.9080  3.6130  2.4780 
  5017.500 -21.250  2.9290  3.7050  2.5050 -9.6818  2.9290  3.7050  2.5050 
  5018.000 -20.102  2.9430  3.7470  2.5260 -8.5419  2.9430  3.7470  2.5260 
  5018.500 -19.674  2.9200  3.7030  2.5320 -8.1221  2.9200  3.7030  2.5320 
  5019.000 -19.391  2.9050  3.6380  2.5670 -7.8472  2.9050  3.6380  2.5670 
  5019.500 -19.109  2.8910  3.5940  2.5810 -7.5734  2.8910  3.5940  2.5810 
  5020.000 -18.572  2.8460  3.5510  2.5990 -7.0445  2.8460  3.5510  2.5990 
  5020.500 -17.748  2.8240  3.4410  2.6160 -6.2287  2.8240  3.4410  2.6160 
  5021.000 -17.791  2.8010  3.3680  2.6640 -6.2798  2.8010  3.3680  2.6640 
  5021.500 -19.631  2.7780  3.3460  2.7200 -8.1279  2.7780  3.3460  2.7200 
  5022.000 -20.787  2.7630  3.3300  2.7770 -9.2921  2.7630  3.3300  2.7770 
  5022.500 -20.795  2.7410  3.3230  2.7980 -9.3082  2.7410  3.3230  2.7980 
  5023.000 -20.256  2.6970  3.2930  2.8690 -8.7774  2.6970  3.2930  2.8690 
  5023.500 -19.147  2.6380  3.2130  2.9330 -7.6765  2.6380  3.2130  2.9330 
  5024.000 -18.070  2.6020  3.1550  2.9830 -6.6077  2.6020  3.1550  2.9830 
  5024.500 -16.525  2.5870  3.0750  3.0330 -5.0708  2.5870  3.0750  3.0330 
  5025.000 -15.235  2.6000  3.0170  3.2250 -3.7890  2.6000  3.0170  3.2250 
  5025.500 -14.375  2.6280  2.9590  3.3460 -2.9371  2.6280  2.9590  3.3460 
  5026.000 -13.876  2.6700  2.9000  3.3880 -2.4463  2.6700  2.9000  3.3880 
  5026.500 -13.592  2.7410  2.8350  3.3950 -2.1704  2.7410  2.8350  3.3950 
  5027.000 -13.994  2.7980  2.8340  3.4080 -2.5806  2.7980  2.8340  3.4080 
  5027.500 -14.827  2.9040  2.8760  3.4930 -3.4217  2.9040  2.8760  3.4930 
  5028.000 -16.379  2.9760  2.9330  3.5790 -4.9819  2.9760  2.9330  3.5790 
  5028.500 -18.941  3.1110  2.9900  3.6860 -7.5520  3.1110  2.9900  3.6860 
  5029.000 -22.510  3.2680  3.1610  3.7780 -11.129  3.2680  3.1610  3.7780 
  5029.500 -25.251  3.3680  3.2600  3.8570 -13.878  3.3680  3.2600  3.8570 
  5030.000 -28.497  3.5680  3.3100  3.9840 -17.132  3.5680  3.3100  3.9840 
  5030.500 -32.570  3.6970  3.4020  4.0270 -21.214  3.6970  3.4020  4.0270 
  5031.000 -38.408  3.8400  3.4510  4.0980 -27.060  3.8400  3.4510  4.0980 
  5031.500 -40.537  3.9460  3.4720  4.1840 -29.197  3.9460  3.4720  4.1840 
  5032.000 -41.010  4.0460  3.5070  4.2620 -29.678  4.0460  3.5070  4.2620 
  5032.500 -40.187  4.1530  3.5420  4.2900 -28.863  4.1530  3.5420  4.2900 
  5033.000 -37.708  4.1450  3.5700  4.3100 -26.392  4.1450  3.5700  4.3100 
  5033.500 -35.119  4.0790  3.5910  4.2450 -23.811  4.0790  3.5910  4.2450 
