~Version Information
VERS.                     2.0: CWLS log ASCII Standard Version 2.00
WRAP.                      NO: One line per depth step
~Well Information Block
#MNEM.UNIT                               Data Type  Information
#---------                               ---------  -----------
STRT.FT                                  5780.0000:
STOP.FT                                  6850.0000:
STEP.FT                                     0.5000:
NULL.                 -999.25                     :
COMP.                                             :COMPANY            
WELL.     SAN EMIDIO A 35-19 REDRILL #1           :WELL               
FLD .                                             :FIELD              
CTRY.                                             :COUNTRY            
STAT.                                             :STATE              
LOC .                                             :LOCATION           
UWI .                                             :UNIQUE WELL ID     
SRVC.                                             :Service company    
DATE.                                             :LOG DATE           
~Curve Information
#MNEM.UNIT           API CODE  Curve Description
#---------           --------  -----------------
DEPT.FT                      :   1 DEPTH
SP  .MV                      :   2
AM16.OHMM                    :   3
AO10.OHMM                    :   4
AO19.OHMM                    :   5
SBL .MV                      :   6
RS  .OHMM                    :   7
RM  .OHMM                    :   8
RD  .OHMM                    :   9
~A
# ...
  6787.000 -20.062  15.053  23.624  18.403 -8.0620  15.053  23.624  18.403 
  6787.500 -19.987  13.955  24.491  29.698 -7.9870  13.955  24.491  29.698 
  6788.000 -19.872  12.835  23.277  30.280 -7.8720  12.835  23.277  30.280 
  6788.500 -20.122  11.658  18.760  23.754 -8.1220  11.658  18.760  23.754 
  6789.000 -21.018  11.055  19.163  19.450 -9.0180  11.055  19.163  19.450 
  6789.500 -21.663  10.517  19.566  19.524 -9.6630  10.517  19.566  19.524 
  6790.000 -22.452  10.267  19.969  19.599 -10.452  10.267  19.969  19.599 
  6790.500 -23.421  10.296  19.317  11.255 -11.421  10.296  19.317  11.255 
  6791.000 -24.318  10.642  9.0110  10.372 -12.318  10.642  9.0110  10.372 
  6791.500 -23.486  11.195  8.8250  9.6040 -11.486  11.195  8.8250  9.6040 
  6792.000 -22.508  11.792  9.4800  9.5910 -10.508  11.792  9.4800  9.5910 
  6792.500 -21.641  12.461  9.8680  10.094 -9.6410  12.461  9.8680  10.094 
  6793.000 -20.845  13.050  10.214  10.979 -8.8450  13.050  10.214  10.979 
  6793.500 -21.165  13.647  10.423  11.927 -9.1650  13.647  10.423  11.927 
  6794.000 -21.809  14.337  10.682  12.854 -9.8090  14.337  10.682  12.854 
  6794.500 -21.228  14.740  11.372  13.451 -9.2280  14.740  11.372  13.451 
  6795.000 -21.046  15.036  11.732  13.883 -9.0460  15.036  11.732  13.883 
  6795.500 -20.865  15.065  12.149  14.128 -8.8650  15.065  12.149  14.128 
  6796.000 -20.859  14.635  12.617  13.834 -8.8590  14.635  12.617  13.834 
  6796.500 -21.287  14.197  12.998  13.124 -9.2870  14.197  12.998  13.124 
  6797.000 -21.716  13.868  13.164  12.191 -9.7160  13.868  13.164  12.191 
  6797.500 -22.036  13.510  13.237  11.559 -10.036  13.510  13.237  11.559 
  6798.000 -21.671  13.388  13.194  11.445 -9.6710  13.388  13.194  11.445 
  6798.500 -21.415  13.266  13.109  11.417 -9.4150  13.266  13.109  11.417 
  6799.000 -21.268  13.095  12.930  11.526 -9.2680  13.095  12.930  11.526 
  6799.500 -21.841  13.333  12.643  12.374 -9.8410  13.333  12.643  12.374 
  6800.000 -22.450  13.484  12.436  13.969 -10.450  13.484  12.436  13.969 
  6800.500 -23.455  13.585  12.372  14.580 -11.455  13.585  12.372  14.580 
  6801.000 -24.063  13.680  12.322  14.832 -12.063  13.680  12.322  14.832 
  6801.500 -24.636  13.695  12.251  14.969 -12.636  13.695  12.251  14.969 
  6802.000 -24.633  13.645  12.137  14.166 -12.633  13.645  12.137  14.166 
  6802.500 -23.872  13.272  11.829  13.211 -11.872  13.272  11.829  13.211 
  6803.000 -23.904  13.015  11.470  12.630 -11.904  13.015  11.470  12.630 
  6803.500 -24.441  12.901  11.119  12.222 -12.441  12.901  11.119  12.222 
  6804.000 -24.904  12.944  10.768  11.993 -12.904  12.944  10.768  11.993 
  6804.500 -25.119  13.017  10.740  11.814 -13.119  13.017  10.740  11.814 
  6805.000 -24.646  13.082  10.813  11.771 -12.646  13.082  10.813  11.771 
  6805.500 -24.283  12.975  10.907  11.930 -12.283  12.975  10.907  11.930 
  6806.000 -23.522  12.789  11.015  12.218 -11.522  12.789  11.015  12.218 
  6806.500 -23.013  12.711  11.131  12.449 -11.013  12.711  11.131  12.449 
  6807.000 -22.651  12.934  11.088  12.693 -10.651  12.934  11.088  12.693 
  6807.500 -22.357  13.093  10.852  12.852 -10.357  13.093  10.852  12.852 
  6808.000 -22.318  13.251  10.680  12.889 -10.318  13.251  10.680  12.889 
  6808.500 -22.315  13.497  10.545  12.897 -10.315  13.497  10.545  12.897 
  6809.000 -22.311  13.627  10.460  13.027 -10.311  13.627  10.460  13.027 
  6809.500 -22.378  13.728  10.460  13.106 -10.378  13.728  10.460  13.106 
  6810.000 -22.376  14.195  10.568  13.114 -10.376  14.195  10.568  13.114 
  6810.500 -22.391  14.648  11.280  13.029 -10.391  14.648  11.280  13.029 
  6811.000 -22.407  15.224  11.453  12.771 -10.407  15.224  11.453  12.771 
  6811.500 -22.385  15.670  11.565  12.370 -10.385  15.670  11.565  12.370 
  6812.000 -22.364  16.137  11.677  12.054 -10.364  16.137  11.677  12.054 
  6812.500 -22.357  16.490  11.786  11.797 -10.357  16.490  11.786  11.797 
  6813.000 -22.641  16.821  11.880  11.876 -10.641  16.821  11.880  11.876 
  6813.500 -22.961  17.123  11.988  12.093 -10.961  17.123  11.988  12.093 
  6814.000 -23.318  17.383  12.226  12.251 -11.318  17.383  12.226  12.251 
  6814.500 -23.818  17.541  12.406  12.331 -11.818  17.541  12.406  12.331 
  6815.000 -24.068  17.420  12.594  12.403 -12.068  17.420  12.594  12.403 
  6815.500 -24.495  17.062  12.688  12.462 -12.495  17.062  12.688  12.462 
  6816.000 -24.889  16.516  12.724  12.469 -12.889  16.516  12.724  12.469 
  6816.500 -25.316  15.928  12.689  12.456 -13.316  15.928  12.689  12.456 
  6817.000 -25.566  15.469  12.596  12.083 -13.566  15.469  12.596  12.083 
  6817.500 -25.779  14.867  12.396  11.545 -13.779  14.867  12.396  11.545 
  6818.000 -25.054  14.566  12.045  11.237 -13.054  14.566  12.045  11.237 
  6818.500 -24.438  14.085  11.579  10.994 -12.438  14.085  11.579  10.994 
  6819.000 -23.425  13.871  11.077  10.872 -11.425  13.871  11.077  10.872 
  6819.500 -22.520  13.814  11.034  10.758 -10.520  13.814  11.034  10.758 
  6820.000 -22.479  13.801  11.279  10.665 -10.479  13.801  11.279  10.665 
  6820.500 -22.693  13.794  11.302  10.558 -10.693  13.794  11.302  10.558 
  6821.000 -22.834  13.773  11.187  10.487 -10.834  13.773  11.187  10.487 
  6821.500 -22.973  13.716  11.038  10.416 -10.973  13.716  11.038  10.416 
  6822.000 -22.863  13.774  11.060  10.611 -10.863  13.774  11.060  10.611 
  6822.500 -22.754  13.947  11.118  10.734 -10.754  13.947  11.118  10.734 
  6823.000 -22.242  14.128  11.226  10.942 -10.242  14.128  11.226  10.942 
  6823.500 -22.058  14.243  11.658  11.123 -10.058  14.243  11.658  11.123 
  6824.000 -22.127  14.374  12.075  11.303 -10.127  14.374  12.075  11.303 
  6824.500 -23.455  14.417  12.284  11.361 -11.455  14.417  12.284  11.361 
  6825.000 -23.921  14.432  12.378  11.376 -11.921  14.432  12.378  11.376 
  6825.500 -24.566  14.239  12.393  11.140 -12.566  14.239  12.393  11.140 
  6826.000 -25.247  14.024  12.401  11.004 -13.247  14.024  12.401  11.004 
  6826.500 -27.081  13.932  12.352  10.912 -15.081  13.932  12.352  10.912 
  6827.000 -27.689  13.918  12.273  10.869 -15.689  13.918  12.273  10.869 
  6827.500 -28.117  13.948  12.195  10.856 -16.117  13.948  12.195  10.856 
  6828.000 -27.501  14.142  12.038  10.864 -15.501  14.142  12.038  10.864 
  6828.500 -26.886  14.409  11.938  10.908 -14.886  14.409  11.938  10.908 
  6829.000 -25.837  14.574  11.738  10.922 -13.837  14.574  11.738  10.922 
  6829.500 -25.077  14.884  11.595  11.218 -13.077  14.884  11.595  11.218 
  6830.000 -24.677  15.021  11.588  11.556 -12.677  15.021  11.588  11.556 
  6830.500 -24.924  15.216  11.812  11.830 -12.924  15.216  11.812  11.830 
  6831.000 -24.773  15.282  12.021  11.975 -12.773  15.282  12.021  11.975 
  6831.500 -23.976  15.240  12.166  12.055 -11.976  15.240  12.166  12.055 
  6832.000 -22.962  15.220  12.138  12.092 -10.962  15.220  12.138  12.092 
  6832.500 -22.272  15.278  12.003  12.143 -10.272  15.278  12.003  12.143 
  6833.000 -22.663  15.329  11.918  12.194 -10.663  15.329  11.918  12.194 
  6833.500 -22.982  15.402  11.840  12.339 -10.982  15.402  11.840  12.339 
  6834.000 -23.517  15.583  11.770  12.469 -11.517  15.583  11.770  12.469 
  6834.500 -23.582  16.266  11.792  12.700 -11.582  16.266  11.792  12.700 
  6835.000 -23.470  17.416  11.829  13.168 -11.470  17.416  11.829  13.168 
  6835.500 -23.284  17.963  11.859  13.773 -11.284  17.963  11.859  13.773 
  6836.000 -23.173  18.410  12.032  14.384 -11.173  18.410  12.032  14.384 
  6836.500 -23.061  18.849  12.127  15.024 -11.061  18.849  12.127  15.024 
  6837.000 -22.907  19.324  12.989  15.464 -10.907  19.324  12.989  15.464 
  6837.500 -22.940  19.957  13.895  15.982 -10.940  19.957  13.895  15.982 
  6838.000 -22.973  22.042  15.081  16.730 -10.973  22.042  15.081  16.730 
  6838.500 -23.109  21.838  17.366  17.923 -11.109  21.838  17.366  17.923 
  6839.000 -22.996  20.842  18.086  18.484 -10.996  20.842  18.086  18.484 
  6839.500 -22.810  20.274  18.582  18.528 -10.810  20.274  18.582  18.528 
