~Version Information
VERS.                     2.0: CWLS log ASCII Standard Version 2.00
WRAP.                      NO: One line per depth step
~Well Information Block
#MNEM.UNIT                               Data Type  Information
#---------                               ---------  -----------
STRT.FT                                  5780.0000:
STOP.FT                                  6850.0000:
STEP.FT                                     0.5000:
NULL.                 -999.25                     :
COMP.                                             :COMPANY            
WELL.     SAN EMIDIO A 35-19 REDRILL #1           :WELL               
FLD .                                             :FIELD              
CTRY.                                             :COUNTRY            
STAT.                                             :STATE              
LOC .                                             :LOCATION           
UWI .                                             :UNIQUE WELL ID     
SRVC.                                             :Service company    
DATE.                                             :LOG DATE           
~Curve Information
#MNEM.UNIT           API CODE  Curve Description
#---------           --------  -----------------
DEPT.FT                      :   1 DEPTH
SP  .MV                      :   2
AM16.OHMM                    :   3
AO10.OHMM                    :   4
AO19.OHMM                    :   5
SBL .MV                      :   6
RS  .OHMM                    :   7
RM  .OHMM                    :   8
RD  .OHMM                    :   9
~A
# ...
  6098.000 -22.827  2.1620  2.1190  2.1940 -10.827  2.1620  2.1190  2.1940 
  6098.500 -23.036  2.1710  2.1230  2.1960 -11.036  2.1710  2.1230  2.1960 
  6099.000 -23.571  2.1790  2.1280  2.2040 -11.571  2.1790  2.1280  2.2040 
  6099.500 -24.825  2.1800  2.1330  2.2120 -12.825  2.1800  2.1330  2.2120 
  6100.000 -25.612  2.1810  2.1380  2.2090 -13.612  2.1810  2.1380  2.2090 
  6100.500 -25.821  2.1890  2.1470  2.2070 -13.821  2.1890  2.1470  2.2070 
  6101.000 -25.887  2.1980  2.1480  2.1950 -13.887  2.1980  2.1480  2.1950 
  6101.500 -25.772  2.2000  2.1490  2.1890 -13.772  2.2000  2.1490  2.1890 
  6102.000 -25.550  2.2160  2.1580  2.1690 -13.550  2.2160  2.1580  2.1690 
  6102.500 -25.039  2.2130  2.1590  2.1480 -13.039  2.2130  2.1590  2.1480 
  6103.000 -24.637  2.2100  2.1600  2.1460 -12.637  2.2100  2.1600  2.1460 
  6103.500 -23.622  2.2110  2.1550  2.1430 -11.622  2.2110  2.1550  2.1430 
  6104.000 -23.866  2.2130  2.1560  2.1450 -11.866  2.2130  2.1560  2.1450 
  6104.500 -24.042  2.2140  2.1570  2.1390 -12.042  2.2140  2.1570  2.1390 
  6105.000 -24.432  2.2190  2.1580  2.1400 -12.432  2.2190  2.1580  2.1400 
  6105.500 -24.965  2.2240  2.1590  2.1490 -12.965  2.2240  2.1590  2.1490 
  6106.000 -25.356  2.2290  2.1600  2.1570 -13.356  2.2290  2.1600  2.1570 
  6106.500 -25.024  2.2330  2.1620  2.1730 -13.024  2.2330  2.1620  2.1730 
  6107.000 -24.515  2.2380  2.1640  2.1780 -12.515  2.2380  2.1640  2.1780 
  6107.500 -24.580  2.2440  2.1610  2.1830 -12.580  2.2440  2.1610  2.1830 
  6108.000 -24.934  2.2380  2.1580  2.1910 -12.934  2.2380  2.1580  2.1910 
  6108.500 -25.146  2.2390  2.1560  2.1990 -13.146  2.2390  2.1560  2.1990 
  6109.000 -25.357  2.2400  2.1540  2.2000 -13.357  2.2400  2.1540  2.2000 
  6109.500 -25.441  2.2380  2.1560  2.2020 -13.441  2.2380  2.1560  2.2020 
  6110.000 -25.524  2.2350  2.1500  2.1970 -13.524  2.2350  2.1500  2.1970 
  6110.500 -25.428  2.2370  2.1510  2.1910 -13.428  2.2370  2.1510  2.1910 
  6111.000 -25.331  2.2380  2.1600  2.1920 -13.331  2.2380  2.1600  2.1920 
  6111.500 -25.178  2.2540  2.1570  2.1930 -13.178  2.2540  2.1570  2.1930 
  6112.000 -25.100  2.2630  2.1550  2.1940 -13.100  2.2630  2.1550  2.1940 
  6112.500 -24.877  2.2710  2.1520  2.1920 -12.877  2.2710  2.1520  2.1920 
  6113.000 -24.746  2.2800  2.1500  2.1900 -12.746  2.2800  2.1500  2.1900 
  6113.500 -24.615  2.2880  2.1520  2.1770 -12.615  2.2880  2.1520  2.1770 
  6114.000 -23.670  2.3040  2.1490  2.1780 -11.670  2.3040  2.1490  2.1780 
  6114.500 -23.122  2.3120  2.1460  2.1720 -11.122  2.3120  2.1460  2.1720 
  6115.000 -23.081  2.3280  2.1480  2.1740 -11.081  2.3280  2.1480  2.1740 
  6115.500 -23.722  2.3430  2.1500  2.1780 -11.722  2.3430  2.1500  2.1780 
  6116.000 -24.077  2.3660  2.1580  2.1830 -12.077  2.3660  2.1580  2.1830 
  6116.500 -24.539  2.3890  2.1590  2.1990 -12.539  2.3890  2.1590  2.1990 
  6117.000 -25.001  2.3980  2.1600  2.2080 -13.001  2.3980  2.1600  2.2080 
  6117.500 -24.563  2.3920  2.1610  2.2160 -12.563  2.3920  2.1610  2.2160 
  6118.000 -23.331  2.3790  2.1630  2.2280 -11.331  2.3790  2.1630  2.2280 
  6118.500 -22.964  2.3800  2.1650  2.2400 -10.964  2.3800  2.1650  2.2400 
  6119.000 -22.886  2.3810  2.1590  2.2270 -10.886  2.3810  2.1590  2.2270 
  6119.500 -23.347  2.3820  2.1530  2.2140 -11.347  2.3820  2.1530  2.2140 
  6120.000 -23.916  2.3840  2.1400  2.2040 -11.916  2.3840  2.1400  2.2040 
  6120.500 -24.307  2.3850  2.1340  2.1940 -12.307  2.3850  2.1340  2.1940 
  6121.000 -24.806  2.3860  2.1350  2.1740 -12.806  2.3860  2.1350  2.1740 
  6121.500 -25.556  2.3950  2.1370  2.1610 -13.556  2.3950  2.1370  2.1610 
  6122.000 -26.559  2.3960  2.1380  2.1480 -14.559  2.3960  2.1380  2.1480 
  6122.500 -27.380  2.3980  2.1460  2.1280 -15.380  2.3980  2.1460  2.1280 
  6123.000 -27.195  2.3950  2.1620  2.1080 -15.195  2.3950  2.1620  2.1080 
  6123.500 -26.793  2.3920  2.1770  2.0810 -14.793  2.3920  2.1770  2.0810 
  6124.000 -26.318  2.3870  2.1930  2.0750 -14.318  2.3870  2.1930  2.0750 
  6124.500 -25.915  2.3880  2.2050  2.0790 -13.915  2.3880  2.2050  2.0790 
  6125.000 -25.620  2.4040  2.2170  2.0840 -13.620  2.4040  2.2170  2.0840 
  6125.500 -25.399  2.4190  2.2220  2.1070 -13.399  2.4190  2.2220  2.1070 
  6126.000 -25.178  2.4350  2.2260  2.1190 -13.178  2.4350  2.2260  2.1190 
  6126.500 -25.241  2.4650  2.2430  2.1310 -13.241  2.4650  2.2430  2.1310 
  6127.000 -25.307  2.5020  2.2510  2.1500 -13.307  2.5020  2.2510  2.1500 
  6127.500 -25.552  2.5690  2.2520  2.1700 -13.552  2.5690  2.2520  2.1700 
  6128.000 -25.871  2.5980  2.2750  2.2140 -13.871  2.5980  2.2750  2.2140 
  6128.500 -27.233  2.6790  2.2910  2.2370 -15.233  2.6790  2.2910  2.2370 
  6129.000 -29.498  2.7520  2.2990  2.2600 -17.498  2.7520  2.2990  2.2600 
  6129.500 -31.545  2.8250  2.3220  2.2900 -19.545  2.8250  2.3220  2.2900 
  6130.000 -34.095  2.9050  2.3380  2.3490 -22.095  2.9050  2.3380  2.3490 
  6130.500 -35.460  3.0290  2.3750  2.3710 -23.460  3.0290  2.3750  2.3710 
  6131.000 -37.399  3.0950  2.4200  2.3940 -25.399  3.0950  2.4200  2.3940 
  6131.500 -39.663  3.1670  2.4780  2.4820 -27.663  3.1670  2.4780  2.4820 
  6132.000 -41.279  3.2330  2.5440  2.5080 -29.279  3.2330  2.5440  2.5080 
  6132.500 -42.785  3.2990  2.6030  2.5340 -30.785  3.2990  2.6030  2.5340 
  6133.000 -42.742  3.4800  2.6970  2.5930 -30.742  3.4800  2.6970  2.5930 
  6133.500 -42.341  3.5530  2.7490  2.6520 -30.341  3.5530  2.7490  2.6520 
  6134.000 -40.929  3.6690  2.8220  2.6920 -28.929  3.6690  2.8220  2.6920 
  6134.500 -40.743  3.7490  2.8660  2.7330 -28.743  3.7490  2.8660  2.7330 
  6135.000 -40.846  3.8370  2.9390  2.7840 -28.846  3.8370  2.9390  2.7840 
  6135.500 -40.839  3.8880  2.9900  2.8580 -28.839  3.8880  2.9900  2.8580 
  6136.000 -40.798  3.9540  3.0710  2.9020 -28.798  3.9540  3.0710  2.9020 
  6136.500 -39.891  4.0420  3.1080  2.9750 -27.891  4.0420  3.1080  2.9750 
  6137.000 -38.840  4.1070  3.1230  3.0410 -26.840  4.1070  3.1230  3.0410 
  6137.500 -37.970  4.1730  3.0960  3.0990 -25.970  4.1730  3.0960  3.0990 
  6138.000 -37.495  4.1460  3.0040  3.0790 -25.495  4.1460  3.0040  3.0790 
  6138.500 -38.424  4.1110  2.8900  3.0160 -26.424  4.1110  2.8900  3.0160 
  6139.000 -38.997  4.0400  2.7550  2.8520 -26.997  4.0400  2.7550  2.8520 
  6139.500 -39.855  3.9560  2.6550  2.7020 -27.855  3.9560  2.6550  2.7020 
  6140.000 -39.669  3.8780  2.5710  2.5670 -27.669  3.8780  2.5710  2.5670 
  6140.500 -39.373  3.7860  2.5790  2.4680 -27.373  3.7860  2.5790  2.4680 
  6141.000 -39.079  3.7010  2.6090  2.5120 -27.079  3.7010  2.6090  2.5120 
  6141.500 -38.931  3.6660  2.6380  2.6070 -26.931  3.6660  2.6380  2.6070 
  6142.000 -39.068  3.6100  2.7410  2.6110 -27.068  3.6100  2.7410  2.6110 
  6142.500 -39.027  3.5610  2.7560  2.6160 -27.027  3.5610  2.7560  2.6160 
  6143.000 -38.696  3.5190  2.8010  2.6100 -26.696  3.5190  2.8010  2.6100 
  6143.500 -38.474  3.4840  2.8380  2.6040 -26.474  3.4840  2.8380  2.6040 
  6144.000 -39.044  3.4490  2.8820  2.5760 -27.044  3.4490  2.8820  2.5760 
  6144.500 -39.074  3.4070  2.9270  2.5490 -27.074  3.4070  2.9270  2.5490 
  6145.000 -38.419  3.3650  2.9490  2.5000 -26.419  3.3650  2.9490  2.5000 
  6145.500 -37.981  3.3240  3.0080  2.4510 -25.981  3.3240  3.0080  2.4510 
  6146.000 -37.796  3.2850  3.0740  2.4120 -25.796  3.2850  3.0740  2.4120 
  6146.500 -37.790  3.2470  3.1110  2.3740 -25.790  3.2470  3.1110  2.3740 
  6147.000 -37.965  3.1840  3.1840  2.3540 -25.965  3.1840  3.1840  2.3540 
  6147.500 -38.140  3.1420  3.2280  2.3330 -26.140  3.1420  3.2280  2.3330 
  6148.000 -39.429  3.0860  3.2730  2.2850 -27.429  3.0860  3.2730  2.2850 
  6148.500 -40.215  3.0440  3.3240  2.2500 -28.215  3.0440  3.3240  2.2500 
  6149.000 -41.037  3.0120  3.3470  2.2370 -29.037  3.0120  3.3470  2.2370 
  6149.500 -41.464  2.9810  3.3410  2.2170 -29.464  2.9810  3.3410  2.2170 
  6150.000 -41.711  2.9180  3.3130  2.2040 -29.711  2.9180  3.3130  2.2040 
  6150.500 -41.669  2.8620  3.2860  2.1830 -29.669  2.8620  3.2860  2.1830 
