~Version Information
VERS.                     2.0: CWLS log ASCII Standard Version 2.00
WRAP.                      NO: One line per depth step
~Well Information Block
#MNEM.UNIT                               Data Type  Information
#---------                               ---------  -----------
STRT.FT                                   370.0000:
STOP.FT                                  6710.0000:
STEP.FT                                     0.5000:
NULL.                 -999.25                     :
COMP.                                             :COMPANY            
WELL.     SAN EMIDIO 35-19 REDRILL #2             :WELL               
FLD .                                             :FIELD              
CTRY.                                             :COUNTRY            
STAT.                                             :STATE              
LOC .                                             :LOCATION           
UWI .                                             :UNIQUE WELL ID     
SRVC.                                             :Service company    
DATE.                                             :LOG DATE           
~Curve Information
#MNEM.UNIT           API CODE  Curve Description
#---------           --------  -----------------
DEPT.FT                      :   1 DEPTH
SP  .MV                      :   2
AM16.OHMM                    :   3
AO10.OHMM                    :   4
AO19.OHMM                    :   5
SBL .MV                      :   6
RS  .OHMM                    :   7
RM  .OHMM                    :   8
RD  .OHMM                    :   9
~A
# ...
  3338.000 -16.506  4.4950  5.7170  7.3120 -4.6847  4.4950  5.7170  7.3120 
  3338.500 -16.258  4.5450  5.7520  7.2680 -4.4565  4.5450  5.7520  7.2680 
  3339.000 -15.939  4.6160  5.7870  7.2390 -4.1574  4.6160  5.7870  7.2390 
  3339.500 -15.726  4.6520  5.7440  7.3030 -3.9642  4.6520  5.7440  7.3030 
  3340.000 -15.657  4.7660  5.8080  7.4390 -3.9151  4.7660  5.8080  7.4390 
  3340.500 -15.731  4.9020  5.9300  7.5320 -4.0089  4.9020  5.9300  7.5320 
  3341.000 -17.273  5.0600  6.1020  7.6390 -5.5708  5.0600  6.1020  7.6390 
  3341.500 -19.675  5.2530  6.4890  7.7100 -7.9926  5.2530  6.4890  7.7100 
  3342.000 -21.969  5.5110  6.8620  7.7240 -10.306  5.5110  6.8620  7.7240 
  3342.500 -24.729  5.7620  6.9260  7.5870 -13.086  5.7620  6.9260  7.5870 
  3343.000 -27.667  6.1070  6.9830  7.5580 -16.044  6.1070  6.9830  7.5580 
  3343.500 -30.320  6.6310  6.9830  7.6080 -18.717  6.6310  6.9830  7.6080 
  3344.000 -30.895  7.0610  6.9890  7.5570 -19.312  7.0610  6.9890  7.5570 
  3344.500 -29.788  7.4270  6.9890  7.5280 -18.225  7.4270  6.9890  7.5280 
  3345.000 -28.716  7.6280  6.9960  7.4770 -17.173  7.6280  6.9960  7.4770 
  3345.500 -28.003  7.8570  6.9990  7.4400 -16.479  7.8570  6.9990  7.4400 
  3346.000 -27.969  8.0720  7.0020  7.4110 -16.465  8.0720  7.0020  7.4110 
  3346.500 -28.867  8.3380  7.0080  7.3750 -17.383  8.3380  7.0080  7.3750 
  3347.000 -29.657  8.5310  7.0120  7.3890 -18.193  8.5310  7.0120  7.3890 
  3347.500 -31.128  8.7250  7.0150  7.4380 -19.684  8.7250  7.0150  7.4380 
  3348.000 -33.207  8.9320  7.0280  7.5750 -21.783  8.9320  7.0280  7.5750 
  3348.500 -35.143  9.1470  7.0570  7.7460 -23.739  9.1470  7.0570  7.7460 
  3349.000 -36.936  9.2330  7.0990  7.8750 -25.551  9.2330  7.0990  7.8750 
  3349.500 -38.657  9.3190  7.1780  7.9830 -27.292  9.3190  7.1780  7.9830 
  3350.000 -39.806  9.3470  7.2560  8.0110 -28.461  9.3470  7.2560  8.0110 
  3350.500 -39.521  9.3750  7.2850  7.9740 -28.196  9.3750  7.2850  7.9740 
  3351.000 -38.199  9.4250  7.2980  7.9520 -26.894  9.4250  7.2980  7.9520 
  3351.500 -36.841  9.4820  7.3050  7.9300 -25.556  9.4820  7.3050  7.9300 
  3352.000 -36.092  9.6680  7.3260  7.9150 -24.826  9.6680  7.3260  7.9150 
  3352.500 -35.665  9.9910  7.3760  7.9440 -24.419  9.9910  7.3760  7.9440 
  3353.000 -35.452  10.134  7.5620  7.9720 -24.226  10.134  7.5620  7.9720 
  3353.500 -35.741  10.227  7.7340  8.0000 -24.535  10.227  7.7340  8.0000 
  3354.000 -36.782  10.270  7.9490  8.0000 -25.596  10.270  7.9490  8.0000 
  3354.500 -38.253  10.219  8.1070  7.8910 -27.087  10.219  8.1070  7.8910 
  3355.000 -39.222  10.139  8.1930  7.8190 -28.076  10.139  8.1930  7.8190 
  3355.500 -39.045  10.053  8.2420  7.6680 -27.918  10.053  8.2420  7.6680 
  3356.000 -38.868  9.7360  8.2920  7.5020 -27.761  9.7360  8.2920  7.5020 
  3356.500 -37.439  9.4050  8.3060  7.3650 -26.352  9.4050  8.3060  7.3650 
  3357.000 -34.828  8.9810  8.2120  7.3000 -23.761  8.9810  8.2120  7.3000 
  3357.500 -31.930  8.7290  8.0820  7.3420 -20.883  8.7290  8.0820  7.3420 
  3358.000 -27.779  8.7360  8.0100  7.4570 -16.752  8.7360  8.0100  7.4570 
  3358.500 -25.884  8.8860  8.0380  7.5350 -14.877  8.8860  8.0380  7.5350 
  3359.000 -26.173  9.1300  8.1130  7.6640 -15.185  9.1300  8.1130  7.6640 
  3359.500 -27.357  9.5750  8.1880  7.7930 -16.389  9.5750  8.1880  7.7930 
  3360.000 -29.365  10.544  8.6620  7.9860 -18.417  10.544  8.6620  7.9860 
  3360.500 -31.122  11.319  8.9700  8.2880 -20.194  11.319  8.9700  8.2880 
  3361.000 -35.385  12.296  9.4010  8.5890 -24.477  12.296  9.4010  8.5890 
  3361.500 -39.183  13.546  9.7380  8.8690 -28.295  13.546  9.7380  8.8690 
  3362.000 -46.060  14.537  10.154  9.2630 -35.192  14.537  10.154  9.2630 
  3362.500 -48.283  15.262  10.448  9.6360 -37.434  15.262  10.448  9.6360 
  3363.000 -49.539  15.865  11.037  9.9160 -38.710  15.865  11.037  9.9160 
  3363.500 -49.935  16.540  11.568  10.210 -39.126  16.540  11.568  10.210 
  3364.000 -50.439  17.121  11.998  10.540 -39.650  17.121  11.998  10.540 
  3364.500 -50.656  17.580  12.436  10.741 -39.887  17.580  12.436  10.741 
  3365.000 -50.874  17.817  12.752  10.963 -40.125  17.817  12.752  10.963 
  3365.500 -50.411  17.989  13.261  11.106 -39.681  17.989  13.261  11.106 
  3366.000 -49.053  18.225  13.728  11.120 -38.343  18.225  13.728  11.120 
  3366.500 -48.482  18.512  13.936  11.055 -37.792  18.512  13.936  11.055 
  3367.000 -47.518  18.749  14.115  10.925 -36.848  18.749  14.115  10.925 
  3367.500 -47.163  18.820  14.100  10.723 -36.513  18.820  14.100  10.723 
  3368.000 -47.057  18.791  13.992  10.514 -36.427  18.791  13.992  10.514 
  3368.500 -49.173  18.683  13.740  10.363 -38.563  18.683  13.740  10.363 
  3369.000 -49.927  18.438  13.358  10.190 -39.336  18.438  13.358  10.190 
  3369.500 -50.324  18.057  13.186  10.017 -39.753  18.057  13.186  10.017 
  3370.000 -49.180  17.575  13.049  9.7360 -38.629  17.575  13.049  9.7360 
  3370.500 -48.145  16.885  13.012  9.5850 -37.614  16.885  13.012  9.5850 
  3371.000 -47.288  16.194  13.091  9.3330 -36.777  16.194  13.091  9.3330 
  3371.500 -45.965  15.217  13.126  9.1460 -35.474  15.217  13.126  9.1460 
  3372.000 -44.320  14.282  13.154  8.9510 -33.849  14.282  13.154  8.9510 
  3372.500 -39.596  13.484  13.139  8.7780 -29.144  13.484  13.139  8.7780 
  3373.000 -33.942  12.902  12.988  8.8140 -23.510  12.902  12.988  8.8140 
  3373.500 -31.294  12.413  12.837  8.9280 -20.882  12.413  12.837  8.9280 
  3374.000 -29.256  11.924  12.771  9.0210 -18.864  11.924  12.771  9.0210 
  3374.500 -28.327  11.514  12.735  9.1280 -17.955  11.514  12.735  9.1280 
  3375.000 -27.614  11.190  12.735  9.2360 -17.262  11.190  12.735  9.2360 
  3375.500 -27.223  10.830  12.835  9.3650 -16.890  10.830  12.835  9.3650 
  3376.000 -27.404  10.435  13.100  9.4140 -17.091  10.435  13.100  9.4140 
  3376.500 -28.194  10.154  13.940  9.2770 -17.901  10.154  13.940  9.2770 
  3377.000 -29.164  10.046  14.356  9.0900 -18.891  10.046  14.356  9.0900 
  3377.500 -30.491  10.268  14.499  8.9030 -20.238  10.268  14.499  8.9030 
  3378.000 -33.430  10.634  14.477  8.7590 -23.197  10.634  14.477  8.7590 
  3378.500 -35.903  11.186  14.297  8.7360 -25.690  11.186  14.297  8.7360 
  3379.000 -38.018  11.509  13.823  8.9520 -27.824  11.509  13.823  8.9520 
  3379.500 -39.345  11.789  13.678  9.5980 -29.171  11.789  13.678  9.5980 
  3380.000 -40.744  11.975  13.707  10.122 -30.590  11.975  13.707  10.122 
  3380.500 -42.752  12.068  13.778  10.207 -32.618  12.068  13.778  10.207 
  3381.000 -44.294  12.089  14.122  10.336 -34.180  12.089  14.122  10.336 
  3381.500 -44.046  11.945  14.632  10.458 -33.952  11.945  14.632  10.458 
  3382.000 -43.655  11.391  14.761  10.299 -33.581  11.391  14.761  10.299 
  3382.500 -40.471  10.493  14.739  10.040 -30.416  10.493  14.739  10.040 
  3383.000 -36.570  9.4930  14.494  9.5870 -26.535  9.4930  14.494  9.5870 
  3383.500 -31.810  8.4370  13.969  9.2700 -21.795  8.4370  13.969  9.2700 
  3384.000 -27.695  7.4230  13.430  8.9320 -17.700  7.4230  13.430  8.9320 
  3384.500 -25.155  6.8340  12.186  8.6940 -15.180  6.8340  12.186  8.6940 
  3385.000 -20.646  6.4670  10.698  8.6290 -10.691  6.4670  10.698  8.6290 
  3385.500 -17.211  6.3590  9.9440  8.8800 -7.2755  6.3590  9.9440  8.8800 
  3386.000 -16.247  6.2860  9.1890  9.2390 -6.3314  6.2860  9.1890  9.2390 
  3386.500 -15.856  6.3430  9.0950  9.4760 -5.9602  6.3430  9.0950  9.4760 
  3387.000 -16.359  6.4430  9.1090  9.7980 -6.4831  6.4430  9.1090  9.7980 
  3387.500 -17.186  6.5790  9.2520  10.071 -7.3299  6.5790  9.2520  10.071 
  3388.000 -18.370  6.7940  9.6180  10.185 -8.5338  6.7940  9.6180  10.185 
  3388.500 -20.700  7.0380  9.8330  10.214 -10.884  7.0380  9.8330  10.214 
  3389.000 -23.531  7.2960  10.033  10.227 -13.734  7.2960  10.033  10.227 
  3389.500 -33.129  7.9420  10.162  10.263 -23.352  7.9420  10.162  10.263 
  3390.000 -35.030  8.9690  10.356  10.399 -25.273  8.9690  10.356  10.399 
  3390.500 -35.641  9.8740  10.592  10.722 -25.904  9.8740  10.592  10.722 
