~Version Information
VERS.                     2.0: CWLS log ASCII Standard Version 2.00
WRAP.                      NO: One line per depth step
~Well Information Block
#MNEM.UNIT                               Data Type  Information
#---------                               ---------  -----------
STRT.FT                                  5780.0000:
STOP.FT                                  6850.0000:
STEP.FT                                     0.5000:
NULL.                 -999.25                     :
COMP.                                             :COMPANY            
WELL.     SAN EMIDIO A 35-19 REDRILL #1           :WELL               
FLD .                                             :FIELD              
CTRY.                                             :COUNTRY            
STAT.                                             :STATE              
LOC .                                             :LOCATION           
UWI .                                             :UNIQUE WELL ID     
SRVC.                                             :Service company    
DATE.                                             :LOG DATE           
~Curve Information
#MNEM.UNIT           API CODE  Curve Description
#---------           --------  -----------------
DEPT.FT                      :   1 DEPTH
SP  .MV                      :   2
AM16.OHMM                    :   3
AO10.OHMM                    :   4
AO19.OHMM                    :   5
SBL .MV                      :   6
RS  .OHMM                    :   7
RM  .OHMM                    :   8
RD  .OHMM                    :   9
~A
# ...
  6257.000 -33.521  2.2680  2.2820  2.2790 -21.521  2.2680  2.2820  2.2790 
  6257.500 -34.343  2.2550  2.2690  2.2730 -22.343  2.2550  2.2690  2.2730 
  6258.000 -35.345  2.2570  2.2600  2.2670 -23.345  2.2570  2.2600  2.2670 
  6258.500 -34.762  2.2500  2.2500  2.2610 -22.762  2.2500  2.2500  2.2610 
  6259.000 -33.493  2.2440  2.2230  2.2550 -21.493  2.2440  2.2230  2.2550 
  6259.500 -32.982  2.2320  2.2250  2.2490 -20.982  2.2320  2.2250  2.2490 
  6260.000 -33.067  2.2400  2.2260  2.2320 -21.067  2.2400  2.2260  2.2320 
  6260.500 -33.153  2.2560  2.2490  2.2160 -21.153  2.2560  2.2490  2.2160 
  6261.000 -33.503  2.2790  2.2650  2.1890 -21.503  2.2790  2.2650  2.1890 
  6261.500 -33.749  2.3090  2.2870  2.1980 -21.749  2.3090  2.2870  2.1980 
  6262.000 -34.174  2.3390  2.3100  2.2350 -22.174  2.3390  2.3100  2.2350 
  6262.500 -34.636  2.3760  2.3550  2.3010 -22.636  2.3760  2.3550  2.3010 
  6263.000 -35.494  2.4140  2.3740  2.4250 -23.494  2.4140  2.3740  2.4250 
  6263.500 -35.956  2.4290  2.3930  2.4620 -23.956  2.4290  2.3930  2.4620 
  6264.000 -36.166  2.4480  2.4090  2.4840 -24.166  2.4480  2.4090  2.4840 
  6264.500 -36.123  2.4670  2.4180  2.4930 -24.123  2.4670  2.4180  2.4930 
  6265.000 -36.189  2.4980  2.4120  2.4730 -24.189  2.4980  2.4120  2.4730 
  6265.500 -36.758  2.5140  2.4130  2.4600 -24.758  2.5140  2.4130  2.4600 
  6266.000 -37.617  2.5220  2.4070  2.4430 -25.617  2.5220  2.4070  2.4430 
  6266.500 -38.547  2.5240  2.4010  2.4260 -26.547  2.5240  2.4010  2.4260 
  6267.000 -39.729  2.5250  2.3950  2.3920 -27.729  2.5250  2.3950  2.3920 
  6267.500 -41.055  2.5230  2.3890  2.4150 -29.055  2.5230  2.3890  2.4150 
  6268.000 -39.679  2.5200  2.3840  2.4740 -27.679  2.5200  2.3840  2.4740 
  6268.500 -38.267  2.5140  2.3780  2.5760 -26.267  2.5140  2.3780  2.5760 
  6269.000 -37.433  2.5080  2.3720  2.6420 -25.433  2.5080  2.3720  2.6420 
  6269.500 -37.282  2.5030  2.3660  2.7150 -25.282  2.5030  2.3660  2.7150 
  6270.000 -36.770  2.4970  2.3610  2.7170 -24.770  2.4970  2.3610  2.7170 
  6270.500 -35.900  2.4850  2.3620  2.7000 -23.900  2.4850  2.3620  2.7000 
  6271.000 -35.245  2.4860  2.3630  2.6830 -23.245  2.4860  2.3630  2.6830 
  6271.500 -35.562  2.4870  2.3650  2.6550 -23.562  2.4870  2.3650  2.6550 
  6272.000 -35.808  2.4810  2.3660  2.6280 -23.808  2.4810  2.3660  2.6280 
  6272.500 -35.620  2.4830  2.3670  2.6190 -23.620  2.4830  2.3670  2.6190 
  6273.000 -34.640  2.4840  2.3720  2.6090 -22.640  2.4840  2.3720  2.6090 
  6273.500 -33.914  2.4850  2.3770  2.5970 -21.914  2.4850  2.3770  2.5970 
  6274.000 -33.475  2.4860  2.3820  2.5840 -21.475  2.4860  2.3820  2.5840 
  6274.500 -33.396  2.4910  2.3870  2.5780 -21.396  2.4910  2.3870  2.5780 
  6275.000 -33.373  2.4960  2.3820  2.5720 -21.373  2.4960  2.3820  2.5720 
  6275.500 -33.350  2.5120  2.3760  2.5660 -21.350  2.5120  2.3760  2.5660 
  6276.000 -33.376  2.5280  2.3630  2.5680 -21.376  2.5280  2.3630  2.5680 
  6276.500 -33.514  2.5360  2.3720  2.5720 -21.514  2.5360  2.3720  2.5720 
  6277.000 -34.048  2.5450  2.3870  2.5770 -22.048  2.5450  2.3870  2.5770 
  6277.500 -35.482  2.5680  2.3920  2.5930 -23.482  2.5680  2.3920  2.5930 
  6278.000 -36.629  2.5770  2.3960  2.6020 -24.629  2.5770  2.3960  2.6020 
  6278.500 -36.119  2.5920  2.4200  2.6100 -24.119  2.5920  2.4200  2.6100 
  6279.000 -35.609  2.6080  2.4360  2.5900 -23.609  2.6080  2.4360  2.5900 
  6279.500 -35.492  2.6240  2.4590  2.5770 -23.492  2.6240  2.4590  2.5770 
  6280.000 -35.700  2.6400  2.4670  2.5630 -23.700  2.6400  2.4670  2.5630 
  6280.500 -36.020  2.6410  2.4750  2.5000 -24.020  2.6410  2.4750  2.5000 
  6281.000 -36.592  2.6560  2.4550  2.4370 -24.592  2.6560  2.4550  2.4370 
  6281.500 -37.129  2.6640  2.4340  2.3590 -25.129  2.6640  2.4340  2.3590 
  6282.000 -37.881  2.6790  2.3920  2.3090 -25.881  2.6790  2.3920  2.3090 
  6282.500 -37.154  2.6940  2.3710  2.3610 -25.154  2.6940  2.3710  2.3610 
  6283.000 -36.358  2.7240  2.2860  2.4260 -24.358  2.7240  2.2860  2.4260 
  6283.500 -35.632  2.7470  2.2440  2.5200 -23.632  2.7470  2.2440  2.5200 
  6284.000 -35.340  2.7910  2.3530  2.5790 -23.340  2.7910  2.3530  2.5790 
  6284.500 -34.973  2.8490  2.4400  2.6520 -22.973  2.8490  2.4400  2.6520 
  6285.000 -34.861  2.9220  2.5270  2.5670 -22.861  2.9220  2.5270  2.5670 
  6285.500 -35.146  2.9730  2.6140  2.4530 -23.146  2.9730  2.6140  2.4530 
  6286.000 -35.897  2.9950  2.5930  2.3460 -23.897  2.9950  2.5930  2.3460 
  6286.500 -36.434  2.8530  2.5720  2.2460 -24.434  2.8530  2.5720  2.2460 
  6287.000 -35.600  2.7030  2.4080  2.1610 -23.600  2.7030  2.4080  2.1610 
  6287.500 -34.909  2.6390  2.2730  2.0900 -22.909  2.6390  2.2730  2.0900 
  6288.000 -34.762  2.6040  2.2020  2.1840 -22.762  2.6040  2.2020  2.1840 
  6288.500 -34.722  2.5870  2.1960  2.2390 -22.722  2.5870  2.1960  2.2390 
  6289.000 -34.788  2.5700  2.1890  2.2930 -22.788  2.5700  2.1890  2.2930 
  6289.500 -34.999  2.5570  2.2190  2.3740 -22.999  2.5570  2.2190  2.3740 
  6290.000 -35.500  2.5540  2.2490  2.3890 -23.500  2.5540  2.2490  2.3890 
  6290.500 -36.180  2.5510  2.2790  2.4040 -24.180  2.5510  2.2790  2.4040 
  6291.000 -37.652  2.5380  2.2870  2.4340 -25.652  2.5380  2.2870  2.4340 
  6291.500 -37.683  2.5320  2.3020  2.4350 -25.683  2.5320  2.3020  2.4350 
  6292.000 -36.454  2.5250  2.3100  2.4070 -24.454  2.5250  2.3100  2.4070 
  6292.500 -35.655  2.5230  2.3260  2.3830 -23.655  2.5230  2.3260  2.3830 
  6293.000 -35.526  2.5200  2.3260  2.3580 -23.526  2.5200  2.3260  2.3580 
  6293.500 -35.398  2.5250  2.3270  2.3340 -23.398  2.5250  2.3270  2.3340 
  6294.000 -35.678  2.5290  2.3310  2.3100 -23.678  2.5290  2.3310  2.3100 
  6294.500 -36.358  2.5300  2.3360  2.2970 -24.358  2.5300  2.3360  2.2970 
  6295.000 -37.002  2.5310  2.3300  2.2900 -25.002  2.5310  2.3300  2.2900 
  6295.500 -38.835  2.5390  2.3230  2.2840 -26.835  2.5390  2.3230  2.2840 
  6296.000 -37.425  2.5470  2.3210  2.2920 -25.425  2.5470  2.3210  2.2920 
  6296.500 -35.835  2.5520  2.3180  2.3150 -23.835  2.5520  2.3180  2.3150 
  6297.000 -34.352  2.5560  2.3160  2.3660 -22.352  2.5560  2.3160  2.3660 
  6297.500 -34.059  2.5500  2.3130  2.4170 -22.059  2.5500  2.3130  2.4170 
  6298.000 -34.198  2.5510  2.3210  2.4540 -22.198  2.5510  2.3210  2.4540 
  6298.500 -34.339  2.5510  2.3290  2.4980 -22.339  2.5510  2.3290  2.4980 
  6299.000 -34.405  2.5460  2.3400  2.5130 -22.405  2.5460  2.3400  2.5130 
  6299.500 -34.402  2.5390  2.3520  2.5280 -22.402  2.5390  2.3520  2.5280 
  6300.000 -34.287  2.5370  2.3600  2.5370 -22.287  2.5370  2.3600  2.5370 
  6300.500 -34.212  2.5340  2.3680  2.5310 -22.212  2.5340  2.3680  2.5310 
  6301.000 -34.172  2.5420  2.3700  2.5130 -22.172  2.5420  2.3700  2.5130 
  6301.500 -34.022  2.5580  2.3640  2.4960 -22.022  2.5580  2.3640  2.4960 
  6302.000 -33.873  2.5730  2.3650  2.4540 -21.873  2.5730  2.3650  2.4540 
  6302.500 -33.616  2.6100  2.3870  2.4340 -21.616  2.6100  2.3870  2.4340 
  6303.000 -33.179  2.6320  2.4100  2.4200 -21.179  2.6320  2.4100  2.4200 
  6303.500 -32.491  2.6620  2.4250  2.4210 -20.491  2.6620  2.4250  2.4210 
  6304.000 -32.017  2.8060  2.4550  2.4730 -20.017  2.8060  2.4550  2.4730 
  6304.500 -31.869  2.9650  2.4770  2.5530 -19.869  2.9650  2.4770  2.5530 
  6305.000 -31.683  3.0600  2.5350  2.6320 -19.683  3.0600  2.5350  2.6320 
  6305.500 -30.923  3.1830  2.6010  2.7480 -18.923  3.1830  2.6010  2.7480 
  6306.000 -29.765  3.2770  2.6810  2.8420 -17.765  3.2770  2.6810  2.8420 
  6306.500 -29.002  3.3280  2.8400  2.9040 -17.002  3.3280  2.8400  2.9040 
  6307.000 -28.819  3.3940  2.9490  2.9660 -16.819  3.3940  2.9490  2.9660 
  6307.500 -28.813  3.3870  2.9780  3.0540 -16.813  3.3870  2.9780  3.0540 
  6308.000 -28.846  3.2880  3.0150  2.9760 -16.846  3.2880  3.0150  2.9760 
  6308.500 -28.877  3.2170  2.9940  2.9050 -16.877  3.2170  2.9940  2.9050 
  6309.000 -28.872  3.0600  2.9590  2.8700 -16.872  3.0600  2.9590  2.8700 
  6309.500 -28.507  2.9610  2.8890  2.7850 -16.507  2.9610  2.8890  2.7850 
