~Version Information
VERS.                     2.0: CWLS log ASCII Standard Version 2.00
WRAP.                      NO: One line per depth step
~Well Information Block
#MNEM.UNIT                               Data Type  Information
#---------                               ---------  -----------
STRT.FT                                  5780.0000:
STOP.FT                                  6850.0000:
STEP.FT                                     0.5000:
NULL.                 -999.25                     :
COMP.                                             :COMPANY            
WELL.     SAN EMIDIO A 35-19 REDRILL #1           :WELL               
FLD .                                             :FIELD              
CTRY.                                             :COUNTRY            
STAT.                                             :STATE              
LOC .                                             :LOCATION           
UWI .                                             :UNIQUE WELL ID     
SRVC.                                             :Service company    
DATE.                                             :LOG DATE           
~Curve Information
#MNEM.UNIT           API CODE  Curve Description
#---------           --------  -----------------
DEPT.FT                      :   1 DEPTH
SP  .MV                      :   2
AM16.OHMM                    :   3
AO10.OHMM                    :   4
AO19.OHMM                    :   5
SBL .MV                      :   6
RS  .OHMM                    :   7
RM  .OHMM                    :   8
RD  .OHMM                    :   9
~A
# ...
  5992.000 -23.899  2.0320  2.1110  2.2580 -11.899  2.0320  2.1110  2.2580 
  5992.500 -22.959  2.0330  2.1120  2.2590 -10.959  2.0330  2.1120  2.2590 
  5993.000 -22.342  2.0400  2.1200  2.1590 -10.342  2.0400  2.1200  2.1590 
  5993.500 -21.689  2.0480  2.1240  2.1960 -9.6890  2.0480  2.1240  2.1960 
  5994.000 -21.543  2.0570  2.1280  2.2110 -9.5430  2.0570  2.1280  2.2110 
  5994.500 -21.358  2.0680  2.1360  2.2150 -9.3580  2.0680  2.1360  2.2150 
  5995.000 -21.787  2.0790  2.1440  2.2190 -9.7870  2.0790  2.1440  2.2190 
  5995.500 -22.252  2.0840  2.1520  2.2420 -10.252  2.0840  2.1520  2.2420 
  5996.000 -21.851  2.0880  2.1590  2.2640 -9.8510  2.0880  2.1590  2.2640 
  5996.500 -21.668  2.0990  2.1740  2.2720 -9.6680  2.0990  2.1740  2.2720 
  5997.000 -21.844  2.1110  2.1900  2.2800 -9.8440  2.1110  2.1900  2.2800 
  5997.500 -22.633  2.1330  2.2050  2.2950 -10.633  2.1330  2.2050  2.2950 
  5998.000 -23.603  2.1480  2.2200  2.3090 -11.603  2.1480  2.2200  2.3090 
  5998.500 -23.670  2.1630  2.2350  2.3250 -11.670  2.1630  2.2350  2.3250 
  5999.000 -23.524  2.1780  2.2430  2.3400 -11.524  2.1780  2.2430  2.3400 
  5999.500 -23.378  2.1930  2.2580  2.3480 -11.378  2.1930  2.2580  2.3480 
  6000.000 -22.975  2.2050  2.2730  2.3490 -10.975  2.2050  2.2730  2.3490 
  6000.500 -22.683  2.2160  2.2890  2.3640 -10.683  2.2160  2.2890  2.3640 
  6001.000 -22.319  2.2390  2.2970  2.3790 -10.319  2.2390  2.2970  2.3790 
  6001.500 -22.207  2.2540  2.3120  2.3870 -10.207  2.2540  2.3120  2.3870 
  6002.000 -24.365  2.2690  2.3270  2.4020 -12.365  2.2690  2.3270  2.4020 
  6002.500 -25.262  2.2910  2.3350  2.4100 -13.262  2.2910  2.3350  2.4100 
  6003.000 -24.646  2.3130  2.3380  2.4100 -12.646  2.3130  2.3380  2.4100 
  6003.500 -23.886  2.3250  2.3420  2.4110 -11.886  2.3250  2.3420  2.4110 
  6004.000 -23.306  2.3360  2.3650  2.3970 -11.306  2.3360  2.3650  2.3970 
  6004.500 -22.834  2.3540  2.3760  2.3830 -10.834  2.3540  2.3760  2.3830 
  6005.000 -23.298  2.3730  2.3880  2.3130 -11.298  2.3730  2.3880  2.3130 
  6005.500 -24.843  2.3960  2.4030  2.2850 -12.843  2.3960  2.4030  2.2850 
  6006.000 -28.479  2.4180  2.4110  2.2490 -16.479  2.4180  2.4110  2.2490 
  6006.500 -31.682  2.4340  2.4190  2.2140 -19.682  2.4340  2.4190  2.2140 
  6007.000 -33.804  2.4560  2.4270  2.1720 -21.804  2.4560  2.4270  2.1720 
  6007.500 -34.413  2.4670  2.4350  2.1440 -22.413  2.4670  2.4350  2.1440 
  6008.000 -34.588  2.4780  2.4430  2.1410 -22.588  2.4780  2.4430  2.1410 
  6008.500 -34.800  2.4940  2.4470  2.1380 -22.800  2.4940  2.4470  2.1380 
  6009.000 -35.049  2.5090  2.4510  2.1530 -23.049  2.5090  2.4510  2.1530 
  6009.500 -35.442  2.5240  2.4660  2.1690 -23.442  2.5240  2.4660  2.1690 
  6010.000 -36.303  2.5170  2.4670  2.1840 -24.303  2.5170  2.4670  2.1840 
  6010.500 -37.093  2.5180  2.4680  2.1950 -25.093  2.5180  2.4680  2.1950 
  6011.000 -37.881  2.5190  2.4540  2.2060 -25.881  2.5190  2.4540  2.2060 
  6011.500 -37.804  2.5120  2.4550  2.2180 -25.804  2.5120  2.4550  2.2180 
  6012.000 -37.476  2.5130  2.4450  2.2300 -25.476  2.5130  2.4450  2.2300 
  6012.500 -37.148  2.5000  2.4340  2.2410 -25.148  2.5000  2.4340  2.2410 
  6013.000 -36.892  2.4860  2.3930  2.2520 -24.892  2.4860  2.3930  2.2520 
  6013.500 -36.638  2.4650  2.3570  2.2600 -24.638  2.4650  2.3570  2.2600 
  6014.000 -36.093  2.4370  2.3220  2.2680 -24.093  2.4370  2.3220  2.2680 
  6014.500 -35.620  2.4020  2.2800  2.2760 -23.620  2.4020  2.2800  2.2760 
  6015.000 -35.149  2.3600  2.2510  2.2840 -23.149  2.3600  2.2510  2.2840 
  6015.500 -33.813  2.3240  2.2230  2.3140 -21.813  2.3240  2.2230  2.3140 
  6016.000 -29.810  2.2970  2.1890  2.3290 -17.810  2.2970  2.1890  2.3290 
  6016.500 -28.148  2.2750  2.1820  2.3360 -16.148  2.2750  2.1820  2.3360 
  6017.000 -27.100  2.2470  2.1900  2.3300 -15.100  2.2470  2.1900  2.3300 
  6017.500 -26.664  2.2410  2.2010  2.3230 -14.664  2.2410  2.2010  2.3230 
  6018.000 -26.695  2.2710  2.2120  2.3170 -14.695  2.2710  2.2120  2.3170 
  6018.500 -26.836  2.3070  2.2500  2.3180 -14.836  2.3070  2.2500  2.3180 
  6019.000 -27.013  2.3440  2.2580  2.3110 -15.013  2.3440  2.2580  2.3110 
  6019.500 -27.477  2.3730  2.2660  2.3040 -15.477  2.3730  2.2660  2.3040 
  6020.000 -27.978  2.3880  2.2660  2.2840 -15.978  2.3880  2.2660  2.2840 
  6020.500 -29.019  2.3960  2.2670  2.2780 -17.019  2.3960  2.2670  2.2780 
  6021.000 -30.205  2.3860  2.2750  2.2570 -18.205  2.3860  2.2750  2.2570 
  6021.500 -31.426  2.3750  2.2750  2.2350 -19.426  2.3750  2.2750  2.2350 
  6022.000 -31.026  2.3410  2.2650  2.2000 -19.026  2.3410  2.2650  2.2000 
  6022.500 -30.662  2.3160  2.2550  2.1650 -18.662  2.3160  2.2550  2.1650 
  6023.000 -30.441  2.2910  2.2480  2.1370 -18.441  2.2910  2.2480  2.1370 
  6023.500 -30.797  2.2500  2.2420  2.1090 -18.797  2.2500  2.2420  2.1090 
  6024.000 -31.408  2.2290  2.2210  2.0990 -19.408  2.2290  2.2210  2.0990 
  6024.500 -33.384  2.2150  2.2040  2.0890 -21.384  2.2150  2.2040  2.0890 
  6025.000 -35.074  2.2120  2.1870  2.0830 -23.074  2.2120  2.1870  2.0830 
  6025.500 -36.872  2.2090  2.1660  2.0700 -24.872  2.2090  2.1660  2.0700 
  6026.000 -37.914  2.2020  2.1600  2.0700 -25.914  2.2020  2.1600  2.0700 
  6026.500 -37.909  2.1960  2.1460  2.0710 -25.909  2.1960  2.1460  2.0710 
  6027.000 -37.581  2.1830  2.1470  2.0680 -25.581  2.1830  2.1470  2.0680 
  6027.500 -37.289  2.1760  2.1400  2.0650 -25.289  2.1760  2.1400  2.0650 
  6028.000 -36.889  2.1700  2.1340  2.0580 -24.889  2.1700  2.1340  2.0580 
  6028.500 -36.453  2.1560  2.1270  2.0520 -24.453  2.1560  2.1270  2.0520 
  6029.000 -37.205  2.1420  2.1250  2.0560 -25.205  2.1420  2.1250  2.0560 
  6029.500 -37.922  2.1400  2.1240  2.0600 -25.922  2.1400  2.1240  2.0600 
  6030.000 -38.640  2.1370  2.1220  2.0690 -26.640  2.1370  2.1220  2.0690 
  6030.500 -39.319  2.1380  2.1200  2.0770 -27.319  2.1380  2.1200  2.0770 
  6031.000 -39.349  2.1460  2.1180  2.0820 -27.349  2.1460  2.1180  2.0820 
  6031.500 -38.873  2.1440  2.1150  2.0860 -26.873  2.1440  2.1150  2.0860 
  6032.000 -38.219  2.1410  2.1130  2.0950 -26.219  2.1410  2.1130  2.0950 
  6032.500 -37.710  2.1420  2.1070  2.1040 -25.710  2.1420  2.1070  2.1040 
  6033.000 -36.983  2.1440  2.1010  2.1120 -24.983  2.1440  2.1010  2.1120 
  6033.500 -37.265  2.1380  2.0990  2.1130 -25.265  2.1380  2.0990  2.1130 
  6034.000 -37.727  2.1320  2.0960  2.1140 -25.727  2.1320  2.0960  2.1140 
  6034.500 -38.189  2.1300  2.0980  2.1150 -26.189  2.1300  2.0980  2.1150 
  6035.000 -38.472  2.1270  2.0920  2.1100 -26.472  2.1270  2.0920  2.1100 
  6035.500 -38.647  2.1210  2.1000  2.1110 -26.647  2.1210  2.1000  2.1110 
  6036.000 -38.713  2.1230  2.1010  2.1120 -26.713  2.1230  2.1010  2.1120 
  6036.500 -38.634  2.1240  2.1020  2.1130 -26.634  2.1240  2.1020  2.1130 
  6037.000 -38.304  2.1220  2.0960  2.1110 -26.304  2.1220  2.0960  2.1110 
  6037.500 -37.722  2.1190  2.0910  2.1080 -25.722  2.1190  2.0910  2.1080 
  6038.000 -36.742  2.1060  2.0850  2.1130 -24.742  2.1060  2.0850  2.1130 
  6038.500 -36.015  2.0930  2.0780  2.1180 -24.015  2.0930  2.0780  2.1180 
  6039.000 -35.723  2.0900  2.0800  2.1260 -23.723  2.0900  2.0800  2.1260 
  6039.500 -35.788  2.0880  2.0600  2.1350 -23.788  2.0880  2.0600  2.1350 
  6040.000 -35.710  2.0850  2.0540  2.1430 -23.710  2.0850  2.0540  2.1430 
  6040.500 -35.126  2.0830  2.0550  2.1510 -23.126  2.0830  2.0550  2.1510 
  6041.000 -34.580  2.0840  2.0490  2.1600 -22.580  2.0840  2.0490  2.1600 
  6041.500 -34.179  2.0860  2.0460  2.1680 -22.179  2.0860  2.0460  2.1680 
  6042.000 -33.307  2.0870  2.0440  2.1760 -21.307  2.0870  2.0440  2.1760 
  6042.500 -32.401  2.0950  2.0310  2.1780 -20.401  2.0950  2.0310  2.1780 
  6043.000 -31.207  2.1030  2.0180  2.1790 -19.207  2.1030  2.0180  2.1790 
  6043.500 -29.760  2.1190  2.0260  2.1800 -17.760  2.1190  2.0260  2.1800 
  6044.000 -28.457  2.1490  2.0310  2.1820 -16.457  2.1490  2.0310  2.1820 
  6044.500 -26.937  2.1650  2.0350  2.1830 -14.937  2.1650  2.0350  2.1830 
