~Version Information
VERS.                     2.0: CWLS log ASCII Standard Version 2.00
WRAP.                      NO: One line per depth step
~Well Information Block
#MNEM.UNIT                               Data Type  Information
#---------                               ---------  -----------
STRT.FT                                   370.0000:
STOP.FT                                  6710.0000:
STEP.FT                                     0.5000:
NULL.                 -999.25                     :
COMP.                                             :COMPANY            
WELL.     SAN EMIDIO 35-19 REDRILL #2             :WELL               
FLD .                                             :FIELD              
CTRY.                                             :COUNTRY            
STAT.                                             :STATE              
LOC .                                             :LOCATION           
UWI .                                             :UNIQUE WELL ID     
SRVC.                                             :Service company    
DATE.                                             :LOG DATE           
~Curve Information
#MNEM.UNIT           API CODE  Curve Description
#---------           --------  -----------------
DEPT.FT                      :   1 DEPTH
SP  .MV                      :   2
AM16.OHMM                    :   3
AO10.OHMM                    :   4
AO19.OHMM                    :   5
SBL .MV                      :   6
RS  .OHMM                    :   7
RM  .OHMM                    :   8
RD  .OHMM                    :   9
~A
# ...
  4557.000 -27.715  7.2320  8.7970  6.9700 -15.715  7.2320  8.7970  6.9700 
  4557.500 -26.496  6.9880  8.7470  6.8120 -14.496  6.9880  8.7470  6.8120 
  4558.000 -25.815  6.7000  8.6100  6.7040 -13.815  6.7000  8.6100  6.7040 
  4558.500 -25.331  6.4630  8.5600  6.6610 -13.331  6.4630  8.5600  6.6610 
  4559.000 -24.848  6.2550  8.4520  6.6430 -12.848  6.2550  8.4520  6.6430 
  4559.500 -24.346  6.0460  8.3230  6.6240 -12.346  6.0460  8.3230  6.6240 
  4560.000 -24.024  5.9100  8.1430  6.6210 -12.024  5.9100  8.1430  6.6210 
  4560.500 -24.061  5.9170  7.9350  6.6170 -12.061  5.9170  7.9350  6.6170 
  4561.000 -24.079  5.9240  7.6260  6.6280 -12.079  5.9240  7.6260  6.6280 
  4561.500 -24.097  5.9600  7.4240  6.6380 -12.097  5.9600  7.4240  6.6380 
  4562.000 -24.636  6.1460  7.3020  6.7100 -12.636  6.1460  7.3020  6.7100 
  4562.500 -25.319  6.2610  7.2730  6.9830 -13.319  6.2610  7.2730  6.9830 
  4563.000 -26.897  6.5980  7.3020  7.1980 -14.897  6.5980  7.3020  7.1980 
  4563.500 -28.835  6.9640  7.4670  7.4200 -16.835  6.9640  7.4670  7.4200 
  4564.000 -30.737  7.3730  7.7320  7.6430 -18.737  7.3730  7.7320  7.6430 
  4564.500 -32.603  7.6960  7.8830  7.8220 -20.603  7.6960  7.8830  7.8220 
  4565.000 -34.289  7.9330  8.0480  8.0590 -22.289  7.9330  8.0480  8.0590 
  4565.500 -36.048  8.0620  8.1480  8.1740 -24.048  8.0620  8.1480  8.1740 
  4566.000 -37.555  8.1050  8.1910  8.3670 -25.555  8.1050  8.1910  8.3670 
  4566.500 -38.739  8.1190  8.2490  8.4460 -26.739  8.1190  8.2490  8.4460 
  4567.000 -38.022  8.1260  8.2700  8.5180 -26.022  8.1260  8.2700  8.5180 
  4567.500 -37.521  8.1120  8.3060  8.5820 -25.521  8.1120  8.3060  8.5820 
  4568.000 -36.840  8.0830  8.3270  8.6180 -24.840  8.0830  8.3270  8.6180 
  4568.500 -35.980  8.0110  8.2980  8.6180 -23.980  8.0110  8.2980  8.6180 
  4569.000 -35.514  7.9460  8.2300  8.5170 -23.514  7.9460  8.2300  8.5170 
  4569.500 -34.761  7.7810  8.1620  8.4670 -22.761  7.7810  8.1620  8.4670 
  4570.000 -33.972  7.6300  8.0390  8.3590 -21.972  7.6300  8.0390  8.3590 
  4570.500 -32.682  7.4220  7.8740  8.2800 -20.682  7.4220  7.8740  8.2800 
  4571.000 -31.857  7.1990  7.7090  8.1580 -19.857  7.1990  7.7090  8.1580 
  4571.500 -30.208  6.9480  7.5580  8.0000 -18.208  6.9480  7.5580  8.0000 
  4572.000 -28.809  6.6890  7.3640  7.9240 -16.809  6.6890  7.3640  7.9240 
  4572.500 -27.590  6.4090  7.2420  7.8490 -15.590  6.4090  7.2420  7.8490 
  4573.000 -26.372  6.1500  7.1480  7.6190 -14.372  6.1500  7.1480  7.6190 
  4573.500 -25.762  5.9560  7.0400  7.5540 -13.762  5.9560  7.0400  7.5540 
  4574.000 -24.938  5.6980  6.9400  7.4530 -12.938  5.6980  6.9400  7.4530 
  4574.500 -24.185  5.5400  6.8320  7.3740 -12.185  5.5400  6.8320  7.3740 
  4575.000 -23.612  5.4250  6.7740  7.2520 -11.612  5.4250  6.7740  7.2520 
  4575.500 -23.254  5.3670  6.7100  7.1800 -11.254  5.3670  6.7100  7.1800 
  4576.000 -22.860  5.3380  6.6660  7.0940 -10.860  5.3380  6.6660  7.0940 
  4576.500 -22.609  5.3670  6.6660  6.9860 -10.609  5.3670  6.6660  6.9860 
  4577.000 -22.466  5.4170  6.7020  6.9350 -10.466  5.4170  6.7020  6.9350 
  4577.500 -22.377  5.4670  6.7740  6.9280 -10.377  5.4670  6.7740  6.9280 
  4578.000 -22.288  5.6100  6.8740  6.9850 -10.288  5.6100  6.8740  6.9850 
  4578.500 -22.361  5.6890  6.9460  7.0070 -10.361  5.6890  6.9460  7.0070 
  4579.000 -22.576  5.7390  7.0170  7.0500 -10.576  5.7390  7.0170  7.0500 
  4579.500 -22.900  5.7610  7.0670  7.0930 -10.900  5.7610  7.0670  7.0930 
  4580.000 -23.331  5.6890  6.9810  7.0710 -11.331  5.6890  6.9810  7.0710 
  4580.500 -23.798  5.5380  6.8450  6.8050 -11.798  5.5380  6.8450  6.8050 
  4581.000 -24.265  5.4080  6.6650  6.6830 -12.265  5.4080  6.6650  6.6830 
  4581.500 -24.947  5.2790  6.4710  6.4530 -12.947  5.2790  6.4710  6.4530 
  4582.000 -25.557  5.1780  6.2910  6.2230 -13.557  5.1780  6.2910  6.2230 
  4582.500 -26.419  5.1280  6.1910  6.0790 -14.419  5.1280  6.1910  6.0790 
  4583.000 -28.177  5.1210  6.1330  6.0360 -16.177  5.1210  6.1330  6.0360 
  4583.500 -28.680  5.1210  6.0760  6.0290 -16.680  5.1210  6.0760  6.0290 
  4584.000 -28.071  5.1710  5.9750  6.0290 -16.071  5.1710  5.9750  6.0290 
  4584.500 -27.461  5.2210  5.9100  6.0360 -15.461  5.2210  5.9100  6.0360 
  4585.000 -27.067  5.3180  5.8670  6.0680 -15.067  5.3180  5.8670  6.0680 
  4585.500 -26.458  5.4140  5.8450  6.1000 -14.458  5.4140  5.8450  6.1000 
  4586.000 -26.280  5.5290  5.8560  6.1500 -14.280  5.5290  5.8560  6.1500 
  4586.500 -27.033  5.7870  5.8660  6.2220 -15.033  5.7870  5.8660  6.2220 
  4587.000 -29.509  6.1460  5.9090  6.3370 -17.509  6.1460  5.9090  6.3370 
  4587.500 -34.352  6.4980  6.0030  6.4870 -22.352  6.4980  6.0030  6.4870 
  4588.000 -39.518  6.9790  6.1170  6.6380 -27.518  6.9790  6.1170  6.6380 
  4588.500 -43.716  7.4380  6.3180  6.7240 -31.716  7.4380  6.3180  6.7240 
  4589.000 -46.335  7.9050  6.4470  6.9250 -34.335  7.9050  6.4470  6.9250 
  4589.500 -46.766  8.1850  6.5550  7.0250 -34.766  8.1850  6.5550  7.0250 
  4590.000 -46.264  8.2990  6.6550  7.1250 -34.264  8.2990  6.6550  7.1250 
  4590.500 -44.543  8.3930  6.7560  7.2690 -32.543  8.3930  6.7560  7.2690 
  4591.000 -40.275  8.3850  6.8700  7.4200 -28.275  8.3850  6.8700  7.4200 
  4591.500 -36.151  8.1630  6.9490  7.5560 -24.151  8.1630  6.9490  7.5560 
  4592.000 -33.784  7.9040  7.0140  7.6490 -21.784  7.9040  7.0140  7.6490 
  4592.500 -31.704  7.5520  7.0570  7.6560 -19.704  7.5520  7.0570  7.6560 
  4593.000 -30.700  7.2290  7.0990  7.6420 -18.700  7.2290  7.0990  7.6420 
  4593.500 -29.983  6.8410  6.9340  7.4690 -17.983  6.8410  6.9340  7.4690 
  4594.000 -29.338  6.6760  6.7760  7.1670 -17.338  6.6760  6.7760  7.1670 
  4594.500 -29.877  6.5680  6.5320  6.8590 -17.877  6.5680  6.5320  6.8590 
  4595.000 -31.276  6.4810  6.2950  6.6500 -19.276  6.4810  6.2950  6.6500 
  4595.500 -31.708  6.4020  5.9930  6.3770 -19.708  6.4020  5.9930  6.3770 
  4596.000 -31.672  6.2660  5.9860  6.3200 -19.672  6.2660  5.9860  6.3200 
  4596.500 -30.848  6.1580  6.0430  6.3700 -18.848  6.1580  6.0430  6.3700 
  4597.000 -29.701  5.9500  6.1430  6.5130 -17.701  5.9500  6.1430  6.5130 
  4597.500 -28.840  5.6980  6.2010  6.6570 -16.840  5.6980  6.2010  6.6570 
  4598.000 -27.334  5.4540  6.2580  6.7500 -15.334  5.4540  6.2580  6.7500 
  4598.500 -25.864  5.3640  6.2510  6.8210 -13.864  5.3640  6.2510  6.8210 
  4599.000 -24.573  5.2740  6.2430  6.6560 -12.573  5.2740  6.2430  6.6560 
  4599.500 -23.318  5.0730  6.0640  6.4550 -11.318  5.0730  6.0640  6.4550 
  4600.000 -22.279  4.9430  5.7910  6.2320 -10.279  4.9430  5.7910  6.2320 
  4600.500 -21.742  4.8210  5.5530  6.0020 -9.7420  4.8210  5.5530  6.0020 
  4601.000 -21.385  4.7060  5.3950  5.8010 -9.3850  4.7060  5.3950  5.8010 
  4601.500 -21.100  4.5910  5.3410  5.5780 -9.1000  4.5910  5.3410  5.5780 
  4602.000 -20.850  4.4900  5.2870  5.3330 -8.8500  4.4900  5.2870  5.3330 
  4602.500 -20.673  4.6470  5.1930  5.2320 -8.6730  4.6470  5.1930  5.2320 
  4603.000 -20.495  4.8410  5.1640  5.1030 -8.4950  4.8410  5.1640  5.1030 
  4603.500 -21.106  4.9770  5.1710  5.1100 -9.1060  4.9770  5.1710  5.1100 
  4604.000 -23.009  5.1780  5.2850  5.3890 -11.009  5.1780  5.2850  5.3890 
  4604.500 -24.409  5.4430  5.5940  5.6690 -12.409  5.4430  5.5940  5.6690 
  4605.000 -28.931  5.7370  5.8590  5.9700 -16.931  5.7370  5.8590  5.9700 
  4605.500 -33.739  6.0450  6.1100  6.1420 -21.739  6.0450  6.1100  6.1420 
  4606.000 -35.749  6.2890  6.3320  6.3140 -23.749  6.2890  6.3320  6.3140 
  4606.500 -36.827  6.4540  6.5330  6.4430 -24.827  6.4540  6.5330  6.4430 
  4607.000 -37.008  6.5180  6.6400  6.5070 -25.008  6.5180  6.6400  6.5070 
  4607.500 -36.507  6.5250  6.6830  6.4640 -24.507  6.5250  6.6830  6.4640 
  4608.000 -36.114  6.5250  6.6970  6.3130 -24.114  6.5250  6.6970  6.3130 
  4608.500 -35.901  6.5240  6.3950  6.0830 -23.901  6.5240  6.3950  6.0830 
  4609.000 -36.117  6.5960  6.1290  5.8880 -24.117  6.5960  6.1290  5.8880 
  4609.500 -38.056  6.7030  5.9710  5.7010 -26.056  6.7030  5.9710  5.7010 
