~Version Information
VERS.                     2.0: CWLS log ASCII Standard Version 2.00
WRAP.                      NO: One line per depth step
~Well Information Block
#MNEM.UNIT                               Data Type  Information
#---------                               ---------  -----------
STRT.FT                                   370.0000:
STOP.FT                                  6710.0000:
STEP.FT                                     0.5000:
NULL.                 -999.25                     :
COMP.                                             :COMPANY            
WELL.     SAN EMIDIO 35-19 REDRILL #2             :WELL               
FLD .                                             :FIELD              
CTRY.                                             :COUNTRY            
STAT.                                             :STATE              
LOC .                                             :LOCATION           
UWI .                                             :UNIQUE WELL ID     
SRVC.                                             :Service company    
DATE.                                             :LOG DATE           
~Curve Information
#MNEM.UNIT           API CODE  Curve Description
#---------           --------  -----------------
DEPT.FT                      :   1 DEPTH
SP  .MV                      :   2
AM16.OHMM                    :   3
AO10.OHMM                    :   4
AO19.OHMM                    :   5
SBL .MV                      :   6
RS  .OHMM                    :   7
RM  .OHMM                    :   8
RD  .OHMM                    :   9
~A
# ...
  6253.000 -17.045  2.4830  2.3270  2.1290 -3.2166  2.4830  2.3270  2.1290 
  6253.500 -17.446  2.4800  2.3310  2.1320 -3.6150  2.4800  2.3310  2.1320 
  6254.000 -17.838  2.4840  2.3350  2.1430 -4.0041  2.4840  2.3350  2.1430 
  6254.500 -18.199  2.4730  2.3320  2.1470 -4.3624  2.4730  2.3320  2.1470 
  6255.000 -18.653  2.4710  2.3290  2.1520 -4.8130  2.4710  2.3290  2.1520 
  6255.500 -18.940  2.4600  2.3300  2.1490 -5.0979  2.4600  2.3300  2.1490 
  6256.000 -19.002  2.4490  2.3340  2.1470 -5.1566  2.4490  2.3340  2.1470 
  6256.500 -18.703  2.4390  2.3310  2.1340 -4.8553  2.4390  2.3310  2.1340 
  6257.000 -18.413  2.4280  2.3290  2.1290 -4.5617  2.4280  2.3290  2.1290 
  6257.500 -18.059  2.4250  2.3190  2.1230 -4.2054  2.4250  2.3190  2.1230 
  6258.000 -17.779  2.4200  2.3090  2.1130 -3.9218  2.4200  2.3090  2.1130 
  6258.500 -17.478  2.4140  2.2980  2.1020 -3.6188  2.4140  2.2980  2.1020 
  6259.000 -17.208  2.4020  2.2790  2.0750 -3.3454  2.4020  2.2790  2.0750 
  6259.500 -17.075  2.3980  2.2700  2.0650 -3.2099  2.3980  2.2700  2.0650 
  6260.000 -16.974  2.4020  2.2510  2.0550 -3.1055  2.4020  2.2510  2.0550 
  6260.500 -16.889  2.4060  2.2420  2.0080 -3.0184  2.4060  2.2420  2.0080 
  6261.000 -16.814  2.4240  2.2380  1.9990 -2.9399  2.4240  2.2380  1.9990 
  6261.500 -16.717  2.4360  2.2420  2.0960 -2.8407  2.4360  2.2420  2.0960 
  6262.000 -16.663  2.5040  2.2320  2.1630 -2.7833  2.5040  2.2320  2.1630 
  6262.500 -16.953  2.5860  2.2430  2.1960 -3.0703  2.5860  2.2430  2.1960 
  6263.000 -17.437  2.6340  2.2690  2.2220 -3.5512  2.6340  2.2690  2.2220 
  6263.500 -18.450  2.7170  2.2940  2.2480 -4.5613  2.7170  2.2940  2.2480 
  6264.000 -18.272  2.8210  2.3550  2.2590 -4.3806  2.8210  2.3550  2.2590 
  6264.500 -18.030  2.9180  2.4020  2.2710 -4.1358  2.9180  2.4020  2.2710 
  6265.000 -17.815  3.0290  2.4350  2.3020 -3.9184  3.0290  2.4350  2.3020 
  6265.500 -17.586  3.0980  2.4600  2.2420 -3.6863  3.0980  2.4600  2.2420 
  6266.000 -17.355  3.1160  2.4710  2.1950 -3.4521  3.1160  2.4710  2.1950 
  6266.500 -17.631  3.1270  2.4890  2.1070 -3.7253  3.1270  2.4890  2.1070 
  6267.000 -18.346  2.9810  2.4790  2.0030 -4.4376  2.9810  2.4790  2.0030 
  6267.500 -18.789  2.8490  2.4400  1.9500 -4.8779  2.8490  2.4400  1.9500 
  6268.000 -18.912  2.7590  2.3650  1.8960 -4.9984  2.7590  2.3650  1.8960 
  6268.500 -18.985  2.6920  2.2480  1.8430 -5.0685  2.6920  2.2480  1.8430 
  6269.000 -19.055  2.6520  2.1730  1.8540 -5.1355  2.6520  2.1730  1.8540 
  6269.500 -19.115  2.6290  2.1050  1.9080 -5.1920  2.6290  2.1050  1.9080 
  6270.000 -19.196  2.6050  2.0800  1.9550 -5.2705  2.6050  2.0800  1.9550 
  6270.500 -19.372  2.5710  2.0910  2.0370 -5.4438  2.5710  2.0910  2.0370 
  6271.000 -19.442  2.5530  2.1240  2.0850 -5.5108  2.5530  2.1240  2.0850 
  6271.500 -19.546  2.5510  2.1560  2.1320 -5.6115  2.5510  2.1560  2.1320 
  6272.000 -19.711  2.5550  2.1820  2.1800 -5.7736  2.5550  2.1820  2.1800 
  6272.500 -20.014  2.5590  2.2350  2.2110 -6.0743  2.5590  2.2350  2.2110 
  6273.000 -20.547  2.5630  2.2540  2.1570 -6.6044  2.5630  2.2540  2.1570 
  6273.500 -21.519  2.5630  2.2660  2.1330 -7.5733  2.5630  2.2660  2.1330 
  6274.000 -22.799  2.5640  2.2760  2.0940 -8.8511  2.5640  2.2760  2.0940 
  6274.500 -22.731  2.5600  2.2800  2.0840 -8.7799  2.5600  2.2800  2.0840 
  6275.000 -22.556  2.5340  2.2760  2.0720 -8.6018  2.5340  2.2760  2.0720 
  6275.500 -22.306  2.5100  2.2740  2.0630 -8.3485  2.5100  2.2740  2.0630 
  6276.000 -22.123  2.4930  2.2840  2.0160 -8.1634  2.4930  2.2840  2.0160 
  6276.500 -22.000  2.4750  2.2890  1.9990 -8.0368  2.4750  2.2890  1.9990 
  6277.000 -21.868  2.4710  2.2900  1.9740 -7.9020  2.4710  2.2900  1.9740 
  6277.500 -21.814  2.4660  2.2910  1.9640 -7.8458  2.4660  2.2910  1.9640 
  6278.000 -21.734  2.4600  2.2880  1.9540 -7.7631  2.4600  2.2880  1.9540 
  6278.500 -21.657  2.4620  2.2850  1.9860 -7.6825  2.4620  2.2850  1.9860 
  6279.000 -21.685  2.4520  2.2730  2.0260 -7.7076  2.4520  2.2730  2.0260 
  6279.500 -21.830  2.4550  2.2630  2.0520 -7.8500  2.4550  2.2630  2.0520 
  6280.000 -21.830  2.4520  2.2810  2.0980 -7.8468  2.4520  2.2810  2.0980 
  6280.500 -22.377  2.4500  2.2920  2.1100 -8.3916  2.4500  2.2920  2.1100 
  6281.000 -22.813  2.4480  2.2890  2.0200 -8.8244  2.4480  2.2890  2.0200 
  6281.500 -23.338  2.4500  2.2860  1.9960 -9.3469  2.4500  2.2860  1.9960 
  6282.000 -23.807  2.4540  2.2820  2.0210 -9.8130  2.4540  2.2820  2.0210 
  6282.500 -24.414  2.4580  2.2850  2.0290 -10.416  2.4580  2.2850  2.0290 
  6283.000 -24.829  2.4610  2.2830  2.0370 -10.829  2.4610  2.2830  2.0370 
  6283.500 -25.245  2.4630  2.2790  2.0440 -11.245  2.4630  2.2790  2.0440 
  6284.000 -25.793  2.4640  2.2760  2.0520 -11.793  2.4640  2.2760  2.0520 
  6284.500 -26.254  2.4660  2.2730  2.0760 -12.254  2.4660  2.2730  2.0760 
  6285.000 -26.780  2.4700  2.2700  2.1010 -12.780  2.4700  2.2700  2.1010 
  6285.500 -27.104  2.4810  2.2640  2.1200 -13.104  2.4810  2.2640  2.1200 
  6286.000 -27.451  2.4920  2.2580  2.1380 -13.451  2.4920  2.2580  2.1380 
  6286.500 -27.793  2.4900  2.2510  2.1640 -13.793  2.4900  2.2510  2.1640 
  6287.000 -28.187  2.4940  2.2440  2.1740 -14.187  2.4940  2.2440  2.1740 
  6287.500 -28.555  2.4820  2.2380  2.1780 -14.555  2.4820  2.2380  2.1780 
  6288.000 -29.043  2.4800  2.2310  2.1760 -15.043  2.4800  2.2310  2.1760 
  6288.500 -29.406  2.4620  2.2330  2.1720 -15.406  2.4620  2.2330  2.1720 
  6289.000 -29.899  2.4590  2.2340  2.1540 -15.899  2.4590  2.2340  2.1540 
  6289.500 -30.138  2.4530  2.2350  2.1440 -16.138  2.4530  2.2350  2.1440 
  6290.000 -29.787  2.4470  2.2440  2.1340 -15.787  2.4470  2.2440  2.1340 
  6290.500 -29.189  2.4470  2.2420  2.1250 -15.189  2.4470  2.2420  2.1250 
  6291.000 -28.597  2.4480  2.2420  2.1060 -14.597  2.4480  2.2420  2.1060 
  6291.500 -28.220  2.4430  2.2430  2.0990 -14.220  2.4430  2.2430  2.0990 
  6292.000 -28.313  2.4330  2.2470  2.0930 -14.313  2.4330  2.2470  2.0930 
  6292.500 -28.578  2.4220  2.2500  2.0870 -14.578  2.4220  2.2500  2.0870 
  6293.000 -28.976  2.4120  2.2550  2.0800 -14.976  2.4120  2.2550  2.0800 
  6293.500 -29.315  2.4010  2.2620  2.0770 -15.315  2.4010  2.2620  2.0770 
  6294.000 -29.434  2.3910  2.2700  2.0740 -15.434  2.3910  2.2700  2.0740 
  6294.500 -29.510  2.3800  2.2730  2.0770 -15.510  2.3800  2.2730  2.0770 
  6295.000 -29.547  2.3850  2.2740  2.0730 -15.547  2.3850  2.2740  2.0730 
  6295.500 -29.581  2.3820  2.2750  2.0710 -15.581  2.3820  2.2750  2.0710 
  6296.000 -29.616  2.3790  2.2700  2.0680 -15.616  2.3790  2.2700  2.0680 
  6296.500 -29.779  2.3960  2.2680  2.0700 -15.779  2.3960  2.2680  2.0700 
  6297.000 -29.930  2.4070  2.2500  2.0820 -15.930  2.4070  2.2500  2.0820 
  6297.500 -30.165  2.4250  2.2390  2.0850 -16.165  2.4250  2.2390  2.0850 
  6298.000 -30.349  2.4440  2.2290  2.0960 -16.349  2.4440  2.2290  2.0960 
  6298.500 -30.529  2.4770  2.2260  2.1080 -16.529  2.4770  2.2260  2.1080 
  6299.000 -30.715  2.5310  2.2160  2.1470 -16.715  2.5310  2.2160  2.1470 
  6299.500 -30.818  2.5980  2.2050  2.1940 -16.818  2.5980  2.2050  2.1940 
  6300.000 -30.897  2.6250  2.2090  2.2270 -16.897  2.6250  2.2090  2.2270 
  6300.500 -30.820  2.6520  2.2140  2.2740 -16.820  2.6520  2.2140  2.2740 
  6301.000 -30.613  2.7130  2.2750  2.3150 -16.613  2.7130  2.2750  2.3150 
  6301.500 -30.343  2.7680  2.3310  2.3700 -16.343  2.7680  2.3310  2.3700 
  6302.000 -29.920  2.8150  2.3850  2.4100 -15.920  2.8150  2.3850  2.4100 
  6302.500 -29.632  2.8560  2.4830  2.4580 -15.632  2.8560  2.4830  2.4580 
  6303.000 -29.309  2.8960  2.5590  2.4910 -15.309  2.8960  2.5590  2.4910 
  6303.500 -29.037  2.9290  2.6140  2.5180 -15.037  2.9290  2.6140  2.5180 
  6304.000 -28.733  2.9480  2.6760  2.5150 -14.733  2.9480  2.6760  2.5150 
  6304.500 -28.554  2.9460  2.7240  2.5060 -14.554  2.9460  2.7240  2.5060 
  6305.000 -28.372  2.9000  2.7500  2.4740 -14.372  2.9000  2.7500  2.4740 
  6305.500 -28.217  2.8180  2.7470  2.4140 -14.217  2.8180  2.7470  2.4140 
