~Version Information
VERS.                     2.0: CWLS log ASCII Standard Version 2.00
WRAP.                      NO: One line per depth step
~Well Information Block
#MNEM.UNIT                               Data Type  Information
#---------                               ---------  -----------
STRT.FT                                   370.0000:
STOP.FT                                  6710.0000:
STEP.FT                                     0.5000:
NULL.                 -999.25                     :
COMP.                                             :COMPANY            
WELL.     SAN EMIDIO 35-19 REDRILL #2             :WELL               
FLD .                                             :FIELD              
CTRY.                                             :COUNTRY            
STAT.                                             :STATE              
LOC .                                             :LOCATION           
UWI .                                             :UNIQUE WELL ID     
SRVC.                                             :Service company    
DATE.                                             :LOG DATE           
~Curve Information
#MNEM.UNIT           API CODE  Curve Description
#---------           --------  -----------------
DEPT.FT                      :   1 DEPTH
SP  .MV                      :   2
AM16.OHMM                    :   3
AO10.OHMM                    :   4
AO19.OHMM                    :   5
SBL .MV                      :   6
RS  .OHMM                    :   7
RM  .OHMM                    :   8
RD  .OHMM                    :   9
~A
# ...
  2066.000 -22.724  7.7800  7.7370  9.2110 -10.724  7.7800  7.7370  9.2110 
  2066.500 -21.360  7.8380  7.3000  8.6740 -9.3600  7.8380  7.3000  8.6740 
  2067.000 -20.712  7.9030  7.0280  8.4520 -8.7120  7.9030  7.0280  8.4520 
  2067.500 -20.816  7.9400  6.9860  8.5890 -8.8160  7.9400  6.9860  8.5890 
  2068.000 -22.281  7.9940  7.1010  8.8840 -10.281  7.9940  7.1010  8.8840 
  2068.500 -26.218  8.0490  7.1880  9.0490 -14.218  8.0490  7.1880  9.0490 
  2069.000 -31.730  9.0970  7.3820  9.1580 -19.730  9.0970  7.3820  9.1580 
  2069.500 -38.352  9.8360  7.5980  9.2660 -26.352  9.8360  7.5980  9.2660 
  2070.000 -42.646  10.647  8.0220  9.3600 -30.646  10.647  8.0220  9.3600 
  2070.500 -44.147  11.573  8.2670  9.3960 -32.147  11.573  8.2670  9.3960 
  2071.000 -45.576  13.066  8.4970  9.4260 -33.576  13.066  8.4970  9.4260 
  2071.500 -47.006  13.712  8.6700  9.4480 -35.006  13.712  8.6700  9.4480 
  2072.000 -47.790  14.193  8.8570  9.4350 -35.790  14.193  8.8570  9.4350 
  2072.500 -47.357  14.804  9.0730  9.4280 -35.357  14.804  9.0730  9.4280 
  2073.000 -46.602  14.955  9.3250  9.3860 -34.602  14.955  9.3250  9.3860 
  2073.500 -45.166  15.192  9.8920  9.3510 -33.166  15.192  9.8920  9.3510 
  2074.000 -44.303  15.286  10.675  9.3230 -32.303  15.286  10.675  9.3230 
  2074.500 -43.118  15.445  11.113  9.3160 -31.118  15.445  11.113  9.3160 
  2075.000 -41.969  15.560  11.443  9.3240 -29.969  15.560  11.443  9.3240 
  2075.500 -41.249  15.633  11.803  9.3820 -29.249  15.633  11.803  9.3820 
  2076.000 -41.031  15.705  11.954  9.5050 -29.031  15.705  11.954  9.5050 
  2076.500 -41.099  15.814  12.027  9.5660 -29.099  15.814  12.027  9.5660 
  2077.000 -42.063  16.008  12.070  9.6280 -30.063  16.008  12.070  9.6280 
  2077.500 -43.242  16.532  12.164  9.7290 -31.242  16.532  12.164  9.7290 
  2078.000 -44.277  16.920  12.265  9.8300 -32.277  16.920  12.265  9.8300 
  2078.500 -45.563  17.315  12.424  9.9390 -33.563  17.315  12.424  9.9390 
  2079.000 -46.562  17.746  12.726  10.033 -34.562  17.746  12.726  10.033 
  2079.500 -47.311  18.106  12.985  10.177 -35.311  18.106  12.985  10.177 
  2080.000 -47.773  18.723  13.301  10.285 -35.773  18.723  13.301  10.285 
  2080.500 -48.236  19.205  13.883  10.458 -36.236  19.205  13.883  10.458 
  2081.000 -48.877  19.664  14.938  10.774 -36.877  19.664  14.938  10.774 
  2081.500 -49.626  19.947  16.079  11.076 -37.626  19.947  16.079  11.076 
  2082.000 -50.196  20.230  16.739  11.371 -38.196  20.230  16.739  11.371 
  2082.500 -48.903  20.513  16.855  11.601 -36.903  20.513  16.855  11.601 
  2083.000 -48.183  22.600  16.920  11.810 -36.183  22.600  16.920  11.810 
  2083.500 -48.287  23.253  16.928  11.947 -36.287  23.253  16.928  11.947 
  2084.000 -48.821  22.686  16.936  12.012 -36.821  22.686  16.936  12.012 
  2084.500 -49.642  20.613  16.865  11.991 -37.642  20.613  16.865  11.991 
  2085.000 -50.534  20.634  16.780  11.863 -38.534  20.634  16.780  11.863 
  2085.500 -50.925  20.655  16.730  11.713 -38.925  20.655  16.730  11.713 
  2086.000 -50.706  20.676  16.709  11.578 -38.706  20.676  16.709  11.578 
  2086.500 -50.631  20.425  16.760  11.528 -38.631  20.425  16.760  11.528 
  2087.000 -50.377  20.297  16.861  11.493 -38.377  20.297  16.861  11.493 
  2087.500 -50.052  20.147  16.998  11.551 -38.052  20.147  16.998  11.551 
  2088.000 -49.762  20.320  17.279  11.602 -37.762  20.320  17.279  11.602 
  2088.500 -49.544  20.371  17.688  11.710 -37.544  20.371  17.688  11.710 
  2089.000 -49.003  20.429  18.062  11.783 -37.003  20.429  18.062  11.783 
  2089.500 -48.570  20.501  18.457  11.848 -36.570  20.501  18.457  11.848 
  2090.000 -47.886  20.624  18.867  12.078 -35.886  20.624  18.867  12.078 
  2090.500 -47.668  20.675  19.441  12.308 -35.668  20.675  19.441  12.308 
  2091.000 -48.739  20.604  19.872  12.488 -36.739  20.604  19.872  12.488 
  2091.500 -49.560  20.547  20.548  12.572 -37.560  20.547  20.548  12.572 
  2092.000 -49.986  20.448  21.223  12.655 -37.986  20.448  21.223  12.655 
  2092.500 -49.876  20.420  22.127  12.821 -37.876  20.420  22.127  12.821 
  2093.000 -49.621  20.370  23.030  12.893 -37.621  20.370  23.030  12.893 
  2093.500 -49.547  20.321  23.755  12.930 -37.547  20.321  23.755  12.930 
  2094.000 -49.400  20.278  23.834  13.081 -37.400  20.278  23.834  13.081 
  2094.500 -49.218  20.200  23.913  13.182 -37.218  20.200  23.913  13.182 
  2095.000 -49.089  20.151  24.064  13.333 -37.089  20.151  24.064  13.333 
  2095.500 -48.961  20.115  24.214  13.427 -36.961  20.115  24.214  13.427 
  2096.000 -48.671  20.030  24.221  13.507 -36.671  20.030  24.221  13.507 
  2096.500 -48.416  19.765  24.372  13.630 -36.416  19.765  24.372  13.630 
  2097.000 -48.234  20.046  24.379  13.817 -36.234  20.046  24.379  13.817 
  2097.500 -47.909  20.169  24.314  13.990 -35.909  20.169  24.314  13.990 
  2098.000 -49.051  20.184  24.394  14.170 -37.051  20.184  24.394  14.170 
  2098.500 -49.371  20.192  24.329  14.314 -37.371  20.192  24.329  14.314 
  2099.000 -50.549  20.178  24.336  14.530 -38.549  20.178  24.336  14.530 
  2099.500 -50.940  20.136  24.343  14.703 -38.940  20.136  24.343  14.703 
  2100.000 -51.259  19.993  24.350  14.832 -39.259  19.993  24.350  14.832 
  2100.500 -51.080  19.778  24.421  15.047 -39.080  19.778  24.421  15.047 
  2101.000 -50.865  19.584  24.421  15.392 -38.865  19.584  24.421  15.392 
  2101.500 -50.615  19.419  24.420  15.772 -38.615  19.419  24.420  15.772 
  2102.000 -49.935  19.204  24.276  16.145 -37.935  19.204  24.276  16.145 
  2102.500 -49.040  18.917  24.203  16.381 -37.040  18.917  24.203  16.381 
  2103.000 -47.141  18.680  23.987  16.517 -35.141  18.680  23.987  16.517 
  2103.500 -46.354  18.457  23.700  16.546 -34.354  18.457  23.700  16.546 
  2104.000 -45.137  18.307  23.555  16.431 -33.137  18.307  23.555  16.431 
  2104.500 -44.027  18.005  23.410  16.309 -32.027  18.005  23.410  16.309 
  2105.000 -42.773  17.819  23.052  16.173 -30.773  17.819  23.052  16.173 
  2105.500 -41.950  17.525  22.693  16.058 -29.950  17.525  22.693  16.058 
  2106.000 -40.947  17.123  22.548  16.029 -28.947  17.123  22.548  16.029 
  2106.500 -40.052  16.657  22.332  16.029 -28.052  16.657  22.332  16.029 
  2107.000 -39.587  16.191  22.045  16.087 -27.587  16.191  22.045  16.087 
  2107.500 -39.336  15.796  21.543  16.294 -27.336  15.796  21.543  16.294 
  2108.000 -39.122  15.323  21.183  16.495 -27.122  15.323  21.183  16.495 
  2108.500 -39.086  15.007  20.895  16.581 -27.086  15.007  20.895  16.581 
  2109.000 -38.156  14.290  20.417  16.352 -26.156  14.290  20.417  16.352 
  2109.500 -32.927  14.325  19.939  15.900 -20.927  14.325  19.939  15.900 
  2110.000 -32.390  13.938  19.461  14.594 -20.390  13.938  19.461  14.594 
  2110.500 -32.319  13.551  18.686  14.056 -20.319  13.551  18.686  14.056 
  2111.000 -33.536  13.744  18.048  13.741 -21.536  13.744  18.048  13.741 
  2111.500 -38.121  14.461  17.825  14.013 -26.121  14.461  17.825  14.013 
  2112.000 -42.705  15.049  17.861  14.558 -30.705  15.049  17.861  14.558 
  2112.500 -45.714  15.343  18.320  14.895 -33.714  15.343  18.320  14.895 
  2113.000 -47.541  16.082  18.621  15.347 -35.541  16.082  18.621  15.347 
  2113.500 -49.260  16.821  19.015  15.684 -37.260  16.821  19.015  15.684 
  2114.000 -50.084  17.158  19.403  15.985 -38.084  17.158  19.403  15.985 
  2114.500 -50.299  17.445  19.611  16.344 -38.299  17.445  19.611  16.344 
  2115.000 -50.335  17.609  19.761  16.422 -38.335  17.609  19.761  16.422 
  2115.500 -49.762  17.667  19.854  16.379 -37.762  17.667  19.854  16.379 
  2116.000 -48.724  17.602  19.890  16.272 -36.724  17.602  19.890  16.272 
  2116.500 -46.826  17.057  19.847  16.150 -34.826  17.057  19.847  16.150 
  2117.000 -45.895  15.945  19.460  15.963 -33.895  15.945  19.460  15.963 
  2117.500 -43.568  14.984  18.929  15.698 -31.568  14.984  18.929  15.698 
  2118.000 -42.100  14.095  18.577  15.569 -30.100  14.095  18.577  15.569 
  2118.500 -39.450  12.101  18.384  15.339 -27.450  12.101  18.384  15.339 
