~Version Information
VERS.                     2.0: CWLS log ASCII Standard Version 2.00
WRAP.                      NO: One line per depth step
~Well Information Block
#MNEM.UNIT                               Data Type  Information
#---------                               ---------  -----------
STRT.FT                                  5780.0000:
STOP.FT                                  6850.0000:
STEP.FT                                     0.5000:
NULL.                 -999.25                     :
COMP.                                             :COMPANY            
WELL.     SAN EMIDIO A 35-19 REDRILL #1           :WELL               
FLD .                                             :FIELD              
CTRY.                                             :COUNTRY            
STAT.                                             :STATE              
LOC .                                             :LOCATION           
UWI .                                             :UNIQUE WELL ID     
SRVC.                                             :Service company    
DATE.                                             :LOG DATE           
~Curve Information
#MNEM.UNIT           API CODE  Curve Description
#---------           --------  -----------------
DEPT.FT                      :   1 DEPTH
SP  .MV                      :   2
AM16.OHMM                    :   3
AO10.OHMM                    :   4
AO19.OHMM                    :   5
SBL .MV                      :   6
RS  .OHMM                    :   7
RM  .OHMM                    :   8
RD  .OHMM                    :   9
~A
# ...
  6575.000 -23.994  3.8610  3.8580  2.9640 -11.994  3.8610  3.8580  2.9640 
  6575.500 -24.890  3.8510  3.8150  2.9570 -12.890  3.8510  3.8150  2.9570 
  6576.000 -25.137  3.8310  3.8090  2.9720 -13.137  3.8310  3.8090  2.9720 
  6576.500 -23.655  3.8250  3.8030  2.9910 -11.655  3.8250  3.8030  2.9910 
  6577.000 -22.208  3.8480  3.8040  3.0100 -10.208  3.8480  3.8040  3.0100 
  6577.500 -21.591  3.8700  3.8120  3.0470 -9.5910  3.8700  3.8120  3.0470 
  6578.000 -21.730  3.9280  3.8200  3.0840 -9.7300  3.9280  3.8200  3.0840 
  6578.500 -22.213  3.9940  3.8280  3.1570 -10.213  3.9940  3.8280  3.1570 
  6579.000 -22.696  4.0880  3.8360  3.1940 -10.696  4.0880  3.8360  3.1940 
  6579.500 -24.922  4.1900  3.8520  3.2090 -12.922  4.1900  3.8520  3.2090 
  6580.000 -25.818  4.2410  3.8640  3.2250 -13.818  4.2410  3.8640  3.2250 
  6580.500 -26.818  4.2640  3.8760  3.2400 -14.818  4.2640  3.8760  3.2400 
  6581.000 -27.246  4.2870  3.9020  3.2490 -15.246  4.2870  3.9020  3.2490 
  6581.500 -28.030  4.3030  3.9290  3.2430 -16.030  4.3030  3.9290  3.2430 
  6582.000 -28.241  4.3110  3.9590  3.2440 -16.241  4.3110  3.9590  3.2440 
  6582.500 -28.341  4.3190  3.9890  3.2460 -16.341  4.3190  3.9890  3.2460 
  6583.000 -28.263  4.4220  4.0480  3.2540 -16.263  4.4220  4.0480  3.2540 
  6583.500 -28.184  4.5310  4.0850  3.2700 -16.184  4.5310  4.0850  3.2700 
  6584.000 -28.197  4.7190  4.1160  3.3150 -16.197  4.7190  4.1160  3.3150 
  6584.500 -28.210  4.9070  4.1740  3.4020 -16.210  4.9070  4.1740  3.4020 
  6585.000 -28.597  5.0880  4.2120  3.5330 -16.597  5.0880  4.2120  3.5330 
  6585.500 -29.166  5.2180  4.2710  3.6060 -17.166  5.2180  4.2710  3.6060 
  6586.000 -29.881  5.4070  4.3220  3.6790 -17.881  5.4070  4.3220  3.6790 
  6586.500 -30.523  5.5300  4.4100  3.7270 -18.523  5.5300  4.4100  3.7270 
  6587.000 -31.524  5.6540  4.4540  3.7750 -19.524  5.6540  4.4540  3.7750 
  6587.500 -32.059  5.7410  4.5420  3.8700 -20.059  5.7410  4.5420  3.8700 
  6588.000 -32.449  5.8290  4.5720  3.9000 -20.449  5.8290  4.5720  3.9000 
  6588.500 -32.045  5.8870  4.6090  3.9300 -20.045  5.8870  4.6090  3.9300 
  6589.000 -30.993  5.8530  4.6610  3.9530 -18.993  5.8530  4.6610  3.9530 
  6589.500 -30.267  5.7470  4.6760  3.9760 -18.267  5.7470  4.6760  3.9760 
  6590.000 -29.576  5.6760  4.7060  3.9990 -17.576  5.6760  4.7060  3.9990 
  6590.500 -29.101  5.6060  4.6940  4.0110 -17.101  5.6060  4.6940  4.0110 
  6591.000 -29.167  5.5570  4.6520  4.0230 -17.167  5.5570  4.6520  4.0230 
  6591.500 -32.222  5.5440  4.5810  4.0460 -20.222  5.5440  4.5810  4.0460 
  6592.000 -36.647  5.7960  4.4890  4.0650 -24.647  5.7960  4.4890  4.0650 
  6592.500 -38.911  6.0420  4.4040  4.0850 -26.911  6.0420  4.4040  4.0850 
  6593.000 -39.876  6.2800  4.3770  4.1180 -27.876  6.2800  4.3770  4.1180 
  6593.500 -39.761  6.4540  4.3860  4.1520 -27.761  6.4540  4.3860  4.1520 
  6594.000 -39.645  6.6210  4.4230  4.2040 -27.645  6.6210  4.4230  4.2040 
  6594.500 -39.208  6.7440  4.5030  4.2410 -27.208  6.7440  4.5030  4.2410 
  6595.000 -37.436  6.7960  4.5980  4.2640 -25.436  6.7960  4.5980  4.2640 
  6595.500 -35.664  6.4380  4.6500  4.2870 -23.664  6.4380  4.6500  4.2870 
  6596.000 -33.963  5.8940  4.6150  4.3090 -21.963  5.8940  4.6150  4.3090 
  6596.500 -32.877  5.5000  4.5520  4.2040 -20.877  5.5000  4.5520  4.2040 
  6597.000 -31.464  5.0060  4.4670  4.0830 -19.464  5.0060  4.4670  4.0830 
  6597.500 -29.044  4.6910  4.3610  3.9760 -17.044  4.6910  4.3610  3.9760 
  6598.000 -28.497  4.6210  4.2260  3.8340 -16.497  4.6210  4.2260  3.8340 
  6598.500 -28.490  4.6080  4.1190  3.6630 -16.490  4.6080  4.1190  3.6630 
  6599.000 -29.853  4.6520  3.9840  3.5350 -17.853  4.6520  3.9840  3.5350 
  6599.500 -32.441  4.7250  3.9350  3.5870 -20.441  4.7250  3.9350  3.5870 
  6600.000 -32.182  4.8490  3.9220  3.6600 -20.182  4.8490  3.9220  3.6600 
  6600.500 -31.381  4.9430  3.9380  3.7760 -19.381  4.9430  3.9380  3.7760 
  6601.000 -30.907  5.1320  3.9900  3.9070 -18.907  5.1320  3.9900  3.9070 
  6601.500 -31.080  5.2620  4.0340  4.0380 -19.080  5.2620  4.0340  4.0380 
  6602.000 -31.975  5.3500  4.1290  4.0680 -19.975  5.3500  4.1290  4.0680 
  6602.500 -32.617  5.4160  4.2450  4.0400 -20.617  5.4160  4.2450  4.0400 
  6603.000 -32.356  5.4750  4.3620  3.9910 -20.356  5.4750  4.3620  3.9910 
  6603.500 -31.953  5.4900  4.4560  3.9640 -19.953  5.4900  4.4560  3.9640 
  6604.000 -31.696  5.4340  4.5870  3.9650 -19.696  5.4340  4.5870  3.9650 
  6604.500 -31.439  5.3710  4.6670  3.9810 -19.439  5.3710  4.6670  3.9810 
  6605.000 -29.880  5.3000  4.7760  4.0040 -17.880  5.3000  4.7760  4.0040 
  6605.500 -29.118  5.2440  4.8640  4.0630 -17.118  5.2440  4.8640  4.0630 
  6606.000 -27.525  5.2060  4.9580  4.1140 -15.525  5.2060  4.9580  4.1140 
  6606.500 -27.124  5.1670  5.0460  4.1880 -15.124  5.1670  5.0460  4.1880 
  6607.000 -26.723  5.1120  5.0830  4.2610 -14.723  5.1120  5.0830  4.2610 
  6607.500 -25.777  5.1210  5.1570  4.3340 -13.777  5.1210  5.1570  4.3340 
  6608.000 -24.942  5.1360  5.2010  4.4500 -12.942  5.1360  5.2010  4.4500 
  6608.500 -24.035  5.1810  5.2520  4.5670 -12.035  5.1810  5.2520  4.5670 
  6609.000 -23.127  5.2110  5.3040  4.6330 -11.127  5.2110  5.3040  4.6330 
  6609.500 -22.580  5.2550  5.3630  4.7210 -10.580  5.2550  5.3630  4.7210 
  6610.000 -22.609  5.2990  5.4150  4.7650 -10.609  5.2990  5.4150  4.7650 
  6610.500 -22.638  5.3730  5.4810  4.8240 -10.638  5.3730  5.4810  4.8240 
  6611.000 -22.488  5.4460  5.5110  4.8540 -10.488  5.4460  5.5110  4.8540 
  6611.500 -22.266  5.4830  5.5700  4.8840 -10.266  5.4830  5.5700  4.8840 
  6612.000 -22.044  5.5280  5.5850  4.9030 -10.044  5.5280  5.5850  4.9030 
  6612.500 -21.423  5.5720  5.6150  4.9220 -9.4230  5.5720  5.6150  4.9220 
  6613.000 -20.696  5.6380  5.6310  4.9450 -8.6960  5.6380  5.6310  4.9450 
  6613.500 -21.483  5.6830  5.5890  4.9390 -9.4830  5.6830  5.5890  4.9390 
  6614.000 -22.232  5.7200  5.4830  4.9340 -10.232  5.7200  5.4830  4.9340 
  6614.500 -21.649  5.7570  5.3260  4.9280 -9.6490  5.7570  5.3260  4.9280 
  6615.000 -21.066  5.7940  5.1920  4.9080 -9.0660  5.7940  5.1920  4.9080 
  6615.500 -20.627  5.8390  5.1210  4.8730 -8.6270  5.8390  5.1210  4.8730 
  6616.000 -21.774  5.8620  5.0650  4.8460 -9.7740  5.8620  5.0650  4.8460 
  6616.500 -22.091  5.8740  5.0160  4.8110 -10.091  5.8740  5.0160  4.8110 
  6617.000 -21.651  5.8860  4.9950  4.7690 -9.6510  5.8860  4.9950  4.7690 
  6617.500 -21.284  5.8940  4.9750  4.7420 -9.2840  5.8940  4.9750  4.7420 
  6618.000 -20.917  5.9030  4.9190  4.7140 -8.9170  5.9030  4.9190  4.7140 
  6618.500 -20.587  5.8980  4.8850  4.6510 -8.5870  5.8980  4.8850  4.6510 
  6619.000 -20.580  5.8950  4.8500  4.6020 -8.5800  5.8950  4.8500  4.6020 
  6619.500 -20.393  5.8930  4.8090  4.5460 -8.3930  5.8930  4.8090  4.5460 
  6620.000 -20.315  5.8870  4.7740  4.4900 -8.3150  5.8870  4.7740  4.4900 
  6620.500 -20.525  5.8740  4.7540  4.5420 -8.5250  5.8740  4.7540  4.5420 
  6621.000 -21.347  5.8760  4.8630  4.6080 -9.3470  5.8760  4.8630  4.6080 
  6621.500 -21.557  5.7120  4.9860  4.6410 -9.5570  5.7120  4.9860  4.6410 
  6622.000 -21.693  5.5330  5.0520  4.6750 -9.6930  5.5330  5.0520  4.6750 
  6622.500 -21.687  5.3840  5.1180  4.7630 -9.6870  5.3840  5.1180  4.7630 
  6623.000 -21.645  5.1630  5.1990  4.5850 -9.6450  5.1630  5.1990  4.5850 
  6623.500 -21.549  5.0060  5.1570  4.4070 -9.5490  5.0060  5.1570  4.4070 
  6624.000 -21.454  4.8860  4.9790  4.2000 -9.4540  4.8860  4.9790  4.2000 
  6624.500 -21.119  4.7720  4.8650  4.0210 -9.1190  4.7720  4.8650  4.0210 
  6625.000 -21.005  4.6520  4.7880  3.8650 -9.0050  4.6520  4.7880  3.8650 
  6625.500 -21.287  4.5880  4.7600  3.9310 -9.2870  4.5880  4.7600  3.9310 
  6626.000 -21.714  4.4960  4.7320  4.0260 -9.7140  4.4960  4.7320  4.0260 
  6626.500 -22.141  4.4760  4.8490  4.0770 -10.141  4.4760  4.8490  4.0770 
  6627.000 -23.249  4.5130  5.0160  4.1720 -11.249  4.5130  5.0160  4.1720 
  6627.500 -24.071  4.5500  5.1530  4.2660 -12.071  4.5500  5.1530  4.2660 
