~Version Information
VERS.                     2.0: CWLS log ASCII Standard Version 2.00
WRAP.                      NO: One line per depth step
~Well Information Block
#MNEM.UNIT                               Data Type  Information
#---------                               ---------  -----------
STRT.FT                                  5780.0000:
STOP.FT                                  6850.0000:
STEP.FT                                     0.5000:
NULL.                 -999.25                     :
COMP.                                             :COMPANY            
WELL.     SAN EMIDIO A 35-19 REDRILL #1           :WELL               
FLD .                                             :FIELD              
CTRY.                                             :COUNTRY            
STAT.                                             :STATE              
LOC .                                             :LOCATION           
UWI .                                             :UNIQUE WELL ID     
SRVC.                                             :Service company    
DATE.                                             :LOG DATE           
~Curve Information
#MNEM.UNIT           API CODE  Curve Description
#---------           --------  -----------------
DEPT.FT                      :   1 DEPTH
SP  .MV                      :   2
AM16.OHMM                    :   3
AO10.OHMM                    :   4
AO19.OHMM                    :   5
SBL .MV                      :   6
RS  .OHMM                    :   7
RM  .OHMM                    :   8
RD  .OHMM                    :   9
~A
# ...
  6628.000 -23.668  4.5800  5.3130  4.3540 -11.668  4.5800  5.3130  4.3540 
  6628.500 -22.904  4.6320  5.3720  4.3340 -10.904  4.6320  5.3720  4.3340 
  6629.000 -22.286  4.6550  5.4090  4.2280 -10.286  4.6550  5.4090  4.2280 
  6629.500 -21.487  4.6770  5.3390  4.1500 -9.4870  4.6770  5.3390  4.1500 
  6630.000 -20.976  4.7290  5.2460  4.1080 -8.9760  4.7290  5.2460  4.1080 
  6630.500 -21.655  4.7730  5.1470  4.0660 -9.6550  4.7730  5.1470  4.0660 
  6631.000 -22.443  4.7920  5.0830  4.0740 -10.443  4.7920  5.0830  4.0740 
  6631.500 -22.943  4.8110  5.0560  4.1400 -10.943  4.8110  5.0560  4.1400 
  6632.000 -23.875  4.8480  5.0850  4.2340 -11.875  4.8480  5.0850  4.2340 
  6632.500 -24.879  4.8560  5.2440  4.3650 -12.879  4.8560  5.2440  4.3650 
  6633.000 -23.902  4.8640  5.3450  4.4300 -11.902  4.8640  5.3450  4.4300 
  6633.500 -22.996  4.8650  5.3900  4.4950 -10.996  4.8650  5.3900  4.4950 
  6634.000 -22.379  4.8660  5.4120  4.5250 -10.379  4.8660  5.4120  4.5250 
  6634.500 -22.481  4.8670  5.3560  4.4570 -10.481  4.8670  5.3560  4.4570 
  6635.000 -22.658  4.8680  5.3130  4.3900 -10.658  4.8680  5.3130  4.3900 
  6635.500 -22.940  4.8120  5.1990  4.2550 -10.940  4.8120  5.1990  4.2550 
  6636.000 -23.153  4.7260  5.0140  4.2630 -11.153  4.7260  5.0140  4.2630 
  6636.500 -23.904  4.6270  4.8060  4.2780 -11.904  4.6270  4.8060  4.2780 
  6637.000 -24.296  4.5050  4.5630  4.2940 -12.296  4.5050  4.5630  4.2940 
  6637.500 -24.832  4.4130  4.4350  4.3020 -12.832  4.4130  4.4350  4.3020 
  6638.000 -24.900  4.3850  4.3640  4.2810 -12.900  4.3850  4.3640  4.2810 
  6638.500 -24.715  4.3720  4.3500  4.2250 -12.715  4.3720  4.3500  4.2250 
  6639.000 -24.385  4.3580  4.3360  4.0960 -12.385  4.3580  4.3360  4.0960 
  6639.500 -24.093  4.3670  4.3410  4.0250 -12.093  4.3670  4.3410  4.0250 
  6640.000 -23.656  4.3680  4.3460  4.0410 -11.656  4.3680  4.3460  4.0410 
  6640.500 -24.120  4.3760  4.3540  4.0850 -12.120  4.3760  4.3540  4.0850 
  6641.000 -24.908  4.3980  4.3620  4.1860 -12.908  4.3980  4.3620  4.1860 
  6641.500 -25.660  4.4420  4.3700  4.2880 -13.660  4.4420  4.3700  4.2880 
  6642.000 -26.303  4.5220  4.4140  4.3390 -14.303  4.5220  4.4140  4.3390 
  6642.500 -25.794  4.6010  4.4440  4.4050 -13.794  4.6010  4.4440  4.4050 
  6643.000 -24.132  4.7470  4.4730  4.4410 -12.132  4.7470  4.4730  4.4410 
  6643.500 -22.902  4.7830  4.5750  4.4560 -10.902  4.7830  4.5750  4.4560 
  6644.000 -22.500  4.8130  4.6340  4.4290 -10.500  4.8130  4.6340  4.4290 
  6644.500 -22.461  4.8210  4.6990  4.3970 -10.461  4.8210  4.6990  4.3970 
  6645.000 -22.422  4.8290  4.7430  4.3650 -10.422  4.8290  4.7430  4.3650 
  6645.500 -22.328  4.8370  4.8090  4.2660 -10.328  4.8370  4.8090  4.2660 
  6646.000 -22.233  4.8530  4.8380  4.3400 -10.233  4.8530  4.8380  4.3400 
  6646.500 -22.262  4.8820  4.8570  4.3760 -10.262  4.8820  4.8570  4.3760 
  6647.000 -22.292  4.9480  4.8760  4.4350 -10.292  4.9480  4.8760  4.4350 
  6647.500 -22.360  4.9920  4.9200  4.5000 -10.360  4.9920  4.9200  4.5000 
  6648.000 -22.642  5.0430  4.9360  4.5440 -10.642  5.0430  4.9360  4.5440 
  6648.500 -22.784  5.1090  4.9290  4.5880 -10.784  5.1090  4.9290  4.5880 
  6649.000 -23.282  5.1600  4.8800  4.6460 -11.282  5.1600  4.8800  4.6460 
  6649.500 -23.602  5.2830  4.7800  4.6690 -11.602  5.2830  4.7800  4.6690 
  6650.000 -24.173  5.4130  4.6090  4.5690 -12.173  5.4130  4.6090  4.5690 
  6650.500 -24.494  5.5150  4.5310  4.4700 -12.494  5.5150  4.5310  4.4700 
  6651.000 -25.209  5.5870  4.4380  4.3560 -13.209  5.5870  4.4380  4.3560 
  6651.500 -25.998  5.6600  4.4030  4.3500 -13.998  5.6600  4.4030  4.3500 
  6652.000 -28.047  5.9050  4.3610  4.4220 -16.047  5.9050  4.3610  4.4220 
  6652.500 -30.132  6.0640  4.3480  4.4480 -18.132  6.0640  4.3480  4.4480 
  6653.000 -31.352  6.2380  4.3780  4.4740 -19.352  6.2380  4.3780  4.4740 
  6653.500 -31.925  6.3600  4.4360  4.6550 -19.925  6.3600  4.4360  4.6550 
  6654.000 -31.903  6.6990  4.5160  4.7420 -19.903  6.6990  4.5160  4.7420 
  6654.500 -31.882  6.8720  4.6030  4.9150 -19.882  6.8720  4.6030  4.9150 
  6655.000 -31.836  7.1960  4.7190  5.0020 -19.836  7.1960  4.7190  5.0020 
  6655.500 -31.761  7.5210  4.8060  5.2480 -19.761  7.5210  4.8060  5.2480 
  6656.000 -31.722  7.8520  4.9510  5.3990 -19.722  7.8520  4.9510  5.3990 
  6656.500 -31.682  8.4630  5.0450  5.6010 -19.682  8.4630  5.0450  5.6010 
  6657.000 -34.089  8.9310  5.2040  5.6880 -22.089  8.9310  5.2040  5.6880 
  6657.500 -37.435  9.3700  5.3910  5.7750 -25.435  9.3700  5.3910  5.7750 
  6658.000 -39.844  9.7870  5.6580  5.9560 -27.844  9.7870  5.6580  5.9560 
  6658.500 -42.649  10.399  5.8670  6.0860 -30.649  10.399  5.8670  6.0860 
  6659.000 -45.383  11.082  6.0690  6.1950 -33.383  11.082  6.0690  6.1950 
  6659.500 -51.072  11.643  6.2930  6.3030 -39.072  11.643  6.2930  6.3030 
  6660.000 -68.180  12.097  6.6310  6.4190 -56.180  12.097  6.6310  6.4190 
  6660.500 -70.769  13.563  6.8190  6.5350 -58.769  13.563  6.8190  6.5350 
  6661.000 -72.423  16.544  7.1140  6.8950 -60.423  16.544  7.1140  6.8950 
  6661.500 -74.975  17.141  7.3660  7.2270 -62.975  17.141  7.3660  7.2270 
  6662.000 -76.412  17.638  7.6620  7.4430 -64.412  17.638  7.6620  7.4430 
  6662.500 -77.813  19.319  7.8350  7.6340 -65.813  19.319  7.8350  7.6340 
  6663.000 -78.817  20.620  8.3250  7.8250 -66.817  20.620  8.3250  7.8250 
  6663.500 -79.136  21.921  8.8140  8.4150 -67.136  21.921  8.8140  8.4150 
  6664.000 -79.204  23.222  9.1380  8.6530 -67.204  23.222  9.1380  8.6530 
  6664.500 -79.038  24.523  9.4120  9.0710 -67.038  24.523  9.4120  9.0710 
  6665.000 -78.873  28.845  9.6500  9.3590 -66.873  28.845  9.6500  9.3590 
  6665.500 -77.351  32.948  9.8660  9.7340 -65.351  32.948  9.8660  9.7340 
  6666.000 -75.943  36.763  10.018  9.8200 -63.943  36.763  10.018  9.8200 
  6666.500 -73.631  40.149  10.213  10.123 -61.631  40.149  10.213  10.123 
  6667.000 -71.790  44.322  10.429  10.548 -59.790  44.322  10.429  10.548 
  6667.500 -70.344  48.426  10.703  10.979 -58.344  48.426  10.703  10.979 
  6668.000 -68.284  50.876  11.257  11.340 -56.284  50.876  11.257  11.340 
  6668.500 -67.488  52.537  11.947  11.714 -55.488  52.537  11.947  11.714 
  6669.000 -66.294  53.338  12.473  12.031 -54.294  53.338  12.473  12.031 
  6669.500 -64.669  53.634  13.422  12.398 -52.669  53.634  13.422  12.398 
  6670.000 -63.151  53.718  14.234  12.765 -51.151  53.718  14.234  12.765 
  6670.500 -61.200  53.438  15.449  13.169 -49.200  53.438  15.449  13.169 
  6671.000 -57.593  52.371  17.073  13.356 -45.593  52.371  17.073  13.356 
  6671.500 -54.057  50.943  18.395  13.695 -42.057  50.943  18.395  13.695 
  6672.000 -48.900  48.511  19.868  14.177 -36.900  48.511  19.868  14.177 
  6672.500 -45.473  44.641  26.830  14.494 -33.473  44.641  26.830  14.494 
  6673.000 -37.830  39.767  29.568  14.681 -25.830  39.767  29.568  14.681 
  6673.500 -33.862  35.825  30.727  14.460 -21.862  35.825  30.727  14.460 
  6674.000 -31.768  31.812  31.096  13.893 -19.768  31.812  31.096  13.893 
  6674.500 -30.142  30.386  31.032  13.169 -18.142  30.386  31.032  13.169 
  6675.000 -28.624  30.466  30.612  12.674 -16.624  30.466  30.612  12.674 
  6675.500 -26.854  31.124  30.261  12.424 -14.854  31.124  30.261  12.424 
  6676.000 -25.336  31.998  30.630  12.891 -13.336  31.998  30.630  12.891 
  6676.500 -25.223  32.725  32.365  13.977 -13.223  32.725  32.365  13.977 
  6677.000 -25.759  33.234  39.338  14.653 -13.759  33.234  39.338  14.653 
  6677.500 -26.115  34.108  44.590  15.128 -14.115  34.108  44.590  15.128 
  6678.000 -26.362  34.401  46.897  15.323 -14.362  34.401  46.897  15.323 
  6678.500 -26.465  33.262  48.055  15.288 -14.465  33.262  48.055  15.288 
  6679.000 -25.813  31.546  49.071  14.951 -13.813  31.546  49.071  14.951 
  6679.500 -25.087  28.182  49.440  14.600 -13.087  28.182  49.440  14.600 
  6680.000 -23.677  24.241  49.521  13.380 -11.677  24.241  49.521  13.380 
  6680.500 -22.375  21.165  49.248  12.620 -10.375  21.165  49.248  12.620 
