~Version Information
VERS.                     2.0: CWLS log ASCII Standard Version 2.00
WRAP.                      NO: One line per depth step
~Well Information Block
#MNEM.UNIT                               Data Type  Information
#---------                               ---------  -----------
STRT.FT                                  5780.0000:
STOP.FT                                  6850.0000:
STEP.FT                                     0.5000:
NULL.                 -999.25                     :
COMP.                                             :COMPANY            
WELL.     SAN EMIDIO A 35-19 REDRILL #1           :WELL               
FLD .                                             :FIELD              
CTRY.                                             :COUNTRY            
STAT.                                             :STATE              
LOC .                                             :LOCATION           
UWI .                                             :UNIQUE WELL ID     
SRVC.                                             :Service company    
DATE.                                             :LOG DATE           
~Curve Information
#MNEM.UNIT           API CODE  Curve Description
#---------           --------  -----------------
DEPT.FT                      :   1 DEPTH
SP  .MV                      :   2
AM16.OHMM                    :   3
AO10.OHMM                    :   4
AO19.OHMM                    :   5
SBL .MV                      :   6
RS  .OHMM                    :   7
RM  .OHMM                    :   8
RD  .OHMM                    :   9
~A
# ...
  6469.000 -32.551  3.3760  3.2460  2.7330 -20.551  3.3760  3.2460  2.7330 
  6469.500 -33.159  3.3840  3.0320  2.5980 -21.159  3.3840  3.0320  2.5980 
  6470.000 -33.080  3.4360  2.8890  2.5410 -21.080  3.4360  2.8890  2.5410 
  6470.500 -33.003  3.4720  2.8400  2.5710 -21.003  3.4720  2.8400  2.5710 
  6471.000 -33.033  3.5310  2.8270  2.6660 -21.033  3.5310  2.8270  2.6660 
  6471.500 -33.423  3.6110  2.8570  2.7600 -21.423  3.6110  2.8570  2.7600 
  6472.000 -33.887  3.6700  2.9020  2.8980 -21.887  3.6700  2.9020  2.8980 
  6472.500 -35.142  3.7360  2.9380  3.0850 -23.142  3.7360  2.9380  3.0850 
  6473.000 -35.677  3.7720  3.0690  3.2300 -23.677  3.7720  3.0690  3.2300 
  6473.500 -34.843  3.7590  3.1920  3.3610 -22.843  3.7590  3.1920  3.3610 
  6474.000 -34.404  3.7030  3.3800  3.4480 -22.404  3.7030  3.3800  3.4480 
  6474.500 -35.010  3.6610  3.5320  3.5000 -23.010  3.6610  3.5320  3.5000 
  6475.000 -35.366  3.6480  3.7050  3.5220 -23.366  3.6480  3.7050  3.5220 
  6475.500 -35.793  3.6090  3.8290  3.4730 -23.793  3.6090  3.8290  3.4730 
  6476.000 -36.470  3.5710  3.9450  3.2880 -24.470  3.5710  3.9450  3.2880 
  6476.500 -36.682  3.4790  3.8740  3.1810 -24.682  3.4790  3.8740  3.1810 
  6477.000 -37.217  3.4440  3.7600  3.0030 -25.217  3.4440  3.7600  3.0030 
  6477.500 -37.823  3.4060  3.5750  2.8460 -25.823  3.4060  3.5750  2.8460 
  6478.000 -38.213  3.3670  3.4680  2.7970 -26.213  3.3670  3.4680  2.7970 
  6478.500 -37.991  3.2470  3.3690  2.7040 -25.991  3.2470  3.3690  2.7040 
  6479.000 -37.843  3.2190  3.2760  2.6770 -25.843  3.2190  3.2760  2.6770 
  6479.500 -37.695  3.1490  3.1840  2.6850 -25.695  3.1490  3.1840  2.6850 
  6480.000 -37.290  3.1060  3.0990  2.7510 -25.290  3.1060  3.0990  2.7510 
  6480.500 -37.213  3.0500  3.0720  2.7950 -25.213  3.0500  3.0720  2.7950 
  6481.000 -36.954  2.9870  3.0590  2.8260 -24.954  2.9870  3.0590  2.8260 
  6481.500 -36.766  2.9450  3.0460  2.8270 -24.766  2.9450  3.0460  2.8270 
  6482.000 -36.725  2.9320  3.0470  2.8280 -24.725  2.9320  3.0470  2.8280 
  6482.500 -36.575  2.9330  3.0550  2.8220 -24.575  2.9330  3.0550  2.8220 
  6483.000 -36.352  2.9420  3.0570  2.8300 -24.352  2.9420  3.0570  2.8300 
  6483.500 -36.129  2.9580  3.0650  2.8890 -24.129  2.9580  3.0650  2.8890 
  6484.000 -35.835  2.9660  3.1030  2.9620 -23.835  2.9660  3.1030  2.9620 
  6484.500 -35.541  2.9710  3.1390  3.0640 -23.541  2.9710  3.1390  3.0640 
  6485.000 -34.993  2.9750  3.2630  3.1370 -22.993  2.9750  3.2630  3.1370 
  6485.500 -36.465  2.9840  3.3430  3.2610 -24.465  2.9840  3.3430  3.2610 
  6486.000 -36.819  3.0000  3.4450  3.3050 -24.819  3.0000  3.4450  3.3050 
  6486.500 -35.442  3.0160  3.5040  3.0980 -23.442  3.0160  3.5040  3.0980 
  6487.000 -35.256  3.0240  3.4910  2.9130 -23.256  3.0240  3.4910  2.9130 
  6487.500 -35.197  3.0390  3.4630  2.9070 -23.197  3.0390  3.4630  2.9070 
  6488.000 -35.137  3.0620  3.3930  2.9150 -23.137  3.0620  3.3930  2.9150 
  6488.500 -35.060  3.0810  3.3510  2.9240 -23.060  3.0810  3.3510  2.9240 
  6489.000 -34.982  3.1000  3.2880  2.9390 -22.982  3.1000  3.2880  2.9390 
  6489.500 -34.795  3.1310  3.3530  2.9620 -22.795  3.1310  3.3530  2.9620 
  6490.000 -34.609  3.1540  3.4270  2.9850 -22.609  3.1540  3.4270  2.9850 
  6490.500 -34.422  3.1480  3.4780  3.0080 -22.422  3.1480  3.4780  3.0080 
  6491.000 -34.126  3.0700  3.4870  3.0090 -22.126  3.0700  3.4870  3.0090 
  6491.500 -32.750  3.0140  3.3800  3.0140 -20.750  3.0140  3.3800  3.0140 
  6492.000 -32.078  2.9360  3.2380  3.0190 -20.078  2.9360  3.2380  3.0190 
  6492.500 -31.407  2.8230  3.1390  2.9990 -19.407  2.8230  3.1390  2.9990 
  6493.000 -30.352  2.7520  3.0900  2.9570 -18.352  2.7520  3.0900  2.9570 
  6493.500 -29.951  2.6530  3.0190  2.9150 -17.951  2.6530  3.0190  2.9150 
  6494.000 -29.550  2.5540  2.9770  2.8770 -17.550  2.5540  2.9770  2.8770 
  6494.500 -28.965  2.5120  2.8850  2.8380 -16.965  2.5120  2.8850  2.8380 
  6495.000 -28.635  2.4340  2.8150  2.7250 -16.635  2.4340  2.8150  2.7250 
  6495.500 -27.979  2.3640  2.7800  2.6830 -15.979  2.3640  2.7800  2.6830 
  6496.000 -27.829  2.3580  2.7530  2.6490 -15.829  2.3580  2.7530  2.6490 
  6496.500 -27.461  2.3520  2.7430  2.6430 -15.461  2.3520  2.7430  2.6430 
  6497.000 -27.203  2.3570  2.7330  2.6510 -15.203  2.3570  2.7330  2.6510 
  6497.500 -26.981  2.3610  2.7280  2.6670 -14.981  2.3610  2.7280  2.6670 
  6498.000 -26.687  2.3630  2.7430  2.7180 -14.687  2.3630  2.7430  2.7180 
  6498.500 -26.609  2.3750  2.7590  2.7490 -14.609  2.3750  2.7590  2.7490 
  6499.000 -26.747  2.3870  2.7750  2.7710 -14.747  2.3870  2.7750  2.7710 
  6499.500 -27.064  2.4100  2.7980  2.7830 -15.064  2.4100  2.7980  2.7830 
  6500.000 -27.130  2.4330  2.8130  2.7950 -15.130  2.4330  2.8130  2.7950 
  6500.500 -27.051  2.4450  2.8220  2.8040 -15.051  2.4450  2.8220  2.8040 
  6501.000 -26.848  2.4560  2.8310  2.8050 -14.848  2.4560  2.8310  2.8050 
  6501.500 -26.645  2.4870  2.8320  2.8070 -14.645  2.4870  2.8320  2.8070 
  6502.000 -25.699  2.5100  2.8260  2.8010 -13.699  2.5100  2.8260  2.8010 
  6502.500 -25.550  2.5330  2.8230  2.7950 -13.550  2.5330  2.8230  2.7950 
  6503.000 -25.419  2.5410  2.8210  2.7960 -13.419  2.5410  2.8210  2.7960 
  6503.500 -25.287  2.5500  2.8220  2.7900 -13.287  2.5500  2.8220  2.7900 
  6504.000 -25.277  2.5510  2.8230  2.7630 -13.277  2.5510  2.8230  2.7630 
  6504.500 -25.452  2.5520  2.8390  2.7500 -13.452  2.5520  2.8390  2.7500 
  6505.000 -25.661  2.5610  2.8410  2.7300 -13.661  2.5610  2.8410  2.7300 
  6505.500 -25.711  2.5620  2.7410  2.7130 -13.711  2.5620  2.7410  2.7130 
  6506.000 -25.760  2.5560  2.6810  2.6960 -13.760  2.5560  2.6810  2.6960 
  6506.500 -25.679  2.5570  2.6210  2.6830 -13.679  2.5570  2.6210  2.6830 
  6507.000 -25.457  2.5520  2.5440  2.6770 -13.457  2.5520  2.5440  2.6770 
  6507.500 -25.199  2.5310  2.5340  2.6640 -13.199  2.5310  2.5340  2.6640 
  6508.000 -24.831  2.5180  2.5250  2.6500 -12.831  2.5180  2.5250  2.6500 
  6508.500 -24.717  2.5050  2.5120  2.6050 -12.717  2.5050  2.5120  2.6050 
  6509.000 -24.421  2.4920  2.5130  2.5600 -12.421  2.4920  2.5130  2.5600 
  6509.500 -24.381  2.4860  2.5070  2.5250 -12.381  2.4860  2.5070  2.5250 
  6510.000 -24.411  2.4790  2.5010  2.5190 -12.411  2.4790  2.5010  2.5190 
  6510.500 -24.620  2.4810  2.4890  2.4780 -12.620  2.4810  2.4890  2.4780 
  6511.000 -24.758  2.4900  2.4900  2.4720 -12.758  2.4900  2.4900  2.4720 
  6511.500 -25.003  2.5060  2.4840  2.4730 -13.003  2.5060  2.4840  2.4730 
  6512.000 -25.286  2.5140  2.4850  2.4600 -13.286  2.5140  2.4850  2.4600 
  6512.500 -26.252  2.5300  2.4790  2.4470 -14.252  2.5300  2.4790  2.4470 
  6513.000 -26.823  2.5380  2.4740  2.4410 -14.823  2.5380  2.4740  2.4410 
  6513.500 -26.348  2.5500  2.4750  2.4420 -14.348  2.5500  2.4750  2.4420 
  6514.000 -25.404  2.5620  2.4830  2.4440 -13.404  2.5620  2.4830  2.4440 
  6514.500 -24.678  2.5850  2.4950  2.4600 -12.678  2.5850  2.4950  2.4600 
  6515.000 -24.167  2.5860  2.5070  2.4750 -12.167  2.5860  2.5070  2.4750 
  6515.500 -24.197  2.5910  2.5380  2.4840 -12.197  2.5910  2.5380  2.4840 
  6516.000 -24.515  2.5960  2.5600  2.4920 -12.515  2.5960  2.5600  2.4920 
  6516.500 -24.833  2.6120  2.5940  2.5150 -12.833  2.6120  2.5940  2.5150 
  6517.000 -25.115  2.6270  2.6270  2.5160 -13.115  2.6270  2.6270  2.5160 
  6517.500 -25.287  2.6360  2.6460  2.5170 -13.287  2.6360  2.6460  2.5170 
  6518.000 -25.318  2.6440  2.6650  2.5330 -13.318  2.6440  2.6650  2.5330 
  6518.500 -25.202  2.6600  2.6960  2.5380 -13.202  2.6600  2.6960  2.5380 
  6519.000 -25.160  2.6760  2.7260  2.5420 -13.160  2.6760  2.7260  2.5420 
  6519.500 -25.119  2.6990  2.7420  2.5590 -13.119  2.6990  2.7420  2.5590 
  6520.000 -25.040  2.7000  2.7570  2.5490 -13.040  2.7000  2.7570  2.5490 
  6520.500 -24.854  2.7080  2.7730  2.5390 -12.854  2.7080  2.7730  2.5390 
  6521.000 -24.776  2.7170  2.7960  2.5270 -12.776  2.7170  2.7960  2.5270 
  6521.500 -25.094  2.7400  2.8040  2.5280 -13.094  2.7400  2.8040  2.5280 
