~Version Information
VERS.                     2.0: CWLS log ASCII Standard Version 2.00
WRAP.                      NO: One line per depth step
~Well Information Block
#MNEM.UNIT                               Data Type  Information
#---------                               ---------  -----------
STRT.FT                                  5780.0000:
STOP.FT                                  6850.0000:
STEP.FT                                     0.5000:
NULL.                 -999.25                     :
COMP.                                             :COMPANY            
WELL.     SAN EMIDIO A 35-19 REDRILL #1           :WELL               
FLD .                                             :FIELD              
CTRY.                                             :COUNTRY            
STAT.                                             :STATE              
LOC .                                             :LOCATION           
UWI .                                             :UNIQUE WELL ID     
SRVC.                                             :Service company    
DATE.                                             :LOG DATE           
~Curve Information
#MNEM.UNIT           API CODE  Curve Description
#---------           --------  -----------------
DEPT.FT                      :   1 DEPTH
SP  .MV                      :   2
AM16.OHMM                    :   3
AO10.OHMM                    :   4
AO19.OHMM                    :   5
SBL .MV                      :   6
RS  .OHMM                    :   7
RM  .OHMM                    :   8
RD  .OHMM                    :   9
~A
  5780.000 -28.066 -999.25 -999.25  0.1190 -16.066 -999.25 -999.25  0.1190 
  5780.500 -28.637  0.1440 -999.25  0.0660 -16.637  0.1440 -999.25  0.0660 
  5781.000 -29.208  0.1600 -999.25  0.0130 -17.208  0.1600 -999.25  0.0130 
  5781.500 -29.705  0.1690  0.2190  0.0150 -17.705  0.1690  0.2190  0.0150 
  5782.000 -30.096  0.1630  0.2230  0.0170 -18.096  0.1630  0.2230  0.0170 
  5782.500 -30.451  0.1570  0.2280  0.0200 -18.451  0.1570  0.2280  0.0200 
  5783.000 -30.879  0.1510  0.2290  0.0220 -18.879  0.1510  0.2290  0.0220 
  5783.500 -31.774  0.1520  0.2300  0.0240 -19.774  0.1520  0.2300  0.0240 
  5784.000 -32.597  0.1670  0.2170  0.0260 -20.597  0.1670  0.2170  0.0260 
  5784.500 -33.349  0.3190  0.2330  0.2220 -21.349  0.3190  0.2330  0.2220 
  5785.000 -34.028  0.6360  0.2480  0.5540 -22.028  0.6360  0.2480  0.5540 
  5785.500 -34.778  0.9960  0.4070  0.8630 -22.778  0.9960  0.4070  0.8630 
  5786.000 -35.710  1.4430  0.6890  1.6540 -23.710  1.4430  0.6890  1.6540 
  5786.500 -35.705  1.7740  1.0200  2.0080 -23.705  1.7740  1.0200  2.0080 
  5787.000 -35.591  2.0910  1.5380  2.1380 -23.591  2.0910  1.5380  2.1380 
  5787.500 -35.297  2.2720  1.9700  2.2400 -23.297  2.2720  1.9700  2.2400 
  5788.000 -34.752  2.3450  2.2590  2.2980 -22.752  2.3450  2.2590  2.2980 
  5788.500 -34.025  2.3530  2.4540  2.3560 -22.025  2.3530  2.4540  2.3560 
  5789.000 -33.226  2.3400  2.4650  2.3720 -21.226  2.3400  2.4650  2.3720 
  5789.500 -32.862  2.3230  2.4770  2.3700 -20.862  2.3230  2.4770  2.3700 
  5790.000 -32.499  2.3060  2.4570  2.3670 -20.499  2.3060  2.4570  2.3670 
  5790.500 -31.373  2.2280  2.4660  2.3400 -19.373  2.2280  2.4660  2.3400 
  5791.000 -30.574  2.1830  2.4630  2.3200 -18.574  2.1830  2.4630  2.3200 
  5791.500 -29.848  2.1370  2.4600  2.3140 -17.848  2.1370  2.4600  2.3140 
  5792.000 -29.483  2.0810  2.4580  2.3000 -17.483  2.0810  2.4580  2.3000 
  5792.500 -28.865  2.0460  2.4550  2.2650 -16.865  2.0460  2.4550  2.2650 
  5793.000 -28.318  2.0330  2.4350  2.2450 -16.318  2.0330  2.4350  2.2450 
  5793.500 -27.846  2.0120  2.4360  2.2390 -15.846  2.0120  2.4360  2.2390 
  5794.000 -27.515  1.9920  2.4340  2.2320 -15.515  1.9920  2.4340  2.2320 
  5794.500 -27.330  1.9710  2.4310  2.2190 -15.330  1.9710  2.4310  2.2190 
  5795.000 -27.144  1.9690  2.4110  2.2060 -15.144  1.9690  2.4110  2.2060 
  5795.500 -26.887  1.9660  2.3980  2.2070 -14.887  1.9660  2.3980  2.2070 
  5796.000 -26.557  1.9960  2.3920  2.2080 -14.557  1.9960  2.3920  2.2080 
  5796.500 -26.443  2.0040  2.3920  2.2240 -14.443  2.0040  2.3920  2.2240 
  5797.000 -26.797  2.0120  2.3940  2.2400 -14.797  2.0120  2.3940  2.2400 
  5797.500 -27.441  2.0280  2.4020  2.2470 -15.441  2.0280  2.4020  2.2470 
  5798.000 -28.084  2.0440  2.4030  2.2550 -16.084  2.0440  2.4030  2.2550 
  5798.500 -28.329  2.0590  2.4040  2.2780 -16.329  2.0590  2.4040  2.2780 
  5799.000 -28.073  2.0750  2.4080  2.2940 -16.073  2.0750  2.4080  2.2940 
  5799.500 -27.455  2.0720  2.4130  2.3090 -15.455  2.0720  2.4130  2.3090 
  5800.000 -27.161  2.0690  2.4220  2.3280 -15.161  2.0690  2.4220  2.3280 
  5800.500 -27.731  2.0670  2.4230  2.3470 -15.731  2.0670  2.4230  2.3470 
  5801.000 -28.626  2.0640  2.4270  2.3700 -16.626  2.0640  2.4270  2.3700 
  5801.500 -28.802  2.0690  2.4320  2.3930 -16.802  2.0690  2.4320  2.3930 
  5802.000 -28.797  2.0740  2.4300  2.4160 -16.797  2.0740  2.4300  2.4160 
  5802.500 -28.537  2.0900  2.4270  2.4460 -16.537  2.0900  2.4270  2.4460 
  5803.000 -28.209  2.1120  2.4290  2.4760 -16.209  2.1120  2.4290  2.4760 
  5803.500 -27.916  2.1170  2.4300  2.4870 -15.916  2.1170  2.4300  2.4870 
  5804.000 -27.873  2.1210  2.4270  2.4990 -15.873  2.1210  2.4270  2.4990 
  5804.500 -27.941  2.1340  2.4240  2.5100 -15.941  2.1340  2.4240  2.5100 
  5805.000 -28.475  2.1460  2.4260  2.5220 -16.475  2.1460  2.4260  2.5220 
  5805.500 -29.010  2.1610  2.4340  2.5450 -17.010  2.1610  2.4340  2.5450 
  5806.000 -29.472  2.1700  2.4500  2.5680 -17.472  2.1700  2.4500  2.5680 
  5806.500 -29.847  2.1780  2.4580  2.5870 -17.847  2.1780  2.4580  2.5870 
  5807.000 -30.221  2.1930  2.4730  2.6060 -18.221  2.1930  2.4730  2.6060 
  5807.500 -31.400  2.2080  2.4960  2.6430 -19.400  2.2080  2.4960  2.6430 
  5808.000 -32.009  2.2240  2.5180  2.6880 -20.009  2.2240  2.5180  2.6880 
  5808.500 -32.688  2.2250  2.5410  2.7030 -20.688  2.2250  2.5410  2.7030 
  5809.000 -33.331  2.2410  2.6220  2.7260 -21.331  2.2410  2.6220  2.7260 
  5809.500 -34.118  2.2560  2.6510  2.7270 -22.118  2.2560  2.6510  2.7270 
  5810.000 -34.797  2.2790  2.7030  2.7140 -22.797  2.2790  2.7030  2.7140 
  5810.500 -35.333  2.2730  2.7250  2.7000 -23.333  2.2730  2.7250  2.7000 
  5811.000 -35.869  2.2600  2.7010  2.6620 -23.869  2.2600  2.7010  2.6620 
  5811.500 -36.581  2.2390  2.6770  2.6230 -24.581  2.2390  2.6770  2.6230 
  5812.000 -36.937  2.2040  2.6000  2.5810 -24.937  2.2040  2.6000  2.5810 
  5812.500 -37.544  2.1700  2.5500  2.5390 -25.544  2.1700  2.5500  2.5390 
  5813.000 -36.458  2.1420  2.5160  2.4470 -24.458  2.1420  2.5160  2.4470 
  5813.500 -34.434  2.1140  2.4880  2.4050 -22.434  2.1140  2.4880  2.4050 
  5814.000 -32.808  2.0730  2.4600  2.3630 -20.808  2.0730  2.4600  2.3630 
  5814.500 -31.324  2.0590  2.4470  2.3430 -19.324  2.0590  2.4470  2.3430 
  5815.000 -30.238  2.0530  2.4340  2.3510 -18.238  2.0530  2.4340  2.3510 
  5815.500 -28.755  2.0430  2.4420  2.3740 -16.755  2.0430  2.4420  2.3740 
  5816.000 -28.066  2.0330  2.4500  2.3890 -16.066  2.0330  2.4500  2.3890 
  5816.500 -27.484  2.0130  2.4660  2.3980 -15.484  2.0130  2.4660  2.3980 
  5817.000 -27.298  2.0000  2.4810  2.4090 -15.298  2.0000  2.4810  2.4090 
  5817.500 -27.436  1.9870  2.5040  2.4210 -15.436  1.9870  2.5040  2.4210 
  5818.000 -27.360  1.9950  2.5160  2.4220 -15.360  1.9950  2.5160  2.4220 
  5818.500 -27.065  2.0030  2.5270  2.4130 -15.065  2.0030  2.5270  2.4130 
  5819.000 -26.808  2.0150  2.5430  2.4030 -14.808  2.0150  2.5430  2.4030 
  5819.500 -26.623  2.0270  2.5300  2.3900 -14.623  2.0270  2.5300  2.3900 
  5820.000 -26.760  2.0430  2.5170  2.3760 -14.760  2.0430  2.5170  2.3760 
  5820.500 -26.935  2.0580  2.5040  2.3630 -14.935  2.0580  2.5040  2.3630 
  5821.000 -27.578  2.0730  2.4970  2.3530 -15.578  2.0730  2.4970  2.3530 
  5821.500 -28.330  2.1180  2.4560  2.3440 -16.330  2.1180  2.4560  2.3440 
  5822.000 -29.261  2.1550  2.4420  2.3160 -17.261  2.1550  2.4420  2.3160 
  5822.500 -30.444  2.1780  2.4360  2.3030 -18.444  2.1780  2.4360  2.3030 
  5823.000 -31.231  2.2000  2.4150  2.2890 -19.231  2.2000  2.4150  2.2890 
  5823.500 -31.585  2.2450  2.3950  2.2690 -19.585  2.2450  2.3950  2.2690 
  5824.000 -31.651  2.2740  2.3750  2.2490 -19.651  2.2740  2.3750  2.2490 
  5824.500 -31.646  2.2900  2.3620  2.2430 -19.646  2.2900  2.3620  2.2430 
  5825.000 -31.461  2.3050  2.3630  2.2360 -19.461  2.3050  2.3630  2.2360 
  5825.500 -31.239  2.3210  2.3640  2.2240 -19.239  2.3210  2.3640  2.2240 
  5826.000 -31.056  2.3220  2.3720  2.2250 -19.056  2.3220  2.3720  2.2250 
  5826.500 -30.872  2.3190  2.3870  2.2480 -18.872  2.3190  2.3870  2.2480 
  5827.000 -30.250  2.3160  2.4030  2.2630 -18.250  2.3160  2.4030  2.2630 
  5827.500 -29.775  2.3030  2.4180  2.2850 -17.775  2.3030  2.4180  2.2850 
  5828.000 -29.411  2.2980  2.4410  2.3220 -17.411  2.2980  2.4410  2.3220 
  5828.500 -28.756  2.2920  2.4570  2.3590 -16.756  2.2920  2.4570  2.3590 
  5829.000 -28.391  2.2850  2.4720  2.4250 -16.391  2.2850  2.4720  2.4250 
  5829.500 -27.989  2.2790  2.4880  2.4660 -15.989  2.2790  2.4880  2.4660 
  5830.000 -27.660  2.2730  2.5030  2.5060 -15.660  2.2730  2.5030  2.5060 
  5830.500 -27.296  2.2670  2.5110  2.5430 -15.296  2.2670  2.5110  2.5430 
  5831.000 -26.860  2.2630  2.5180  2.5650 -14.860  2.2630  2.5180  2.5650 
  5831.500 -26.424  2.2600  2.5410  2.5800 -14.424  2.2600  2.5410  2.5800 
  5832.000 -26.133  2.2250  2.5520  2.5950 -14.133  2.2250  2.5520  2.5950 
  5832.500 -25.805  2.1970  2.5630  2.5880 -13.805  2.1970  2.5630  2.5880 
