~Version Information
VERS.                     2.0: CWLS log ASCII Standard Version 2.00
WRAP.                      NO: One line per depth step
~Well Information Block
#MNEM.UNIT                               Data Type  Information
#---------                               ---------  -----------
STRT.FT                                   370.0000:
STOP.FT                                  6710.0000:
STEP.FT                                     0.5000:
NULL.                 -999.25                     :
COMP.                                             :COMPANY            
WELL.     SAN EMIDIO 35-19 REDRILL #2             :WELL               
FLD .                                             :FIELD              
CTRY.                                             :COUNTRY            
STAT.                                             :STATE              
LOC .                                             :LOCATION           
UWI .                                             :UNIQUE WELL ID     
SRVC.                                             :Service company    
DATE.                                             :LOG DATE           
~Curve Information
#MNEM.UNIT           API CODE  Curve Description
#---------           --------  -----------------
DEPT.FT                      :   1 DEPTH
SP  .MV                      :   2
AM16.OHMM                    :   3
AO10.OHMM                    :   4
AO19.OHMM                    :   5
SBL .MV                      :   6
RS  .OHMM                    :   7
RM  .OHMM                    :   8
RD  .OHMM                    :   9
~A
# ...
   794.000 -46.750  24.510  17.876  18.005 -34.750  24.510  17.876  18.005 
   794.500 -47.249  24.302  18.235  17.705 -35.249  24.302  18.235  17.705 
   795.000 -47.390  24.023  18.616  17.598 -35.390  24.023  18.616  17.598 
   795.500 -47.243  23.743  19.169  17.448 -35.243  23.743  19.169  17.448 
   796.000 -47.096  23.392  19.664  17.362 -35.096  23.392  19.664  17.362 
   796.500 -46.698  22.896  20.012  17.248 -34.698  22.896  20.012  17.248 
   797.000 -46.192  22.545  20.359  17.134 -34.192  22.545  20.359  17.134 
   797.500 -45.686  22.194  20.707  17.035 -33.686  22.194  20.707  17.035 
   798.000 -45.323  21.986  21.054  16.928 -33.323  21.986  21.054  16.928 
   798.500 -45.068  21.491  21.814  16.828 -33.068  21.491  21.814  16.828 
   799.000 -45.101  21.212  22.575  16.714 -33.101  21.212  22.575  16.714 
   799.500 -45.241  20.860  23.335  16.622 -33.241  20.860  23.335  16.622 
   800.000 -45.166  20.509  24.095  16.264 -33.166  20.509  24.095  16.264 
   800.500 -44.743  20.102  24.292  15.667 -32.743  20.102  24.292  15.667 
   801.000 -44.320  19.996  24.417  15.321 -32.320  19.996  24.417  15.321 
   801.500 -43.107  18.180  24.543  14.875 -31.107  18.180  24.543  14.875 
   802.000 -42.074  16.866  24.596  14.127 -30.074  16.866  24.596  14.127 
   802.500 -40.789  15.954  24.363  13.530 -28.789  15.954  24.363  13.530 
   803.000 -39.361  14.697  23.126  13.191 -27.361  14.697  23.126  13.191 
   803.500 -37.752  14.229  21.531  12.752 -25.752  14.229  21.531  12.752 
   804.000 -36.324  13.883  19.218  12.571 -24.324  13.883  19.218  12.571 
   804.500 -34.608  13.544  19.285  12.705 -22.608  13.544  19.285  12.705 
   805.000 -33.395  13.184  19.353  13.148 -21.395  13.184  19.353  13.148 
   805.500 -32.002  12.673  19.420  13.584 -20.002  12.673  19.420  13.584 
   806.000 -31.508  12.141  19.487  13.955 -19.508  12.141  19.487  13.955 
   806.500 -31.911  11.673  19.554  14.304 -19.911  11.673  19.554  14.304 
   807.000 -32.529  11.155  19.622  14.396 -20.529  11.155  19.622  14.396 
   807.500 -32.932  10.586  19.689  14.208 -20.932  10.586  19.689  14.208 
   808.000 -31.791  10.348  19.756  13.725 -19.791  10.348  19.756  13.725 
   808.500 -31.117  10.131  19.489  13.451 -19.117  10.131  19.489  13.451 
   809.000 -29.616  10.050  18.648  13.256 -17.616  10.050  18.648  13.256 
   809.500 -27.541  10.048  17.499  13.275 -15.541  10.048  17.499  13.275 
   810.000 -25.682  10.054  16.443  13.367 -13.682  10.054  16.443  13.367 
   810.500 -23.271  10.091  15.770  13.554 -11.271  10.091  15.770  13.554 
   811.000 -21.758  10.163  15.434  13.878 -9.7580  10.163  15.434  13.878 
   811.500 -22.112  10.365  15.378  14.360 -10.112  10.365  15.378  14.360 
   812.000 -23.328  11.155  15.329  14.640 -11.328  11.155  15.329  14.640 
   812.500 -24.832  11.838  15.409  15.022 -12.832  11.838  15.409  15.022 
   813.000 -25.832  12.226  15.482  15.453 -13.832  12.226  15.482  15.453 
   813.500 -27.839  12.664  15.655  15.963 -15.839  12.664  15.655  15.963 
   814.000 -29.450  13.182  16.136  16.574 -17.450  13.182  16.136  16.574 
   814.500 -30.486  13.893  16.639  17.177 -18.486  13.893  16.639  17.177 
   815.000 -31.272  14.460  17.063  17.910 -19.272  14.460  17.063  17.910 
   815.500 -32.596  15.293  17.459  21.488 -20.596  15.293  17.459  21.488 
   816.000 -34.243  15.990  17.811  22.302 -22.243  15.990  17.811  22.302 
   816.500 -36.464  16.866  18.071  23.116 -24.464  16.866  18.071  23.116 
   817.000 -37.932  17.706  18.437  23.930 -25.932  17.706  18.437  23.930 
   817.500 -39.651  18.525  18.876  24.743 -27.651  18.525  18.876  24.743 
   818.000 -41.083  19.200  19.271  25.557 -29.083  19.200  19.271  25.557 
   818.500 -41.940  19.772  19.681  25.926 -29.940  19.772  19.681  25.926 
   819.000 -42.510  20.344  19.724  26.368 -30.510  20.344  19.724  26.368 
   819.500 -42.684  20.570  19.767  27.239 -30.684  20.570  19.767  27.239 
   820.000 -42.931  21.226  19.809  27.536 -30.931  21.226  19.809  27.536 
   820.500 -43.298  22.069  19.852  27.805 -31.298  22.069  19.852  27.805 
   821.000 -43.557  22.839  19.895  28.003 -31.557  22.839  19.895  28.003 
   821.500 -44.212  22.965  19.937  28.128 -32.212  22.965  19.937  28.128 
   822.000 -44.543  23.090  19.980  28.182 -32.543  23.090  19.980  28.182 
   822.500 -44.802  23.145  20.023  28.307 -32.802  23.145  20.023  28.307 
   823.000 -45.026  23.199  20.065  28.039 -33.026  23.199  20.065  28.039 
   823.500 -45.249  23.467  20.108  27.770 -33.249  23.467  20.108  27.770 
   824.000 -45.401  23.521  20.151  26.604 -33.401  23.521  20.151  26.604 
   824.500 -45.517  23.503  20.620  26.515 -33.517  23.503  20.620  26.515 
   825.000 -45.525  23.628  21.090  26.569 -33.525  23.628  21.090  26.569 
   825.500 -45.479  23.647  21.560  26.766 -33.479  23.647  21.560  26.766 
   826.000 -45.433  23.665  22.030  26.964 -33.433  23.665  22.030  26.964 
   826.500 -45.190  24.220  22.500  27.590 -33.190  24.220  22.500  27.590 
   827.000 -45.018  24.488  24.130  27.859 -33.018  24.488  24.130  27.859 
   827.500 -44.883  24.758  25.116  28.128 -32.883  24.758  25.116  28.128 
   828.000 -44.639  25.027  26.317  28.254 -32.639  25.027  26.317  28.254 
   828.500 -44.252  25.080  26.873  28.379 -32.252  25.080  26.873  28.379 
   829.000 -43.865  25.134  27.429  28.433 -31.865  25.134  27.429  28.433 
   829.500 -44.053  25.045  27.985  28.200 -32.053  25.045  27.985  28.200 
   830.000 -44.456  24.883  28.827  27.823 -32.456  24.883  28.827  27.823 
   830.500 -44.524  24.460  29.050  27.185 -32.524  24.460  29.050  27.185 
   831.000 -44.485  24.037  29.344  26.906 -32.485  24.037  29.344  26.906 
   831.500 -44.267  23.112  29.494  25.980 -32.267  23.112  29.494  25.980 
   832.000 -44.119  21.828  29.358  25.199 -32.119  21.828  29.358  25.199 
   832.500 -43.757  20.115  29.222  24.274 -31.757  20.115  29.222  24.274 
   833.000 -43.323  19.481  29.014  23.349 -31.323  19.481  29.014  23.349 
   833.500 -42.888  18.485  28.519  22.208 -30.888  18.485  28.519  22.208 
   834.000 -41.485  17.819  28.096  21.499 -29.485  17.819  28.096  21.499 
   834.500 -40.153  17.281  27.745  17.970 -28.153  17.281  27.745  17.970 
   835.000 -38.964  10.434  26.748  17.210 -26.964  10.434  26.748  17.210 
   835.500 -37.129  9.0290  25.823  14.737 -25.129  9.0290  25.823  14.737 
   836.000 -34.361  8.3700  24.324  13.490 -22.361  8.3700  24.324  13.490 
   836.500 -31.879  7.8040  22.682  12.874 -19.879  7.8040  22.682  12.874 
   837.000 -28.823  7.3890  21.542  12.330 -16.823  7.3890  21.542  12.330 
   837.500 -24.439  7.0740  20.186  10.301 -12.439  7.0740  20.186  10.301 
   838.000 -22.352  6.8530  18.687  10.230 -10.352  6.8530  18.687  10.230 
   838.500 -21.415  6.6310  13.895  10.288 -9.4150  6.6310  13.895  10.288 
   839.000 -21.484  6.4740  12.110  10.368 -9.4840  6.4740  12.110  10.368 
   839.500 -21.696  6.4100  11.932  10.533 -9.6960  6.4100  11.932  10.533 
   840.000 -21.980  6.3610  11.961  11.129 -9.9800  6.3610  11.961  11.129 
   840.500 -22.233  6.3100  12.033  11.631 -10.233  6.3100  12.033  11.631 
   841.000 -22.343  6.2600  12.097  11.839 -10.343  6.2600  12.097  11.839 
   841.500 -21.518  6.2520  12.240  12.003 -9.5180  6.2520  12.240  12.003 
   842.000 -20.693  6.3090  12.340  12.175 -8.6930  6.3090  12.340  12.175 
   842.500 -19.654  6.4590  12.132  12.411 -7.6540  6.4590  12.132  12.411 
   843.000 -19.045  6.6170  11.895  12.619 -7.0450  6.6170  11.895  12.619 
   843.500 -18.795  6.7600  11.736  12.884 -6.7950  6.7600  11.736  12.884 
   844.000 -18.689  6.9100  11.822  13.192 -6.6890  6.9100  11.822  13.192 
   844.500 -18.690  7.0530  11.980  13.600 -6.6900  7.0530  11.980  13.600 
   845.000 -18.835  7.2970  12.223  13.836 -6.8350  7.2970  12.223  13.836 
   845.500 -19.304  7.7260  12.366  14.116 -7.3040  7.7260  12.366  14.116 
   846.000 -20.921  7.9840  12.380  14.395 -8.9210  7.9840  12.380  14.395 
   846.500 -22.791  8.1630  12.301  14.703 -10.791  8.1630  12.301  14.703 
