~Version Information
VERS.                     2.0: CWLS log ASCII Standard Version 2.00
WRAP.                      NO: One line per depth step
~Well Information Block
#MNEM.UNIT                               Data Type  Information
#---------                               ---------  -----------
STRT.FT                                  5780.0000:
STOP.FT                                  6850.0000:
STEP.FT                                     0.5000:
NULL.                 -999.25                     :
COMP.                                             :COMPANY            
WELL.     SAN EMIDIO A 35-19 REDRILL #1           :WELL               
FLD .                                             :FIELD              
CTRY.                                             :COUNTRY            
STAT.                                             :STATE              
LOC .                                             :LOCATION           
UWI .                                             :UNIQUE WELL ID     
SRVC.                                             :Service company    
DATE.                                             :LOG DATE           
~Curve Information
#MNEM.UNIT           API CODE  Curve Description
#---------           --------  -----------------
DEPT.FT                      :   1 DEPTH
SP  .MV                      :   2
AM16.OHMM                    :   3
AO10.OHMM                    :   4
AO19.OHMM                    :   5
SBL .MV                      :   6
RS  .OHMM                    :   7
RM  .OHMM                    :   8
RD  .OHMM                    :   9
~A
# ...
  5833.000 -25.514  2.1690  2.5850  2.5810 -13.514  2.1690  2.5850  2.5810 
  5833.500 -25.333  2.1400  2.5930  2.5390 -13.333  2.1400  2.5930  2.5390 
  5834.000 -25.257  2.1060  2.5580  2.5070 -13.257  2.1060  2.5580  2.5070 
  5834.500 -25.290  2.0880  2.5370  2.4760 -13.290  2.0880  2.5370  2.4760 
  5835.000 -25.395  2.0700  2.5230  2.4050 -13.395  2.0700  2.5230  2.4050 
  5835.500 -25.355  2.0430  2.5020  2.3840 -13.355  2.0430  2.5020  2.3840 
  5836.000 -25.425  2.0290  2.4380  2.3620 -13.425  2.0290  2.4380  2.3620 
  5836.500 -25.458  2.0150  2.3990  2.2990 -13.458  2.0150  2.3990  2.2990 
  5837.000 -25.491  2.0010  2.3600  2.3500 -13.491  2.0010  2.3600  2.3500 
  5837.500 -25.488  1.9810  2.3540  2.3930 -13.488  1.9810  2.3540  2.3930 
  5838.000 -25.448  1.9740  2.3830  2.4300 -13.448  1.9740  2.3830  2.4300 
  5838.500 -25.446  1.9740  2.4190  2.4810 -13.446  1.9740  2.4190  2.4810 
  5839.000 -25.406  1.9740  2.4630  2.4990 -13.406  1.9740  2.4630  2.4990 
  5839.500 -25.692  2.0190  2.4930  2.5170 -13.692  2.0190  2.4930  2.5170 
  5840.000 -25.978  2.0330  2.5150  2.5400 -13.978  2.0330  2.5150  2.5400 
  5840.500 -26.265  2.0920  2.5300  2.5120 -14.265  2.0920  2.5300  2.5120 
  5841.000 -26.870  2.1070  2.5160  2.4900 -14.870  2.1070  2.5160  2.4900 
  5841.500 -27.157  2.1140  2.4880  2.4480 -15.157  2.1140  2.4880  2.4480 
  5842.000 -27.478  2.1220  2.4530  2.4050 -15.478  2.1220  2.4530  2.4050 
  5842.500 -27.836  2.0650  2.4170  2.3700 -15.836  2.0650  2.4170  2.3700 
  5843.000 -27.976  2.0160  2.3960  2.3340 -15.976  2.0160  2.3960  2.3340 
  5843.500 -28.082  1.9870  2.3460  2.3060 -16.082  1.9870  2.3460  2.3060 
  5844.000 -28.113  1.9590  2.3180  2.2780 -16.113  1.9590  2.3180  2.2780 
  5844.500 -28.146  1.9490  2.2900  2.2510 -16.146  1.9490  2.2900  2.2510 
  5845.000 -28.180  1.9380  2.2550  2.2370 -16.180  1.9380  2.2550  2.2370 
  5845.500 -28.141  1.9350  2.2410  2.2160 -16.141  1.9350  2.2410  2.2160 
  5846.000 -28.029  1.9320  2.2300  2.1800 -16.029  1.9320  2.2300  2.1800 
  5846.500 -27.774  1.9330  2.2200  2.1450 -15.774  1.9330  2.2200  2.1450 
  5847.000 -27.302  1.9480  2.2130  2.1170 -15.302  1.9480  2.2130  2.1170 
  5847.500 -27.010  1.9770  2.2070  2.1030 -15.010  1.9770  2.2070  2.1030 
  5848.000 -26.972  1.9850  2.2010  2.0890 -14.972  1.9850  2.2010  2.0890 
  5848.500 -27.077  2.0000  2.2010  2.0540 -15.077  2.0000  2.2010  2.0540 
  5849.000 -27.289  2.0300  2.2090  2.0470 -15.289  2.0300  2.2090  2.0470 
  5849.500 -27.648  2.0440  2.2100  2.0340 -15.648  2.0440  2.2100  2.0340 
  5850.000 -28.366  2.0600  2.2100  2.0340 -16.366  2.0600  2.2100  2.0340 
  5850.500 -28.975  2.0670  2.2110  2.0310 -16.975  2.0670  2.2110  2.0310 
  5851.000 -29.332  2.0750  2.2110  2.0280 -17.332  2.0750  2.2110  2.0280 
  5851.500 -28.968  2.0750  2.2120  2.0280 -16.968  2.0750  2.2120  2.0280 
  5852.000 -28.569  2.0750  2.2130  2.0290 -16.569  2.0750  2.2130  2.0290 
  5852.500 -28.240  2.0770  2.2130  2.0230 -16.240  2.0770  2.2130  2.0230 
  5853.000 -28.742  2.0700  2.2140  2.0300 -16.742  2.0700  2.2140  2.0300 
  5853.500 -29.532  2.0710  2.2070  2.0420 -17.532  2.0710  2.2070  2.0420 
  5854.000 -30.070  2.0600  2.2040  2.0530 -18.070  2.0600  2.2040  2.0530 
  5854.500 -30.859  2.0490  2.2000  2.0570 -18.859  2.0490  2.2000  2.0570 
  5855.000 -31.181  2.0220  2.1940  2.0610 -19.181  2.0220  2.1940  2.0610 
  5855.500 -30.818  2.0010  2.1870  2.0840 -18.818  2.0010  2.1870  2.0840 
  5856.000 -30.418  1.9870  2.1840  2.0990 -18.418  1.9870  2.1840  2.0990 
  5856.500 -29.731  1.9590  2.1810  2.1280 -17.731  1.9590  2.1810  2.1280 
  5857.000 -29.295  1.9520  2.1680  2.1430 -17.295  1.9520  2.1680  2.1430 
  5857.500 -28.499  1.9450  2.1640  2.1580 -16.499  1.9450  2.1640  2.1580 
  5858.000 -27.812  1.9350  2.1610  2.1940 -15.812  1.9350  2.1610  2.1940 
  5858.500 -27.304  1.9250  2.1410  2.2300 -15.304  1.9250  2.1410  2.2300 
  5859.000 -27.049  1.9250  2.1340  2.2740 -15.049  1.9250  2.1340  2.2740 
  5859.500 -26.757  1.9260  2.1270  2.3040 -14.757  1.9260  2.1270  2.3040 
  5860.000 -26.575  1.9410  2.1130  2.3260 -14.575  1.9410  2.1130  2.3260 
  5860.500 -26.644  1.9530  2.1000  2.3440 -14.644  1.9530  2.1000  2.3440 
  5861.000 -26.856  1.9640  2.1010  2.3620 -14.856  1.9640  2.1010  2.3620 
  5861.500 -27.140  1.9750  2.1040  2.3700 -15.140  1.9750  2.1040  2.3700 
  5862.000 -27.318  1.9860  2.1080  2.3780 -15.318  1.9860  2.1080  2.3780 
  5862.500 -27.459  2.0010  2.1380  2.3640 -15.459  2.0010  2.1380  2.3640 
  5863.000 -27.528  2.0160  2.1600  2.3540 -15.528  2.0160  2.1600  2.3540 
  5863.500 -27.561  2.0130  2.1750  2.3440 -15.561  2.0130  2.1750  2.3440 
  5864.000 -27.578  2.0100  2.1970  2.3300 -15.578  2.0100  2.1970  2.3300 
  5864.500 -27.594  1.9540  2.2050  2.3160 -15.594  1.9540  2.2050  2.3160 
  5865.000 -27.660  1.9290  2.2060  2.2960 -15.660  1.9290  2.2060  2.2960 
  5865.500 -27.693  1.9040  2.2060  2.2820 -15.693  1.9040  2.2060  2.2820 
  5866.000 -27.690  1.8550  2.1930  2.2610 -15.690  1.8550  2.1930  2.2610 
  5866.500 -27.723  1.8340  2.1790  2.2360 -15.723  1.8340  2.1790  2.2360 
  5867.000 -27.467  1.8120  2.1580  2.2110 -15.467  1.8120  2.1580  2.2110 
  5867.500 -27.176  1.7630  2.1230  2.1790 -15.176  1.7630  2.1230  2.1790 
  5868.000 -26.886  1.7530  2.1090  2.1480 -14.886  1.7530  2.1090  2.1480 
  5868.500 -26.450  1.7420  2.0880  2.1380 -14.450  1.7420  2.0880  2.1380 
  5869.000 -26.014  1.7360  2.0810  2.1280 -14.014  1.7360  2.0810  2.1280 
  5869.500 -25.760  1.7290  2.0750  2.1250 -13.760  1.7290  2.0750  2.1250 
  5870.000 -25.503  1.7300  2.0680  2.1210 -13.503  1.7300  2.0680  2.1210 
  5870.500 -25.393  1.7300  2.0610  2.1220 -13.393  1.7300  2.0610  2.1220 
  5871.000 -25.354  1.7420  2.0540  2.1220 -13.354  1.7420  2.0540  2.1220 
  5871.500 -25.603  1.7530  2.0470  2.1230 -13.603  1.7530  2.0470  2.1230 
  5872.000 -25.744  1.7830  2.0480  2.1240 -13.744  1.7830  2.0480  2.1240 
  5872.500 -25.813  1.8120  2.0490  2.1280 -13.813  1.8120  2.0490  2.1280 
  5873.000 -25.880  1.8340  2.0560  2.1320 -13.880  1.8340  2.0560  2.1320 
  5873.500 -25.950  1.8600  2.0640  2.1330 -13.950  1.8600  2.0640  2.1330 
  5874.000 -26.019  1.8850  2.0790  2.1340 -14.019  1.8850  2.0790  2.1340 
  5874.500 -26.267  1.9220  2.0940  2.1320 -14.267  1.9220  2.0940  2.1320 
  5875.000 -26.338  1.9580  2.1240  2.1300 -14.338  1.9580  2.1240  2.1300 
  5875.500 -26.515  2.0310  2.1530  2.1280 -14.515  2.0310  2.1530  2.1280 
  5876.000 -26.691  2.0600  2.1820  2.1220 -14.691  2.0600  2.1820  2.1220 
  5876.500 -26.868  2.0900  2.2050  2.1150 -14.868  2.0900  2.2050  2.1150 
  5877.000 -27.117  2.0910  2.2270  2.1080 -15.117  2.0910  2.2270  2.1080 
  5877.500 -27.295  2.0910  2.2340  2.1020 -15.295  2.0910  2.2340  2.1020 
  5878.000 -27.688  2.0880  2.2350  2.0950 -15.688  2.0880  2.2350  2.0950 
  5878.500 -28.044  2.0840  2.2210  2.0880 -16.044  2.0840  2.2210  2.0880 
  5879.000 -28.115  2.0850  2.2070  2.0850 -16.115  2.0850  2.2070  2.0850 
  5879.500 -28.186  2.0850  2.1790  2.0820 -16.186  2.0850  2.1790  2.0820 
  5880.000 -28.325  2.0720  2.1510  2.0900 -16.325  2.0720  2.1510  2.0900 
  5880.500 -28.318  2.0520  2.1160  2.0980 -16.318  2.0520  2.1160  2.0980 
  5881.000 -28.314  2.0450  2.1030  2.0990 -16.314  2.0450  2.1030  2.0990 
  5881.500 -28.309  2.0390  2.0900  2.1000 -16.309  2.0390  2.0900  2.1000 
  5882.000 -28.268  2.0110  2.0840  2.0940 -16.268  2.0110  2.0840  2.0940 
  5882.500 -28.192  1.9910  2.0770  2.0880 -16.192  1.9910  2.0770  2.0880 
  5883.000 -28.043  1.9850  2.0710  2.0890 -16.043  1.9850  2.0710  2.0890 
  5883.500 -27.894  1.9790  2.0720  2.0900 -15.894  1.9790  2.0720  2.0900 
  5884.000 -27.599  1.9800  2.0690  2.1020 -15.599  1.9800  2.0690  2.1020 
  5884.500 -27.378  1.9730  2.0660  2.1140 -15.378  1.9730  2.0660  2.1140 
  5885.000 -27.159  1.9670  2.0750  2.1180 -15.159  1.9670  2.0750  2.1180 
  5885.500 -26.939  1.9610  2.0720  2.1230 -14.939  1.9610  2.0720  2.1230 
