~Version Information
VERS.                     2.0: CWLS log ASCII Standard Version 2.00
WRAP.                      NO: One line per depth step
~Well Information Block
#MNEM.UNIT                               Data Type  Information
#---------                               ---------  -----------
STRT.FT                                  5780.0000:
STOP.FT                                  6850.0000:
STEP.FT                                     0.5000:
NULL.                 -999.25                     :
COMP.                                             :COMPANY            
WELL.     SAN EMIDIO A 35-19 REDRILL #1           :WELL               
FLD .                                             :FIELD              
CTRY.                                             :COUNTRY            
STAT.                                             :STATE              
LOC .                                             :LOCATION           
UWI .                                             :UNIQUE WELL ID     
SRVC.                                             :Service company    
DATE.                                             :LOG DATE           
~Curve Information
#MNEM.UNIT           API CODE  Curve Description
#---------           --------  -----------------
DEPT.FT                      :   1 DEPTH
SP  .MV                      :   2
AM16.OHMM                    :   3
AO10.OHMM                    :   4
AO19.OHMM                    :   5
SBL .MV                      :   6
RS  .OHMM                    :   7
RM  .OHMM                    :   8
RD  .OHMM                    :   9
~A
# ...
  6734.000 -18.149  26.956  27.315  23.616 -6.1490  26.956  27.315  23.616 
  6734.500 -18.001  25.744  26.317  22.116 -6.0010  25.744  26.317  22.116 
  6735.000 -17.927  24.527  24.168  21.117 -5.9270  24.527  24.168  21.117 
  6735.500 -17.852  22.811  21.517  20.405 -5.8520  22.811  21.517  20.405 
  6736.000 -17.702  21.886  20.234  19.912 -5.7020  21.886  20.234  19.912 
  6736.500 -17.735  21.248  19.737  17.773 -5.7350  21.248  19.737  17.773 
  6737.000 -17.875  21.180  19.600  17.709 -5.8750  21.180  19.600  17.709 
  6737.500 -18.014  21.111  20.111  19.860 -6.0140  21.111  20.111  19.860 
  6738.000 -18.299  21.840  21.050  21.374 -6.2990  21.840  21.050  21.374 
  6738.500 -18.907  23.213  19.908  23.967 -6.9070  23.213  19.908  23.967 
  6739.000 -19.553  25.231  20.848  26.273 -7.5530  25.231  20.848  26.273 
  6739.500 -20.485  27.537  21.789  28.435 -8.4850  27.537  21.789  28.435 
  6740.000 -20.878  28.836  25.608  30.599 -8.8780  28.836  25.608  30.599 
  6740.500 -21.127  30.568  28.345  31.897 -9.1270  30.568  28.345  31.897 
  6741.000 -21.233  31.507  29.497  33.268 -9.2330  31.507  29.497  33.268 
  6741.500 -21.339  32.808  31.299  34.279 -9.3390  32.808  31.299  34.279 
  6742.000 -21.371  33.391  34.109  35.222 -9.3710  33.391  34.109  35.222 
  6742.500 -21.403  32.608  35.767  35.803 -9.4030  32.608  35.767  35.803 
  6743.000 -21.253  29.957  37.139  35.307 -9.2530  29.957  37.139  35.307 
  6743.500 -20.997  27.235  37.362  32.801 -8.9970  27.235  37.362  32.801 
  6744.000 -20.524  24.512  37.370  30.438 -8.5240  24.512  37.370  30.438 
  6744.500 -19.691  22.295  36.082  27.787 -7.6910  22.295  36.082  27.787 
  6745.000 -19.148  21.224  32.069  24.994 -7.1480  21.224  32.069  24.994 
  6745.500 -18.857  20.370  26.545  21.984 -6.8570  20.370  26.545  21.984 
  6746.000 -18.566  20.018  19.944  20.962 -6.5660  20.018  19.944  20.962 
  6746.500 -18.164  19.881  19.962  19.939 -6.1640  19.881  19.962  19.939 
  6747.000 -18.161  19.746  19.980  17.613 -6.1610  19.746  19.980  17.613 
  6747.500 -18.265  19.826  16.770  15.000 -6.2650  19.826  16.770  15.000 
  6748.000 -18.406  19.829  16.275  13.715 -6.4060  19.829  16.275  13.715 
  6748.500 -18.653  19.908  14.229  13.486 -6.6530  19.908  14.229  13.486 
  6749.000 -18.829  20.134  14.251  13.853 -6.8290  20.134  14.251  13.853 
  6749.500 -19.077  20.211  14.561  14.241 -7.0770  20.211  14.561  14.241 
  6750.000 -19.363  20.323  15.739  14.637 -7.3630  20.323  15.739  14.637 
  6750.500 -19.720  20.436  17.923  14.559 -7.7200  20.436  17.923  14.559 
  6751.000 -21.697  20.954  19.059  14.394 -9.6970  20.954  19.059  14.394 
  6751.500 -22.307  21.101  20.176  14.316 -10.307  21.101  20.176  14.316 
  6752.000 -23.564  21.247  21.293  14.303 -11.564  21.247  21.293  14.303 
  6752.500 -24.245  21.614  22.410  14.396 -12.245  21.614  22.410  14.396 
  6753.000 -22.619  21.980  23.565  14.907 -10.619  21.980  23.565  14.907 
  6753.500 -21.283  22.418  24.364  15.648 -9.2830  22.418  24.364  15.648 
  6754.000 -22.107  22.856  24.585  16.424 -10.107  22.856  24.585  16.424 
  6754.500 -22.392  23.516  24.521  16.992 -10.392  23.516  24.521  16.992 
  6755.000 -21.416  23.771  24.314  17.266 -9.4160  23.771  24.314  17.266 
  6755.500 -20.151  24.026  24.031  17.424 -8.1510  24.026  24.031  17.424 
  6756.000 -19.642  24.902  23.178  17.310 -7.6420  24.902  23.178  17.310 
  6756.500 -19.350  25.373  22.537  17.167 -7.3500  25.373  22.537  17.167 
  6757.000 -19.203  25.844  21.612  17.111 -7.2030  25.844  21.612  17.111 
  6757.500 -18.982  26.717  20.757  17.162 -6.9820  26.717  20.757  17.162 
  6758.000 -18.869  27.586  20.189  17.313 -6.8690  27.586  20.189  17.313 
  6758.500 -18.832  28.673  19.909  17.852 -6.8320  28.673  19.909  17.852 
  6759.000 -18.790  29.253  20.493  18.442 -6.7900  29.253  20.493  18.442 
  6759.500 -18.823  29.832  21.432  19.103 -6.8230  29.832  21.432  19.103 
  6760.000 -19.000  30.411  22.588  24.135 -7.0000  30.411  22.588  24.135 
  6760.500 -19.284  31.572  24.607  25.863 -7.2840  31.572  24.607  25.863 
  6761.000 -19.534  31.795  26.626  27.124 -7.5340  31.795  26.626  27.124 
  6761.500 -19.784  27.926  27.924  28.386 -7.7840  27.926  27.924  28.386 
  6762.000 -20.033  25.490  28.865  31.199 -8.0330  25.490  28.865  31.199 
  6762.500 -20.819  23.198  29.590  32.788 -8.8190  23.198  29.590  32.788 
  6763.000 -21.139  21.194  30.172  33.009 -9.1390  21.194  30.172  33.009 
  6763.500 -21.461  20.125  29.749  30.862 -9.4610  20.125  29.749  30.862 
  6764.000 -22.032  19.630  28.535  28.929 -10.032  19.630  28.535  28.929 
  6764.500 -22.569  19.638  26.674  27.213 -10.569  19.638  26.674  27.213 
  6765.000 -23.178  19.858  24.599  27.148 -11.178  19.858  24.599  27.148 
  6765.500 -23.714  21.948  21.948  30.675 -11.714  21.948  21.948  30.675 
  6766.000 -24.504  23.897  21.309  34.991 -12.504  23.897  21.309  34.991 
  6766.500 -25.762  25.197  23.328  40.672 -13.762  25.197  23.328  40.672 
  6767.000 -26.875  25.848  28.578  45.922 -14.875  25.848  28.578  45.922 
  6767.500 -27.880  25.354  37.635  51.603 -15.880  25.354  37.635  51.603 
  6768.000 -27.263  24.642  42.813  56.063 -15.263  24.642  42.813  56.063 
  6768.500 -26.178  22.495  46.051  59.230 -14.178  22.495  46.051  59.230 
  6769.000 -25.275  19.989  48.141  60.963 -13.275  19.989  48.141  60.963 
  6769.500 -23.866  19.767  48.580  57.665 -11.866  19.767  48.580  57.665 
  6770.000 -22.781  19.545  45.713  49.700 -10.781  19.545  45.713  49.700 
  6770.500 -22.057  15.977  40.693  40.586 -10.057  15.977  40.693  40.586 
  6771.000 -21.945  15.324  30.215  31.831 -9.9450  15.324  30.215  31.831 
  6771.500 -22.013  14.714  19.369  21.711 -10.013  14.714  19.369  21.711 
  6772.000 -21.972  14.126  17.150  18.906 -9.9720  14.126  17.150  18.906 
  6772.500 -21.609  14.041  12.863  14.619 -9.6090  14.041  12.863  14.619 
  6773.000 -20.380  14.422  11.032  10.555 -8.3800  14.422  11.032  10.555 
  6773.500 -19.836  15.192  9.6900  8.9900 -7.8360  15.192  9.6900  8.9900 
  6774.000 -19.545  15.953  8.9940  9.1770 -7.5450  15.953  8.9940  9.1770 
  6774.500 -19.325  16.938  8.9520  9.6300 -7.3250  16.938  8.9520  9.6300 
  6775.000 -19.320  17.607  9.5990  10.163 -7.3200  17.607  9.5990  10.163 
  6775.500 -19.389  18.239  10.045  10.989 -7.3890  18.239  10.045  10.989 
  6776.000 -19.638  19.109  10.871  11.931 -7.6380  19.109  10.871  11.931 
  6776.500 -20.643  19.763  12.014  12.657 -8.6430  19.763  12.014  12.657 
  6777.000 -21.468  20.293  13.422  13.318 -9.4680  20.293  13.422  13.318 
  6777.500 -22.113  20.823  15.082  13.958 -10.113  20.823  15.082  13.958 
  6778.000 -22.201  21.697  16.663  14.692 -10.201  21.697  16.663  14.692 
  6778.500 -22.288  21.774  18.201  15.303 -10.288  21.774  18.201  15.303 
  6779.000 -21.813  21.851  19.609  15.950 -9.8130  21.851  19.609  15.950 
  6779.500 -21.449  18.775  26.746  17.753 -9.4490  18.775  26.746  17.753 
  6780.000 -20.904  19.078  31.565  19.255 -8.9040  19.078  31.565  19.255 
  6780.500 -20.650  19.381  35.954  19.823 -8.6500  19.381  35.954  19.823 
  6781.000 -20.141  17.170  36.607  19.975 -8.1410  17.170  36.607  19.975 
  6781.500 -19.778  16.137  29.002  19.437 -7.7780  16.137  29.002  19.437 
  6782.000 -19.416  15.570  23.047  17.671 -7.4160  15.570  23.047  17.671 
  6782.500 -18.581  14.867  17.883  14.468 -6.5810  14.867  17.883  14.468 
  6783.000 -17.929  14.192  18.918  13.348 -5.9290  14.192  18.918  13.348 
  6783.500 -17.637  14.057  19.953  10.606 -5.6370  14.057  19.953  10.606 
  6784.000 -18.245  14.251  11.400  10.161 -6.2450  14.251  11.400  10.161 
  6784.500 -18.746  14.518  11.322  10.463 -6.7460  14.518  11.322  10.463 
  6785.000 -19.210  14.820  11.610  11.893 -7.2100  14.820  11.610  11.893 
  6785.500 -19.747  15.036  12.293  15.449 -7.7470  15.036  12.293  15.449 
  6786.000 -20.176  15.195  16.495  16.527 -8.1760  15.195  16.495  16.527 
  6786.500 -20.137  15.282  17.537  17.641 -8.1370  15.282  17.537  17.641 
