~Version Information
VERS.                     2.0: CWLS log ASCII Standard Version 2.00
WRAP.                      NO: One line per depth step
~Well Information Block
#MNEM.UNIT                               Data Type  Information
#---------                               ---------  -----------
STRT.FT                                  5780.0000:
STOP.FT                                  6850.0000:
STEP.FT                                     0.5000:
NULL.                 -999.25                     :
COMP.                                             :COMPANY            
WELL.     SAN EMIDIO A 35-19 REDRILL #1           :WELL               
FLD .                                             :FIELD              
CTRY.                                             :COUNTRY            
STAT.                                             :STATE              
LOC .                                             :LOCATION           
UWI .                                             :UNIQUE WELL ID     
SRVC.                                             :Service company    
DATE.                                             :LOG DATE           
~Curve Information
#MNEM.UNIT           API CODE  Curve Description
#---------           --------  -----------------
DEPT.FT                      :   1 DEPTH
SP  .MV                      :   2
AM16.OHMM                    :   3
AO10.OHMM                    :   4
AO19.OHMM                    :   5
SBL .MV                      :   6
RS  .OHMM                    :   7
RM  .OHMM                    :   8
RD  .OHMM                    :   9
~A
# ...
  6045.000 -25.669  2.1740  2.0400  2.1920 -13.669  2.1740  2.0400  2.1920 
  6045.500 -24.367  2.1820  2.0450  2.1960 -12.367  2.1820  2.0450  2.1960 
  6046.000 -23.353  2.1900  2.0610  2.2010 -11.353  2.1900  2.0610  2.2010 
  6046.500 -22.338  2.2130  2.0760  2.1980 -10.338  2.2130  2.0760  2.1980 
  6047.000 -21.864  2.2210  2.0920  2.1960 -9.8640  2.2210  2.0920  2.1960 
  6047.500 -21.749  2.2370  2.1040  2.2260 -9.7490  2.2370  2.1040  2.2260 
  6048.000 -21.743  2.2460  2.1150  2.2920 -9.7430  2.2460  2.1150  2.2920 
  6048.500 -21.737  2.2540  2.1390  2.3150 -9.7370  2.2540  2.1390  2.3150 
  6049.000 -21.767  2.2700  2.1470  2.3450 -9.7670  2.2700  2.1470  2.3450 
  6049.500 -22.050  2.2780  2.1590  2.3610 -10.050  2.2780  2.1590  2.3610 
  6050.000 -22.368  2.2860  2.1710  2.3760 -10.368  2.2860  2.1710  2.3760 
  6050.500 -22.506  2.2950  2.1860  2.3840 -10.506  2.2950  2.1860  2.3840 
  6051.000 -22.246  2.3100  2.2020  2.3860 -10.246  2.3100  2.2020  2.3860 
  6051.500 -22.133  2.3120  2.2180  2.3870 -10.133  2.3120  2.2180  2.3870 
  6052.000 -21.732  2.3120  2.2330  2.3880 -9.7320  2.3120  2.2330  2.3880 
  6052.500 -21.221  2.3130  2.2420  2.3850 -9.2210  2.3130  2.2420  2.3850 
  6053.000 -21.935  2.3220  2.2500  2.3830 -9.9350  2.3220  2.2500  2.3830 
  6053.500 -22.398  2.3240  2.2620  2.3630 -10.398  2.3240  2.2620  2.3630 
  6054.000 -22.788  2.3320  2.2740  2.3500 -10.788  2.3320  2.2740  2.3500 
  6054.500 -22.657  2.3360  2.2830  2.3360 -10.657  2.3360  2.2830  2.3360 
  6055.000 -22.527  2.3410  2.2910  2.3090 -10.527  2.3410  2.2910  2.3090 
  6055.500 -21.761  2.3530  2.3030  2.2810 -9.7610  2.3530  2.3030  2.2810 
  6056.000 -21.287  2.3650  2.3150  2.2640 -9.2870  2.3650  2.3150  2.2640 
  6056.500 -20.813  2.3700  2.3230  2.2480 -8.8130  2.3700  2.3230  2.2480 
  6057.000 -20.590  2.3740  2.3310  2.2210 -8.5900  2.3740  2.3310  2.2210 
  6057.500 -20.693  2.3840  2.3400  2.2080 -8.6930  2.3840  2.3400  2.2080 
  6058.000 -21.264  2.3920  2.3480  2.1980 -9.2640  2.3920  2.3480  2.1980 
  6058.500 -21.906  2.4000  2.3530  2.1880 -9.9060  2.4000  2.3530  2.1880 
  6059.000 -22.837  2.4090  2.3580  2.1790 -10.837  2.4090  2.3580  2.1790 
  6059.500 -23.983  2.4170  2.3670  2.1690 -11.983  2.4170  2.3670  2.1690 
  6060.000 -25.707  2.4220  2.3680  2.1630 -13.707  2.4220  2.3680  2.1630 
  6060.500 -28.223  2.4260  2.3690  2.1570 -16.223  2.4260  2.3690  2.1570 
  6061.000 -29.659  2.4350  2.3740  2.1510 -17.659  2.4350  2.3740  2.1510 
  6061.500 -30.373  2.4370  2.3780  2.1460 -18.373  2.4370  2.3780  2.1460 
  6062.000 -28.097  2.4410  2.3870  2.1430 -16.097  2.4410  2.3870  2.1430 
  6062.500 -25.712  2.4460  2.3960  2.1400 -13.712  2.4460  2.3960  2.1400 
  6063.000 -25.165  2.4540  2.4040  2.1350 -13.165  2.4540  2.4040  2.1350 
  6063.500 -25.016  2.4630  2.4050  2.1360 -13.016  2.4630  2.4050  2.1360 
  6064.000 -24.903  2.4640  2.4060  2.1370 -12.903  2.4640  2.4060  2.1370 
  6064.500 -24.680  2.4730  2.4080  2.1240 -12.680  2.4730  2.4080  2.1240 
  6065.000 -24.493  2.4740  2.4160  2.1250 -12.493  2.4740  2.4160  2.1250 
  6065.500 -24.416  2.4750  2.4110  2.1260 -12.416  2.4750  2.4110  2.1260 
  6066.000 -24.554  2.4760  2.4040  2.1240 -12.554  2.4760  2.4040  2.1240 
  6066.500 -24.945  2.4700  2.4050  2.1220 -12.945  2.4700  2.4050  2.1220 
  6067.000 -25.875  2.4640  2.4060  2.1260 -13.875  2.4640  2.4060  2.1260 
  6067.500 -26.481  2.4580  2.4010  2.1310 -14.481  2.4580  2.4010  2.1310 
  6068.000 -27.124  2.4520  2.3980  2.1400 -15.124  2.4520  2.3980  2.1400 
  6068.500 -28.090  2.4500  2.3950  2.1550 -16.090  2.4500  2.3950  2.1550 
  6069.000 -28.588  2.4470  2.3900  2.1670 -16.588  2.4470  2.3900  2.1670 
  6069.500 -29.016  2.4410  2.3840  2.1790 -17.016  2.4410  2.3840  2.1790 
  6070.000 -29.693  2.4350  2.3850  2.2020 -17.693  2.4350  2.3850  2.2020 
  6070.500 -30.049  2.4330  2.3860  2.2240 -18.049  2.4330  2.3860  2.2240 
  6071.000 -30.871  2.4310  2.3880  2.2510 -18.871  2.4310  2.3880  2.2510 
  6071.500 -30.757  2.4320  2.3820  2.2770 -18.757  2.4320  2.3820  2.2770 
  6072.000 -30.137  2.4330  2.3830  2.3000 -18.137  2.4330  2.3830  2.3000 
  6072.500 -30.061  2.4340  2.3840  2.3230 -18.061  2.4340  2.3840  2.3230 
  6073.000 -30.378  2.4360  2.3790  2.3460 -18.378  2.4360  2.3790  2.3460 
  6073.500 -31.093  2.4400  2.3720  2.3550 -19.093  2.4400  2.3720  2.3550 
  6074.000 -31.701  2.4450  2.3700  2.3630 -19.701  2.4450  2.3700  2.3630 
  6074.500 -32.271  2.4390  2.3670  2.3710 -20.271  2.4390  2.3670  2.3710 
  6075.000 -31.724  2.4330  2.3680  2.3720 -19.724  2.4330  2.3680  2.3720 
  6075.500 -31.322  2.4340  2.3690  2.3730 -19.322  2.4340  2.3690  2.3730 
  6076.000 -31.244  2.4360  2.3710  2.3820 -19.244  2.4360  2.3710  2.3820 
  6076.500 -31.346  2.4370  2.3720  2.3830 -19.346  2.4370  2.3720  2.3830 
  6077.000 -31.736  2.4380  2.3880  2.3920 -19.736  2.4380  2.3880  2.3920 
  6077.500 -32.054  2.4390  2.3750  2.3860 -20.054  2.4390  2.3750  2.3860 
  6078.000 -32.301  2.4400  2.3760  2.3800 -20.301  2.4400  2.3760  2.3800 
  6078.500 -32.582  2.4350  2.3700  2.3810 -20.582  2.4350  2.3700  2.3810 
  6079.000 -32.686  2.4290  2.3640  2.3680 -20.686  2.4290  2.3640  2.3680 
  6079.500 -32.822  2.4160  2.3510  2.3580 -20.822  2.4160  2.3510  2.3580 
  6080.000 -32.852  2.3990  2.3450  2.3480 -20.852  2.3990  2.3450  2.3480 
  6080.500 -32.846  2.3820  2.3320  2.3350 -20.846  2.3820  2.3320  2.3350 
  6081.000 -32.732  2.3410  2.3120  2.3230 -20.732  2.3410  2.3120  2.3230 
  6081.500 -32.330  2.3130  2.2770  2.3130 -20.330  2.3130  2.2770  2.3130 
  6082.000 -31.423  2.2720  2.2350  2.3030 -19.423  2.2720  2.2350  2.3030 
  6082.500 -28.930  2.2580  2.1790  2.2900 -16.930  2.2580  2.1790  2.2900 
  6083.000 -27.158  2.2310  2.1370  2.2780 -15.158  2.2310  2.1370  2.2780 
  6083.500 -26.180  2.2100  2.1030  2.2710 -14.180  2.2100  2.1030  2.2710 
  6084.000 -24.589  2.2120  2.0900  2.2660 -12.589  2.2120  2.0900  2.2660 
  6084.500 -22.924  2.2420  2.0940  2.2670 -10.924  2.2420  2.0940  2.2670 
  6085.000 -21.693  2.2790  2.0990  2.2830 -9.6930  2.2790  2.0990  2.2830 
  6085.500 -21.183  2.3020  2.1290  2.2980 -9.1830  2.3020  2.1290  2.2980 
  6086.000 -20.925  2.3180  2.1600  2.3070 -8.9250  2.3180  2.1600  2.3070 
  6086.500 -20.738  2.3330  2.1820  2.3150 -8.7380  2.3330  2.1820  2.3150 
  6087.000 -20.659  2.3420  2.2080  2.3200 -8.6590  2.3420  2.2080  2.3200 
  6087.500 -20.617  2.3580  2.2350  2.3250 -8.6170  2.3580  2.2350  2.3250 
  6088.000 -20.647  2.3660  2.2650  2.3220 -8.6470  2.3660  2.2650  2.3220 
  6088.500 -21.506  2.3740  2.2810  2.3200 -9.5060  2.3740  2.2810  2.3200 
  6089.000 -21.967  2.3900  2.2960  2.3140 -9.9670  2.3900  2.2960  2.3140 
  6089.500 -21.996  2.4060  2.3270  2.3010 -9.9960  2.4060  2.3270  2.3010 
  6090.000 -21.918  2.3930  2.3240  2.2880 -9.9180  2.3930  2.3240  2.2880 
  6090.500 -21.768  2.3720  2.3210  2.2680 -9.7680  2.3720  2.3210  2.2680 
  6091.000 -21.653  2.3520  2.3090  2.2340 -9.6530  2.3520  2.3090  2.2340 
  6091.500 -21.646  2.3320  2.2820  2.1990 -9.6460  2.3320  2.2820  2.1990 
  6092.000 -21.605  2.2970  2.2540  2.1640 -9.6050  2.2970  2.2540  2.1640 
  6092.500 -22.031  2.2770  2.2190  2.1440 -10.031  2.2770  2.2190  2.1440 
  6093.000 -22.673  2.2570  2.1780  2.1160 -10.673  2.2570  2.1780  2.1160 
  6093.500 -23.388  2.2360  2.1570  2.1100 -11.388  2.2360  2.1570  2.1100 
  6094.000 -24.426  2.2190  2.1410  2.1040 -12.426  2.2190  2.1410  2.1040 
  6094.500 -25.501  2.2030  2.1240  2.1060 -13.501  2.2030  2.1240  2.1060 
  6095.000 -25.242  2.1690  2.1140  2.1070 -13.242  2.1690  2.1140  2.1070 
  6095.500 -24.840  2.1660  2.1050  2.1230 -12.840  2.1660  2.1050  2.1230 
  6096.000 -24.220  2.1630  2.1060  2.1380 -12.220  2.1630  2.1060  2.1380 
  6096.500 -23.781  2.1650  2.1080  2.1620 -11.781  2.1650  2.1080  2.1620 
  6097.000 -23.451  2.1660  2.1090  2.1700 -11.451  2.1660  2.1090  2.1700 
  6097.500 -23.121  2.1680  2.1170  2.1780 -11.121  2.1680  2.1170  2.1780 
