~Version Information
VERS.                     2.0: CWLS log ASCII Standard Version 2.00
WRAP.                      NO: One line per depth step
~Well Information Block
#MNEM.UNIT                               Data Type  Information
#---------                               ---------  -----------
STRT.FT                                  5780.0000:
STOP.FT                                  6850.0000:
STEP.FT                                     0.5000:
NULL.                 -999.25                     :
COMP.                                             :COMPANY            
WELL.     SAN EMIDIO A 35-19 REDRILL #1           :WELL               
FLD .                                             :FIELD              
CTRY.                                             :COUNTRY            
STAT.                                             :STATE              
LOC .                                             :LOCATION           
UWI .                                             :UNIQUE WELL ID     
SRVC.                                             :Service company    
DATE.                                             :LOG DATE           
~Curve Information
#MNEM.UNIT           API CODE  Curve Description
#---------           --------  -----------------
DEPT.FT                      :   1 DEPTH
SP  .MV                      :   2
AM16.OHMM                    :   3
AO10.OHMM                    :   4
AO19.OHMM                    :   5
SBL .MV                      :   6
RS  .OHMM                    :   7
RM  .OHMM                    :   8
RD  .OHMM                    :   9
~A
# ...
  6204.000 -21.084  2.3260  2.4120  2.4870 -9.0840  2.3260  2.4120  2.4870 
  6204.500 -21.044  2.3190  2.3620  2.4810 -9.0440  2.3190  2.3620  2.4810 
  6205.000 -21.079  2.3200  2.3200  2.4670 -9.0790  2.3200  2.3200  2.4670 
  6205.500 -21.113  2.3140  2.2700  2.4320 -9.1130  2.3140  2.2700  2.4320 
  6206.000 -21.324  2.3140  2.2420  2.4040 -9.3240  2.3140  2.2420  2.4040 
  6206.500 -21.716  2.3220  2.2000  2.3540 -9.7160  2.3220  2.2000  2.3540 
  6207.000 -22.506  2.3150  2.1650  2.2900 -10.506  2.3150  2.1650  2.2900 
  6207.500 -24.231  2.3090  2.1360  2.2330 -12.231  2.3090  2.1360  2.2330 
  6208.000 -26.138  2.3100  2.1230  2.1980 -14.138  2.3100  2.1230  2.1980 
  6208.500 -26.206  2.3170  2.1200  2.2280 -14.206  2.3170  2.1200  2.2280 
  6209.000 -26.094  2.3320  2.1170  2.2930 -14.094  2.3320  2.1170  2.2930 
  6209.500 -25.911  2.4120  2.1460  2.3400 -13.911  2.4120  2.1460  2.3400 
  6210.000 -25.763  2.4990  2.1750  2.3870 -13.763  2.4990  2.1750  2.3870 
  6210.500 -25.797  2.5710  2.2050  2.5100 -13.797  2.5710  2.2050  2.5100 
  6211.000 -26.874  2.6650  2.3130  2.5760 -14.874  2.6650  2.3130  2.5760 
  6211.500 -29.284  2.7160  2.3430  2.6340 -17.284  2.7160  2.3430  2.6340 
  6212.000 -31.514  2.7740  2.4080  2.6700 -19.514  2.7740  2.4080  2.6700 
  6212.500 -33.565  2.8110  2.4810  2.7070 -21.565  2.8110  2.4810  2.7070 
  6213.000 -35.291  2.8260  2.5240  2.7360 -23.291  2.8260  2.5240  2.7360 
  6213.500 -35.720  2.7830  2.5430  2.6510 -23.720  2.7830  2.5430  2.6510 
  6214.000 -35.285  2.7340  2.5610  2.5580 -23.285  2.7340  2.5610  2.5580 
  6214.500 -34.596  2.6560  2.5620  2.4220 -22.596  2.6560  2.5620  2.4220 
  6215.000 -33.764  2.6130  2.5120  2.3650 -21.764  2.6130  2.5120  2.3650 
  6215.500 -31.852  2.5490  2.4620  2.2510 -19.852  2.5490  2.4620  2.2510 
  6216.000 -29.326  2.4630  2.3770  2.1870 -17.326  2.4630  2.3770  2.1870 
  6216.500 -27.918  2.3990  2.3490  2.0940 -15.918  2.3990  2.3490  2.0940 
  6217.000 -27.302  2.3430  2.3210  2.0520 -15.302  2.3430  2.3210  2.0520 
  6217.500 -27.586  2.3000  2.2790  2.0100 -15.586  2.3000  2.2790  2.0100 
  6218.000 -27.908  2.2720  2.2790  2.0960 -15.908  2.2720  2.2790  2.0960 
  6218.500 -28.661  2.2650  2.2730  2.2410 -16.661  2.2650  2.2730  2.2410 
  6219.000 -29.666  2.2590  2.2660  2.3130 -17.666  2.2590  2.2660  2.3130 
  6219.500 -29.698  2.2660  2.2670  2.3710 -17.698  2.2660  2.2670  2.3710 
  6220.000 -28.795  2.2740  2.2600  2.4080 -16.795  2.2740  2.2600  2.4080 
  6220.500 -27.566  2.2930  2.2540  2.4230 -15.566  2.2930  2.2540  2.4230 
  6221.000 -26.770  2.3120  2.2470  2.4300 -14.770  2.3120  2.2470  2.4300 
  6221.500 -26.298  2.3230  2.2510  2.4020 -14.298  2.3230  2.2510  2.4020 
  6222.000 -27.051  2.3350  2.2560  2.3740 -15.051  2.3350  2.2560  2.3740 
  6222.500 -27.769  2.3420  2.2520  2.3390 -15.769  2.3420  2.2520  2.3390 
  6223.000 -27.440  2.3500  2.2490  2.3040 -15.440  2.3500  2.2490  2.3040 
  6223.500 -27.004  2.3730  2.2500  2.2760 -15.004  2.3730  2.2500  2.2760 
  6224.000 -26.930  2.3880  2.2510  2.2580 -14.930  2.3880  2.2510  2.2580 
  6224.500 -26.857  2.3880  2.2440  2.2410 -14.857  2.3880  2.2440  2.2410 
  6225.000 -26.995  2.3880  2.2380  2.2380 -14.995  2.3880  2.2380  2.2380 
  6225.500 -27.172  2.3930  2.2390  2.2350 -15.172  2.3930  2.2390  2.2350 
  6226.000 -26.843  2.3970  2.2320  2.2500 -14.843  2.3970  2.2320  2.2500 
  6226.500 -26.624  2.3940  2.2330  2.2510 -14.624  2.3940  2.2330  2.2510 
  6227.000 -26.621  2.3910  2.2340  2.2510 -14.621  2.3910  2.2340  2.2510 
  6227.500 -26.942  2.3780  2.2270  2.2590 -14.942  2.3780  2.2270  2.2590 
  6228.000 -27.262  2.3640  2.2240  2.2670 -15.262  2.3640  2.2240  2.2670 
  6228.500 -27.260  2.3610  2.2200  2.2750 -15.260  2.3610  2.2200  2.2750 
  6229.000 -28.229  2.3580  2.2220  2.2830 -16.229  2.3580  2.2220  2.2830 
  6229.500 -29.018  2.3440  2.2150  2.2910 -17.018  2.3440  2.2150  2.2910 
  6230.000 -28.835  2.3310  2.2090  2.2990 -16.835  2.3310  2.2090  2.2990 
  6230.500 -28.216  2.3320  2.2100  2.3070 -16.216  2.3320  2.2100  2.3070 
  6231.000 -27.487  2.3260  2.2190  2.3160 -15.487  2.3260  2.2190  2.3160 
  6231.500 -27.480  2.3280  2.2200  2.3170 -15.480  2.3280  2.2200  2.3170 
  6232.000 -27.547  2.3250  2.2210  2.3180 -15.547  2.3250  2.2210  2.3180 
  6232.500 -27.935  2.3230  2.2290  2.3200 -15.935  2.3230  2.2290  2.3200 
  6233.000 -28.182  2.3240  2.2380  2.3280 -16.182  2.3240  2.2380  2.3280 
  6233.500 -28.823  2.3330  2.2470  2.3260 -16.823  2.3330  2.2470  2.3260 
  6234.000 -28.816  2.3340  2.2520  2.3230 -16.816  2.3340  2.2520  2.3230 
  6234.500 -28.846  2.3360  2.2560  2.3220 -16.846  2.3360  2.2560  2.3220 
  6235.000 -29.200  2.3300  2.2650  2.3210 -17.200  2.3300  2.2650  2.3210 
  6235.500 -29.519  2.3240  2.2700  2.3200 -17.519  2.3240  2.2700  2.3200 
  6236.000 -30.051  2.3470  2.2750  2.3220 -18.051  2.3470  2.2750  2.3220 
  6236.500 -30.405  2.3520  2.2760  2.3270 -18.405  2.3520  2.2760  2.3270 
  6237.000 -30.688  2.3570  2.2770  2.3310 -18.688  2.3570  2.2770  2.3310 
  6237.500 -30.972  2.3660  2.3010  2.3360 -18.972  2.3660  2.3010  2.3360 
  6238.000 -31.177  2.3740  2.3100  2.3410 -19.177  2.3740  2.3100  2.3410 
  6238.500 -31.171  2.3830  2.3320  2.3430 -19.171  2.3830  2.3320  2.3430 
  6239.000 -31.112  2.3880  2.3550  2.3480 -19.112  2.3880  2.3550  2.3480 
  6239.500 -31.053  2.3920  2.4000  2.3520 -19.053  2.3920  2.4000  2.3520 
  6240.000 -31.010  2.4040  2.4370  2.3580 -19.010  2.4040  2.4370  2.3580 
  6240.500 -30.968  2.4160  2.4530  2.3630 -18.968  2.4160  2.4530  2.3630 
  6241.000 -30.777  2.4290  2.4680  2.3720 -18.777  2.4290  2.4680  2.3720 
  6241.500 -30.663  2.4410  2.4980  2.3800 -18.663  2.4410  2.4980  2.3800 
  6242.000 -30.441  2.4570  2.5210  2.3920 -18.441  2.4570  2.5210  2.3920 
  6242.500 -30.218  2.4650  2.5440  2.4040 -18.218  2.4650  2.5440  2.4040 
  6243.000 -29.635  2.4770  2.5750  2.4490 -17.635  2.4770  2.5750  2.4490 
  6243.500 -29.016  2.4890  2.6050  2.4610 -17.016  2.4890  2.6050  2.4610 
  6244.000 -30.126  2.5120  2.6350  2.4720 -18.126  2.5120  2.6350  2.4720 
  6244.500 -31.308  2.5280  2.6720  2.5030 -19.308  2.5280  2.6720  2.5030 
  6245.000 -32.814  2.5660  2.6910  2.5330 -20.814  2.5660  2.6910  2.5330 
  6245.500 -33.565  2.6100  2.7100  2.5490 -21.565  2.6100  2.7100  2.5490 
  6246.000 -34.082  2.6690  2.7480  2.5750 -22.082  2.6690  2.7480  2.5750 
  6246.500 -34.599  2.7200  2.7560  2.6010 -22.599  2.7200  2.7560  2.6010 
  6247.000 -35.453  2.7720  2.7790  2.6540 -23.453  2.7720  2.7790  2.6540 
  6247.500 -35.808  2.8090  2.7950  2.6690 -23.808  2.8090  2.7950  2.6690 
  6248.000 -36.377  2.8320  2.8110  2.7210 -24.377  2.8320  2.8110  2.7210 
  6248.500 -36.803  2.8630  2.8340  2.7580 -24.803  2.8630  2.8340  2.7580 
  6249.000 -37.228  2.8740  2.8350  2.6020 -25.228  2.8740  2.8350  2.6020 
  6249.500 -37.474  2.8860  2.8430  2.4740 -25.474  2.8860  2.8430  2.4740 
  6250.000 -37.648  2.9050  2.7800  2.2960 -25.648  2.9050  2.7800  2.2960 
  6250.500 -37.063  2.9250  2.6960  2.2180 -25.063  2.9250  2.6960  2.2180 
  6251.000 -36.230  2.7970  2.5890  2.1400 -24.230  2.7970  2.5890  2.1400 
  6251.500 -34.961  2.6620  2.4830  2.0590 -22.961  2.6620  2.4830  2.0590 
  6252.000 -34.559  2.5780  2.3550  1.9770 -22.559  2.5780  2.3550  1.9770 
  6252.500 -34.428  2.5210  2.1120  1.9790 -22.428  2.5210  2.1120  1.9790 
  6253.000 -34.297  2.4800  2.0630  2.0240 -22.297  2.4800  2.0630  2.0240 
  6253.500 -33.926  2.4380  2.0820  2.0750 -21.926  2.4380  2.0820  2.0750 
  6254.000 -33.777  2.4180  2.1010  2.1260 -21.777  2.4180  2.1010  2.1260 
  6254.500 -33.445  2.3830  2.2110  2.1860 -21.445  2.3830  2.2110  2.1860 
  6255.000 -33.186  2.3420  2.2370  2.2450 -21.186  2.3420  2.2370  2.2450 
  6255.500 -32.855  2.3210  2.2630  2.2530 -20.855  2.3210  2.2630  2.2530 
  6256.000 -32.705  2.2940  2.2800  2.2610 -20.705  2.2940  2.2800  2.2610 
  6256.500 -32.482  2.2810  2.2810  2.2700 -20.482  2.2810  2.2810  2.2700 
