~Version Information
VERS.                     2.0: CWLS log ASCII Standard Version 2.00
WRAP.                      NO: One line per depth step
~Well Information Block
#MNEM.UNIT                               Data Type  Information
#---------                               ---------  -----------
STRT.FT                                  5780.0000:
STOP.FT                                  6850.0000:
STEP.FT                                     0.5000:
NULL.                 -999.25                     :
COMP.                                             :COMPANY            
WELL.     SAN EMIDIO A 35-19 REDRILL #1           :WELL               
FLD .                                             :FIELD              
CTRY.                                             :COUNTRY            
STAT.                                             :STATE              
LOC .                                             :LOCATION           
UWI .                                             :UNIQUE WELL ID     
SRVC.                                             :Service company    
DATE.                                             :LOG DATE           
~Curve Information
#MNEM.UNIT           API CODE  Curve Description
#---------           --------  -----------------
DEPT.FT                      :   1 DEPTH
SP  .MV                      :   2
AM16.OHMM                    :   3
AO10.OHMM                    :   4
AO19.OHMM                    :   5
SBL .MV                      :   6
RS  .OHMM                    :   7
RM  .OHMM                    :   8
RD  .OHMM                    :   9
~A
# ...
  5939.000 -20.195  2.1920  2.4650  2.3530 -8.1950  2.1920  2.4650  2.3530 
  5939.500 -20.553  2.2420  2.5010  2.3750 -8.5530  2.2420  2.5010  2.3750 
  5940.000 -21.269  2.3220  2.5370  2.3970 -9.2690  2.3220  2.5370  2.3970 
  5940.500 -21.879  2.3950  2.5810  2.4060 -9.8790  2.3950  2.5810  2.4060 
  5941.000 -22.380  2.4820  2.6040  2.3910 -10.380  2.4820  2.6040  2.3910 
  5941.500 -21.871  2.5250  2.5690  2.3770 -9.8710  2.5250  2.5690  2.3770 
  5942.000 -21.471  2.4970  2.5480  2.3240 -9.4710  2.4970  2.5480  2.3240 
  5942.500 -21.107  2.4480  2.5340  2.2710 -9.1070  2.4480  2.5340  2.2710 
  5943.000 -20.816  2.3840  2.4990  2.2470 -8.8160  2.3840  2.4990  2.2470 
  5943.500 -20.454  2.3550  2.4770  2.2220 -8.4540  2.3550  2.4770  2.2220 
  5944.000 -20.126  2.3350  2.4640  2.1870 -8.1260  2.3350  2.4640  2.1870 
  5944.500 -20.230  2.3210  2.4500  2.1770 -8.2300  2.3210  2.4500  2.1770 
  5945.000 -20.262  2.3000  2.4290  2.1670 -8.2620  2.3000  2.4290  2.1670 
  5945.500 -20.188  2.2860  2.4230  2.1620 -8.1880  2.2860  2.4230  2.1620 
  5946.000 -20.076  2.2800  2.4160  2.1580 -8.0760  2.2800  2.4160  2.1580 
  5946.500 -19.892  2.2690  2.4160  2.1540 -7.8920  2.2690  2.4160  2.1540 
  5947.000 -19.673  2.2590  2.4170  2.1590 -7.6730  2.2590  2.4170  2.1590 
  5947.500 -19.490  2.2460  2.4040  2.1630 -7.4900  2.2460  2.4040  2.1630 
  5948.000 -19.162  2.2350  2.3970  2.1670 -7.1620  2.2350  2.3970  2.1670 
  5948.500 -19.123  2.2250  2.3980  2.1710 -7.1230  2.2250  2.3980  2.1710 
  5949.000 -19.624  2.1830  2.3910  2.1870 -7.6240  2.1830  2.3910  2.1870 
  5949.500 -20.412  2.1620  2.3850  2.1980 -8.4120  2.1620  2.3850  2.1980 
  5950.000 -21.093  2.1480  2.3780  2.2090 -9.0930  2.1480  2.3780  2.2090 
  5950.500 -21.775  2.1060  2.3790  2.2210 -9.7750  2.1060  2.3790  2.2210 
  5951.000 -22.636  2.0780  2.3730  2.2320 -10.636  2.0780  2.3730  2.2320 
  5951.500 -23.174  2.0430  2.3620  2.2400 -11.174  2.0430  2.3620  2.2400 
  5952.000 -23.855  2.0140  2.3510  2.2480 -11.855  2.0140  2.3510  2.2480 
  5952.500 -23.057  1.9870  2.3450  2.2490 -11.057  1.9870  2.3450  2.2490 
  5953.000 -22.731  1.9800  2.3380  2.2490 -10.731  1.9800  2.3380  2.2490 
  5953.500 -21.969  1.9660  2.3250  2.2570 -9.9690  1.9660  2.3250  2.2570 
  5954.000 -21.642  1.9670  2.3190  2.2610 -9.6420  1.9670  2.3190  2.2610 
  5954.500 -21.099  1.9600  2.3190  2.2650 -9.0990  1.9600  2.3190  2.2650 
  5955.000 -20.735  1.9530  2.3200  2.2660 -8.7350  1.9530  2.3200  2.2660 
  5955.500 -20.263  1.9500  2.3200  2.2670 -8.2630  1.9500  2.3200  2.2670 
  5956.000 -19.972  1.9470  2.3140  2.2670 -7.9720  1.9470  2.3140  2.2670 
  5956.500 -19.681  1.9490  2.3070  2.2750 -7.6810  1.9490  2.3070  2.2750 
  5957.000 -19.605  1.9530  2.3040  2.2790 -7.6050  1.9530  2.3040  2.2790 
  5957.500 -19.889  1.9560  2.3010  2.2830 -7.8890  1.9560  2.3010  2.2830 
  5958.000 -19.995  1.9720  2.2950  2.2910 -7.9950  1.9720  2.2950  2.2910 
  5958.500 -19.975  1.9800  2.2920  2.2990 -7.9750  1.9800  2.2920  2.2990 
  5959.000 -19.954  1.9950  2.2890  2.3220 -7.9540  1.9950  2.2890  2.3220 
  5959.500 -19.767  2.0060  2.2900  2.3330 -7.7670  2.0060  2.2900  2.3330 
  5960.000 -19.547  2.0170  2.2910  2.3440 -7.5470  2.0170  2.2910  2.3440 
  5960.500 -19.329  2.0540  2.2910  2.3810 -7.3290  2.0540  2.2910  2.3810 
  5961.000 -19.038  2.0690  2.2920  2.4030 -7.0380  2.0690  2.2920  2.4030 
  5961.500 -18.710  2.0980  2.2990  2.4110 -6.7100  2.0980  2.2990  2.4110 
  5962.000 -19.175  2.1570  2.3110  2.4110 -7.1750  2.1570  2.3110  2.4110 
  5962.500 -19.676  2.2080  2.3220  2.4050 -7.6760  2.2080  2.3220  2.4050 
  5963.000 -20.177  2.2300  2.3300  2.3870 -8.1770  2.2300  2.3300  2.3870 
  5963.500 -20.102  2.2410  2.3380  2.3700 -8.1020  2.2410  2.3380  2.3700 
  5964.000 -19.233  2.2520  2.3390  2.3350 -7.2330  2.2520  2.3390  2.3350 
  5964.500 -18.580  2.2670  2.3400  2.3070 -6.5800  2.2670  2.3400  2.3070 
  5965.000 -18.109  2.2820  2.3470  2.2940 -6.1090  2.2820  2.3470  2.2940 
  5965.500 -17.674  2.2900  2.3480  2.2940 -5.6740  2.2900  2.3480  2.2940 
  5966.000 -17.491  2.2980  2.3560  2.2980 -5.4910  2.2980  2.3560  2.2980 
  5966.500 -17.939  2.3200  2.3630  2.3020 -5.9390  2.3200  2.3630  2.3020 
  5967.000 -18.387  2.3250  2.3820  2.3280 -6.3870  2.3250  2.3820  2.3280 
  5967.500 -18.847  2.3290  2.4010  2.3530 -6.8470  2.3290  2.4010  2.3530 
  5968.000 -18.700  2.3360  2.4230  2.3980 -6.7000  2.3360  2.4230  2.3980 
  5968.500 -18.482  2.3440  2.4380  2.4200 -6.4820  2.3440  2.4380  2.4200 
  5969.000 -18.190  2.3480  2.4530  2.4210 -6.1900  2.3480  2.4530  2.4210 
  5969.500 -18.042  2.3530  2.4640  2.4210 -6.0420  2.3530  2.4640  2.4210 
  5970.000 -18.003  2.3570  2.4750  2.4210 -6.0030  2.3570  2.4750  2.4210 
  5970.500 -18.037  2.3620  2.4870  2.4110 -6.0370  2.3620  2.4870  2.4110 
  5971.000 -18.250  2.3700  2.4980  2.4010 -6.2500  2.3700  2.4980  2.4010 
  5971.500 -18.464  2.3700  2.4990  2.3870 -6.4640  2.3700  2.4990  2.3870 
  5972.000 -18.853  2.3710  2.4990  2.3740 -6.8530  2.3710  2.4990  2.3740 
  5972.500 -19.068  2.3710  2.5150  2.3100 -7.0680  2.3710  2.5150  2.3100 
  5973.000 -19.424  2.3710  2.5160  2.2530 -7.4240  2.3710  2.5160  2.2530 
  5973.500 -19.313  2.3870  2.5160  2.1900 -7.3130  2.3870  2.5160  2.1900 
  5974.000 -19.165  2.4020  2.5170  2.1900 -7.1650  2.4020  2.5170  2.1900 
  5974.500 -19.522  2.4090  2.5170  2.1940 -7.5220  2.4090  2.5170  2.1940 
  5975.000 -20.491  2.4170  2.5180  2.1980 -8.4910  2.4170  2.5180  2.1980 
  5975.500 -21.822  2.4360  2.5190  2.2430 -9.8220  2.4360  2.5190  2.2430 
  5976.000 -23.872  2.4540  2.5190  2.2640 -11.872  2.4540  2.5190  2.2640 
  5976.500 -25.526  2.4840  2.5200  2.2760 -13.526  2.4840  2.5200  2.2760 
  5977.000 -26.423  2.4950  2.5280  2.2870 -14.423  2.4950  2.5280  2.2870 
  5977.500 -27.246  2.5060  2.5320  2.2910 -15.246  2.5060  2.5320  2.2910 
  5978.000 -27.389  2.5110  2.5360  2.2950 -15.389  2.5110  2.5360  2.2950 
  5978.500 -27.817  2.5150  2.5370  2.3000 -15.817  2.5150  2.5370  2.3000 
  5979.000 -28.137  2.4880  2.5380  2.3040 -16.137  2.4880  2.5380  2.3040 
  5979.500 -28.315  2.4810  2.5100  2.2690 -16.315  2.4810  2.5100  2.2690 
  5980.000 -28.492  2.4460  2.4460  2.2340 -16.492  2.4460  2.4460  2.2340 
  5980.500 -28.955  2.3820  2.3750  2.1850 -16.955  2.3820  2.3750  2.1850 
  5981.000 -29.205  2.2960  2.3390  2.1670 -17.205  2.2960  2.3390  2.1670 
  5981.500 -29.922  2.2470  2.2680  2.1490 -17.922  2.2470  2.2680  2.1490 
  5982.000 -29.882  2.2120  2.2470  2.1210 -17.882  2.2120  2.2470  2.1210 
  5982.500 -28.797  2.1910  2.2050  2.0930 -16.797  2.1910  2.2050  2.0930 
  5983.000 -28.543  2.1560  2.1850  2.0870 -16.543  2.1560  2.1850  2.0870 
  5983.500 -28.289  2.1490  2.1850  2.0810 -16.289  2.1490  2.1850  2.0810 
  5984.000 -28.030  2.1280  2.1570  2.0740 -16.030  2.1280  2.1570  2.0740 
  5984.500 -28.206  2.1070  2.1500  2.0850 -16.206  2.1070  2.1500  2.0850 
  5985.000 -28.490  2.1010  2.1160  2.0970 -16.490  2.1010  2.1160  2.0970 
  5985.500 -28.811  2.0950  2.1020  2.1050 -16.811  2.0950  2.1020  2.1050 
  5986.000 -28.770  2.0880  2.0950  2.1130 -16.770  2.0880  2.0950  2.1130 
  5986.500 -28.407  2.0810  2.0880  2.1350 -16.407  2.0810  2.0880  2.1350 
  5987.000 -28.080  2.0610  2.0890  2.1650 -16.080  2.0610  2.0890  2.1650 
  5987.500 -27.499  2.0500  2.0900  2.1760 -15.499  2.0500  2.0900  2.1760 
  5988.000 -26.991  2.0400  2.0900  2.1870 -14.991  2.0400  2.0900  2.1870 
  5988.500 -26.446  2.0340  2.0910  2.2060 -14.446  2.0340  2.0910  2.2060 
  5989.000 -26.119  2.0270  2.0920  2.2250 -14.119  2.0270  2.0920  2.2250 
  5989.500 -25.864  2.0280  2.0960  2.2330 -13.864  2.0280  2.0960  2.2330 
  5990.000 -26.435  2.0290  2.1000  2.2340 -14.435  2.0290  2.1000  2.2340 
  5990.500 -26.648  2.0300  2.1090  2.2340 -14.648  2.0300  2.1090  2.2340 
  5991.000 -26.429  2.0270  2.1090  2.2420 -14.429  2.0270  2.1090  2.2420 
  5991.500 -25.019  2.0240  2.1100  2.2500 -13.019  2.0240  2.1100  2.2500 
