~Version Information
VERS.                     2.0: CWLS log ASCII Standard Version 2.00
WRAP.                      NO: One line per depth step
~Well Information Block
#MNEM.UNIT                               Data Type  Information
#---------                               ---------  -----------
STRT.FT                                   370.0000:
STOP.FT                                  6710.0000:
STEP.FT                                     0.5000:
NULL.                 -999.25                     :
COMP.                                             :COMPANY            
WELL.     SAN EMIDIO 35-19 REDRILL #2             :WELL               
FLD .                                             :FIELD              
CTRY.                                             :COUNTRY            
STAT.                                             :STATE              
LOC .                                             :LOCATION           
UWI .                                             :UNIQUE WELL ID     
SRVC.                                             :Service company    
DATE.                                             :LOG DATE           
~Curve Information
#MNEM.UNIT           API CODE  Curve Description
#---------           --------  -----------------
DEPT.FT                      :   1 DEPTH
SP  .MV                      :   2
AM16.OHMM                    :   3
AO10.OHMM                    :   4
AO19.OHMM                    :   5
SBL .MV                      :   6
RS  .OHMM                    :   7
RM  .OHMM                    :   8
RD  .OHMM                    :   9
~A
# ...
  1642.000 -23.708  6.0880  7.3140  8.4900 -11.708  6.0880  7.3140  8.4900 
  1642.500 -25.360  6.2890  7.5510  8.6770 -13.360  6.2890  7.5510  8.6770 
  1643.000 -28.592  6.3680  7.7660  8.7770 -16.592  6.3680  7.7660  8.7770 
  1643.500 -30.280  6.3680  7.9240  8.8130 -18.280  6.3680  7.9240  8.8130 
  1644.000 -31.896  6.3750  8.0100  8.7920 -19.896  6.3750  8.0100  8.7920 
  1644.500 -33.009  6.3820  8.0600  8.7630 -21.009  6.3820  8.0600  8.7630 
  1645.000 -32.830  6.3970  8.0030  8.5260 -20.830  6.3970  8.0030  8.5260 
  1645.500 -30.244  6.1600  7.9240  8.0600 -18.244  6.1600  7.9240  8.0600 
  1646.000 -26.114  6.0090  7.7660  7.9670 -14.114  6.0090  7.7660  7.9670 
  1646.500 -23.205  5.8300  7.6870  7.8590 -11.205  5.8300  7.6870  7.8590 
  1647.000 -20.475  5.7870  7.5650  7.8020 -8.4750  5.7870  7.5650  7.8020 
  1647.500 -18.572  5.7730  7.5150  7.7660 -6.5720  5.7730  7.5150  7.7660 
  1648.000 -17.530  5.7800  7.4580  7.8310 -5.5300  5.7800  7.4580  7.8310 
  1648.500 -16.848  5.7940  7.4440  7.9880 -4.8480  5.7940  7.4440  7.9880 
  1649.000 -16.345  5.8090  7.4860  8.1460 -4.3450  5.8090  7.4860  8.1460 
  1649.500 -16.165  5.8520  7.5150  8.4040 -4.1650  5.8520  7.5150  8.4040 
  1650.000 -16.237  5.8800  7.5650  8.5770 -4.2370  5.8800  7.5650  8.5770 
  1650.500 -16.342  5.9240  7.6270  8.6700 -4.3420  5.9240  7.6270  8.6700 
  1651.000 -16.374  6.0040  7.6890  8.7070 -4.3740  6.0040  7.6890  8.7070 
  1651.500 -16.407  6.1980  7.7650  8.7150 -4.4070  6.1980  7.7650  8.7150 
  1652.000 -16.368  6.2310  7.8410  8.7160 -4.3680  6.2310  7.8410  8.7160 
  1652.500 -16.329  6.2640  7.9490  8.6590 -4.3290  6.2640  7.9490  8.6590 
  1653.000 -16.289  6.3290  8.0000  8.5660 -4.2890  6.3290  8.0000  8.5660 
  1653.500 -16.286  6.3940  8.0940  8.4960 -4.2860  6.3940  8.0940  8.4960 
  1654.000 -16.175  6.4380  8.1310  8.4890 -4.1750  6.4380  8.1310  8.4890 
  1654.500 -16.064  6.5030  8.1670  8.5400 -4.0640  6.5030  8.1670  8.5400 
  1655.000 -15.917  6.5970  8.1250  8.6980 -3.9170  6.5970  8.1250  8.6980 
  1655.500 -15.770  6.6980  8.0830  8.8350 -3.7700  6.6980  8.0830  8.8350 
  1656.000 -15.875  6.8140  7.9900  9.0010 -3.8750  6.8140  7.9900  9.0010 
  1656.500 -16.195  6.9800  8.0190  9.1670 -4.1950  6.9800  8.0190  9.1670 
  1657.000 -16.550  7.1380  8.0920  9.3610 -4.5500  7.1380  8.0920  9.3610 
  1657.500 -16.906  7.3180  8.1570  9.5840 -4.9060  7.3180  8.1570  9.5840 
  1658.000 -17.585  7.5410  8.2580  9.8790 -5.5850  7.5410  8.2580  9.8790 
  1658.500 -18.193  7.7930  8.4520  10.073 -6.1930  7.7930  8.4520  10.073 
  1659.000 -18.872  8.0440  8.4960  10.275 -6.8720  8.0440  8.4960  10.275 
  1659.500 -19.838  8.3390  8.6260  10.476 -7.8380  8.3390  8.6260  10.476 
  1660.000 -21.200  8.6340  8.8920  10.685 -9.2000  8.6340  8.8920  10.685 
  1660.500 -23.180  9.0340  9.1780  10.892 -11.180  9.0340  9.1780  10.892 
  1661.000 -25.555  9.5640  9.3490  11.070 -13.555  9.5640  9.3490  11.070 
  1661.500 -29.115  10.115  9.6420  11.191 -17.115  10.115  9.6420  11.191 
  1662.000 -31.634  10.566  9.8270  11.297 -19.634  10.566  9.8270  11.297 
  1662.500 -33.111  11.117  10.056  11.418 -21.111  11.117  10.056  11.418 
  1663.000 -34.337  12.342  10.148  11.553 -22.337  12.342  10.148  11.553 
  1663.500 -34.988  12.872  10.304  11.710 -22.988  12.872  10.304  11.710 
  1664.000 -35.568  13.394  10.483  11.838 -23.568  13.394  10.483  11.838 
  1664.500 -36.183  13.795  10.668  11.916 -24.183  13.795  10.668  11.916 
  1665.000 -36.906  14.238  10.839  12.051 -24.906  14.238  10.839  12.051 
  1665.500 -37.234  14.553  11.010  12.136 -25.234  14.553  11.010  12.136 
  1666.000 -37.562  14.939  11.174  12.257 -25.562  14.939  11.174  12.257 
  1666.500 -38.429  15.275  11.295  12.370 -26.429  15.275  11.295  12.370 
  1667.000 -38.865  15.682  11.444  12.441 -26.865  15.682  11.444  12.441 
  1667.500 -39.300  16.312  11.565  12.522 -27.300  16.312  11.565  12.522 
  1668.000 -39.880  16.849  11.758  12.604 -27.880  16.849  11.758  12.604 
  1668.500 -40.352  17.350  11.943  12.671 -28.352  17.350  11.943  12.671 
  1669.000 -40.787  17.858  12.186  12.738 -28.787  17.858  12.186  12.738 
  1669.500 -41.654  18.803  12.350  12.830 -29.654  18.803  12.350  12.830 
  1670.000 -42.197  19.419  12.578  12.764 -30.197  19.419  12.578  12.764 
  1670.500 -42.877  19.958  12.873  12.693 -30.877  19.958  12.873  12.693 
  1671.000 -43.340  19.814  13.332  12.658 -31.340  19.814  13.332  12.658 
  1671.500 -44.055  19.669  13.771  12.591 -32.055  19.669  13.771  12.591 
  1672.000 -44.662  20.322  14.094  12.523 -32.662  20.322  14.094  12.523 
  1672.500 -45.305  20.975  14.453  12.424 -33.305  20.975  14.453  12.424 
  1673.000 -46.128  21.269  15.013  12.353 -34.128  21.269  15.013  12.353 
  1673.500 -46.951  21.563  15.631  12.282 -34.951  21.563  15.631  12.282 
  1674.000 -47.199  21.857  16.399  12.218 -35.199  21.857  16.399  12.218 
  1674.500 -46.945  21.936  16.937  12.168 -34.945  21.936  16.937  12.168 
  1675.000 -46.546  21.800  17.282  12.090 -34.546  21.800  17.282  12.090 
  1675.500 -46.291  21.664  17.656  12.048 -34.291  21.664  17.656  12.048 
  1676.000 -46.073  21.742  17.986  11.995 -34.073  21.742  17.986  11.995 
  1676.500 -45.854  21.750  18.324  11.942 -33.854  21.750  18.324  11.942 
  1677.000 -45.509  21.829  18.612  11.907 -33.509  21.829  18.612  11.907 
  1677.500 -45.165  21.764  18.885  11.857 -33.165  21.764  18.885  11.857 
  1678.000 -44.372  21.699  19.237  11.815 -32.372  21.699  19.237  11.815 
  1678.500 -43.902  21.563  19.515  11.787 -31.902  21.563  19.515  11.787 
  1679.000 -43.467  21.499  19.793  11.781 -31.467  21.499  19.793  11.781 
  1679.500 -43.105  21.362  20.072  11.810 -31.105  21.362  20.072  11.810 
  1680.000 -43.138  21.154  20.485  11.990 -31.138  21.154  20.485  11.990 
  1680.500 -43.350  20.875  20.899  12.206 -31.350  20.875  20.899  12.206 
  1681.000 -43.562  20.308  21.312  12.379 -31.562  20.308  21.312  12.379 
  1681.500 -43.595  19.455  22.538  12.508 -31.595  19.455  22.538  12.508 
  1682.000 -43.484  19.859  23.263  12.588 -31.484  19.859  23.263  12.588 
  1682.500 -43.049  19.007  23.844  12.617 -31.049  19.007  23.844  12.617 
  1683.000 -42.292  17.616  24.138  12.604 -30.292  17.616  24.138  12.604 
  1683.500 -41.032  16.269  24.216  12.397 -29.032  16.269  24.216  12.397 
  1684.000 -39.376  14.477  23.937  11.551 -27.376  14.477  23.937  11.551 
  1684.500 -36.356  13.452  23.155  10.741 -24.356  13.452  23.155  10.741 
  1685.000 -33.049  12.528  21.298  9.9320 -21.049  12.528  21.298  9.9320 
  1685.500 -29.706  11.309  18.795  9.3090 -17.706  11.309  18.795  9.3090 
  1686.000 -27.296  10.148  19.384  8.7570 -15.296  10.148  19.384  8.7570 
  1686.500 -25.713  8.1480  19.973  8.0770 -13.713  8.1480  19.973  8.0770 
  1687.000 -25.278  7.2310  17.586  7.4250 -13.278  7.2310  17.586  7.4250 
  1687.500 -25.419  6.7660  14.726  7.1100 -13.419  6.7660  14.726  7.1100 
  1688.000 -24.805  6.3510  12.955  7.0030 -12.805  6.3510  12.955  7.0030 
  1688.500 -22.396  6.0360  12.210  6.8610 -10.396  6.0360  12.210  6.8610 
  1689.000 -21.207  5.7780  11.408  6.8760 -9.2070  5.7780  11.408  6.8760 
  1689.500 -20.665  5.5850  10.914  6.9620 -8.6650  5.5850  10.914  6.9620 
  1690.000 -19.800  5.4280  10.570  7.1280 -7.8000  5.4280  10.570  7.1280 
  1690.500 -19.228  5.1770  10.304  7.3420 -7.2280  5.1770  10.304  7.3420 
  1691.000 -18.370  5.0110  10.146  7.6210 -6.3700  5.0110  10.146  7.6210 
  1691.500 -17.691  4.9170  9.9440  7.8570 -5.6910  4.9170  9.9440  7.8570 
  1692.000 -17.155  4.8590  9.8500  8.1290 -5.1550  4.8590  9.8500  8.1290 
  1692.500 -16.584  4.9090  9.8140  8.2860 -4.5840  4.9090  9.8140  8.2860 
  1693.000 -16.012  4.9370  9.8060  8.4220 -4.0120  4.9370  9.8060  8.4220 
  1693.500 -15.692  4.9790  9.8340  8.5570 -3.6920  4.9790  9.8340  8.5570 
  1694.000 -15.659  5.0070  9.8830  8.8000 -3.6590  5.0070  9.8830  8.8000 
  1694.500 -15.950  5.0490  9.9330  8.9500 -3.9500  5.0490  9.9330  8.9500 
