~Version Information
VERS.                     2.0: CWLS log ASCII Standard Version 2.00
WRAP.                      NO: One line per depth step
~Well Information Block
#MNEM.UNIT                               Data Type  Information
#---------                               ---------  -----------
STRT.FT                                  5780.0000:
STOP.FT                                  6850.0000:
STEP.FT                                     0.5000:
NULL.                 -999.25                     :
COMP.                                             :COMPANY            
WELL.     SAN EMIDIO A 35-19 REDRILL #1           :WELL               
FLD .                                             :FIELD              
CTRY.                                             :COUNTRY            
STAT.                                             :STATE              
LOC .                                             :LOCATION           
UWI .                                             :UNIQUE WELL ID     
SRVC.                                             :Service company    
DATE.                                             :LOG DATE           
~Curve Information
#MNEM.UNIT           API CODE  Curve Description
#---------           --------  -----------------
DEPT.FT                      :   1 DEPTH
SP  .MV                      :   2
AM16.OHMM                    :   3
AO10.OHMM                    :   4
AO19.OHMM                    :   5
SBL .MV                      :   6
RS  .OHMM                    :   7
RM  .OHMM                    :   8
RD  .OHMM                    :   9
~A
# ...
  6522.000 -25.376  2.7480  2.8130  2.5320 -13.376  2.7480  2.8130  2.5320 
  6522.500 -25.838  2.7640  2.7930  2.5370 -13.838  2.7640  2.7930  2.5370 
  6523.000 -29.795  2.8010  2.7720  2.5390 -17.795  2.8010  2.7720  2.5390 
  6523.500 -28.744  2.8240  2.7230  2.5260 -16.744  2.8240  2.7230  2.5260 
  6524.000 -26.467  2.8470  2.6670  2.5050 -14.467  2.8470  2.6670  2.5050 
  6524.500 -24.552  2.8770  2.6110  2.4420 -12.552  2.8770  2.6110  2.4420 
  6525.000 -23.717  2.8920  2.6120  2.3790 -11.717  2.8920  2.6120  2.3790 
  6525.500 -23.891  2.9010  2.6280  2.3510 -11.891  2.9010  2.6280  2.3510 
  6526.000 -24.207  2.8950  2.6440  2.3240 -12.207  2.8950  2.6440  2.3240 
  6526.500 -24.382  2.8890  2.6660  2.3400 -12.382  2.8890  2.6660  2.3400 
  6527.000 -24.628  2.8980  2.6960  2.3770 -12.628  2.8980  2.6960  2.3770 
  6527.500 -24.946  2.9090  2.7480  2.3920 -12.946  2.9090  2.7480  2.3920 
  6528.000 -24.437  2.9210  2.8000  2.4440 -12.437  2.9210  2.8000  2.4440 
  6528.500 -23.928  2.9660  2.8260  2.4670 -11.928  2.9660  2.8260  2.4670 
  6529.000 -22.945  3.0320  2.8520  2.5040 -10.945  3.0320  2.8520  2.5040 
  6529.500 -22.290  3.0840  2.9260  2.5490 -10.290  3.0840  2.9260  2.5490 
  6530.000 -22.500  3.1350  2.9560  2.5710 -10.500  3.1350  2.9560  2.5710 
  6530.500 -22.892  3.1790  2.9920  2.6440 -10.892  3.1790  2.9920  2.6440 
  6531.000 -23.247  3.2300  3.0290  2.6740 -11.247  3.2300  3.0290  2.6740 
  6531.500 -23.710  3.2670  3.0660  2.6890 -11.710  3.2670  3.0660  2.6890 
  6532.000 -24.030  3.2750  3.0960  2.5820 -12.030  3.2750  3.0960  2.5820 
  6532.500 -23.953  3.2620  3.1180  2.4900 -11.953  3.2620  3.1180  2.4900 
  6533.000 -23.477  3.1990  3.1270  2.4260 -11.477  3.1990  3.1270  2.4260 
  6533.500 -23.348  3.0850  3.0990  2.4200 -11.348  3.0850  3.0990  2.4200 
  6534.000 -23.219  2.9420  3.0280  2.4430 -11.219  2.9420  3.0280  2.4430 
  6534.500 -22.923  2.8860  2.9570  2.4650 -10.923  2.8860  2.9570  2.4650 
  6535.000 -22.866  2.8510  2.9010  2.4950 -10.866  2.8510  2.9010  2.4950 
  6535.500 -22.808  2.8370  2.8590  2.5250 -10.808  2.8370  2.8590  2.5250 
  6536.000 -22.620  2.8310  2.8380  2.5840 -10.620  2.8310  2.8380  2.5840 
  6536.500 -22.470  2.8320  2.8320  2.6130 -10.470  2.8320  2.8320  2.6130 
  6537.000 -22.359  2.8550  2.8400  2.6210 -10.359  2.8550  2.8400  2.6210 
  6537.500 -22.244  2.8850  2.8630  2.6580 -10.244  2.8850  2.8630  2.6580 
  6538.000 -22.168  2.9070  2.8850  2.6740 -10.168  2.9070  2.8850  2.6740 
  6538.500 -22.126  2.9510  2.9510  2.7030 -10.126  2.9510  2.9510  2.7030 
  6539.000 -22.482  3.0240  2.9950  2.7260 -10.482  3.0240  2.9950  2.7260 
  6539.500 -23.054  3.0750  3.0420  2.7340 -11.054  3.0750  3.0420  2.7340 
  6540.000 -23.986  3.1630  3.0900  2.7420 -11.986  3.1630  3.0900  2.7420 
  6540.500 -24.953  3.2570  3.1780  2.7500 -12.953  3.2570  3.1780  2.7500 
  6541.000 -25.488  3.3800  3.2580  2.7800 -13.488  3.3800  3.2580  2.7800 
  6541.500 -24.583  3.4380  3.3090  2.8170 -12.583  3.4380  3.3090  2.8170 
  6542.000 -23.101  3.4750  3.3530  2.8330 -11.101  3.4750  3.3530  2.8330 
  6542.500 -22.736  3.5120  3.4120  2.8480 -10.736  3.5120  3.4120  2.8480 
  6543.000 -22.622  3.5560  3.4630  2.8560 -10.622  3.5560  3.4630  2.8560 
  6543.500 -23.158  3.5790  3.5000  2.8710 -11.158  3.5790  3.5000  2.8710 
  6544.000 -23.260  3.5940  3.5220  2.9080 -11.260  3.5940  3.5220  2.9080 
  6544.500 -23.220  3.5740  3.5230  2.9310 -11.220  3.5740  3.5230  2.9310 
  6545.000 -23.215  3.5100  3.4740  2.9530 -11.215  3.5100  3.4740  2.9530 
  6545.500 -22.813  3.4750  3.3750  2.9830 -10.813  3.4750  3.3750  2.9830 
  6546.000 -22.232  3.4400  3.3040  2.9700 -10.232  3.4400  3.3040  2.9700 
  6546.500 -21.254  3.3800  3.2760  2.9130 -9.2540  3.3800  3.2760  2.9130 
  6547.000 -20.889  3.3190  3.2620  2.8640 -8.8890  3.3190  3.2620  2.8640 
  6547.500 -21.749  3.2210  3.2490  2.8290 -9.7490  3.2210  3.2490  2.8290 
  6548.000 -22.644  3.1850  3.2460  2.8080 -10.644  3.1850  3.2460  2.8080 
  6548.500 -23.216  3.1290  3.2440  2.7880 -11.216  3.1290  3.2440  2.7880 
  6549.000 -24.652  3.0730  3.2670  2.7890 -12.652  3.0730  3.2670  2.7890 
  6549.500 -24.683  3.0670  3.2890  2.8190 -12.683  3.0670  3.2890  2.8190 
  6550.000 -24.066  3.0670  3.3190  2.8990 -12.066  3.0670  3.3190  2.8990 
  6550.500 -22.763  3.0760  3.3630  2.9720 -10.763  3.0760  3.3630  2.9720 
  6551.000 -21.893  3.0630  3.4290  3.0370 -9.8930  3.0630  3.4290  3.0370 
  6551.500 -21.781  3.0630  3.5370  3.1100 -9.7810  3.0630  3.5370  3.1100 
  6552.000 -21.883  3.0500  3.5960  3.1540 -9.8830  3.0500  3.5960  3.1540 
  6552.500 -21.950  3.0440  3.6330  3.1300 -9.9500  3.0440  3.6330  3.1300 
  6553.000 -22.414  3.0520  3.6340  3.1050 -10.414  3.0520  3.6340  3.1050 
  6553.500 -23.057  3.0560  3.6280  3.0500 -11.057  3.0560  3.6280  3.0500 
  6554.000 -24.566  3.0610  3.5930  3.0150 -12.566  3.0610  3.5930  3.0150 
  6554.500 -25.965  3.0910  3.5650  2.9940 -13.965  3.0910  3.5650  2.9940 
  6555.000 -27.582  3.1210  3.5300  2.9950 -15.582  3.1210  3.5300  2.9950 
  6555.500 -28.982  3.1470  3.5240  2.9950 -16.982  3.1470  3.5240  2.9950 
  6556.000 -24.833  3.1720  3.5250  3.0110 -12.833  3.1720  3.5250  3.0110 
  6556.500 -22.163  3.2680  3.5260  3.0630 -10.163  3.2680  3.5260  3.0630 
  6557.000 -20.861  3.3330  3.5340  3.1140 -8.8610  3.3330  3.5340  3.1140 
  6557.500 -20.855  3.3990  3.5420  3.1580 -8.8550  3.3990  3.5420  3.1580 
  6558.000 -20.797  3.4860  3.5720  3.1950 -8.7970  3.4860  3.5720  3.1950 
  6558.500 -20.739  3.5300  3.6090  3.2460 -8.7390  3.5300  3.6090  3.2460 
  6559.000 -20.662  3.5880  3.6600  3.3120 -8.6620  3.5880  3.6600  3.3120 
  6559.500 -20.586  3.6330  3.6900  3.3630 -8.5860  3.6330  3.6900  3.3630 
  6560.000 -20.433  3.6620  3.7490  3.3780 -8.4330  3.6620  3.7490  3.3780 
  6560.500 -20.393  3.6780  3.7640  3.3940 -8.3930  3.6780  3.7640  3.3940 
  6561.000 -21.361  3.6790  3.8080  3.4090 -9.3610  3.6790  3.8080  3.4090 
  6561.500 -21.788  3.6800  3.8450  3.4280 -9.7880  3.6800  3.8450  3.4280 
  6562.000 -21.747  3.6730  3.8820  3.4470 -9.7470  3.6730  3.8820  3.4470 
  6562.500 -21.670  3.6600  3.9110  3.4840 -9.6700  3.6600  3.9110  3.4840 
  6563.000 -21.288  3.6540  3.9560  3.4990 -9.2880  3.6540  3.9560  3.4990 
  6563.500 -20.906  3.6620  3.9780  3.5300 -8.9060  3.6620  3.9780  3.5300 
  6564.000 -19.924  3.6700  4.0000  3.5590 -7.9240  3.6700  4.0000  3.5590 
  6564.500 -19.560  3.6710  4.0670  3.5960 -7.5600  3.6710  4.0670  3.5960 
  6565.000 -19.447  3.6940  4.0890  3.6040 -7.4470  3.6940  4.0890  3.6040 
  6565.500 -19.226  3.7160  4.1110  3.6120 -7.2260  3.7160  4.1110  3.6120 
  6566.000 -19.075  3.7250  4.1190  3.5490 -7.0750  3.7250  4.1190  3.5490 
  6566.500 -19.000  3.6750  4.1140  3.4630 -7.0000  3.6750  4.1140  3.4630 
  6567.000 -18.885  3.6400  4.1070  3.3710 -6.8850  3.6400  4.1070  3.3710 
  6567.500 -18.791  3.5980  4.1010  3.3320 -6.7910  3.5980  4.1010  3.3320 
  6568.000 -18.697  3.5710  4.1050  3.2930 -6.6970  3.5710  4.1050  3.2930 
  6568.500 -18.582  3.5640  4.1100  3.2450 -6.5820  3.5640  4.1100  3.2450 
  6569.000 -18.505  3.6010  4.1260  3.2680 -6.5050  3.6010  4.1260  3.2680 
  6569.500 -18.609  3.6460  4.1770  3.2900 -6.6090  3.6460  4.1770  3.2900 
  6570.000 -18.676  3.6860  4.2210  3.2980 -6.6760  3.6860  4.2210  3.2980 
  6570.500 -18.814  3.7260  4.2870  3.3060 -6.8140  3.7260  4.2870  3.3060 
  6571.000 -18.954  3.7990  4.3520  3.3070 -6.9540  3.7990  4.3520  3.3070 
  6571.500 -19.200  3.8360  4.3820  3.3040 -7.2000  3.8360  4.3820  3.3040 
  6572.000 -19.431  3.8800  4.3470  3.3020 -7.4310  3.8800  4.3470  3.3020 
  6572.500 -19.662  3.9030  4.2620  3.2820 -7.6620  3.9030  4.2620  3.2820 
  6573.000 -20.087  3.9110  4.1480  3.2180 -8.0870  3.9110  4.1480  3.2180 
  6573.500 -20.730  3.9050  3.9980  3.1470 -8.7300  3.9050  3.9980  3.1470 
  6574.000 -21.662  3.8910  3.9060  3.0760 -9.6620  3.8910  3.9060  3.0760 
  6574.500 -22.918  3.8710  3.8640  2.9980 -10.918  3.8710  3.8640  2.9980 
