~Version Information
VERS.                     2.0: CWLS log ASCII Standard Version 2.00
WRAP.                      NO: One line per depth step
~Well Information Block
#MNEM.UNIT                               Data Type  Information
#---------                               ---------  -----------
STRT.FT                                   370.0000:
STOP.FT                                  6710.0000:
STEP.FT                                     0.5000:
NULL.                 -999.25                     :
COMP.                                             :COMPANY            
WELL.     SAN EMIDIO 35-19 REDRILL #2             :WELL               
FLD .                                             :FIELD              
CTRY.                                             :COUNTRY            
STAT.                                             :STATE              
LOC .                                             :LOCATION           
UWI .                                             :UNIQUE WELL ID     
SRVC.                                             :Service company    
DATE.                                             :LOG DATE           
~Curve Information
#MNEM.UNIT           API CODE  Curve Description
#---------           --------  -----------------
DEPT.FT                      :   1 DEPTH
SP  .MV                      :   2
AM16.OHMM                    :   3
AO10.OHMM                    :   4
AO19.OHMM                    :   5
SBL .MV                      :   6
RS  .OHMM                    :   7
RM  .OHMM                    :   8
RD  .OHMM                    :   9
~A
# ...
  4133.000 -31.785  12.592  12.643  10.686 -19.785  12.592  12.643  10.686 
  4133.500 -34.474  13.024  12.937  10.672 -22.474  13.024  12.937  10.672 
  4134.000 -36.517  13.534  13.203  10.701 -24.517  13.534  13.203  10.701 
  4134.500 -38.488  14.058  13.505  10.773 -26.488  14.058  13.505  10.773 
  4135.000 -40.388  14.475  13.757  10.881 -28.388  14.475  13.757  10.881 
  4135.500 -41.713  14.806  13.966  10.953 -29.713  14.806  13.966  10.953 
  4136.000 -42.680  15.086  14.145  11.148 -30.680  15.086  14.145  11.148 
  4136.500 -42.356  15.151  14.311  11.313 -30.356  15.151  14.311  11.313 
  4137.000 -41.493  15.072  14.405  11.486 -29.493  15.072  14.405  11.486 
  4137.500 -41.204  14.965  14.455  11.680 -29.204  14.965  14.455  11.680 
  4138.000 -40.485  14.865  14.477  11.838 -28.485  14.865  14.477  11.838 
  4138.500 -39.982  14.736  14.492  11.947 -27.982  14.736  14.492  11.947 
  4139.000 -39.693  14.614  14.528  12.134 -27.693  14.614  14.528  12.134 
  4139.500 -39.476  14.521  14.550  12.342 -27.476  14.521  14.550  12.342 
  4140.000 -39.833  14.514  14.500  12.608 -27.833  14.514  14.500  12.608 
  4140.500 -40.334  14.565  14.414  12.644 -28.334  14.565  14.414  12.644 
  4141.000 -40.440  14.680  14.278  12.717 -28.440  14.680  14.278  12.717 
  4141.500 -40.761  14.982  14.171  12.789 -28.761  14.982  14.171  12.789 
  4142.000 -41.333  15.306  14.107  13.040 -29.333  15.306  14.107  13.040 
  4142.500 -42.049  15.751  14.064  13.220 -30.049  15.751  14.064  13.220 
  4143.000 -42.729  16.089  14.086  13.256 -30.729  16.089  14.086  13.256 
  4143.500 -43.229  16.434  14.208  13.300 -31.229  16.434  14.208  13.300 
  4144.000 -43.873  16.736  14.417  13.458 -31.873  16.736  14.417  13.458 
  4144.500 -44.589  17.016  14.633  13.645 -32.589  17.016  14.633  13.645 
  4145.000 -45.305  17.196  14.920  13.818 -33.305  17.196  14.920  13.818 
  4145.500 -45.518  17.354  15.315  14.019 -33.518  17.354  15.315  14.019 
  4146.000 -45.624  17.405  15.459  14.178 -33.624  17.405  15.459  14.178 
  4146.500 -45.694  17.456  15.804  14.350 -33.694  17.456  15.804  14.350 
  4147.000 -45.621  17.485  16.063  14.480 -33.621  17.485  16.063  14.480 
  4147.500 -45.476  17.485  16.243  14.502 -33.476  17.485  16.243  14.502 
  4148.000 -45.330  17.206  16.315  14.466 -33.330  17.206  16.315  14.466 
  4148.500 -44.970  16.710  16.359  14.381 -32.970  16.710  16.359  14.381 
  4149.000 -44.754  16.460  16.366  14.266 -32.754  16.460  16.366  14.266 
  4149.500 -44.357  16.058  16.381  14.166 -32.357  16.058  16.381  14.166 
  4150.000 -43.710  15.627  16.381  14.044 -31.710  15.627  16.381  14.044 
  4150.500 -42.277  15.332  16.352  13.843 -30.277  15.332  16.352  13.843 
  4151.000 -41.203  15.009  16.273  13.720 -29.203  15.009  16.273  13.720 
  4151.500 -40.560  14.599  16.071  13.612 -28.560  14.599  16.071  13.612 
  4152.000 -39.629  14.362  15.920  13.396 -27.629  14.362  15.920  13.396 
  4152.500 -38.950  14.031  15.768  13.281 -26.950  14.031  15.768  13.281 
  4153.000 -38.522  14.160  15.639  13.144 -26.522  14.160  15.639  13.144 
  4153.500 -38.596  14.331  15.602  12.935 -26.596  14.331  15.602  12.935 
  4154.000 -38.885  14.482  15.580  12.898 -26.885  14.482  15.580  12.898 
  4154.500 -38.959  14.524  15.666  12.984 -26.959  14.524  15.666  12.984 
  4155.000 -39.033  14.552  15.787  13.055 -27.033  14.552  15.787  13.055 
  4155.500 -39.035  14.581  15.974  13.163 -27.035  14.581  15.974  13.163 
  4156.000 -39.037  14.609  16.181  13.212 -27.037  14.609  16.181  13.212 
  4156.500 -39.685  14.630  16.296  13.205 -27.685  14.630  16.296  13.205 
  4157.000 -40.369  14.421  16.338  13.175 -28.369  14.421  16.338  13.175 
  4157.500 -41.268  14.076  16.345  13.132 -29.268  14.076  16.345  13.132 
  4158.000 -41.414  13.731  16.330  13.031 -29.414  13.731  16.330  13.031 
  4158.500 -40.950  13.213  16.258  13.002 -28.950  13.213  16.258  13.002 
  4159.000 -39.983  12.811  16.121  12.865 -27.983  12.811  16.121  12.865 
  4159.500 -38.838  12.466  15.769  12.591 -26.838  12.466  15.769  12.591 
  4160.000 -37.297  12.092  15.330  12.361 -25.297  12.092  15.330  12.361 
  4160.500 -36.762  11.826  14.827  12.088 -24.762  11.826  14.827  12.088 
  4161.000 -36.764  11.761  14.367  11.714 -24.764  11.761  14.367  11.714 
  4161.500 -36.910  11.774  13.857  11.283 -24.910  11.774  13.857  11.283 
  4162.000 -37.306  11.860  13.368  11.002 -25.306  11.860  13.368  11.002 
  4162.500 -37.918  11.946  13.051  10.872 -25.918  11.946  13.051  10.872 
  4163.000 -38.423  11.996  13.037  10.843 -26.423  11.996  13.037  10.843 
  4163.500 -39.142  11.988  13.173  10.907 -27.142  11.988  13.173  10.907 
  4164.000 -39.826  11.894  13.258  11.050 -27.826  11.894  13.258  11.050 
  4164.500 -40.474  11.736  13.315  11.143 -28.474  11.736  13.315  11.143 
  4165.000 -40.082  11.556  13.286  11.200 -28.082  11.556  13.286  11.200 
  4165.500 -39.402  11.390  13.199  11.207 -27.402  11.390  13.199  11.207 
  4166.000 -39.082  11.109  13.120  11.156 -27.082  11.109  13.120  11.156 
  4166.500 -38.761  10.814  12.983  11.069 -26.761  10.814  12.983  11.069 
  4167.000 -37.974  10.469  12.839  10.976 -25.974  10.469  12.839  10.976 
  4167.500 -37.187  10.009  12.573  10.874 -25.187  10.009  12.573  10.874 
  4168.000 -36.436  9.3910  12.385  10.730 -24.436  9.3910  12.385  10.730 
  4168.500 -35.685  8.6300  12.026  10.629 -23.685  8.6300  12.026  10.629 
  4169.000 -32.494  8.1340  11.731  10.449 -20.494  8.1340  11.731  10.449 
  4169.500 -26.220  7.7170  11.465  10.269 -14.220  7.7170  11.465  10.269 
  4170.000 -24.679  7.4150  11.134  10.118 -12.679  7.4150  11.134  10.118 
  4170.500 -23.498  7.0620  10.717  9.9520 -11.498  7.0620  10.717  9.9520 
  4171.000 -22.460  6.8040  10.408  9.7650 -10.460  6.8040  10.408  9.7650 
  4171.500 -21.996  6.5800  10.070  9.5780 -9.9960  6.5800  10.070  9.5780 
  4172.000 -22.393  6.3860  9.5810  9.3550 -10.393  6.3860  9.5810  9.3550 
  4172.500 -22.861  6.2280  9.2720  9.1750 -10.861  6.2280  9.2720  9.1750 
  4173.000 -23.437  6.2270  9.0920  9.2390 -11.437  6.2270  9.0920  9.2390 
  4173.500 -21.897  6.2910  9.1420  9.3610 -9.8970  6.2910  9.1420  9.3610 
  4174.000 -20.644  6.3980  9.2270  9.4180 -8.6440  6.3980  9.2270  9.4180 
  4174.500 -19.785  6.3480  9.2700  9.5100 -7.7850  6.3480  9.2700  9.5100 
  4175.000 -19.070  6.1890  9.3050  9.5530 -7.0700  6.1890  9.3050  9.5530 
  4175.500 -18.534  6.1100  9.3480  9.5240 -6.5340  6.1100  9.3480  9.5240 
  4176.000 -17.998  6.1590  9.2250  9.4160 -5.9980  6.1590  9.2250  9.4160 
  4176.500 -17.713  6.1880  9.0740  9.4870 -5.7130  6.1880  9.0740  9.4870 
  4177.000 -17.967  6.1940  8.8730  9.4000 -5.9670  6.1940  8.8730  9.4000 
  4177.500 -18.579  6.1940  8.6710  9.2710 -6.5790  6.1940  8.6710  9.2710 
  4178.000 -19.370  6.3370  8.4620  9.1480 -7.3700  6.3370  8.4620  9.1480 
  4178.500 -21.202  6.6240  8.4330  8.9680 -9.2020  6.6240  8.4330  8.9680 
  4179.000 -23.536  6.8600  8.4400  9.1540 -11.536  6.8600  8.4400  9.1540 
  4179.500 -25.941  7.0030  8.5970  9.3760 -13.941  7.0030  8.5970  9.3760 
  4180.000 -28.347  7.1180  8.8980  9.6130 -16.347  7.1180  8.8980  9.6130 
  4180.500 -30.501  7.1170  9.0480  9.8490 -18.501  7.1170  9.0480  9.8490 
  4181.000 -29.894  7.0810  9.0770  9.9560 -17.894  7.0810  9.0770  9.9560 
  4181.500 -27.457  6.9370  9.0550  9.9840 -15.457  6.9370  9.0550  9.9840 
  4182.000 -25.056  6.7490  8.9610  9.9190 -13.056  6.7490  8.9610  9.9190 
  4182.500 -23.192  6.5910  8.7810  9.7390 -11.192  6.5910  8.7810  9.7390 
  4183.000 -21.365  6.3970  8.4000  9.5810 -9.3650  6.3970  8.4000  9.5810 
  4183.500 -20.435  6.0800  8.0330  9.2430 -8.4350  6.0800  8.0330  9.2430 
  4184.000 -19.756  5.9070  7.7240  9.0490 -7.7560  5.9070  7.7240  9.0490 
  4184.500 -19.686  5.7060  7.4940  8.7680 -7.6860  5.7060  7.4940  8.7680 
  4185.000 -19.581  5.6840  7.3060  8.6170 -7.5810  5.6840  7.3060  8.6170 
  4185.500 -19.547  5.6900  7.1620  8.4940 -7.5470  5.6900  7.1620  8.4940 
