~Version Information
VERS.                     2.0: CWLS log ASCII Standard Version 2.00
WRAP.                      NO: One line per depth step
~Well Information Block
#MNEM.UNIT                               Data Type  Information
#---------                               ---------  -----------
STRT.FT                                   370.0000:
STOP.FT                                  6710.0000:
STEP.FT                                     0.5000:
NULL.                 -999.25                     :
COMP.                                             :COMPANY            
WELL.     SAN EMIDIO 35-19 REDRILL #2             :WELL               
FLD .                                             :FIELD              
CTRY.                                             :COUNTRY            
STAT.                                             :STATE              
LOC .                                             :LOCATION           
UWI .                                             :UNIQUE WELL ID     
SRVC.                                             :Service company    
DATE.                                             :LOG DATE           
~Curve Information
#MNEM.UNIT           API CODE  Curve Description
#---------           --------  -----------------
DEPT.FT                      :   1 DEPTH
SP  .MV                      :   2
AM16.OHMM                    :   3
AO10.OHMM                    :   4
AO19.OHMM                    :   5
SBL .MV                      :   6
RS  .OHMM                    :   7
RM  .OHMM                    :   8
RD  .OHMM                    :   9
~A
# ...
  5829.000 -20.255  2.3040  2.3130  2.1110 -8.8580  2.3040  2.3130  2.1110 
  5829.500 -20.267  2.3300  2.3240  2.0790 -8.8671  2.3300  2.3240  2.0790 
  5830.000 -20.241  2.3360  2.3420  2.0740 -8.8382  2.3360  2.3420  2.0740 
  5830.500 -20.215  2.3400  2.3480  2.0690 -8.8094  2.3400  2.3480  2.0690 
  5831.000 -20.224  2.3310  2.3530  2.0510 -8.8155  2.3310  2.3530  2.0510 
  5831.500 -20.234  2.3220  2.3580  2.0550 -8.8226  2.3220  2.3580  2.0550 
  5832.000 -20.287  2.3130  2.3630  2.0530 -8.8728  2.3130  2.3630  2.0530 
  5832.500 -20.335  2.2950  2.3460  2.0620 -8.9179  2.2950  2.3460  2.0620 
  5833.000 -20.417  2.2780  2.3360  2.0710 -8.9970  2.2780  2.3360  2.0710 
  5833.500 -20.536  2.2660  2.3270  2.0790 -9.1132  2.2660  2.3270  2.0790 
  5834.000 -20.731  2.2530  2.3070  2.0880 -9.3053  2.2530  2.3070  2.0880 
  5834.500 -20.959  2.2500  2.2870  2.1130 -9.5304  2.2500  2.2870  2.1130 
  5835.000 -21.147  2.2550  2.2630  2.1180 -9.7156  2.2550  2.2630  2.1180 
  5835.500 -21.340  2.2600  2.2390  2.1300 -9.9057  2.2600  2.2390  2.1300 
  5836.000 -21.677  2.2860  2.2210  2.1420 -10.240  2.2860  2.2210  2.1420 
  5836.500 -21.937  2.2910  2.2120  2.1250 -10.497  2.2910  2.2120  2.1250 
  5837.000 -22.600  2.2950  2.2060  2.0870 -11.157  2.2950  2.2060  2.0870 
  5837.500 -23.078  2.3070  2.2010  2.0340 -11.632  2.3070  2.2010  2.0340 
  5838.000 -23.917  2.3050  2.1970  2.0070 -12.468  2.3050  2.1970  2.0070 
  5838.500 -24.124  2.3020  2.1950  1.9800 -12.672  2.3020  2.1950  1.9800 
  5839.000 -24.332  2.3010  2.1850  1.9310 -12.878  2.3010  2.1850  1.9310 
  5839.500 -24.240  2.2990  2.1760  1.8820 -12.783  2.2990  2.1760  1.8820 
  5840.000 -24.122  2.2670  2.1510  1.8070 -12.662  2.2670  2.1510  1.8070 
  5840.500 -24.005  2.2210  2.1420  1.7680 -12.542  2.2210  2.1420  1.7680 
  5841.000 -23.734  2.1540  2.1260  1.7300 -12.268  2.1540  2.1260  1.7300 
  5841.500 -23.531  2.1090  2.1100  1.7200 -12.062  2.1090  2.1100  1.7200 
  5842.000 -23.414  2.0420  2.0820  1.7110 -11.942  2.0420  2.0820  1.7110 
  5842.500 -23.296  1.9890  2.0540  1.7090 -11.822  1.9890  2.0540  1.7090 
  5843.000 -23.027  1.9620  2.0410  1.7140 -11.550  1.9620  2.0410  1.7140 
  5843.500 -22.964  1.9350  2.0280  1.7120 -11.484  1.9350  2.0280  1.7120 
  5844.000 -22.831  1.9030  2.0150  1.7160 -11.348  1.9030  2.0150  1.7160 
  5844.500 -23.349  1.8930  2.0020  1.7210 -11.863  1.8930  2.0020  1.7210 
  5845.000 -23.574  1.8910  1.9960  1.7260 -12.085  1.8910  1.9960  1.7260 
  5845.500 -23.803  1.8930  1.9900  1.7300 -12.311  1.8930  1.9900  1.7300 
  5846.000 -23.672  1.8940  1.9840  1.7430 -12.177  1.8940  1.9840  1.7430 
  5846.500 -23.503  1.8920  1.9780  1.7550 -12.006  1.8920  1.9780  1.7550 
  5847.000 -23.349  1.8900  1.9750  1.7600 -11.849  1.8900  1.9750  1.7600 
  5847.500 -23.195  1.8870  1.9790  1.7650 -11.692  1.8870  1.9790  1.7650 
  5848.000 -22.937  1.8850  1.9810  1.7770 -11.431  1.8850  1.9810  1.7770 
  5848.500 -22.679  1.8670  1.9830  1.7880 -11.170  1.8670  1.9830  1.7880 
  5849.000 -22.474  1.8650  1.9800  1.7930 -10.962  1.8650  1.9800  1.7930 
  5849.500 -22.269  1.8630  1.9810  1.8050 -10.754  1.8630  1.9810  1.8050 
  5850.000 -21.783  1.8530  1.9830  1.8310 -10.266  1.8530  1.9830  1.8310 
  5850.500 -21.576  1.8510  1.9840  1.8370 -10.056  1.8510  1.9840  1.8370 
  5851.000 -21.368  1.8500  1.9860  1.8430 -9.8448  1.8500  1.9860  1.8430 
  5851.500 -21.159  1.8510  1.9900  1.8590 -9.6330  1.8510  1.9900  1.8590 
  5852.000 -20.710  1.8530  1.9950  1.8740 -9.1811  1.8530  1.9950  1.8740 
  5852.500 -20.538  1.8570  2.0010  1.9000 -9.0062  1.8570  2.0010  1.9000 
  5853.000 -20.297  1.8690  1.9990  1.9120 -8.7624  1.8690  1.9990  1.9120 
  5853.500 -20.124  1.8810  1.9980  1.9210 -8.5865  1.8810  1.9980  1.9210 
  5854.000 -19.813  1.9010  1.9870  1.9300 -8.2726  1.9010  1.9870  1.9300 
  5854.500 -19.716  1.9200  1.9860  1.9390 -8.1728  1.9200  1.9860  1.9390 
  5855.000 -19.834  1.9320  1.9840  1.9480 -8.2879  1.9320  1.9840  1.9480 
  5855.500 -19.986  1.9450  1.9890  1.9530 -8.4370  1.9450  1.9890  1.9530 
  5856.000 -20.287  1.9720  1.9930  1.9580 -8.7352  1.9720  1.9930  1.9580 
  5856.500 -20.442  1.9980  1.9980  1.9590 -8.8873  1.9980  1.9980  1.9590 
  5857.000 -20.560  2.0250  2.0110  1.9610 -9.0024  2.0250  2.0110  1.9610 
  5857.500 -20.639  2.0440  2.0160  1.9650 -9.0786  2.0440  2.0160  1.9650 
  5858.000 -20.830  2.0530  2.0140  1.9630 -9.2667  2.0530  2.0140  1.9630 
  5858.500 -20.986  2.0630  2.0160  1.9540 -9.4198  2.0630  2.0160  1.9540 
  5859.000 -21.033  2.0860  2.0180  1.9450 -9.4640  2.0860  2.0180  1.9450 
  5859.500 -21.003  2.1080  2.0220  1.9430 -9.4311  2.1080  2.0220  1.9430 
  5860.000 -20.870  2.1270  2.0270  1.9450 -9.2952  2.1270  2.0270  1.9450 
  5860.500 -20.376  2.1320  2.0240  1.9470 -8.7984  2.1320  2.0240  1.9470 
  5861.000 -19.776  2.1310  2.0230  1.9450 -8.1955  2.1310  2.0230  1.9450 
  5861.500 -19.460  2.1290  2.0220  1.9420 -7.8766  2.1290  2.0220  1.9420 
  5862.000 -18.932  2.1270  2.0200  1.9460 -7.3458  2.1270  2.0200  1.9460 
  5862.500 -18.512  2.1250  2.0180  1.9440 -6.9229  2.1250  2.0180  1.9440 
  5863.000 -18.375  2.1150  2.0080  1.9420 -6.7830  2.1150  2.0080  1.9420 
  5863.500 -18.202  2.1130  1.9990  1.9330 -6.6072  2.1130  1.9990  1.9330 
  5864.000 -18.030  2.0890  1.9890  1.9390 -6.4323  2.0890  1.9890  1.9390 
  5864.500 -17.968  2.0590  1.9800  1.9290 -6.3674  2.0590  1.9800  1.9290 
  5865.000 -17.907  2.0390  1.9670  1.9200 -6.3036  2.0390  1.9670  1.9200 
  5865.500 -17.885  2.0190  1.9540  1.8960 -6.2787  2.0190  1.9540  1.8960 
  5866.000 -18.004  1.9870  1.9410  1.8440 -6.3948  1.9870  1.9410  1.8440 
  5866.500 -18.230  1.9850  1.9280  1.8130 -6.6180  1.9850  1.9280  1.8130 
  5867.000 -18.636  1.9830  1.9120  1.7830 -7.0211  1.9830  1.9120  1.7830 
  5867.500 -19.442  1.9930  1.8960  1.7150 -7.8242  1.9930  1.8960  1.7150 
  5868.000 -19.737  2.0020  1.8900  1.6920 -8.1164  2.0020  1.8900  1.6920 
  5868.500 -20.361  2.0210  1.8840  1.6680 -8.7375  2.0210  1.8840  1.6680 
  5869.000 -21.093  2.0410  1.8860  1.6450 -9.4666  2.0410  1.8860  1.6450 
  5869.500 -21.389  2.0520  1.8870  1.6280 -9.7598  2.0520  1.8870  1.6280 
  5870.000 -21.794  2.0680  1.8920  1.5970 -10.162  2.0680  1.8920  1.5970 
  5870.500 -22.418  2.0840  1.8970  1.5810 -10.783  2.0840  1.8970  1.5810 
  5871.000 -23.040  2.0600  1.8990  1.5790 -11.402  2.0600  1.8990  1.5790 
  5871.500 -23.554  2.0370  1.9010  1.5690 -11.913  2.0370  1.9010  1.5690 
  5872.000 -24.140  2.0140  1.9090  1.5750 -12.496  2.0140  1.9090  1.5750 
  5872.500 -24.798  1.9790  1.9170  1.5860 -13.152  1.9790  1.9170  1.5860 
  5873.000 -25.456  1.9450  1.9220  1.5850 -13.807  1.9450  1.9220  1.5850 
  5873.500 -26.260  1.8980  1.9210  1.5900 -14.608  1.8980  1.9210  1.5900 
  5874.000 -25.334  1.8930  1.9190  1.5950 -13.679  1.8930  1.9190  1.5950 
  5874.500 -24.588  1.8880  1.9130  1.6040 -12.930  1.8880  1.9130  1.6040 
  5875.000 -24.381  1.8700  1.9070  1.6120 -12.720  1.8700  1.9070  1.6120 
  5875.500 -24.069  1.8660  1.9020  1.6180 -12.405  1.8660  1.9020  1.6180 
  5876.000 -23.987  1.8610  1.8960  1.6270 -12.320  1.8610  1.8960  1.6270 
  5876.500 -23.905  1.8570  1.8860  1.6350 -12.236  1.8570  1.8860  1.6350 
  5877.000 -23.861  1.8620  1.8910  1.6480 -12.189  1.8620  1.8910  1.6480 
  5877.500 -23.816  1.8600  1.8960  1.6600 -12.141  1.8600  1.8960  1.6600 
  5878.000 -23.827  1.8630  1.9020  1.6720 -12.149  1.8630  1.9020  1.6720 
  5878.500 -23.838  1.8650  1.9070  1.6810 -12.157  1.8650  1.9070  1.6810 
  5879.000 -23.673  1.8770  1.9090  1.6900 -11.989  1.8770  1.9090  1.6900 
  5879.500 -23.429  1.8890  1.9100  1.6980 -11.742  1.8890  1.9100  1.6980 
  5880.000 -23.185  1.8930  1.9040  1.7070 -11.496  1.8930  1.9040  1.7070 
  5880.500 -22.888  1.8990  1.8980  1.7110 -11.196  1.8990  1.8980  1.7110 
  5881.000 -22.592  1.9040  1.8960  1.7170 -10.897  1.9040  1.8960  1.7170 
  5881.500 -22.098  1.9300  1.8860  1.7220 -10.400  1.9300  1.8860  1.7220 
