~Version Information
VERS.                     2.0: CWLS log ASCII Standard Version 2.00
WRAP.                      NO: One line per depth step
~Well Information Block
#MNEM.UNIT                               Data Type  Information
#---------                               ---------  -----------
STRT.FT                                   370.0000:
STOP.FT                                  6710.0000:
STEP.FT                                     0.5000:
NULL.                 -999.25                     :
COMP.                                             :COMPANY            
WELL.     SAN EMIDIO 35-19 REDRILL #2             :WELL               
FLD .                                             :FIELD              
CTRY.                                             :COUNTRY            
STAT.                                             :STATE              
LOC .                                             :LOCATION           
UWI .                                             :UNIQUE WELL ID     
SRVC.                                             :Service company    
DATE.                                             :LOG DATE           
~Curve Information
#MNEM.UNIT           API CODE  Curve Description
#---------           --------  -----------------
DEPT.FT                      :   1 DEPTH
SP  .MV                      :   2
AM16.OHMM                    :   3
AO10.OHMM                    :   4
AO19.OHMM                    :   5
SBL .MV                      :   6
RS  .OHMM                    :   7
RM  .OHMM                    :   8
RD  .OHMM                    :   9
~A
# ...
  3709.000 -27.823  7.7610  9.1690  6.3290 -15.823  7.7610  9.1690  6.3290 
  3709.500 -24.524  7.6100  8.8880  6.1560 -12.524  7.6100  8.8880  6.1560 
  3710.000 -23.270  7.9120  8.5790  5.9840 -11.270  7.9120  8.5790  5.9840 
  3710.500 -23.378  8.1200  8.3490  6.1060 -11.378  8.1200  8.3490  6.1060 
  3711.000 -25.137  8.4930  8.4280  6.4860 -13.137  8.4930  8.4280  6.4860 
  3711.500 -35.146  8.9450  8.6070  6.8160 -23.146  8.9450  8.6070  6.8160 
  3712.000 -42.034  9.7270  9.2680  7.3040 -30.034  9.7270  9.2680  7.3040 
  3712.500 -44.653  10.294  10.122  7.6840 -32.653  10.294  10.122  7.6840 
  3713.000 -47.632  10.933  10.517  7.9000 -35.632  10.933  10.517  7.9000 
  3713.500 -50.466  11.479  10.746  8.0360 -38.466  11.479  10.746  8.0360 
  3714.000 -52.081  11.708  10.897  8.2220 -40.081  11.708  10.897  8.2220 
  3714.500 -53.159  11.809  10.997  8.3080 -41.159  11.809  10.997  8.3080 
  3715.000 -53.769  11.614  11.112  8.3870 -41.769  11.614  11.112  8.3870 
  3715.500 -52.658  11.262  11.176  8.4590 -40.658  11.262  11.176  8.4590 
  3716.000 -49.789  10.702  11.190  8.4220 -37.789  10.702  11.190  8.4220 
  3716.500 -43.908  9.9550  11.075  8.2070 -31.908  9.9550  11.075  8.2070 
  3717.000 -38.492  7.8150  10.860  7.8840 -26.492  7.8150  10.860  7.8840 
  3717.500 -34.511  6.9890  10.156  7.3740 -22.511  6.9890  10.156  7.3740 
  3718.000 -27.948  6.6230  9.4950  6.8780 -15.948  6.6230  9.4950  6.8780 
  3718.500 -24.075  6.2490  8.6550  6.4110 -12.075  6.2490  8.6550  6.4110 
  3719.000 -22.246  5.9620  8.0300  6.0160 -10.246  5.9620  8.0300  6.0160 
  3719.500 -22.068  5.7250  7.4190  5.8720 -10.068  5.7250  7.4190  5.8720 
  3720.000 -23.181  5.5310  7.1750  6.0870 -11.181  5.5310  7.1750  6.0870 
  3720.500 -25.226  5.3150  7.2680  6.2160 -13.226  5.3150  7.2680  6.2160 
  3721.000 -24.833  5.1710  7.3970  6.3670 -12.833  5.1710  7.3970  6.3670 
  3721.500 -22.932  5.0780  7.5550  6.4460 -10.932  5.0780  7.5550  6.4460 
  3722.000 -21.534  4.9770  7.3390  6.1440 -9.5340  4.9770  7.3390  6.1440 
  3722.500 -20.495  4.8690  7.0020  5.8920 -8.4950  4.8690  7.0020  5.8920 
  3723.000 -19.814  4.6890  6.6210  5.7200 -7.8140  4.6890  6.6210  5.7200 
  3723.500 -19.241  4.5740  6.6280  5.6410 -7.2410  4.5740  6.6280  5.6410 
  3724.000 -19.673  4.5450  6.6560  5.7480 -7.6730  4.5450  6.6560  5.7480 
  3724.500 -21.934  4.5880  6.7210  5.8340 -9.9340  4.5880  6.7210  5.8340 
  3725.000 -23.836  4.6240  6.8430  5.9920 -11.836  4.6240  6.8430  5.9920 
  3725.500 -24.841  4.6450  6.9500  6.1420 -12.841  4.6450  6.9500  6.1420 
  3726.000 -23.264  4.6810  7.0580  6.2710 -11.264  4.6810  7.0580  6.2710 
  3726.500 -22.045  4.7020  7.1000  6.3720 -10.045  4.7020  7.1000  6.3720 
  3727.000 -21.472  4.7240  7.0500  6.3210 -9.4720  4.7240  7.0500  6.3210 
  3727.500 -20.899  4.7450  6.8630  6.2350 -8.8990  4.7450  6.8630  6.2350 
  3728.000 -20.254  4.7950  6.7480  6.1990 -8.2540  4.7950  6.7480  6.1990 
  3728.500 -20.434  4.8020  6.5540  6.1480 -8.4340  4.8020  6.5540  6.1480 
  3729.000 -21.583  4.8160  6.3310  6.0830 -9.5830  4.8160  6.3310  6.0830 
  3729.500 -23.844  4.8230  6.3160  6.1260 -11.844  4.8230  6.3160  6.1260 
  3730.000 -25.710  4.8230  6.3450  6.2190 -13.710  4.8230  6.3450  6.2190 
  3730.500 -28.760  4.8150  6.3950  6.3200 -16.760  4.8150  6.3950  6.3200 
  3731.000 -30.447  4.7650  6.4590  6.3910 -18.447  4.7650  6.4590  6.3910 
  3731.500 -26.825  4.6350  6.4880  6.3980 -14.825  4.6350  6.4880  6.3980 
  3732.000 -24.745  4.4130  6.4450  6.3120 -12.745  4.4130  6.4450  6.3120 
  3732.500 -23.921  4.2190  6.1070  6.2330 -11.921  4.2190  6.1070  6.2330 
  3733.000 -22.703  4.0530  5.8200  6.1540 -10.703  4.0530  5.8200  6.1540 
  3733.500 -21.914  3.9450  5.5900  5.9880 -9.9140  3.9450  5.5900  5.9880 
  3734.000 -21.090  3.8950  5.3810  5.9380 -9.0900  3.8950  5.3810  5.9380 
  3734.500 -20.481  3.8730  5.1940  5.8870 -8.4810  3.8730  5.1940  5.8870 
  3735.000 -20.518  3.8660  5.1010  5.8510 -8.5180  3.8660  5.1010  5.8510 
  3735.500 -20.519  3.8660  4.9780  5.8000 -8.5190  3.8660  4.9780  5.8000 
  3736.000 -20.556  3.8650  4.8920  5.7720 -8.5560  3.8650  4.8920  5.7720 
  3736.500 -20.521  3.8580  4.8340  5.7350 -8.5210  3.8580  4.8340  5.7350 
  3737.000 -20.486  3.8720  4.7980  5.7350 -8.4860  3.8720  4.7980  5.7350 
  3737.500 -20.415  4.0080  4.7910  5.7570 -8.4150  4.0080  4.7910  5.7570 
  3738.000 -20.344  4.1800  4.7980  5.8420 -8.3440  4.1800  4.7980  5.8420 
  3738.500 -19.843  4.2090  4.8260  5.9210 -7.8430  4.2090  4.8260  5.9210 
  3739.000 -19.485  4.1300  4.8980  6.1580 -7.4850  4.1300  4.8980  6.1580 
  3739.500 -19.092  4.1580  5.2850  6.4230 -7.0920  4.1580  5.2850  6.4230 
  3740.000 -19.666  4.2800  5.5940  6.5880 -7.6660  4.2800  5.5940  6.5880 
  3740.500 -20.600  4.4880  5.7010  6.6740 -8.6000  4.4880  5.7010  6.6740 
  3741.000 -20.458  4.5450  5.7300  6.6810 -8.4580  4.5450  5.7300  6.6810 
  3741.500 -19.885  4.5590  5.7510  6.5730 -7.8850  4.5590  5.7510  6.5730 
  3742.000 -19.419  4.5450  5.5500  6.2210 -7.4190  4.5450  5.5500  6.2210 
  3742.500 -19.456  4.4730  5.4060  6.0130 -7.4560  4.4730  5.4060  6.0130 
  3743.000 -19.816  4.4220  5.3630  5.9410 -7.8160  4.4220  5.3630  5.9410 
  3743.500 -20.068  4.3720  5.3700  5.9260 -8.0680  4.3720  5.3700  5.9260 
  3744.000 -20.069  4.3430  5.3700  5.9050 -8.0690  4.3430  5.3700  5.9050 
  3744.500 -19.783  4.3500  5.3340  5.8470 -7.7830  4.3500  5.3340  5.8470 
  3745.000 -19.640  4.3710  5.2260  5.7460 -7.6400  4.3710  5.2260  5.7460 
  3745.500 -19.497  4.4280  5.1540  5.6810 -7.4970  4.4280  5.1540  5.6810 
  3746.000 -19.175  4.4640  5.1250  5.6880 -7.1750  4.4640  5.1250  5.6880 
  3746.500 -19.140  4.5360  5.1320  5.7240 -7.1400  4.5360  5.1320  5.7240 
  3747.000 -19.106  4.6720  5.1600  5.8390 -7.1060  4.6720  5.1600  5.8390 
  3747.500 -21.115  4.8010  5.1810  5.9680 -9.1150  4.8010  5.1810  5.9680 
  3748.000 -22.443  5.0090  5.2240  6.0820 -10.443  5.0090  5.2240  6.0820 
  3748.500 -24.274  5.1670  5.2670  6.2900 -12.274  5.1670  5.2670  6.2900 
  3749.000 -26.248  5.3820  5.3890  6.3760 -14.248  5.3820  5.3890  6.3760 
  3749.500 -28.221  5.5760  5.5400  6.5050 -16.221  5.5760  5.5400  6.5050 
  3750.000 -29.908  5.7330  5.6900  6.6060 -17.908  5.7330  5.6900  6.6060 
  3750.500 -31.881  5.8190  5.8190  6.6560 -19.881  5.8190  5.8190  6.6560 
  3751.000 -33.495  5.8620  5.9560  6.7060 -21.495  5.8620  5.9560  6.7060 
  3751.500 -32.850  5.6900  6.0420  6.7560 -20.850  5.6900  6.0420  6.7560 
  3752.000 -31.415  5.4390  6.0990  6.7560 -19.415  5.4390  6.0990  6.7560 
  3752.500 -29.908  5.2670  6.0640  6.5480 -17.908  5.2670  6.0640  6.5480 
  3753.000 -27.289  5.1230  5.9770  6.3610 -15.289  5.1230  5.9770  6.3610 
  3753.500 -24.599  5.0150  5.8340  6.1820 -12.599  5.0150  5.8340  6.1820 
  3754.000 -22.841  4.9870  5.6830  6.0740 -10.841  4.9870  5.6830  6.0740 
  3754.500 -22.160  5.0010  5.5820  6.0810 -10.160  5.0010  5.5820  6.0810 
  3755.000 -22.447  5.0150  5.6400  6.1600 -10.447  5.0150  5.6400  6.1600 
  3755.500 -23.128  5.0370  5.8410  6.3400 -11.128  5.0370  5.8410  6.3400 
  3756.000 -25.962  5.2090  6.0200  6.4550 -13.962  5.2090  6.0200  6.4550 
  3756.500 -28.258  5.6830  6.1570  6.5980 -16.258  5.6830  6.1570  6.5980 
  3757.000 -30.231  6.2360  6.1860  6.6920 -18.231  6.2360  6.1860  6.6920 
  3757.500 -32.598  7.0970  6.2140  6.6700 -20.598  7.0970  6.2140  6.6700 
  3758.000 -35.396  7.6720  6.2360  6.5980 -23.396  7.6720  6.2360  6.5980 
  3758.500 -38.624  8.7560  6.2500  6.5270 -26.624  8.7560  6.2500  6.5270 
  3759.000 -41.386  9.3160  6.2930  6.4980 -29.386  9.3160  6.2930  6.4980 
  3759.500 -44.507  9.8900  6.3510  6.6060 -32.507  9.8900  6.3510  6.6060 
  3760.000 -46.336  11.463  6.4230  6.6990 -34.336  11.463  6.4230  6.6990 
  3760.500 -48.668  12.518  6.6160  6.7920 -36.668  12.518  6.6160  6.7920 
  3761.000 -51.322  13.172  6.8170  6.9000 -39.322  13.172  6.8170  6.9000 
  3761.500 -52.650  13.545  6.9830  6.9930 -40.650  13.545  6.9830  6.9930 
