~Version Information
VERS.                     2.0: CWLS log ASCII Standard Version 2.00
WRAP.                      NO: One line per depth step
~Well Information Block
#MNEM.UNIT                               Data Type  Information
#---------                               ---------  -----------
STRT.FT                                   370.0000:
STOP.FT                                  6710.0000:
STEP.FT                                     0.5000:
NULL.                 -999.25                     :
COMP.                                             :COMPANY            
WELL.     SAN EMIDIO 35-19 REDRILL #2             :WELL               
FLD .                                             :FIELD              
CTRY.                                             :COUNTRY            
STAT.                                             :STATE              
LOC .                                             :LOCATION           
UWI .                                             :UNIQUE WELL ID     
SRVC.                                             :Service company    
DATE.                                             :LOG DATE           
~Curve Information
#MNEM.UNIT           API CODE  Curve Description
#---------           --------  -----------------
DEPT.FT                      :   1 DEPTH
SP  .MV                      :   2
AM16.OHMM                    :   3
AO10.OHMM                    :   4
AO19.OHMM                    :   5
SBL .MV                      :   6
RS  .OHMM                    :   7
RM  .OHMM                    :   8
RD  .OHMM                    :   9
~A
# ...
  5405.000 -22.572  1.8170  1.9850  1.8890 -13.606  1.8170  1.9850  1.8890 
  5405.500 -22.721  1.8130  1.9910  1.8910 -13.752  1.8130  1.9910  1.8910 
  5406.000 -23.234  1.8030  1.9970  1.8940 -14.262  1.8030  1.9970  1.8940 
  5406.500 -23.561  1.8020  2.0100  1.8970 -14.586  1.8020  2.0100  1.8970 
  5407.000 -23.925  1.8010  2.0170  1.8880 -14.947  1.8010  2.0170  1.8880 
  5407.500 -24.289  1.7850  2.0240  1.8800 -15.309  1.7850  2.0240  1.8800 
  5408.000 -24.805  1.7770  2.0210  1.8710 -15.822  1.7770  2.0210  1.8710 
  5408.500 -25.027  1.7680  1.9990  1.8550 -16.041  1.7680  1.9990  1.8550 
  5409.000 -24.887  1.7670  1.9760  1.8460 -15.898  1.7670  1.9760  1.8460 
  5409.500 -24.426  1.7660  1.9530  1.8380 -15.434  1.7660  1.9530  1.8380 
  5410.000 -24.003  1.7660  1.9450  1.8380 -15.008  1.7660  1.9450  1.8380 
  5410.500 -23.865  1.7650  1.9370  1.8370 -14.867  1.7650  1.9370  1.8370 
  5411.000 -23.761  1.7670  1.9280  1.8350 -14.761  1.7670  1.9280  1.8350 
  5411.500 -23.802  1.7700  1.9270  1.8340 -14.799  1.7700  1.9270  1.8340 
  5412.000 -23.808  1.7720  1.9270  1.8400 -14.802  1.7720  1.9270  1.8400 
  5412.500 -23.777  1.7740  1.9260  1.8460 -14.768  1.7740  1.9260  1.8460 
  5413.000 -23.748  1.7730  1.9380  1.8450 -14.736  1.7730  1.9380  1.8450 
  5413.500 -23.648  1.7720  1.9510  1.8510 -14.633  1.7720  1.9510  1.8510 
  5414.000 -23.619  1.7710  1.9650  1.8570 -14.601  1.7710  1.9650  1.8570 
  5414.500 -23.603  1.7690  1.9850  1.8640 -14.582  1.7690  1.9850  1.8640 
  5415.000 -23.587  1.7890  1.9910  1.8830 -14.564  1.7890  1.9910  1.8830 
  5415.500 -23.634  1.7950  2.0110  1.8900 -14.608  1.7950  2.0110  1.8900 
  5416.000 -23.713  1.8090  2.0180  1.8960 -14.684  1.8090  2.0180  1.8960 
  5416.500 -24.329  1.8220  2.0240  1.9130 -15.297  1.8220  2.0240  1.9130 
  5417.000 -25.131  1.8430  2.0220  1.9300 -16.096  1.8430  2.0220  1.9300 
  5417.500 -25.314  1.8640  2.0250  1.9560 -16.276  1.8640  2.0250  1.9560 
  5418.000 -25.176  1.9120  2.0280  1.9980 -16.135  1.9120  2.0280  1.9980 
  5418.500 -25.109  1.9290  2.0400  2.0260 -16.066  1.9290  2.0400  2.0260 
  5419.000 -25.042  1.9470  2.0750  2.0470 -15.996  1.9470  2.0750  2.0470 
  5419.500 -24.907  2.0160  2.0890  2.0680 -15.858  2.0160  2.0890  2.0680 
  5420.000 -23.977  2.0430  2.1030  2.1230 -14.925  2.0430  2.1030  2.1230 
  5420.500 -23.406  2.0720  2.1370  2.1510 -14.351  2.0720  2.1370  2.1510 
  5421.000 -23.303  2.0990  2.1720  2.1780 -14.245  2.0990  2.1720  2.1780 
  5421.500 -23.422  2.0980  2.2200  2.2200 -14.361  2.0980  2.2200  2.2200 
  5422.000 -23.568  2.0390  2.2550  2.2480 -14.504  2.0390  2.2550  2.2480 
  5422.500 -24.080  1.9950  2.2830  2.2970 -15.014  1.9950  2.2830  2.2970 
  5423.000 -24.480  2.0370  2.3170  2.3250 -15.411  2.0370  2.3170  2.3250 
  5423.500 -25.027  2.1220  2.3300  2.3530 -15.955  2.1220  2.3300  2.3530 
  5424.000 -25.536  2.2220  2.3150  2.2720 -16.461  2.2220  2.3150  2.2720 
  5424.500 -25.508  2.2640  2.2570  2.1850 -16.430  2.2640  2.2570  2.1850 
  5425.000 -25.350  2.2050  2.1540  2.1120 -16.269  2.2050  2.1540  2.1120 
  5425.500 -25.192  2.1390  2.1030  1.9950 -16.108  2.1390  2.1030  1.9950 
  5426.000 -24.844  2.0230  2.0370  1.9370 -15.758  2.0230  2.0370  1.9370 
  5426.500 -24.648  1.9070  2.0080  1.9290 -15.559  1.9070  2.0080  1.9290 
  5427.000 -24.452  1.8700  1.9490  1.9060 -15.360  1.8700  1.9490  1.9060 
  5427.500 -24.031  1.8320  1.9120  1.8910 -14.936  1.8320  1.9120  1.8910 
  5428.000 -24.073  1.8240  1.8890  1.8820 -14.975  1.8240  1.8890  1.8820 
  5428.500 -24.294  1.8160  1.8730  1.8740 -15.193  1.8160  1.8730  1.8740 
  5429.000 -24.700  1.8080  1.8650  1.8650 -15.596  1.8080  1.8650  1.8650 
  5429.500 -24.850  1.8060  1.8570  1.8640 -15.743  1.8060  1.8570  1.8640 
  5430.000 -24.854  1.8020  1.8630  1.8630 -15.745  1.8020  1.8630  1.8630 
  5430.500 -24.825  1.7980  1.8700  1.8690 -15.713  1.7980  1.8700  1.8690 
  5431.000 -24.758  1.8100  1.8750  1.8750 -15.643  1.8100  1.8750  1.8750 
  5431.500 -24.402  1.8170  1.8810  1.8810 -15.284  1.8170  1.8810  1.8810 
  5432.000 -24.012  1.8230  1.9010  1.8800 -14.891  1.8230  1.9010  1.8800 
  5432.500 -23.407  1.8280  1.9080  1.8900 -14.283  1.8280  1.9080  1.8900 
  5433.000 -23.091  1.8350  1.9280  1.9000 -13.964  1.8350  1.9280  1.9000 
  5433.500 -23.273  1.8410  1.9530  1.9050 -14.144  1.8410  1.9530  1.9050 
  5434.000 -23.456  1.8440  1.9770  1.9080 -14.324  1.8440  1.9770  1.9080 
  5434.500 -23.863  1.8460  2.1330  1.9110 -14.728  1.8460  2.1330  1.9110 
  5435.000 -24.266  1.8590  2.2180  1.9310 -15.128  1.8590  2.2180  1.9310 
  5435.500 -24.414  1.8720  2.2450  1.9440 -15.273  1.8720  2.2450  1.9440 
  5436.000 -24.064  1.8860  2.2520  1.9570 -14.920  1.8860  2.2520  1.9570 
  5436.500 -23.493  1.8990  2.2360  1.9630 -14.346  1.8990  2.2360  1.9630 
  5437.000 -23.032  1.9120  2.2200  1.9540 -13.882  1.9120  2.2200  1.9540 
  5437.500 -22.819  1.9250  2.1980  1.9530 -13.667  1.9250  2.1980  1.9530 
  5438.000 -22.645  1.9520  2.1830  1.9530 -13.490  1.9520  2.1830  1.9530 
  5438.500 -22.471  1.9550  2.1680  1.9440 -13.313  1.9550  2.1680  1.9440 
  5439.000 -22.549  1.9580  2.1510  1.9430 -13.388  1.9580  2.1510  1.9430 
  5439.500 -22.734  1.9630  2.1500  1.9430 -13.570  1.9630  2.1500  1.9430 
  5440.000 -22.961  1.9690  2.1500  1.9480 -13.794  1.9690  2.1500  1.9480 
  5440.500 -23.017  1.9760  2.1490  1.9540 -13.847  1.9760  2.1490  1.9540 
  5441.000 -23.074  1.9820  2.1610  1.9610 -13.902  1.9820  2.1610  1.9610 
  5441.500 -23.299  1.9850  2.1670  2.0590 -14.124  1.9850  2.1670  2.0590 
  5442.000 -23.450  1.9870  2.1730  2.1080 -14.272  1.9870  2.1730  2.1080 
  5442.500 -23.564  1.9890  2.1790  2.1650 -14.383  1.9890  2.1790  2.1650 
  5443.000 -23.929  1.9920  2.1850  2.2210 -14.745  1.9920  2.1850  2.2210 
  5443.500 -24.584  1.9830  2.1840  2.2420 -15.397  1.9830  2.1840  2.2420 
  5444.000 -24.807  1.9820  2.1760  2.2120 -15.617  1.9820  2.1760  2.2120 
  5444.500 -24.561  1.9800  2.1670  2.1750 -15.368  1.9800  2.1670  2.1750 
  5445.000 -24.386  1.9800  2.1590  2.1520 -15.191  1.9800  2.1590  2.1520 
  5445.500 -24.392  1.9790  2.1510  2.1370 -15.194  1.9790  2.1510  2.1370 
  5446.000 -24.833  1.9740  2.1430  2.1200 -15.632  1.9740  2.1430  2.1200 
  5446.500 -24.980  1.9690  2.1190  2.1160 -15.776  1.9690  2.1190  2.1160 
  5447.000 -24.914  1.9720  2.1110  2.1120 -15.707  1.9720  2.1110  2.1120 
  5447.500 -24.455  1.9750  2.1030  2.1100 -15.245  1.9750  2.1030  2.1100 
  5448.000 -24.351  1.9790  2.0950  2.1090 -15.138  1.9790  2.0950  2.1090 
  5448.500 -24.647  1.9860  2.0870  2.1080 -15.432  1.9860  2.0870  2.1080 
  5449.000 -24.938  1.9930  2.0850  2.1100 -15.720  1.9930  2.0850  2.1100 
  5449.500 -24.620  1.9970  2.0910  2.1130 -15.399  1.9970  2.0910  2.1130 
  5450.000 -24.485  1.9970  2.1010  2.1190 -15.261  1.9970  2.1010  2.1190 
  5450.500 -24.671  1.9990  2.1110  2.1250 -15.444  1.9990  2.1110  2.1250 
  5451.000 -25.110  2.0010  2.1240  2.1310 -15.880  2.0010  2.1240  2.1310 
  5451.500 -25.584  2.0070  2.1370  2.1370 -16.351  2.0070  2.1370  2.1370 
  5452.000 -25.735  2.0060  2.1630  2.1430 -16.499  2.0060  2.1630  2.1430 
  5452.500 -25.309  2.0050  2.1770  2.1490 -16.071  2.0050  2.1770  2.1490 
  5453.000 -24.778  2.0170  2.1900  2.1470 -15.537  2.0170  2.1900  2.1470 
  5453.500 -24.317  2.0230  2.2030  2.1460 -15.073  2.0230  2.2030  2.1460 
  5454.000 -24.033  2.0290  2.2160  2.1510 -14.786  2.0290  2.2160  2.1510 
  5454.500 -23.932  2.0320  2.2360  2.1460 -14.682  2.0320  2.2360  2.1460 
  5455.000 -24.336  2.0340  2.2420  2.1420 -15.083  2.0340  2.2420  2.1420 
  5455.500 -24.632  2.0390  2.2410  2.1400 -15.376  2.0390  2.2410  2.1400 
  5456.000 -24.820  2.0380  2.2320  2.1390 -15.562  2.0380  2.2320  2.1390 
  5456.500 -24.575  2.0330  2.2160  2.1510 -15.314  2.0330  2.2160  2.1510 
  5457.000 -24.330  2.0290  2.2000  2.1570 -15.066  2.0290  2.2000  2.1570 
  5457.500 -24.048  2.0190  2.1920  2.1630 -14.781  2.0190  2.1920  2.1630 
