~Version Information
VERS.                     2.0: CWLS log ASCII Standard Version 2.00
WRAP.                      NO: One line per depth step
~Well Information Block
#MNEM.UNIT                               Data Type  Information
#---------                               ---------  -----------
STRT.FT                                   370.0000:
STOP.FT                                  6710.0000:
STEP.FT                                     0.5000:
NULL.                 -999.25                     :
COMP.                                             :COMPANY            
WELL.     SAN EMIDIO 35-19 REDRILL #2             :WELL               
FLD .                                             :FIELD              
CTRY.                                             :COUNTRY            
STAT.                                             :STATE              
LOC .                                             :LOCATION           
UWI .                                             :UNIQUE WELL ID     
SRVC.                                             :Service company    
DATE.                                             :LOG DATE           
~Curve Information
#MNEM.UNIT           API CODE  Curve Description
#---------           --------  -----------------
DEPT.FT                      :   1 DEPTH
SP  .MV                      :   2
AM16.OHMM                    :   3
AO10.OHMM                    :   4
AO19.OHMM                    :   5
SBL .MV                      :   6
RS  .OHMM                    :   7
RM  .OHMM                    :   8
RD  .OHMM                    :   9
~A
   370.000 -999.25  0.0165  0.2720 -999.25 -999.25  0.0165  0.2720 -999.25 
   370.500 -999.25  0.0137  0.3150 -999.25 -999.25  0.0137  0.3150 -999.25 
   371.000 -999.25  0.0276  0.3360 -999.25 -999.25  0.0276  0.3360 -999.25 
   371.500 -999.25  0.0792  0.3720 -999.25 -999.25  0.0792  0.3720 -999.25 
   372.000 -999.25  0.3485  0.4000 -999.25 -999.25  0.3485  0.4000 -999.25 
   372.500 -999.25  0.8579  0.2490 -999.25 -999.25  0.8579  0.2490 -999.25 
   373.000 -999.25  1.5774  0.2270 -999.25 -999.25  1.5774  0.2270 -999.25 
   373.500 -999.25  2.5778  0.4560 -999.25 -999.25  2.5778  0.4560 -999.25 
   374.000 -999.25  4.6085  0.5060 -999.25 -999.25  4.6085  0.5060 -999.25 
   374.500 -0.2300  6.5332  0.3620 -999.25  11.770  6.5332  0.3620 -999.25 
   375.000 -2.2060  28.560  0.2620 -999.25  9.7940  28.560  0.2620 -999.25 
   375.500 -8.8160  31.888  0.2400 -999.25  3.1840  31.888  0.2400 -999.25 
   376.000 -13.235  33.664  0.3110 -999.25 -1.2350  33.664  0.3110 -999.25 
   376.500 -16.253  34.498  0.4260 -999.25 -4.2530  34.498  0.4260 -999.25 
   377.000 -19.200  33.728  0.4970 -999.25 -7.2000  33.728  0.4970 -999.25 
   377.500 -22.039  32.980  0.3960 -999.25 -10.039  32.980  0.3960 -999.25 
   378.000 -23.728  32.129  0.2740 -999.25 -11.728  32.129  0.2740 -999.25 
   378.500 -25.346  31.278  0.2090 -999.25 -13.346  31.278  0.2090 -999.25 
   379.000 -27.143  30.426  0.2370 -999.25 -15.143  30.426  0.2370 -999.25 
   379.500 -28.150  29.575  0.4520 -999.25 -16.150  29.575  0.4520 -999.25 
   380.000 -29.660  28.724  0.4730 -999.25 -17.660  28.724  0.4730 -999.25 
   380.500 -31.347  27.873  0.4160 -999.25 -19.347  27.873  0.4160 -999.25 
   381.000 -31.022  27.022  0.3590 -999.25 -19.022  27.022  0.3590 -999.25 
   381.500 -30.266  26.186  0.2950 -999.25 -18.266  26.186  0.2950 -999.25 
   382.000 -29.618  25.707  0.2310 -999.25 -17.618  25.707  0.2310 -999.25 
   382.500 -29.329  25.459  0.1950 -999.25 -17.329  25.459  0.1950 -999.25 
   383.000 -29.148  25.914  0.5180 -999.25 -17.148  25.914  0.5180 -999.25 
   383.500 -29.182  26.893  0.8560 -999.25 -17.182  26.893  0.8560 -999.25 
   384.000 -29.467  29.031  1.4510 -999.25 -17.467  29.031  1.4510 -999.25 
   384.500 -31.082  32.792  2.8860 -999.25 -19.082  32.792  2.8860 -999.25 
   385.000 -33.702  35.599  14.374 -999.25 -21.702  35.599  14.374 -999.25 
   385.500 -35.101  36.827  15.027 -999.25 -23.101  36.827  15.027 -999.25 
   386.000 -36.284  37.422  17.946 -999.25 -24.284  37.422  17.946 -999.25 
   386.500 -35.960  37.920  19.531 -999.25 -23.960  37.920  19.531 -999.25 
   387.000 -35.563  37.774  23.786 -999.25 -23.563  37.774  23.786 -999.25 
   387.500 -34.987  37.053  45.374 -999.25 -22.987  37.053  45.374 -999.25 
   388.000 -34.715  35.011  45.163 -999.25 -22.715  35.011  45.163 -999.25 
   388.500 -34.444  32.440  44.736 -999.25 -22.444  32.440  44.736 -999.25 
   389.000 -32.863  29.601  43.664 -999.25 -20.863  29.601  43.664 -999.25 
   389.500 -31.568  27.054  41.301 -999.25 -19.568  27.054  41.301 -999.25 
   390.000 -30.022  24.589  37.720  0.0140 -18.022  24.589  37.720  0.0140 
   390.500 -29.519  23.585  34.636  0.0160 -17.519  23.585  34.636  0.0160 
   391.000 -29.376  23.894  33.130  0.0170 -17.376  23.894  33.130  0.0170 
   391.500 -29.447  24.829  31.481  0.0190 -17.447  24.829  31.481  0.0190 
   392.000 -29.986  26.483  30.333  0.0200 -17.986  26.483  30.333  0.0200 
   392.500 -31.387  28.382  32.413  0.0210 -19.387  28.382  32.413  0.0210 
   393.000 -32.931  29.878  34.492  2.4810 -20.931  29.878  34.492  2.4810 
   393.500 -33.829  30.455  35.855  3.5210 -21.829  30.455  35.855  3.5210 
   394.000 -33.793  30.237  37.361  10.118 -21.793  30.237  37.361  10.118 
   394.500 -32.967  29.784  37.791  11.768 -20.967  29.784  37.791  11.768 
   395.000 -32.643  29.346  38.293  16.056 -20.643  29.346  38.293  16.056 
   395.500 -32.284  28.981  38.437  19.864 -20.284  28.981  38.437  19.864 
   396.000 -32.033  28.748  38.581  26.461 -20.033  28.748  38.581  26.461 
   396.500 -33.864  28.702  38.867  33.059 -21.864  28.702  38.867  33.059 
   397.000 -35.552  28.696  38.938  34.708 -23.552  28.696  38.938  34.708 
   397.500 -36.702  28.444  38.867  35.640 -24.702  28.444  38.867  35.640 
   398.000 -36.917  27.205  38.437  36.572 -24.917  27.205  38.437  36.572 
   398.500 -36.845  25.242  37.720  36.572 -24.845  25.242  37.720  36.572 
   399.000 -36.558  24.095  36.070  35.998 -24.558  24.095  36.070  35.998 
   399.500 -35.875  23.019  34.277  34.995 -23.875  23.019  34.277  34.995 
   400.000 -34.367  21.943  32.054  33.273 -22.367  21.943  32.054  33.273 
   400.500 -33.503  21.014  30.265  31.843 -21.503  21.014  30.265  31.843 
   401.000 -33.502  20.588  29.050  30.484 -21.502  20.588  29.050  30.484 
   401.500 -33.428  20.376  27.045  29.197 -21.428  20.376  27.045  29.197 
   402.000 -32.995  20.738  26.116  27.623 -20.995  20.738  26.116  27.623 
   402.500 -32.455  21.316  26.048  25.618 -20.455  21.316  26.048  25.618 
   403.000 -31.807  21.893  26.195  25.837 -19.807  21.893  26.195  25.837 
   403.500 -31.159  22.614  26.486  27.418 -19.159  22.614  26.486  27.418 
   404.000 -30.942  23.406  26.991  29.000 -18.942  23.406  26.991  29.000 
   404.500 -31.120  23.912  27.497  30.939 -19.120  23.912  27.497  30.939 
   405.000 -32.124  24.560  28.504  32.807 -20.124  24.560  28.504  32.807 
   405.500 -32.517  24.851  29.082  34.173 -20.517  24.851  29.082  34.173 
   406.000 -32.659  24.998  29.946  35.540 -20.659  24.998  29.946  35.540 
   406.500 -32.765  24.858  30.380  37.192 -20.765  24.858  30.380  37.192 
   407.000 -32.871  24.503  30.598  38.272 -20.871  24.503  30.598  38.272 
   407.500 -33.013  24.148  30.602  38.705 -21.013  24.148  30.602  38.705 
   408.000 -33.155  23.506  30.175  38.422 -21.155  23.506  30.175  38.422 
   408.500 -33.405  22.793  29.606  37.565 -21.405  22.793  29.606  37.565 
   409.000 -33.834  22.223  28.247  34.557 -21.834  22.223  28.247  34.557 
   409.500 -34.551  21.222  25.812  31.190 -22.551  21.222  25.812  31.190 
   410.000 -37.602  20.604  23.234  29.831 -25.602  20.604  23.234  29.831 
   410.500 -38.891  19.986  22.309  27.615 -26.891  19.986  22.309  27.615 
   411.000 -38.529  19.521  21.312  27.264 -26.529  19.521  21.312  27.264 
   411.500 -37.376  19.106  20.817  27.988 -25.376  19.106  20.817  27.988 
   412.000 -36.009  18.805  20.789  28.354 -24.009  18.805  20.789  28.354 
   412.500 -35.359  18.548  20.761  29.222 -23.359  18.548  20.761  29.222 
   413.000 -35.607  18.843  21.341  30.376 -23.607  18.843  21.341  30.376 
   413.500 -35.604  19.008  21.850  31.602 -23.604  19.008  21.850  31.602 
   414.000 -35.529  19.095  22.287  32.757 -23.529  19.095  22.287  32.757 
   414.500 -34.340  19.124  22.868  33.266 -22.340  19.124  22.868  33.266 
   415.000 -33.403  19.118  23.377  32.556 -21.403  19.118  23.377  32.556 
   415.500 -33.220  19.018  23.886  32.062 -21.220  19.018  23.886  32.062 
   416.000 -33.253  18.703  24.181  30.993 -21.253  18.703  24.181  30.993 
   416.500 -33.214  18.066  24.403  29.781 -21.214  18.066  24.403  29.781 
   417.000 -33.175  17.486  24.338  29.860 -21.175  17.486  24.338  29.860 
   417.500 -33.099  17.350  24.059  30.871 -21.099  17.350  24.059  30.871 
   418.000 -32.881  17.337  23.779  31.811 -20.881  17.337  23.779  31.811 
   418.500 -32.662  17.323  23.714  32.463 -20.662  17.323  23.714  32.463 
   419.000 -34.167  17.266  23.937  32.900 -22.167  17.266  23.937  32.900 
   419.500 -34.810  17.102  24.518  32.764 -22.810  17.102  24.518  32.764 
   420.000 -34.053  16.866  24.955  32.054 -22.053  16.866  24.955  32.054 
   420.500 -32.476  16.206  24.589  30.613 -20.476  16.206  24.589  30.613 
   421.000 -32.335  14.133  22.574  26.662 -20.335  14.133  22.574  26.662 
   421.500 -32.195  13.300  19.627  23.571 -20.195  13.300  19.627  23.571 
   422.000 -31.623  12.905  18.886  18.857 -19.623  12.905  18.886  18.857 
   422.500 -30.657  13.177  17.687  17.293 -18.657  13.177  17.687  17.293 
