~Version Information
VERS.                     2.0: CWLS log ASCII Standard Version 2.00
WRAP.                      NO: One line per depth step
~Well Information Block
#MNEM.UNIT                               Data Type  Information
#---------                               ---------  -----------
STRT.FT                                   370.0000:
STOP.FT                                  6710.0000:
STEP.FT                                     0.5000:
NULL.                 -999.25                     :
COMP.                                             :COMPANY            
WELL.     SAN EMIDIO 35-19 REDRILL #2             :WELL               
FLD .                                             :FIELD              
CTRY.                                             :COUNTRY            
STAT.                                             :STATE              
LOC .                                             :LOCATION           
UWI .                                             :UNIQUE WELL ID     
SRVC.                                             :Service company    
DATE.                                             :LOG DATE           
~Curve Information
#MNEM.UNIT           API CODE  Curve Description
#---------           --------  -----------------
DEPT.FT                      :   1 DEPTH
SP  .MV                      :   2
AM16.OHMM                    :   3
AO10.OHMM                    :   4
AO19.OHMM                    :   5
SBL .MV                      :   6
RS  .OHMM                    :   7
RM  .OHMM                    :   8
RD  .OHMM                    :   9
~A
# ...
  1218.000 -19.074  7.2330  14.181  15.124 -7.0740  7.2330  14.181  15.124 
  1218.500 -18.820  7.5060  14.261  15.215 -6.8200  7.5060  14.261  15.215 
  1219.000 -18.637  7.9730  14.312  15.481 -6.6370  7.9730  14.312  15.481 
  1219.500 -18.777  8.3540  14.363  15.804 -6.7770  8.3540  14.363  15.804 
  1220.000 -19.348  8.7410  14.557  16.135 -7.3480  8.7410  14.557  16.135 
  1220.500 -20.145  9.1630  14.620  16.470 -8.1450  9.1630  14.620  16.470 
  1221.000 -21.444  10.209  14.755  16.741 -9.4440  10.209  14.755  16.741 
  1221.500 -23.534  11.340  14.840  17.063 -11.534  11.340  14.840  17.063 
  1222.000 -27.993  12.364  14.932  17.549 -15.993  12.364  14.932  17.549 
  1222.500 -31.555  13.195  14.966  18.121 -19.555  13.195  14.966  18.121 
  1223.000 -34.507  15.395  15.072  18.708 -22.507  15.395  15.072  18.708 
  1223.500 -39.002  17.100  15.357  19.187 -27.002  17.100  15.357  19.187 
  1224.000 -42.097  18.389  15.779  19.730 -30.097  18.389  15.779  19.730 
  1224.500 -45.084  19.858  16.151  25.973 -33.084  19.858  16.151  25.973 
  1225.000 -47.928  20.305  16.321  26.318 -35.928  20.305  16.321  26.318 
  1225.500 -49.227  20.751  16.442  26.733 -37.227  20.751  16.442  26.733 
  1226.000 -50.419  21.198  16.505  26.934 -38.419  21.198  16.505  26.934 
  1226.500 -51.467  23.693  16.518  27.350 -39.467  23.693  16.518  27.350 
  1227.000 -52.192  24.682  16.523  27.479 -40.192  24.682  16.523  27.479 
  1227.500 -52.952  24.955  16.336  27.465 -40.952  24.955  16.336  27.465 
  1228.000 -53.461  25.155  16.112  27.307 -41.461  25.155  16.112  27.307 
  1228.500 -54.006  25.213  15.874  27.293 -42.006  25.213  15.874  27.293 
  1229.000 -54.480  25.307  15.750  27.135 -42.480  25.307  15.750  27.135 
  1229.500 -54.845  25.400  15.641  27.049 -42.845  25.400  15.641  27.049 
  1230.000 -55.355  25.499  15.568  26.819 -43.355  25.499  15.568  26.819 
  1230.500 -55.607  25.597  15.597  26.601 -43.607  25.597  15.597  26.601 
  1231.000 -55.932  25.808  15.725  26.382 -43.932  25.808  15.725  26.382 
  1231.500 -56.257  25.877  16.033  26.235 -44.257  25.877  16.033  26.235 
  1232.000 -56.474  25.945  16.478  26.088 -44.474  25.945  16.478  26.088 
  1232.500 -56.512  26.014  17.395  25.941 -44.512  26.014  17.395  25.941 
  1233.000 -56.082  26.152  18.535  25.865 -44.082  26.152  18.535  25.865 
  1233.500 -55.473  26.292  19.288  19.933 -43.473  26.292  19.288  19.933 
  1234.000 -54.397  26.289  19.904  19.882 -42.397  26.289  19.904  19.882 
  1234.500 -53.214  26.356  20.288  19.889 -41.214  26.356  20.288  19.889 
  1235.000 -52.928  26.353  20.673  19.910 -40.928  26.353  20.673  19.910 
  1235.500 -52.607  26.278  21.057  19.903 -40.607  26.278  21.057  19.903 
  1236.000 -52.393  25.987  21.441  19.802 -40.393  25.987  21.441  19.802 
  1236.500 -52.179  25.554  21.826  19.651 -40.179  25.554  21.826  19.651 
  1237.000 -51.713  24.259  24.044  19.321 -39.713  24.259  24.044  19.321 
  1237.500 -50.314  23.324  25.547  18.797 -38.314  23.324  25.547  18.797 
  1238.000 -48.807  21.527  26.547  18.194 -36.807  21.527  26.547  18.194 
  1238.500 -47.803  20.801  27.045  17.620 -35.803  20.801  27.045  17.620 
  1239.000 -46.153  20.074  27.687  17.147 -34.153  20.074  27.687  17.147 
  1239.500 -42.850  19.348  27.684  16.537 -30.850  19.348  27.684  16.537 
  1240.000 -40.194  18.014  27.178  15.461 -28.194  18.014  27.178  15.461 
  1240.500 -38.257  16.730  26.601  14.062 -26.257  16.730  26.601  14.062 
  1241.000 -36.750  16.041  25.163  14.062 -24.750  16.041  25.163  14.062 
  1241.500 -35.063  15.854  23.653  14.176 -23.063  15.854  23.653  14.176 
  1242.000 -33.628  15.818  22.646  14.613 -21.628  15.818  22.646  14.613 
  1242.500 -32.553  15.860  22.141  15.287 -20.553  15.860  22.141  15.287 
  1243.000 -31.944  16.125  21.778  16.283 -19.944  16.125  21.778  16.283 
  1243.500 -33.489  16.699  21.918  17.323 -21.489  16.699  21.918  17.323 
  1244.000 -37.226  17.416  22.273  18.197 -25.226  17.416  22.273  18.197 
  1244.500 -40.747  18.154  23.130  18.921 -28.747  18.154  23.130  18.921 
  1245.000 -43.083  18.971  24.489  19.344 -31.083  18.971  24.489  19.344 
  1245.500 -45.958  19.205  25.705  19.587 -33.958  19.205  25.705  19.587 
  1246.000 -47.899  19.439  27.063  19.759 -35.899  19.439  27.063  19.759 
  1246.500 -49.229  19.674  27.848  19.967 -37.229  19.674  27.848  19.967 
  1247.000 -49.841  21.821  28.275  24.690 -37.841  21.821  28.275  24.690 
  1247.500 -49.591  22.535  28.702  24.829 -37.591  22.535  28.702  24.829 
  1248.000 -49.162  22.818  29.056  24.969 -37.162  22.818  29.056  24.969 
  1248.500 -48.589  22.599  29.125  25.252 -36.589  22.599  29.125  25.252 
  1249.000 -48.375  22.452  29.193  25.607 -36.375  22.452  29.193  25.607 
  1249.500 -48.879  22.449  29.189  26.106 -36.879  22.449  29.189  26.106 
  1250.000 -50.030  22.660  29.114  26.748 -38.030  22.660  29.114  26.748 
  1250.500 -50.711  23.094  28.831  27.253 -38.711  23.094  28.831  27.253 
  1251.000 -50.961  24.532  28.404  26.898 -38.961  24.532  28.404  26.898 
  1251.500 -51.031  25.252  27.762  25.969 -39.031  25.252  27.762  25.969 
  1252.000 -51.155  25.902  27.121  25.328 -39.155  25.902  27.121  25.328 
  1252.500 -51.278  24.973  26.264  24.972 -39.278  24.973  26.264  24.972 
  1253.000 -51.780  24.331  25.406  24.977 -39.780  24.331  25.406  24.977 
  1253.500 -52.030  23.833  24.765  25.195 -40.030  23.833  24.765  25.195 
  1254.000 -52.351  23.836  24.625  25.557 -40.351  23.836  24.625  25.557 
  1254.500 -51.919  24.557  25.131  26.063 -39.919  24.557  25.131  26.063 
  1255.000 -51.199  24.991  25.851  26.389 -39.199  24.991  25.851  26.389 
  1255.500 -50.658  25.927  26.500  26.716 -38.658  25.927  26.500  26.716 
  1256.000 -50.154  26.576  27.006  27.364 -38.154  26.576  27.006  27.364 
  1256.500 -50.152  26.938  27.798  27.655 -38.152  26.938  27.798  27.655 
  1257.000 -50.977  27.228  28.519  28.088 -38.977  27.228  28.519  28.088 
  1257.500 -52.555  27.447  29.025  28.308 -40.555  27.447  29.025  28.308 
  1258.000 -53.739  27.666  29.530  28.383 -41.739  27.666  29.530  28.383 
  1258.500 -54.599  27.526  29.964  28.171 -42.599  27.526  29.964  28.171 
  1259.000 -54.849  27.314  30.397  27.888 -42.849  27.314  30.397  27.888 
  1259.500 -54.739  26.959  30.616  27.174 -42.739  26.959  30.616  27.174 
  1260.000 -54.343  26.246  31.050  26.245 -42.343  26.246  31.050  26.245 
  1260.500 -54.058  25.593  31.402  25.665 -42.058  25.593  31.402  25.665 
  1261.000 -53.631  24.511  31.682  24.582 -41.631  24.511  31.682  24.582 
  1261.500 -52.736  22.926  31.889  23.930 -40.736  22.926  31.889  23.930 
  1262.000 -51.410  20.409  31.882  22.847 -39.410  20.409  31.882  22.847 
  1262.500 -47.499  16.016  31.517  18.713 -35.499  16.016  31.517  18.713 
  1263.000 -42.151  14.833  30.290  17.801 -30.151  14.833  30.290  17.801 
  1263.500 -39.676  13.182  29.423  16.861 -27.676  13.182  29.423  16.861 
  1264.000 -36.339  9.8400  27.694  15.986 -24.339  9.8400  27.694  15.986 
  1264.500 -33.110  8.3980  25.966  14.651 -21.110  8.3980  25.966  14.651 
  1265.000 -29.019  7.5010  23.449  13.152 -17.019  7.5010  23.449  13.152 
  1265.500 -25.646  6.6970  21.649  12.204 -13.646  6.6970  21.649  12.204 
  1266.000 -22.633  6.3090  19.791  10.605 -10.633  6.3090  19.791  10.605 
  1266.500 -20.409  5.9210  19.044  9.9300 -8.4090  5.9210  19.044  9.9300 
  1267.000 -19.228  5.7120  14.124  9.9070 -7.2280  5.7120  14.124  9.9070 
  1267.500 -18.728  5.5750  11.936  9.9930 -6.7280  5.5750  11.936  9.9930 
  1268.000 -18.623  5.4170  11.240  10.085 -6.6230  5.4170  11.240  10.085 
  1268.500 -18.591  5.3520  10.967  10.364 -6.5910  5.3520  10.967  10.364 
  1269.000 -18.558  5.2790  11.016  10.650 -6.5580  5.2790  11.016  10.650 
  1269.500 -18.453  5.2000  11.058  10.937 -6.4530  5.2000  11.058  10.937 
  1270.000 -18.169  5.1920  11.180  11.036 -6.1690  5.1920  11.180  11.036 
  1270.500 -17.706  5.1910  11.258  11.078 -5.7060  5.1910  11.258  11.078 
