~Version Information
VERS.                     2.0: CWLS log ASCII Standard Version 2.00
WRAP.                      NO: One line per depth step
~Well Information Block
#MNEM.UNIT                               Data Type  Information
#---------                               ---------  -----------
STRT.FT                                   370.0000:
STOP.FT                                  6710.0000:
STEP.FT                                     0.5000:
NULL.                 -999.25                     :
COMP.                                             :COMPANY            
WELL.     SAN EMIDIO 35-19 REDRILL #2             :WELL               
FLD .                                             :FIELD              
CTRY.                                             :COUNTRY            
STAT.                                             :STATE              
LOC .                                             :LOCATION           
UWI .                                             :UNIQUE WELL ID     
SRVC.                                             :Service company    
DATE.                                             :LOG DATE           
~Curve Information
#MNEM.UNIT           API CODE  Curve Description
#---------           --------  -----------------
DEPT.FT                      :   1 DEPTH
SP  .MV                      :   2
AM16.OHMM                    :   3
AO10.OHMM                    :   4
AO19.OHMM                    :   5
SBL .MV                      :   6
RS  .OHMM                    :   7
RM  .OHMM                    :   8
RD  .OHMM                    :   9
~A
# ...
  2914.000 -18.333  5.3080  9.3380  5.9110 -6.3330  5.3080  9.3380  5.9110 
  2914.500 -18.228  5.3070  9.3300  5.9930 -6.2280  5.3070  9.3300  5.9930 
  2915.000 -18.124  5.2990  9.3010  6.0750 -6.1240  5.2990  9.3010  6.0750 
  2915.500 -18.055  5.3420  9.2790  6.3190 -6.0550  5.3420  9.2790  6.3190 
  2916.000 -17.843  5.3630  9.2420  6.4910 -5.8430  5.3630  9.2420  6.4910 
  2916.500 -17.667  5.3910  9.1990  6.6410 -5.6670  5.3910  9.1990  6.6410 
  2917.000 -17.849  5.4190  9.1480  6.7840 -5.8490  5.4190  9.1480  6.7840 
  2917.500 -18.282  5.4400  9.0830  6.9270 -6.2820  5.4400  9.0830  6.9270 
  2918.000 -18.643  5.4540  9.0390  7.0780 -6.6430  5.4540  9.0390  7.0780 
  2918.500 -18.412  5.4250  8.8950  7.2060 -6.4120  5.4250  8.8950  7.2060 
  2919.000 -18.182  5.3020  8.7650  7.3350 -6.1820  5.3020  8.7650  7.3350 
  2919.500 -17.541  5.2370  8.5990  7.4570 -5.5410  5.2370  8.5990  7.4570 
  2920.000 -17.329  5.1640  8.4550  7.5570 -5.3290  5.1640  8.4550  7.5570 
  2920.500 -17.690  5.0770  8.3390  7.6570 -5.6900  5.0770  8.3390  7.6570 
  2921.000 -17.979  4.9260  7.2320  7.8500 -5.9790  4.9260  7.2320  7.8500 
  2921.500 -17.875  4.6960  7.1170  7.9570 -5.8750  4.6960  7.1170  7.9570 
  2922.000 -17.770  4.5660  6.7140  8.1360 -5.7700  4.5660  6.7140  8.1360 
  2922.500 -17.594  4.4570  6.5840  8.3370 -5.5940  4.4570  6.5840  8.3370 
  2923.000 -17.096  4.3350  6.4970  8.4800 -5.0960  4.3350  6.4970  8.4800 
  2923.500 -17.206  4.2050  6.4460  8.6230 -5.2060  4.2050  6.4460  8.6230 
  2924.000 -17.531  4.1320  6.3880  8.6730 -5.5310  4.1320  6.3880  8.6730 
  2924.500 -17.999  4.1030  6.3370  8.6580 -5.9990  4.1030  6.3370  8.6580 
  2925.000 -18.610  4.0950  6.3010  8.5280 -6.6100  4.0950  6.3010  8.5280 
  2925.500 -19.258  4.1230  6.2500  8.4200 -7.2580  4.1230  6.2500  8.4200 
  2926.000 -19.905  4.1370  6.1990  8.2540 -7.9050  4.1370  6.1990  8.2540 
  2926.500 -19.693  4.1940  6.1270  8.0950 -7.6930  4.1940  6.1270  8.0950 
  2927.000 -19.480  4.2290  6.0400  8.0010 -7.4800  4.2290  6.0400  8.0010 
  2927.500 -18.625  4.2720  5.9530  7.9930 -6.6250  4.2720  5.9530  7.9930 
  2928.000 -18.269  4.3070  5.8810  8.0930 -6.2690  4.3070  5.8810  8.0930 
  2928.500 -17.914  4.3640  6.0310  8.1580 -5.9140  4.3640  6.0310  8.1580 
  2929.000 -17.505  4.4570  6.2240  8.2220 -5.5050  4.4570  6.2240  8.2220 
  2929.500 -17.096  4.5570  6.3170  8.4080 -5.0960  4.5570  6.3170  8.4080 
  2930.000 -16.705  4.7360  6.4670  8.4790 -4.7050  4.7360  6.4670  8.4790 
  2930.500 -16.851  4.8650  6.5530  8.5860 -4.8510  4.8650  6.5530  8.5860 
  2931.000 -17.141  4.9650  6.6530  8.6650 -5.1410  4.9650  6.6530  8.6650 
  2931.500 -17.359  5.0790  6.7530  8.7220 -5.3590  5.0790  6.7530  8.7220 
  2932.000 -17.433  5.1650  6.7960  8.6850 -5.4330  5.1650  6.7960  8.6850 
  2932.500 -17.329  5.2150  6.7810  8.5340 -5.3290  5.2150  6.7810  8.5340 
  2933.000 -17.152  5.2280  6.6870  8.3610 -5.1520  5.2280  6.6870  8.3610 
  2933.500 -16.725  5.2210  6.5930  8.2090 -4.7250  5.2210  6.5930  8.2090 
  2934.000 -16.442  5.1840  6.5170  8.0360 -4.4420  5.1840  6.5170  8.0360 
  2934.500 -16.230  5.1480  6.4410  7.8490 -4.2300  5.1480  6.4410  7.8490 
  2935.000 -16.376  5.1040  6.2970  7.6620 -4.3760  5.1040  6.2970  7.6620 
  2935.500 -16.558  5.0600  6.1670  7.4890 -4.5580  5.0600  6.1670  7.4890 
  2936.000 -17.026  5.0170  6.0650  7.4300 -5.0260  5.0170  6.0650  7.4300 
  2936.500 -17.279  4.9590  5.9640  7.3720 -5.2790  4.9590  5.9640  7.3720 
  2937.000 -17.641  4.9010  5.8770  7.3290 -5.6410  4.9010  5.8770  7.3290 
  2937.500 -17.858  4.8280  5.7980  7.3100 -5.8580  4.8280  5.7980  7.3100 
  2938.000 -18.183  4.7920  5.6890  7.2920 -6.1830  4.7920  5.6890  7.2920 
  2938.500 -18.365  4.7550  5.6170  7.2620 -6.3650  4.7550  5.6170  7.2620 
  2939.000 -18.547  4.7110  5.5810  7.2550 -6.5470  4.7110  5.5810  7.2550 
  2939.500 -19.052  4.7110  5.5580  7.2470 -7.0520  4.7110  5.5580  7.2470 
  2940.000 -19.340  4.7460  5.5870  7.2460 -7.3400  4.7460  5.5870  7.2460 
  2940.500 -19.558  4.8250  5.6720  7.2460 -7.5580  4.8250  5.6720  7.2460 
  2941.000 -19.453  4.9030  5.7720  7.2520 -7.4530  4.9030  5.7720  7.2520 
  2941.500 -19.348  4.9960  5.8870  7.2590 -7.3480  4.9960  5.8870  7.2590 
  2942.000 -18.600  5.1460  5.9870  7.3450 -6.6000  5.1460  5.9870  7.3450 
  2942.500 -18.173  5.2680  6.1150  7.3870 -6.1730  5.2680  6.1150  7.3870 
  2943.000 -17.799  5.4110  6.2080  7.4870 -5.7990  5.4110  6.2080  7.4870 
  2943.500 -17.426  5.5750  6.3150  7.5440 -5.4260  5.5750  6.3150  7.5440 
  2944.000 -17.107  5.7400  6.4300  7.6660 -5.1070  5.7400  6.4300  7.6660 
  2944.500 -17.003  5.8330  6.5590  7.8590 -5.0030  5.8330  6.5590  7.8590 
  2945.000 -17.006  5.9260  6.6590  7.9880 -5.0060  5.9260  6.6590  7.9880 
  2945.500 -17.045  6.2340  6.7950  8.2890 -5.0450  6.2340  6.7950  8.2890 
  2946.000 -17.119  6.4630  6.8950  8.3890 -5.1190  6.4630  6.8950  8.3890 
  2946.500 -17.551  6.7570  7.0590  8.5970 -5.5510  6.7570  7.0590  8.5970 
  2947.000 -18.055  7.0660  7.3390  8.6970 -6.0550  7.0660  7.3390  8.6970 
  2947.500 -18.846  7.3890  7.5180  8.8330 -6.8460  7.3890  7.5180  8.8330 
  2948.000 -19.457  7.9270  7.8120  8.9330 -7.4570  7.9270  7.8120  8.9330 
  2948.500 -22.647  8.3930  7.8900  8.9610 -10.647  8.3930  7.8900  8.9610 
  2949.000 -27.878  8.8090  7.9620  8.8170 -15.878  8.8090  7.9620  8.8170 
  2949.500 -33.037  9.3050  7.9830  8.7300 -21.037  9.3050  7.9830  8.7300 
  2950.000 -35.797  9.9510  7.9960  8.9660 -23.797  9.9510  7.9960  8.9660 
  2950.500 -38.053  10.568  8.0250  9.1240 -26.053  10.568  8.0250  9.1240 
  2951.000 -38.197  11.366  8.1330  9.3400 -26.197  11.366  8.1330  9.3400 
  2951.500 -37.839  12.695  8.3480  9.5190 -25.839  12.695  8.3480  9.5190 
  2952.000 -37.696  13.306  8.5850  9.6410 -25.696  13.306  8.5850  9.6410 
  2952.500 -37.553  14.132  8.7430  9.8280 -25.553  14.132  8.7430  9.8280 
  2953.000 -37.018  14.670  8.9300  10.000 -25.018  14.670  8.9300  10.000 
  2953.500 -38.200  14.627  9.1310  10.180 -26.200  14.627  9.1310  10.180 
  2954.000 -40.134  14.606  9.2750  10.316 -28.134  14.606  9.2750  10.316 
  2954.500 -42.211  14.735  9.4110  10.403 -30.211  14.735  9.4110  10.403 
  2955.000 -43.501  15.087  9.5690  10.438 -31.501  15.087  9.5690  10.438 
  2955.500 -44.039  16.035  9.6480  10.388 -32.039  16.035  9.6480  10.388 
  2956.000 -44.541  16.480  9.6550  10.273 -32.541  16.480  9.6550  10.273 
  2956.500 -44.827  16.717  9.6330  10.136 -32.827  16.717  9.6330  10.136 
  2957.000 -45.401  16.998  9.6480  9.9850 -33.401  16.998  9.6480  9.9850 
  2957.500 -45.939  17.235  9.7700  9.8490 -33.939  17.235  9.7700  9.8490 
  2958.000 -46.011  17.522  9.9060  9.7910 -34.011  17.522  9.9060  9.7910 
  2958.500 -45.224  17.824  10.179  9.7840 -33.224  17.824  10.179  9.7840 
  2959.000 -44.651  18.039  10.474  9.7800 -32.651  18.039  10.474  9.7800 
  2959.500 -44.294  18.211  10.740  9.7770 -32.294  18.211  10.740  9.7770 
  2960.000 -43.937  18.377  11.077  9.7770 -31.937  18.377  11.077  9.7770 
  2960.500 -43.775  18.470  11.465  9.7870 -31.775  18.470  11.465  9.7870 
  2961.000 -43.614  18.693  11.910  9.7980 -31.614  18.693  11.910  9.7980 
  2961.500 -44.332  18.772  12.384  9.8270 -32.332  18.772  12.384  9.8270 
  2962.000 -45.084  19.483  12.837  9.8560 -33.084  19.483  12.837  9.8560 
  2962.500 -44.691  19.871  13.426  9.9060 -32.691  19.871  13.426  9.9060 
  2963.000 -44.226  19.957  13.950  9.9850 -32.226  19.957  13.950  9.9850 
  2963.500 -45.408  20.014  14.324  10.035 -33.408  20.014  14.324  10.035 
  2964.000 -46.698  20.072  14.784  10.085 -34.698  20.072  14.784  10.085 
  2964.500 -46.520  20.143  15.200  10.114 -34.520  20.143  15.200  10.114 
  2965.000 -46.091  20.179  15.524  9.9270 -34.091  20.179  15.524  9.9270 
  2965.500 -45.912  20.143  15.947  9.7690 -33.912  20.143  15.947  9.7690 
  2966.000 -46.378  19.992  16.364  9.6900 -34.378  19.992  16.364  9.6900 
  2966.500 -47.345  19.396  16.644  9.5960 -35.345  19.396  16.644  9.5960 
