~Version Information
VERS.                     2.0: CWLS log ASCII Standard Version 2.00
WRAP.                      NO: One line per depth step
~Well Information Block
#MNEM.UNIT                               Data Type  Information
#---------                               ---------  -----------
STRT.FT                                   370.0000:
STOP.FT                                  6710.0000:
STEP.FT                                     0.5000:
NULL.                 -999.25                     :
COMP.                                             :COMPANY            
WELL.     SAN EMIDIO 35-19 REDRILL #2             :WELL               
FLD .                                             :FIELD              
CTRY.                                             :COUNTRY            
STAT.                                             :STATE              
LOC .                                             :LOCATION           
UWI .                                             :UNIQUE WELL ID     
SRVC.                                             :Service company    
DATE.                                             :LOG DATE           
~Curve Information
#MNEM.UNIT           API CODE  Curve Description
#---------           --------  -----------------
DEPT.FT                      :   1 DEPTH
SP  .MV                      :   2
AM16.OHMM                    :   3
AO10.OHMM                    :   4
AO19.OHMM                    :   5
SBL .MV                      :   6
RS  .OHMM                    :   7
RM  .OHMM                    :   8
RD  .OHMM                    :   9
~A
# ...
  6677.000 -21.398  19.242  17.724  14.440 -7.3980  19.242  17.724  14.440 
  6677.500 -21.299  19.477  17.721  14.796 -7.2990  19.477  17.721  14.796 
  6678.000 -21.386  19.926  17.705  15.066 -7.3860  19.926  17.705  15.066 
  6678.500 -21.578  19.980  17.667  15.329 -7.5780  19.980  17.667  15.329 
  6679.000 -21.769  19.742  17.744  15.634 -7.7690  19.742  17.744  15.634 
  6679.500 -22.065  19.396  17.863  15.833 -8.0650  19.396  17.863  15.833 
  6680.000 -22.403  18.914  17.976  15.967 -8.4030  18.914  17.976  15.967 
  6680.500 -22.162  18.146  17.902  16.072 -8.1620  18.146  17.902  16.072 
  6681.000 -21.923  17.742  17.592  16.435 -7.9230  17.742  17.592  16.435 
  6681.500 -21.789  17.246  16.093  16.805 -7.7890  17.246  16.093  16.805 
  6682.000 -21.763  17.093  15.367  17.068 -7.7630  17.093  15.367  17.068 
  6682.500 -21.885  17.155  14.484  17.281 -7.8850  17.155  14.484  17.281 
  6683.000 -22.003  17.404  14.160  17.386 -8.0030  17.404  14.160  17.386 
  6683.500 -22.087  17.910  13.935  17.462 -8.0870  17.910  13.935  17.462 
  6684.000 -22.203  18.560  13.926  17.518 -8.2030  18.560  13.926  17.518 
  6684.500 -22.339  19.281  13.952  17.644 -8.3390  19.281  13.952  17.644 
  6685.000 -22.474  19.844  14.222  18.108 -8.4740  19.844  14.222  18.108 
  6685.500 -22.574  23.956  14.915  18.628 -8.5740  23.956  14.915  18.628 
  6686.000 -22.673  25.571  15.621  19.027 -8.6730  25.571  15.621  19.027 
  6686.500 -22.912  26.057  16.550  19.362 -8.9120  26.057  16.550  19.362 
  6687.000 -22.972  26.323  17.873  19.689 -8.9720  26.323  17.873  19.689 
  6687.500 -23.031  26.367  18.594  22.182 -9.0310  26.367  18.594  22.182 
  6688.000 -23.303  26.128  19.237  21.510 -9.3030  26.128  19.237  21.510 
  6688.500 -23.457  25.899  19.836  20.630 -9.4570  25.899  19.836  20.630 
  6689.000 -23.649  24.944  19.864  19.179 -9.6490  24.944  19.864  19.179 
  6689.500 -23.842  23.419  19.892  16.651 -9.8420  23.419  19.892  16.651 
  6690.000 -24.033  21.815  19.920  17.200 -10.033  21.815  19.920  17.200 
  6690.500 -24.008  20.940  19.948  17.748 -10.008  20.940  19.948  17.748 
  6691.000 -23.734  20.774  19.976  18.297 -9.7340  20.774  19.976  18.297 
  6691.500 -23.383  21.825  19.572  18.846 -9.3830  21.825  19.572  18.846 
  6692.000 -23.033  22.875  19.219  19.394 -9.0330  22.875  19.219  19.394 
  6692.500 -22.506  24.003  18.493  18.461 -8.5060  24.003  18.493  18.461 
  6693.000 -22.117  25.549  16.807  17.363 -8.1170  25.549  16.807  17.363 
  6693.500 -21.516  26.321  16.548  16.458 -7.5160  26.321  16.548  16.458 
  6694.000 -20.737  27.159  16.223  16.077 -6.7370  27.159  16.223  16.077 
  6694.500 -20.098  27.635  16.415  15.817 -6.0980  27.635  16.415  15.817 
  6695.000 -19.460  27.676  17.387  15.843 -5.4600  27.676  17.387  15.843 
  6695.500 -18.644  27.664  17.993  16.020 -4.6440  27.664  17.993  16.020 
  6696.000 -17.719  27.637 -999.25  16.317 -3.7190  27.637 -999.25  16.317 
  6696.500 -17.118  27.614 -999.25  16.566 -3.1180  27.614 -999.25  16.566 
  6697.000 -16.479  27.597 -999.25  16.808 -2.4790  27.597 -999.25  16.808 
  6697.500 -16.453  27.638 -999.25  17.064 -2.4530  27.638 -999.25  17.064 
  6698.000 -16.648  27.552 -999.25  17.312 -2.6480  27.552 -999.25  17.312 
  6698.500 -16.745  27.527 -999.25  17.410 -2.7450  27.527 -999.25  17.410 
  6699.000 -16.842  27.436 -999.25  17.408 -2.8420  27.436 -999.25  17.408 
  6699.500 -17.080  27.413 -999.25  17.406 -3.0800  27.413 -999.25  17.406 
  6700.000 -17.199  27.394 -999.25  17.405 -3.1990  27.394 -999.25  17.405 
  6700.500 -17.258  27.484 -999.25  17.412 -3.2580  27.484 -999.25  17.412 
  6701.000 -17.317  27.441 -999.25  17.429 -3.3170  27.441 -999.25  17.429 
  6701.500 -17.382  27.397 -999.25  17.446 -3.3820  27.397 -999.25  17.446 
  6702.000 -17.446  27.183 -999.25  17.459 -3.4460  27.183 -999.25  17.459 
  6702.500 -17.595  27.062 -999.25  17.472 -3.5950  27.062 -999.25  17.472 
  6703.000 -17.661  27.006 -999.25  17.501 -3.6610  27.006 -999.25  17.501 
  6703.500 -17.683  26.885 -999.25  17.496 -3.6830  26.885 -999.25  17.496 
  6704.000 -17.706  26.898 -999.25  17.491 -3.7060  26.898 -999.25  17.491 
  6704.500 -17.754  26.846 -999.25  17.486 -3.7540  26.846 -999.25  17.486 
  6705.000 -17.802  26.875 -999.25  17.482 -3.8020  26.875 -999.25  17.482 
  6705.500 -17.872  26.891 -999.25  17.490 -3.8720  26.891 -999.25  17.490 
  6706.000 -17.971  26.984 -999.25  17.499 -3.9710  26.984 -999.25  17.499 
  6706.500 -18.036  27.075 -999.25  17.505 -4.0360  27.075 -999.25  17.505 
  6707.000 -18.099  27.094 -999.25  17.511 -4.0990  27.094 -999.25  17.511 
  6707.500 -17.806  27.256 -999.25  17.518 -3.8060  27.256 -999.25  17.518 
  6708.000 -17.438  27.423 -999.25 -999.25 -3.4380  27.423 -999.25 -999.25 
  6708.500 -17.036  27.362 -999.25 -999.25 -3.0360  27.362 -999.25 -999.25 
  6709.000 -16.702  27.318 -999.25 -999.25 -2.7020  27.318 -999.25 -999.25 
  6709.500 -16.586 -999.25 -999.25 -999.25 -2.5860 -999.25 -999.25 -999.25 
  6710.000 -16.760 -999.25 -999.25 -999.25 -2.7600 -999.25 -999.25 -999.25 
