~Version Information
VERS.                     2.0: CWLS log ASCII Standard Version 2.00
WRAP.                      NO: One line per depth step
~Well Information Block
#MNEM.UNIT                               Data Type  Information
#---------                               ---------  -----------
STRT.FT                                   370.0000:
STOP.FT                                  6710.0000:
STEP.FT                                     0.5000:
NULL.                 -999.25                     :
COMP.                                             :COMPANY            
WELL.     SAN EMIDIO 35-19 REDRILL #2             :WELL               
FLD .                                             :FIELD              
CTRY.                                             :COUNTRY            
STAT.                                             :STATE              
LOC .                                             :LOCATION           
UWI .                                             :UNIQUE WELL ID     
SRVC.                                             :Service company    
DATE.                                             :LOG DATE           
~Curve Information
#MNEM.UNIT           API CODE  Curve Description
#---------           --------  -----------------
DEPT.FT                      :   1 DEPTH
SP  .MV                      :   2
AM16.OHMM                    :   3
AO10.OHMM                    :   4
AO19.OHMM                    :   5
SBL .MV                      :   6
RS  .OHMM                    :   7
RM  .OHMM                    :   8
RD  .OHMM                    :   9
~A
# ...
  2490.000 -32.521  6.4490  15.256  10.698 -20.521  6.4490  15.256  10.698 
  2490.500 -28.046  5.8460  12.480  9.5720 -16.046  5.8460  12.480  9.5720 
  2491.000 -24.358  5.5080  10.041  8.7970 -12.358  5.5080  10.041  8.7970 
  2491.500 -22.928  5.2500  8.9290  7.9290 -10.928  5.2500  8.9290  7.9290 
  2492.000 -22.679  5.0840  8.7210  7.6480 -10.679  5.0840  8.7210  7.6480 
  2492.500 -22.393  4.8760  8.5770  7.5050 -10.393  4.8760  8.5770  7.5050 
  2493.000 -22.360  4.7110  8.4690  7.4110 -10.360  4.7110  8.4690  7.4110 
  2493.500 -21.287  4.6810  8.2610  7.2740 -9.2870  4.6810  8.2610  7.2740 
  2494.000 -20.393  4.7740  8.1740  7.1950 -8.3930  4.7740  8.1740  7.1950 
  2494.500 -20.109  4.8170  8.0230  7.0940 -8.1090  4.8170  8.0230  7.0940 
  2495.000 -20.110  4.8810  7.8790  6.9580 -8.1100  4.8810  7.8790  6.9580 
  2495.500 -20.148  4.8950  7.7210  6.8570 -8.1480  4.8950  7.7210  6.8570 
  2496.000 -20.866  4.8230  7.6850  6.8200 -8.8660  4.8230  7.6850  6.8200 
  2496.500 -21.118  4.7080  7.7060  6.9280 -9.1180  4.7080  7.7060  6.9280 
  2497.000 -21.084  4.6430  7.7920  7.2500 -9.0840  4.6430  7.7920  7.2500 
  2497.500 -21.121  4.7290  7.9990  7.4790 -9.1210  4.7290  7.9990  7.4790 
  2498.000 -20.765  4.7780  8.3650  7.7660 -8.7650  4.7780  8.3650  7.7660 
  2498.500 -20.480  4.8280  8.5430  8.0590 -8.4800  4.8280  8.5430  8.0590 
  2499.000 -19.873  4.8780  8.6150  8.1380 -7.8730  4.8780  8.6150  8.1380 
  2499.500 -19.624  4.9560  8.6360  8.2520 -7.6240  4.9560  8.6360  8.2520 
  2500.000 -20.822  4.9790  8.5500  8.3120 -8.8220  4.9790  8.5500  8.3120 
  2500.500 -20.660  5.0580  8.5640  8.3340 -8.6600  5.0580  8.5640  8.3340 
  2501.000 -20.498  4.9070  8.5790  8.3490 -8.4980  4.9070  8.5790  8.3490 
  2501.500 -19.603  4.7710  8.3420  8.3200 -7.6030  4.7710  8.3420  8.3200 
  2502.000 -19.817  4.6270  8.0260  8.2120 -7.8170  4.6270  8.0260  8.2120 
  2502.500 -20.104  4.5410  7.7310  8.0550 -8.1040  4.5410  7.7310  8.0550 
  2503.000 -20.318  4.5130  7.4370  7.8820 -8.3180  4.5130  7.4370  7.8820 
  2503.500 -20.676  4.4910  7.2140  7.7240 -8.6760  4.4910  7.2140  7.7240 
  2504.000 -21.105  4.4700  6.9700  7.5810 -9.1050  4.4700  6.9700  7.5810 
  2504.500 -21.928  4.4700  6.5320  7.5590 -9.9280  4.4700  6.5320  7.5590 
  2505.000 -22.036  4.4700  6.2230  7.6740 -10.036  4.4700  6.2230  7.6740 
  2505.500 -22.035  4.5420  6.0730  7.9480 -10.035  4.5420  6.0730  7.9480 
  2506.000 -21.999  4.7220  5.9790  8.1920 -9.9990  4.7220  5.9790  8.1920 
  2506.500 -21.927  4.9660  6.0150  8.8100 -9.9270  4.9660  6.0150  8.8100 
  2507.000 -21.891  5.2610  6.2380  9.2490 -9.8910  5.2610  6.2380  9.2490 
  2507.500 -21.890  5.5630  6.6550  9.6580 -9.8900  5.5630  6.6550  9.6580 
  2508.000 -22.069  5.8940  7.0000  9.8020 -10.069  5.8940  7.0000  9.8020 
  2508.500 -24.109  6.2750  7.2010  10.010 -12.109  6.2750  7.2010  10.010 
  2509.000 -28.334  6.4900  7.3380  10.327 -16.334  6.4900  7.3380  10.327 
  2509.500 -30.052  6.6920  7.4240  10.420 -18.052  6.6920  7.4240  10.420 
  2510.000 -31.269  7.0220  7.4460  10.068 -19.269  7.0220  7.4460  10.068 
  2510.500 -32.272  7.1520  7.4100  9.7240 -20.272  7.1520  7.4100  9.7240 
  2511.000 -30.839  7.2740  7.2520  9.6380 -18.839  7.2740  7.2520  9.6380 
  2511.500 -30.051  7.3530  7.2090  9.7020 -18.051  7.3530  7.2090  9.7020 
  2512.000 -29.657  7.4320  7.2960  9.8180 -17.657  7.4320  7.2960  9.8180 
  2512.500 -29.871  7.5110  7.4110  9.9180 -17.871  7.5110  7.4110  9.9180 
  2513.000 -31.124  7.6340  7.5400  9.9620 -19.124  7.6340  7.5400  9.9620 
  2513.500 -33.272  7.7490  7.6410  9.9470 -21.272  7.7490  7.6410  9.9470 
  2514.000 -34.740  7.8850  7.7850  9.7170 -22.740  7.8850  7.7850  9.7170 
  2514.500 -35.527  7.9790  7.8420  9.4810 -23.527  7.9790  7.8420  9.4810 
  2515.000 -36.314  8.0150  7.8350  9.3010 -24.314  8.0150  7.8350  9.3010 
  2515.500 -36.206  8.0150  7.3540  9.1860 -24.206  8.0150  7.3540  9.1860 
  2516.000 -34.559  7.9940  7.1100  9.0280 -22.559  7.9940  7.1100  9.0280 
  2516.500 -32.768  7.9580  7.0020  8.9350 -20.768  7.9580  7.0020  8.9350 
  2517.000 -31.837  7.9370  6.9740  8.8490 -19.837  7.9370  6.9740  8.8490 
  2517.500 -32.087  7.9080  7.0030  8.9500 -20.087  7.9080  7.0030  8.9500 
  2518.000 -32.337  7.8940  7.1030  9.0430 -20.337  7.8940  7.1030  9.0430 
  2518.500 -32.480  7.8720  7.2690  9.1370 -20.480  7.8720  7.2690  9.1370 
  2519.000 -32.444  7.8010  7.5280  9.2740 -20.444  7.8010  7.5280  9.2740 
  2519.500 -32.193  7.7070  7.6790  9.2810 -20.193  7.7070  7.6790  9.2810 
  2520.000 -31.691  7.4780  7.7870  9.1880 -19.691  7.4780  7.7870  9.1880 
  2520.500 -30.796  7.5280  7.8370  9.0300 -18.796  7.5280  7.8370  9.0300 
  2521.000 -28.324  7.8010  7.8080  8.8500 -16.324  7.8010  7.8080  8.8500 
  2521.500 -27.071  7.7580  7.7870  8.6710 -15.071  7.7580  7.7870  8.6710 
  2522.000 -26.426  7.7580  7.7870  8.6280 -14.426  7.7580  7.7870  8.6280 
  2522.500 -25.781  7.7870  7.9380  8.7500 -13.781  7.7870  7.9380  8.7500 
  2523.000 -26.425  8.2690  8.2260  8.9150 -14.425  8.2690  8.2260  8.9150 
  2523.500 -28.215  8.6070  8.4770  9.0230 -16.215  8.6070  8.4770  9.0230 
  2524.000 -30.685  8.7940  8.7290  9.0450 -18.685  8.7940  8.7290  9.0450 
  2524.500 -35.089  9.1820  9.1100  8.9590 -23.089  9.1820  9.1100  8.9590 
  2525.000 -37.094  9.8930  9.1960  8.8870 -25.094  9.8930  9.1960  8.8870 
  2525.500 -38.275  10.633  9.2750  8.8160 -26.275  10.633  9.2750  8.8160 
  2526.000 -39.492  11.007  9.4910  8.7510 -27.492  11.007  9.4910  8.7510 
  2526.500 -40.459  11.295  9.6640  8.7150 -28.459  11.295  9.6640  8.7150 
  2527.000 -41.676  11.683  9.9150  8.6720 -29.676  11.683  9.9150  8.6720 
  2527.500 -42.391  12.423  10.361  8.6800 -30.391  12.423  10.361  8.6800 
  2528.000 -42.749  12.732  10.612  8.7730 -30.749  12.732  10.612  8.7730 
  2528.500 -42.821  13.005  10.864  9.6640 -30.821  13.005  10.864  9.6640 
  2529.000 -42.927  13.163  11.346  10.174 -30.927  13.163  11.346  10.174 
  2529.500 -42.963  13.185  11.583  10.412 -30.963  13.185  11.583  10.412 
  2530.000 -42.783  13.192  11.957  10.556 -30.783  13.192  11.957  10.556 
  2530.500 -42.031  13.164  12.093  10.441 -30.031  13.164  12.093  10.441 
  2531.000 -39.667  13.128  12.187  10.261 -27.667  13.128  12.187  10.261 
  2531.500 -39.130  13.092  12.187  10.125 -27.130  13.092  12.187  10.125 
  2532.000 -39.058  13.056  12.051  9.9960 -27.058  13.056  12.051  9.9960 
  2532.500 -39.595  13.171  11.806  9.8810 -27.595  13.171  11.806  9.8810 
  2533.000 -40.382  13.718  11.613  9.9740 -28.382  13.718  11.613  9.9740 
  2533.500 -41.241  14.063  11.692  10.233 -29.241  14.063  11.692  10.233 
  2534.000 -42.028  14.566  11.893  10.391 -30.028  14.566  11.893  10.391 
  2534.500 -43.245  14.853  12.130  10.449 -31.245  14.853  12.130  10.449 
  2535.000 -46.611  15.371  12.260  10.492 -34.611  15.371  12.260  10.492 
  2535.500 -49.547  16.039  12.425  10.521 -37.547  16.039  12.425  10.521 
  2536.000 -51.086  16.377  12.540  10.536 -39.086  16.377  12.540  10.536 
  2536.500 -52.016  17.016  12.634  10.486 -40.016  17.016  12.634  10.486 
  2537.000 -52.553  17.189  12.691  10.356 -40.553  17.189  12.691  10.356 
  2537.500 -51.944  17.045  12.648  10.292 -39.944  17.045  12.648  10.292 
  2538.000 -50.941  16.571  12.555  10.242 -38.941  16.571  12.555  10.242 
  2538.500 -48.864  16.162  12.512  10.213 -36.864  16.162  12.512  10.213 
  2539.000 -45.713  15.336  12.519  10.185 -33.713  15.336  12.519  10.185 
  2539.500 -44.244  14.230  12.577  10.156 -32.244  14.230  12.577  10.156 
  2540.000 -40.699  12.276  12.635  10.063 -28.699  12.276  12.635  10.063 
  2540.500 -37.225  10.106  12.541  9.5460 -25.225  10.106  12.541  9.5460 
  2541.000 -33.823  9.0930  12.376  8.8560 -21.823  9.0930  12.376  8.8560 
  2541.500 -30.063  7.8360  11.672  8.3390 -18.063  7.8360  11.672  8.3390 
  2542.000 -27.341  7.1390  10.164  7.6420 -15.341  7.1390  10.164  7.6420 
  2542.500 -24.906  6.0690  9.5680  7.2540 -12.906  6.0690  9.5680  7.2540 
