~Version Information
VERS.                     2.0: CWLS log ASCII Standard Version 2.00
WRAP.                      NO: One line per depth step
~Well Information Block
#MNEM.UNIT                               Data Type  Information
#---------                               ---------  -----------
STRT.FT                                  5780.0000:
STOP.FT                                  6850.0000:
STEP.FT                                     0.5000:
NULL.                 -999.25                     :
COMP.                                             :COMPANY            
WELL.     SAN EMIDIO A 35-19 REDRILL #1           :WELL               
FLD .                                             :FIELD              
CTRY.                                             :COUNTRY            
STAT.                                             :STATE              
LOC .                                             :LOCATION           
UWI .                                             :UNIQUE WELL ID     
SRVC.                                             :Service company    
DATE.                                             :LOG DATE           
~Curve Information
#MNEM.UNIT           API CODE  Curve Description
#---------           --------  -----------------
DEPT.FT                      :   1 DEPTH
SP  .MV                      :   2
AM16.OHMM                    :   3
AO10.OHMM                    :   4
AO19.OHMM                    :   5
SBL .MV                      :   6
RS  .OHMM                    :   7
RM  .OHMM                    :   8
RD  .OHMM                    :   9
~A
# ...
  6310.000 -27.709  2.8820  2.8180  2.7280 -15.709  2.8820  2.8180  2.7280 
  6310.500 -27.703  2.7750  2.6970  2.6930 -15.703  2.7750  2.6970  2.6930 
  6311.000 -27.683  2.6620  2.6150  2.6650 -15.683  2.6620  2.6150  2.6650 
  6311.500 -27.662  2.5620  2.5330  2.6340 -15.662  2.5620  2.5330  2.6340 
  6312.000 -26.970  2.5130  2.4050  2.6020 -14.970  2.5130  2.4050  2.6020 
  6312.500 -25.993  2.4920  2.3480  2.5710 -13.993  2.4920  2.3480  2.5710 
  6313.000 -25.339  2.4860  2.2990  2.5390 -13.339  2.4860  2.2990  2.5390 
  6313.500 -25.138  2.4870  2.2640  2.4830 -13.138  2.4870  2.2640  2.4830 
  6314.000 -24.936  2.5020  2.2510  2.4550 -12.936  2.5020  2.2510  2.4550 
  6314.500 -24.841  2.5060  2.2440  2.4340 -12.841  2.5060  2.2440  2.4340 
  6315.000 -24.747  2.5100  2.2670  2.4130 -12.747  2.5100  2.2670  2.4130 
  6315.500 -24.702  2.5190  2.2900  2.3580 -12.702  2.5190  2.2900  2.3580 
  6316.000 -24.734  2.5270  2.3190  2.3510 -12.734  2.5270  2.3190  2.3510 
  6316.500 -24.802  2.5350  2.3340  2.3380 -12.802  2.5350  2.3340  2.3380 
  6317.000 -24.978  2.5500  2.3490  2.3320 -12.978  2.5500  2.3490  2.3320 
  6317.500 -25.442  2.5660  2.3680  2.3330 -13.442  2.5660  2.3680  2.3330 
  6318.000 -26.049  2.5820  2.3870  2.3260 -14.049  2.5820  2.3870  2.3260 
  6318.500 -26.945  2.5820  2.4390  2.3200 -14.945  2.5820  2.4390  2.3200 
  6319.000 -27.662  2.5830  2.4610  2.3100 -15.662  2.5830  2.4610  2.3100 
  6319.500 -28.125  2.5910  2.4760  2.3000 -16.125  2.5910  2.4760  2.3000 
  6320.000 -27.976  2.5920  2.4910  2.3040 -15.976  2.5920  2.4910  2.3040 
  6320.500 -27.791  2.6000  2.5100  2.3090 -15.791  2.6000  2.5100  2.3090 
  6321.000 -27.460  2.6080  2.5290  2.3210 -15.460  2.6080  2.5290  2.3210 
  6321.500 -27.421  2.6160  2.5450  2.3330 -15.421  2.6160  2.5450  2.3330 
  6322.000 -27.382  2.6250  2.5530  2.3410 -15.382  2.6250  2.5530  2.3410 
  6322.500 -27.917  2.6290  2.5640  2.3490 -15.917  2.6290  2.5640  2.3490 
  6323.000 -29.172  2.6330  2.5760  2.3570 -17.172  2.6330  2.5760  2.3570 
  6323.500 -29.745  2.6340  2.5840  2.3660 -17.745  2.6340  2.5840  2.3660 
  6324.000 -30.712  2.6350  2.5850  2.3810 -18.712  2.6350  2.5850  2.3810 
  6324.500 -31.213  2.6320  2.5860  2.3890 -19.213  2.6320  2.5860  2.3890 
  6325.000 -31.496  2.6300  2.5730  2.3970 -19.496  2.6300  2.5730  2.3970 
  6325.500 -31.383  2.5880  2.5590  2.4050 -19.383  2.5880  2.5590  2.4050 
  6326.000 -30.514  2.5600  2.5250  2.4120 -18.514  2.5600  2.5250  2.4120 
  6326.500 -29.428  2.5470  2.5040  2.4430 -17.428  2.5470  2.5040  2.4430 
  6327.000 -28.775  2.5190  2.4830  2.4580 -16.775  2.5190  2.4830  2.4580 
  6327.500 -28.878  2.4620  2.4550  2.4730 -16.878  2.4620  2.4550  2.4730 
  6328.000 -29.196  2.4060  2.4420  2.4880 -17.196  2.4060  2.4420  2.4880 
  6328.500 -29.374  2.3640  2.4280  2.5330 -17.374  2.3640  2.4280  2.5330 
  6329.000 -29.476  2.3360  2.4220  2.5480 -17.476  2.3360  2.4220  2.5480 
  6329.500 -29.003  2.2800  2.4160  2.5560 -17.003  2.2800  2.4160  2.5560 
  6330.000 -27.737  2.2450  2.4170  2.5640 -15.737  2.2450  2.4170  2.5640 
  6330.500 -26.977  2.1880  2.4250  2.5750 -14.977  2.1880  2.4250  2.5750 
  6331.000 -25.529  2.1740  2.4190  2.5870 -13.529  2.1740  2.4190  2.5870 
  6331.500 -25.129  2.1610  2.4270  2.6100 -13.129  2.1610  2.4270  2.6100 
  6332.000 -24.872  2.1690  2.4350  2.6140 -12.872  2.1690  2.4350  2.6140 
  6332.500 -24.722  2.1920  2.4440  2.6190 -12.722  2.1920  2.4440  2.6190 
  6333.000 -24.716  2.2290  2.4660  2.6490 -12.716  2.2290  2.4660  2.6490 
  6333.500 -24.747  2.2440  2.4810  2.6720 -12.747  2.2440  2.4810  2.6720 
  6334.000 -24.815  2.3100  2.5110  2.6870 -12.815  2.3100  2.5110  2.6870 
  6334.500 -24.953  2.3610  2.5550  2.7100 -12.953  2.3610  2.5550  2.7100 
  6335.000 -25.345  2.4270  2.5850  2.6460 -13.345  2.4270  2.5850  2.6460 
  6335.500 -25.737  2.4850  2.6220  2.5390 -13.737  2.4850  2.6220  2.5390 
  6336.000 -25.840  2.5440  2.6370  2.4610 -13.840  2.5440  2.6370  2.4610 
  6336.500 -25.330  2.5380  2.5880  2.4190 -13.330  2.5380  2.5880  2.4190 
  6337.000 -25.002  2.4960  2.5170  2.3770 -13.002  2.4960  2.5170  2.3770 
  6337.500 -24.924  2.4610  2.4680  2.3350 -12.924  2.4610  2.4680  2.3350 
  6338.000 -25.531  2.4190  2.4040  2.3290 -13.531  2.4190  2.4040  2.3290 
  6338.500 -25.924  2.4050  2.3910  2.3160 -13.924  2.4050  2.3910  2.3160 
  6339.000 -26.315  2.3920  2.3770  2.3170 -14.315  2.3920  2.3770  2.3170 
  6339.500 -26.418  2.3790  2.3640  2.3110 -14.418  2.3790  2.3640  2.3110 
  6340.000 -25.801  2.3800  2.3510  2.3080 -13.801  2.3800  2.3510  2.3080 
  6340.500 -25.219  2.3660  2.3590  2.3050 -13.219  2.3660  2.3590  2.3050 
  6341.000 -25.322  2.3670  2.3670  2.3020 -13.322  2.3670  2.3670  2.3020 
  6341.500 -25.496  2.3680  2.3830  2.2990 -13.496  2.3680  2.3830  2.2990 
  6342.000 -25.708  2.3690  2.4050  2.2970 -13.708  2.3690  2.4050  2.2970 
  6342.500 -26.026  2.3630  2.4130  2.2950 -14.026  2.3630  2.4130  2.2950 
  6343.000 -26.203  2.3640  2.4210  2.2960 -14.203  2.3640  2.4210  2.2960 
  6343.500 -26.557  2.3650  2.4400  2.2930 -14.557  2.3650  2.4400  2.2930 
  6344.000 -26.913  2.3730  2.4590  2.2900 -14.913  2.3730  2.4590  2.2900 
  6344.500 -27.233  2.3810  2.4680  2.2810 -15.233  2.3810  2.4680  2.2810 
  6345.000 -26.867  2.3820  2.4720  2.2710 -14.867  2.3820  2.4720  2.2710 
  6345.500 -26.430  2.3830  2.4760  2.2680 -14.430  2.3830  2.4760  2.2680 
  6346.000 -26.244  2.3910  2.4920  2.2660 -14.244  2.3910  2.4920  2.2660 
  6346.500 -26.022  2.4000  2.5000  2.2670 -14.022  2.4000  2.5000  2.2670 
  6347.000 -25.982  2.4080  2.5080  2.2680 -13.982  2.4080  2.5080  2.2680 
  6347.500 -25.904  2.4160  2.5240  2.2690 -13.904  2.4160  2.5240  2.2690 
  6348.000 -25.935  2.4170  2.5280  2.2700 -13.935  2.4170  2.5280  2.2700 
  6348.500 -25.967  2.4180  2.5330  2.2780 -13.967  2.4180  2.5330  2.2780 
  6349.000 -26.070  2.4300  2.5490  2.2930 -14.070  2.4300  2.5490  2.2930 
  6349.500 -26.137  2.4420  2.5530  2.3050 -14.137  2.4420  2.5530  2.3050 
  6350.000 -26.347  2.4460  2.5580  2.3170 -14.347  2.4460  2.5580  2.3170 
  6350.500 -26.488  2.4510  2.5580  2.3610 -14.488  2.4510  2.5580  2.3610 
  6351.000 -26.878  2.4740  2.5590  2.3840 -14.878  2.4740  2.5590  2.3840 
  6351.500 -27.162  2.4890  2.5750  2.4100 -15.162  2.4890  2.5750  2.4100 
  6352.000 -27.697  2.4930  2.5830  2.4360 -15.697  2.4930  2.5830  2.4360 
  6352.500 -28.557  2.4980  2.5910  2.4950 -16.557  2.4980  2.5910  2.4950 
  6353.000 -29.201  2.5130  2.6070  2.5170 -17.201  2.5130  2.6070  2.5170 
  6353.500 -30.349  2.5360  2.6220  2.5320 -18.349  2.5360  2.6220  2.5320 
  6354.000 -31.496  2.5660  2.6310  2.5470 -19.496  2.5660  2.6310  2.5470 
  6354.500 -32.464  2.5890  2.6350  2.5920 -20.464  2.5890  2.6350  2.5920 
  6355.000 -32.892  2.6040  2.6390  2.6080 -20.892  2.6040  2.6390  2.6080 
  6355.500 -31.481  2.6330  2.6050  2.6230 -19.481  2.6330  2.6050  2.6230 
  6356.000 -30.288  2.6490  2.5630  2.6310 -18.288  2.6490  2.5630  2.6310 
  6356.500 -30.174  2.6420  2.5380  2.6390 -18.174  2.6420  2.5380  2.6390 
  6357.000 -30.169  2.6010  2.5140  2.6110 -18.169  2.6010  2.5140  2.6110 
  6357.500 -30.127  2.5660  2.4510  2.5760 -18.127  2.5660  2.4510  2.5760 
  6358.000 -30.052  2.5160  2.4120  2.5410 -18.052  2.5160  2.4120  2.5410 
  6358.500 -29.397  2.4600  2.3730  2.4700 -17.397  2.4600  2.3730  2.4700 
  6359.000 -28.781  2.4390  2.3180  2.3990 -16.781  2.4390  2.3180  2.3990 
  6359.500 -28.165  2.3970  2.2900  2.3220 -16.165  2.3970  2.2900  2.3220 
  6360.000 -27.077  2.3840  2.2690  2.2970 -15.077  2.3840  2.2690  2.2970 
  6360.500 -26.568  2.3560  2.2340  2.2730 -14.568  2.3560  2.2340  2.2730 
  6361.000 -26.598  2.3360  2.1990  2.2240 -14.598  2.3360  2.1990  2.2240 
  6361.500 -26.630  2.3330  2.1820  2.2110 -14.630  2.3330  2.1820  2.2110 
  6362.000 -26.663  2.3300  2.1650  2.1970 -14.663  2.3300  2.1650  2.1970 
  6362.500 -26.655  2.3170  2.1450  2.1910 -14.655  2.3170  2.1450  2.1910 
