~Version Information
VERS.                     2.0: CWLS log ASCII Standard Version 2.00
WRAP.                      NO: One line per depth step
~Well Information Block
#MNEM.UNIT                               Data Type  Information
#---------                               ---------  -----------
STRT.FT                                   740.0000:
STOP.FT                                  5380.0000:
STEP.FT                                     0.5000:
NULL.                 -999.25                     :
COMP.                                             :COMPANY            
WELL.     SAN EMIDIO A 84-28 REDRILL              :WELL               
FLD .                                             :FIELD              
CTRY.                                             :COUNTRY            
STAT.                                             :STATE              
LOC .                                             :LOCATION           
UWI .                                             :UNIQUE WELL ID     
SRVC.                                             :Service company    
DATE.                                             :LOG DATE           
~Curve Information
#MNEM.UNIT           API CODE  Curve Description
#---------           --------  -----------------
DEPT.FT                      :   1 DEPTH
SP  .MV                      :   2
AM10.OHMM                    :   3
AO10.OHMM                    :   4
AO19.OHMM                    :   5
SBL .MV                      :   6
RS  .OHMM                    :   7
RM  .OHMM                    :   8
RD  .OHMM                    :   9
DEVI.DEG                     :  10
TVD .FT                      :  11
AZIM.DEG                     :  12
NORT.FT                      :  13
EAST.FT                      :  14
OFFS.FT                      :  15
~A
# ...
  2592.500 -17.942  3.1300  4.1960  4.3910 -8.2762  3.1300  4.1960  4.3910  1.9922  2592.0  94.515  18.739  37.330  39.646 
  2593.000 -17.623  3.2370  4.3460  4.4220 -7.9519  3.2370  4.3460  4.4220  1.9926  2592.5  94.533  18.737  37.347  39.658 
  2593.500 -17.951  3.3220  4.5040  4.5070 -8.2746  3.3220  4.5040  4.5070  1.9929  2593.0  94.552  18.736  37.364  39.669 
  2594.000 -18.641  3.4220  4.6760  4.5500 -8.9593  3.4220  4.6760  4.5500  1.9933  2593.5  94.570  18.735  37.382  39.680 
  2594.500 -19.620  3.4750  4.8050  4.5780 -9.9330  3.4750  4.8050  4.5780  1.9937  2594.0  94.588  18.733  37.399  39.691 
  2595.000 -20.381  3.5290  4.9400  4.6060 -10.689  3.5290  4.9400  4.6060  1.9941  2594.5  94.606  18.732  37.416  39.703 
  2595.500 -21.360  3.6140  5.0040  4.6910 -11.662  3.6140  5.0040  4.6910  1.9945  2595.0  94.624  18.730  37.434  39.714 
  2596.000 -22.194  3.6850  5.0680  4.7260 -12.491  3.6850  5.0680  4.7260  1.9949  2595.5  94.643  18.729  37.451  39.725 
  2596.500 -22.523  3.7060  5.0890  4.7760 -12.815  3.7060  5.0890  4.7760  1.9952  2596.0  94.661  18.728  37.468  39.737 
  2597.000 -22.744  3.6330  5.0810  4.6230 -13.030  3.6330  5.0810  4.6230  1.9956  2596.5  94.679  18.726  37.486  39.748 
  2597.500 -22.460  3.4660  4.8850  4.2480 -12.741  3.4660  4.8850  4.2480  1.9960  2597.0  94.697  18.725  37.503  39.759 
  2598.000 -21.924  3.3790  4.3370  3.9510 -12.200  3.3790  4.3370  3.9510  1.9964  2597.5  94.716  18.723  37.520  39.770 
  2598.500 -20.810  3.2920  3.9540  3.8060 -11.081  3.2920  3.9540  3.8060  1.9968  2598.0  94.734  18.722  37.538  39.782 
  2599.000 -19.516  2.9730  3.5640  3.6610 -9.7813  2.9730  3.5640  3.6610  1.9972  2598.5  94.752  18.720  37.555  39.793 
  2599.500 -18.799  2.7560  3.4550  3.5810 -9.0589  2.7560  3.4550  3.5810  1.9975  2599.0  94.770  18.719  37.573  39.804 
  2600.000 -17.650  2.5030  3.3970  3.4720 -7.9046  2.5030  3.3970  3.4720  1.9979  2599.5  94.788  18.717  37.590  39.815 
  2600.500 -17.293  2.4160  3.3530  3.4500 -7.5423  2.4160  3.3530  3.4500  1.9983  2600.0  94.807  18.716  37.607  39.827 
  2601.000 -17.007  2.2640  3.3300  3.4780 -7.2510  2.2640  3.3300  3.4780  1.9987  2600.5  94.825  18.715  37.625  39.838 
  2601.500 -17.480  2.1840  3.3080  3.5130 -7.7187  2.1840  3.3080  3.5130  1.9991  2601.0  94.843  18.713  37.642  39.849 
  2602.000 -18.024  2.1110  3.2930  3.6570 -8.2574  2.1110  3.2930  3.6570  1.9995  2601.5  94.861  18.712  37.659  39.860 
  2602.500 -18.714  2.0750  3.2990  3.7060 -8.9421  2.0750  3.2990  3.7060  1.9999  2602.0  94.880  18.710  37.677  39.872 
  2603.000 -19.150  2.0450  3.3560  3.8570 -9.3728  2.0450  3.3560  3.8570  2.0002  2602.5  94.898  18.709  37.694  39.883 
  2603.500 -18.613  2.0440  3.4270  4.0000 -8.8305  2.0440  3.4270  4.0000  2.0006  2603.0  94.916  18.707  37.712  39.894 
  2604.000 -18.038  2.0800  3.4920  4.0570 -8.2502  2.0800  3.4920  4.0570  2.0010  2603.5  94.934  18.706  37.729  39.905 
  2604.500 -17.465  2.1080  3.5990  4.1290 -7.6719  2.1080  3.5990  4.1290  2.0014  2604.0  94.953  18.704  37.746  39.917 
  2605.000 -17.432  2.1860  3.6560  4.2290 -7.6336  2.1860  3.6560  4.2290  2.0018  2604.5  94.971  18.703  37.764  39.928 
  2605.500 -18.121  2.2220  3.7130  4.2710 -8.3173  2.2220  3.7130  4.2710  2.0022  2605.0  94.989  18.701  37.781  39.939 
  2606.000 -18.774  2.3140  3.7840  4.2920 -8.9650  2.3140  3.7840  4.2920  2.0025  2605.5  95.007  18.700  37.799  39.950 
  2606.500 -19.102  2.3350  3.8270  4.3130 -9.2877  2.3350  3.8270  4.3130  2.0029  2606.0  95.025  18.698  37.816  39.961 
  2607.000 -18.997  2.3920  3.8550  4.3270 -9.1774  2.3920  3.8550  4.3270  2.0033  2606.5  95.044  18.696  37.833  39.973 
  2607.500 -18.352  2.4200  3.8540  4.3120 -8.5271  2.4200  3.8540  4.3120  2.0037  2607.0  95.062  18.695  37.851  39.984 
  2608.000 -17.778  2.4200  3.8170  4.2030 -7.9478  2.4200  3.8170  4.2030  2.0041  2607.5  95.080  18.693  37.868  39.995 
  2608.500 -17.457  2.3900  3.7370  4.0650 -7.6215  2.3900  3.7370  4.0650  2.0045  2608.0  95.098  18.692  37.886  40.006 
  2609.000 -17.533  2.3320  3.6210  3.9710 -7.6922  2.3320  3.6210  3.9710  2.0048  2608.5  95.117  18.690  37.903  40.018 
  2609.500 -18.042  2.2730  3.5050  3.8110 -8.1958  2.2730  3.5050  3.8110  2.0052  2609.0  95.135  18.689  37.921  40.029 
  2610.000 -18.658  2.2010  3.4180  3.7680 -8.8065  2.2010  3.4180  3.7680  2.0056  2609.5  95.153  18.687  37.938  40.040 
  2610.500 -19.311  2.1710  3.3380  3.7090 -9.4542  2.1710  3.3380  3.7090  2.0060  2610.0  95.171  18.686  37.955  40.051 
  2611.000 -19.711  2.1630  3.3160  3.7880 -9.8489  2.1630  3.3160  3.7880  2.0064  2610.5  95.189  18.684  37.973  40.062 
  2611.500 -19.029  2.2270  3.3150  3.9240 -9.1616  2.2270  3.3150  3.9240  2.0068  2611.0  95.208  18.682  37.990  40.074 
  2612.000 -18.600  2.3350  3.3360  3.9880 -8.7273  2.3350  3.3360  3.9880  2.0072  2611.5  95.226  18.681  38.008  40.085 
  2612.500 -17.883  2.4420  3.4070  4.1170 -8.0050  2.4420  3.4070  4.1170  2.0075  2612.0  95.244  18.679  38.025  40.096 
  2613.000 -17.634  2.6140  3.4540  4.2320 -7.7507  2.6140  3.4540  4.2320  2.0079  2612.5  95.262  18.678  38.043  40.107 
  2613.500 -17.492  2.7140  3.5000  4.3820 -7.6034  2.7140  3.5000  4.3820  2.0083  2613.0  95.281  18.676  38.060  40.118 
  2614.000 -17.857  2.7860  3.6210  4.4250 -7.9631  2.7860  3.6210  4.4250  2.0087  2613.5  95.299  18.674  38.077  40.130 
  2614.500 -18.221  2.8570  3.6930  4.4740 -8.3218  2.8570  3.6930  4.4740  2.0091  2614.0  95.317  18.673  38.095  40.141 
  2615.000 -18.766  2.9500  3.7570  4.5100 -8.8615  2.9500  3.7570  4.5100  2.0095  2614.5  95.335  18.671  38.112  40.152 
  2615.500 -19.166  3.0430  3.8060  4.3570 -9.2562  3.0430  3.8060  4.3570  2.0098  2615.0  95.354  18.669  38.130  40.163 
  2616.000 -19.241  3.1360  3.7910  4.2780 -9.3259  3.1360  3.7910  4.2780  2.0102  2615.5  95.372  18.668  38.147  40.174 
  2616.500 -19.029  3.0490  3.7470  4.1620 -9.1086  3.0490  3.7470  4.1620  2.0106  2616.0  95.390  18.666  38.165  40.186 
  2617.000 -18.707  2.9470  3.6750  3.9880 -8.7813  2.9470  3.6750  3.9880  2.0110  2616.5  95.408  18.665  38.182  40.197 
  2617.500 -18.062  2.8460  3.6130  3.8650 -8.1310  2.8460  3.6130  3.8650  2.0114  2617.0  95.426  18.663  38.200  40.208 
  2618.000 -17.633  2.5780  3.5510  3.7990 -7.6967  2.5780  3.5510  3.7990  2.0118  2617.5  95.445  18.661  38.217  40.219 
  2618.500 -17.239  2.4550  3.3840  3.7340 -7.2974  2.4550  3.3840  3.7340  2.0121  2618.0  95.463  18.660  38.235  40.230 
  2619.000 -16.847  2.3250  3.3040  3.6030 -6.9001  2.3250  3.3040  3.6030  2.0125  2618.5  95.481  18.658  38.252  40.241 
  2619.500 -16.778  2.2520  3.2100  3.6100 -6.8257  2.2520  3.2100  3.6100  2.0129  2619.0  95.499  18.656  38.270  40.253 
  2620.000 -16.998  2.2220  3.1370  3.6380 -7.0404  2.2220  3.1370  3.6380  2.0133  2619.5  95.518  18.654  38.287  40.264 
  2620.500 -17.109  2.2360  3.0860  3.6840 -7.1461  2.2360  3.0860  3.6840  2.0137  2620.0  95.536  18.653  38.305  40.275 
  2621.000 -17.294  2.3290  3.1360  3.7300 -7.3258  2.3290  3.1360  3.7300  2.0141  2620.5  95.554  18.651  38.322  40.286 
  2621.500 -17.297  2.3720  3.1930  3.8020 -7.3235  2.3720  3.1930  3.8020  2.0145  2621.0  95.572  18.649  38.340  40.297 
  2622.000 -16.976  2.4720  3.2420  3.8730 -6.9972  2.4720  3.2420  3.8730  2.0148  2621.5  95.590  18.648  38.357  40.308 
  2622.500 -16.763  2.6010  3.3140  3.9870 -6.7789  2.6010  3.3140  3.9870  2.0152  2622.0  95.609  18.646  38.375  40.320 
  2623.000 -16.442  2.7440  3.3710  4.0230 -6.4526  2.7440  3.3710  4.0230  2.0156  2622.5  95.627  18.644  38.392  40.331 
  2623.500 -16.085  2.8800  3.4560  3.9790 -6.0903  2.8800  3.4560  3.9790  2.0160  2623.0  95.645  18.642  38.410  40.342 
  2624.000 -15.800  3.0380  3.5280  3.8700 -5.8000  3.0380  3.5280  3.8700  2.0164  2623.5  95.663  18.641  38.427  40.353 
  2624.500 -15.551  3.1240  3.5850  3.7320 -5.5518  3.1240  3.5850  3.7320  2.0168  2624.0  95.682  18.639  38.445  40.364 
