~Version Information
VERS.                     2.0: CWLS log ASCII Standard Version 2.00
WRAP.                      NO: One line per depth step
~Well Information Block
#MNEM.UNIT                               Data Type  Information
#---------                               ---------  -----------
STRT.FT                                   740.0000:
STOP.FT                                  5380.0000:
STEP.FT                                     0.5000:
NULL.                 -999.25                     :
COMP.                                             :COMPANY            
WELL.     SAN EMIDIO A 84-28 REDRILL              :WELL               
FLD .                                             :FIELD              
CTRY.                                             :COUNTRY            
STAT.                                             :STATE              
LOC .                                             :LOCATION           
UWI .                                             :UNIQUE WELL ID     
SRVC.                                             :Service company    
DATE.                                             :LOG DATE           
~Curve Information
#MNEM.UNIT           API CODE  Curve Description
#---------           --------  -----------------
DEPT.FT                      :   1 DEPTH
SP  .MV                      :   2
AM10.OHMM                    :   3
AO10.OHMM                    :   4
AO19.OHMM                    :   5
SBL .MV                      :   6
RS  .OHMM                    :   7
RM  .OHMM                    :   8
RD  .OHMM                    :   9
DEVI.DEG                     :  10
TVD .FT                      :  11
AZIM.DEG                     :  12
NORT.FT                      :  13
EAST.FT                      :  14
OFFS.FT                      :  15
~A
# ...
  1357.500 -23.248  4.7300  4.8170  4.6370 -10.645  4.7300  4.8170  4.6370  1.0432  1357.4  49.492  10.149  6.6026  11.845 
  1358.000 -23.496  4.2200  4.5370  4.5950 -10.892  4.2200  4.5370  4.5950  1.0435  1357.9  49.511  10.155  6.6095  11.854 
  1358.500 -23.635  3.9260  4.2570  4.5530 -11.030  3.9260  4.2570  4.5530  1.0439  1358.4  49.529  10.161  6.6165  11.864 
  1359.000 -23.340  3.5450  4.0640  4.4530 -10.734  3.5450  4.0640  4.4530  1.0443  1358.9  49.547  10.167  6.6234  11.873 
  1359.500 -22.285  3.1720  3.9430  4.2530 -9.6776  3.1720  3.9430  4.2530  1.0447  1359.4  49.565  10.173  6.6303  11.882 
  1360.000 -21.303  3.0290  3.9010  4.0950 -8.6945  3.0290  3.9010  4.0950  1.0451  1359.9  49.583  10.179  6.6373  11.891 
  1360.500 -20.285  3.0010  3.8730  4.1250 -7.6754  3.0010  3.8730  4.1250  1.0455  1360.4  49.602  10.185  6.6442  11.900 
  1361.000 -19.773  3.0310  3.8820  4.5440 -7.1622  3.0310  3.8820  4.5440  1.0459  1360.9  49.620  10.191  6.6512  11.909 
  1361.500 -20.598  3.1770  3.9910  4.8840 -7.9861  3.1770  3.9910  4.8840  1.0462  1361.4  49.638  10.197  6.6581  11.918 
  1362.000 -21.785  3.4730  4.2590  5.1450 -9.1720  3.4730  4.2590  5.1450  1.0466  1361.9  49.656  10.202  6.6651  11.927 
  1362.500 -22.539  3.6470  4.6270  5.3260 -9.9248  3.6470  4.6270  5.3260  1.0470  1362.4  49.675  10.208  6.6721  11.936 
  1363.000 -21.520  3.8070  4.7800  5.3920 -8.9047  3.8070  4.7800  5.3920  1.0474  1362.9  49.693  10.214  6.6790  11.945 
  1363.500 -20.539  3.8660  5.0330  5.1700 -7.9226  3.8660  5.0330  5.1700  1.0478  1363.4  49.711  10.220  6.6860  11.954 
  1364.000 -19.882  3.7020  5.2720  4.9330 -7.2644  3.7020  5.2720  4.9330  1.0482  1363.9  49.729  10.226  6.6930  11.964 
  1364.500 -19.406  3.4720  5.3960  4.5240 -6.7873  3.4720  5.3960  4.5240  1.0485  1364.4  49.748  10.232  6.7000  11.973 
  1365.000 -19.255  3.3650  5.3250  4.1650 -6.6352  3.3650  5.3250  4.1650  1.0489  1364.9  49.766  10.238  6.7069  11.982 
  1365.500 -19.466  3.2580  5.2110  4.0800 -6.8450  3.2580  5.2110  4.0800  1.0493  1365.4  49.784  10.244  6.7139  11.991 
  1366.000 -19.858  3.2530  5.0680  4.1170 -7.2359  3.2530  5.0680  4.1170  1.0497  1365.9  49.802  10.250  6.7209  12.000 
  1366.500 -21.152  3.3760  4.9250  4.3270 -8.5288  3.3760  4.9250  4.3270  1.0501  1366.4  49.820  10.256  6.7279  12.009 
  1367.000 -21.978  3.5940  5.0780  4.4720 -9.3536  3.5940  5.0780  4.4720  1.0505  1366.9  49.839  10.262  6.7349  12.018 
  1367.500 -22.913  3.7970  5.2520  4.5850 -10.288  3.7970  5.2520  4.5850  1.0508  1367.4  49.857  10.267  6.7420  12.027 
  1368.000 -24.786  4.0280  5.3250  4.6980 -12.159  4.0280  5.3250  4.6980  1.0512  1367.9  49.875  10.273  6.7490  12.037 
  1368.500 -26.371  4.1950  5.4020  4.9010 -13.743  4.1950  5.4020  4.9010  1.0516  1368.4  49.893  10.279  6.7560  12.046 
  1369.000 -27.016  4.3910  5.4790  4.9740 -14.387  4.3910  5.4790  4.9740  1.0520  1368.9  49.912  10.285  6.7630  12.055 
  1369.500 -26.070  4.4930  5.6170  5.0470 -13.440  4.4930  5.6170  5.0470  1.0524  1369.4  49.930  10.291  6.7700  12.064 
  1370.000 -24.834  4.5810  5.7270  5.0920 -12.203  4.5810  5.7270  5.0920  1.0528  1369.9  49.948  10.297  6.7771  12.073 
  1370.500 -23.563  4.4810  5.7280  5.0360 -10.931  4.4810  5.7280  5.0360  1.0532  1370.4  49.966  10.303  6.7841  12.082 
  1371.000 -22.944  4.3450  5.6130  4.8000 -10.311  4.3450  5.6130  4.8000  1.0535  1370.9  49.985  10.309  6.7911  12.092 
  1371.500 -21.346  4.0950  5.1680  4.5990 -8.7114  4.0950  5.1680  4.5990  1.0539  1371.4  50.003  10.315  6.7982  12.101 
  1372.000 -20.437  3.5340  4.5210  4.2470 -7.8013  3.5340  4.5210  4.2470  1.0543  1371.9  50.021  10.321  6.8052  12.110 
  1372.500 -19.744  3.0160  4.2270  4.0470 -7.1072  3.0160  4.2270  4.0470  1.0547  1372.4  50.039  10.327  6.8123  12.119 
  1373.000 -19.375  2.8010  4.1560  4.1200 -6.7370  2.8010  4.1560  4.1200  1.0551  1372.9  50.057  10.333  6.8194  12.128 
  1373.500 -19.226  2.7810  4.1210  4.1720 -6.5869  2.7810  4.1210  4.1720  1.0555  1373.4  50.076  10.338  6.8264  12.137 
  1374.000 -19.111  2.7750  4.0940  4.1800 -6.4708  2.7750  4.0940  4.1800  1.0558  1373.9  50.094  10.344  6.8335  12.147 
  1374.500 -19.033  2.7760  4.0730  4.1230 -6.3916  2.7760  4.0730  4.1230  1.0562  1374.4  50.112  10.350  6.8406  12.156 
  1375.000 -19.098  2.7630  3.9810  3.9010 -6.4555  2.7630  3.9810  3.9010  1.0566  1374.9  50.130  10.356  6.8476  12.165 
  1375.500 -19.148  2.7280  3.7730  3.6650 -6.5044  2.7280  3.7730  3.6650  1.0570  1375.4  50.149  10.362  6.8547  12.174 
  1376.000 -19.198  2.6860  3.4360  3.3780 -6.5532  2.6860  3.4360  3.3780  1.0574  1375.9  50.167  10.368  6.8618  12.183 
  1376.500 -19.515  2.5790  3.1340  3.1130 -6.8691  2.5790  3.1340  3.1130  1.0578  1376.4  50.185  10.374  6.8689  12.192 
  1377.000 -19.654  2.4000  2.9630  3.0780 -7.0070  2.4000  2.9630  3.0780  1.0581  1376.9  50.203  10.380  6.8760  12.202 
  1377.500 -19.793  2.1860  2.9130  3.0940 -7.1448  2.1860  2.9130  3.0940  1.0585  1377.4  50.222  10.386  6.8831  12.211 
  1378.000 -20.111  2.1360  2.9360  3.1090 -7.4617  2.1360  2.9360  3.1090  1.0589  1377.9  50.240  10.392  6.8902  12.220 
  1378.500 -20.323  2.1810  3.0380  3.1240 -7.6726  2.1810  3.0380  3.1240  1.0593  1378.4  50.258  10.398  6.8973  12.229 
  1379.000 -20.570  2.2900  3.1840  3.1760 -7.9184  2.2900  3.1840  3.1760  1.0597  1378.9  50.276  10.403  6.9044  12.238 
  1379.500 -20.781  2.4500  3.3720  3.2930 -8.1283  2.4500  3.3720  3.2930  1.0601  1379.4  50.294  10.409  6.9115  12.248 
  1380.000 -22.438  2.6380  3.7260  3.9210 -9.7842  2.6380  3.7260  3.9210  1.0605  1379.9  50.313  10.415  6.9186  12.257 
  1380.500 -26.879  3.0500  4.2320  4.7720 -14.224  3.0500  4.2320  4.7720  1.0608  1380.4  50.331  10.421  6.9258  12.266 
  1381.000 -29.801  3.7860  4.6650  5.3640 -17.145  3.7860  4.6650  5.3640  1.0612  1380.9  50.349  10.427  6.9329  12.275 
  1381.500 -33.266  4.3640  5.1060  5.7330 -20.609  4.3640  5.1060  5.7330  1.0616  1381.4  50.367  10.433  6.9400  12.285 
  1382.000 -36.947  4.5300  5.6760  6.1950 -24.289  4.5300  5.6760  6.1950  1.0620  1381.9  50.386  10.439  6.9472  12.294 
  1382.500 -39.761  6.5210  6.2250  6.4410 -27.102  6.5210  6.2250  6.4410  1.0624  1382.4  50.404  10.445  6.9543  12.303 
  1383.000 -43.298  7.6030  6.5000  6.6660 -30.637  7.6030  6.5000  6.6660  1.0628  1382.9  50.422  10.451  6.9615  12.312 
  1383.500 -46.690  8.7780  6.6890  6.8550 -34.028  8.7780  6.6890  6.8550  1.0631  1383.4  50.440  10.457  6.9686  12.322 
  1384.000 -46.540  10.040  6.7910  6.9640 -33.877  10.040  6.7910  6.9640  1.0635  1383.9  50.459  10.463  6.9758  12.331 
  1384.500 -45.196  10.805  6.7420  7.0370 -32.532  10.805  6.7420  7.0370  1.0639  1384.4  50.477  10.468  6.9829  12.340 
  1385.000 -43.780  11.231  6.6200  7.0450 -31.115  11.231  6.6200  7.0450  1.0643  1384.9  50.495  10.474  6.9901  12.349 
  1385.500 -41.894  11.189  6.4770  6.9890 -29.228  11.189  6.4770  6.9890  1.0647  1385.4  50.513  10.480  6.9973  12.358 
  1386.000 -38.816  10.924  6.2480  6.7450 -26.149  10.924  6.2480  6.7450  1.0651  1385.9  50.531  10.486  7.0044  12.368 
  1386.500 -35.701  9.2970  5.8390  6.4300 -23.032  9.2970  5.8390  6.4300  1.0654  1386.4  50.550  10.492  7.0116  12.377 
  1387.000 -33.273  8.0370  5.3500  5.5520 -20.603  8.0370  5.3500  5.5520  1.0658  1386.9  50.568  10.498  7.0188  12.386 
  1387.500 -30.881  6.6700  4.9120  4.7100 -18.210  6.6700  4.9120  4.7100  1.0662  1387.4  50.586  10.504  7.0260  12.395 
  1388.000 -31.706  5.5610  4.2860  4.4230 -19.034  5.5610  4.2860  4.4230  1.0666  1387.9  50.604  10.510  7.0332  12.405 
  1388.500 -33.182  4.8850  3.7690  4.3880 -20.509  4.8850  3.7690  4.3880  1.0670  1388.4  50.623  10.516  7.0404  12.414 
  1389.000 -32.561  4.4900  3.6470  4.3530 -19.887  4.4900  3.6470  4.3530  1.0674  1388.9  50.641  10.522  7.0476  12.423 
  1389.500 -31.616  4.6650  3.6630  4.4340 -18.941  4.6650  3.6630  4.4340  1.0678  1389.4  50.659  10.528  7.0548  12.433 
