~Version Information
VERS.                     2.0: CWLS log ASCII Standard Version 2.00
WRAP.                      NO: One line per depth step
~Well Information Block
#MNEM.UNIT                               Data Type  Information
#---------                               ---------  -----------
STRT.FT                                   740.0000:
STOP.FT                                  5380.0000:
STEP.FT                                     0.5000:
NULL.                 -999.25                     :
COMP.                                             :COMPANY            
WELL.     SAN EMIDIO A 84-28 REDRILL              :WELL               
FLD .                                             :FIELD              
CTRY.                                             :COUNTRY            
STAT.                                             :STATE              
LOC .                                             :LOCATION           
UWI .                                             :UNIQUE WELL ID     
SRVC.                                             :Service company    
DATE.                                             :LOG DATE           
~Curve Information
#MNEM.UNIT           API CODE  Curve Description
#---------           --------  -----------------
DEPT.FT                      :   1 DEPTH
SP  .MV                      :   2
AM10.OHMM                    :   3
AO10.OHMM                    :   4
AO19.OHMM                    :   5
SBL .MV                      :   6
RS  .OHMM                    :   7
RM  .OHMM                    :   8
RD  .OHMM                    :   9
DEVI.DEG                     :  10
TVD .FT                      :  11
AZIM.DEG                     :  12
NORT.FT                      :  13
EAST.FT                      :  14
OFFS.FT                      :  15
~A
# ...
  3210.000 -15.335  2.1230  4.1110  3.9630 -6.3312  2.1230  4.1110  3.9630  2.4668  3209.0  117.02  12.087  60.255  51.154 
  3210.500 -15.627  2.4460  4.2480  4.0710 -6.6240  2.4460  4.2480  4.0710  2.4672  3209.5  117.04  12.078  60.274  51.160 
  3211.000 -15.919  2.5320  4.3400  4.1420 -6.9169  2.5320  4.3400  4.1420  2.4676  3210.0  117.06  12.068  60.293  51.167 
  3211.500 -16.391  2.6970  4.3610  4.2140 -7.3897  2.6970  4.3610  4.2140  2.4680  3210.5  117.08  12.058  60.312  51.173 
  3212.000 -16.863  2.9200  4.3610  4.3000 -7.8626  2.9200  4.3610  4.3000  2.4683  3211.0  117.10  12.048  60.331  51.180 
  3212.500 -17.553  2.9990  4.3380  4.3420 -8.5534  2.9990  4.3380  4.3420  2.4687  3211.5  117.12  12.038  60.351  51.187 
  3213.000 -18.133  3.0740  4.3160  4.3850 -9.1343  3.0740  4.3160  4.3850  2.4691  3212.0  117.13  12.029  60.370  51.193 
  3213.500 -18.460  3.1490  4.2910  4.4130 -9.4621  3.1490  4.2910  4.4130  2.4695  3212.5  117.15  12.019  60.389  51.200 
  3214.000 -18.662  3.3710  4.2650  4.4340 -9.6650  3.3710  4.2650  4.4340  2.4699  3213.0  117.17  12.009  60.408  51.206 
  3214.500 -18.863  3.4250  4.1850  4.4330 -9.8668  3.4250  4.1850  4.4330  2.4703  3213.5  117.19  11.999  60.427  51.213 
  3215.000 -18.975  3.4780  4.1260  4.4330 -9.9797  3.4780  4.1260  4.4330  2.4707  3214.0  117.21  11.989  60.446  51.220 
  3215.500 -17.536  3.5490  4.0390  4.4360 -8.5415  3.5490  4.0390  4.4360  2.4710  3214.5  117.23  11.979  60.466  51.226 
  3216.000 -15.592  3.5340  3.8730  4.4390 -6.5984  3.5340  3.8730  4.4390  2.4714  3215.0  117.24  11.969  60.485  51.233 
  3216.500 -14.981  3.4980  3.7570  4.4740 -5.9882  3.4980  3.7570  4.4740  2.4718  3215.5  117.26  11.960  60.504  51.239 
  3217.000 -13.903  3.4610  3.6270  4.5020 -4.9111  3.4610  3.6270  4.5020  2.4722  3216.0  117.28  11.950  60.523  51.246 
  3217.500 -13.328  3.3310  3.5470  4.5450 -4.3369  3.3310  3.5470  4.5450  2.4726  3216.5  117.30  11.940  60.542  51.253 
  3218.000 -12.754  3.2720  3.5240  4.5800 -3.7638  3.2720  3.5240  4.5800  2.4730  3217.0  117.32  11.930  60.561  51.259 
  3218.500 -11.785  3.2140  3.5200  4.6080 -2.7956  3.2140  3.5200  4.6080  2.4733  3217.5  117.33  11.920  60.581  51.266 
  3219.000 -11.427  3.0980  3.5160  4.6150 -2.4385  3.0980  3.5160  4.6150  2.4737  3218.0  117.35  11.910  60.600  51.272 
  3219.500 -11.340  3.0900  3.5080  4.6210 -2.3523  3.0900  3.5080  4.6210  2.4741  3218.5  117.37  11.900  60.619  51.279 
  3220.000 -11.252  3.1470  3.5080  4.6210 -2.2652  3.1470  3.5080  4.6210  2.4745  3219.0  117.39  11.890  60.638  51.285 
  3220.500 -11.221  3.2040  3.5070  4.6160 -2.2350  3.2040  3.5070  4.6160  2.4749  3219.5  117.41  11.880  60.657  51.292 
  3221.000 -11.259  3.2940  3.5350  4.6120 -2.2739  3.2940  3.5350  4.6120  2.4753  3220.0  117.43  11.870  60.676  51.298 
  3221.500 -11.298  3.3830  3.5700  4.6040 -2.3137  3.3830  3.5700  4.6040  2.4757  3220.5  117.44  11.860  60.696  51.305 
  3222.000 -11.482  3.5840  3.6060  4.5680 -2.4986  3.5840  3.6060  4.5680  2.4760  3221.0  117.46  11.850  60.715  51.311 
  3222.500 -11.667  3.6630  3.6410  4.5310 -2.6844  3.6630  3.6410  4.5310  2.4764  3221.5  117.48  11.840  60.734  51.318 
  3223.000 -11.723  3.7340  3.6910  4.4080 -2.7413  3.7340  3.6910  4.4080  2.4768  3222.0  117.50  11.830  60.753  51.324 
  3223.500 -11.780  3.8130  3.7050  4.1840 -2.7991  3.8130  3.7050  4.1840  2.4772  3222.5  117.52  11.820  60.772  51.331 
  3224.000 -11.909  3.8190  3.6680  4.0250 -2.9290  3.8190  3.6680  4.0250  2.4776  3223.0  117.54  11.810  60.791  51.337 
  3224.500 -12.038  3.7030  3.5950  3.8660 -3.0588  3.7030  3.5950  3.8660  2.4780  3223.5  117.55  11.800  60.811  51.344 
  3225.000 -12.295  3.5800  3.5150  3.6990 -3.3167  3.5800  3.5150  3.6990  2.4783  3224.0  117.57  11.790  60.830  51.350 
  3225.500 -12.442  3.4360  3.5000  3.6120 -3.4645  3.4360  3.5000  3.6120  2.4787  3224.5  117.59  11.780  60.849  51.357 
  3226.000 -12.589  3.3200  3.5290  3.5100 -3.6124  3.3200  3.5290  3.5100  2.4791  3225.0  117.61  11.770  60.868  51.363 
  3226.500 -13.350  3.2900  3.6070  3.7480 -4.3742  3.2900  3.6070  3.7480  2.4795  3225.5  117.63  11.760  60.887  51.370 
  3227.000 -14.580  3.2820  3.7430  3.8840 -5.6051  3.2820  3.7430  3.8840  2.4799  3226.0  117.64  11.750  60.906  51.376 
  3227.500 -16.314  3.4400  3.9160  3.9700 -7.3399  3.4400  3.9160  3.9700  2.4803  3226.5  117.66  11.740  60.926  51.383 
  3228.000 -18.662  3.6990  4.2030  4.0560 -9.6888  3.6990  4.2030  4.0560  2.4806  3227.0  117.68  11.730  60.945  51.389 
  3228.500 -22.452  4.4620  4.4260  4.2130 -13.480  4.4620  4.4260  4.2130  2.4810  3227.5  117.70  11.720  60.964  51.395 
  3229.000 -25.484  5.1170  4.5480  4.2630 -16.512  5.1170  4.5480  4.2630  2.4814  3228.0  117.72  11.710  60.983  51.402 
  3229.500 -32.088  5.8370  4.6840  4.3130 -23.117  5.8370  4.6840  4.3130  2.4818  3228.5  117.74  11.700  61.002  51.408 
  3230.000 -36.960  6.3260  4.7550  4.4270 -27.990  6.3260  4.7550  4.4270  2.4822  3229.0  117.75  11.690  61.021  51.415 
  3230.500 -40.930  6.8010  4.7910  4.5060 -31.961  6.8010  4.7910  4.5060  2.4826  3229.5  117.77  11.680  61.041  51.421 
  3231.000 -46.704  7.5640  4.8690  4.5410 -37.736  7.5640  4.8690  4.5410  2.4830  3230.0  117.79  11.670  61.060  51.427 
  3231.500 -50.313  8.2330  4.9190  4.5730 -41.346  8.2330  4.9190  4.5730  2.4833  3230.5  117.81  11.660  61.079  51.434 
  3232.000 -52.949  8.9020  4.9760  4.6050 -43.983  8.9020  4.9760  4.6050  2.4837  3231.0  117.83  11.650  61.098  51.440 
  3232.500 -54.431  9.1970  5.0040  4.6620 -45.465  9.1970  5.0040  4.6620  2.4841  3231.5  117.85  11.639  61.117  51.447 
  3233.000 -55.732  9.5280  5.0180  4.6760 -46.767  9.5280  5.0180  4.6760  2.4845  3232.0  117.86  11.629  61.136  51.453 
  3233.500 -55.231  9.8300  5.0320  4.6790 -46.267  9.8300  5.0320  4.6790  2.4849  3232.5  117.88  11.619  61.156  51.459 
  3234.000 -54.694  10.103  5.0810  4.6820 -45.731  10.103  5.0810  4.6820  2.4853  3233.0  117.90  11.609  61.175  51.466 
  3234.500 -54.408  10.296  5.0740  4.6880 -45.446  10.296  5.0740  4.6880  2.4856  3233.5  117.92  11.599  61.194  51.472 
  3235.000 -54.230  10.476  4.9720  4.6800 -45.269  10.476  4.9720  4.6800  2.4860  3234.0  117.94  11.589  61.213  51.479 
  3235.500 -54.991  10.641  4.9000  4.6720 -46.031  10.641  4.9000  4.6720  2.4864  3234.5  117.95  11.579  61.232  51.485 
  3236.000 -57.158  10.784  4.8270  4.6570 -48.198  10.784  4.8270  4.6570  2.4868  3235.0  117.97  11.568  61.251  51.491 
  3236.500 -58.460  10.949  4.6820  4.6500 -49.501  10.949  4.6820  4.6500  2.4872  3235.5  117.99  11.558  61.270  51.498 
  3237.000 -58.896  11.028  4.6090  4.6340 -49.938  11.028  4.6090  4.6340  2.4876  3236.0  118.01  11.548  61.290  51.504 
  3237.500 -59.079  11.056  4.6020  4.6270 -50.122  11.056  4.6020  4.6270  2.4880  3236.5  118.03  11.538  61.309  51.510 
  3238.000 -59.119  11.070  4.6440  4.5900 -50.163  11.070  4.6440  4.5900  2.4883  3237.0  118.05  11.528  61.328  51.517 
  3238.500 -59.176  11.026  4.6760  4.5680 -50.221  11.026  4.6760  4.5680  2.4887  3237.5  118.06  11.517  61.347  51.523 
  3239.000 -59.232  10.903  4.7080  4.5380 -50.277  10.903  4.7080  4.5380  2.4891  3238.0  118.08  11.507  61.366  51.529 
  3239.500 -59.309  10.600  4.8010  4.5160 -50.355  10.600  4.8010  4.5160  2.4895  3238.5  118.10  11.497  61.385  51.536 
  3240.000 -59.420  10.397  4.8580  4.4760 -50.467  10.397  4.8580  4.4760  2.4899  3239.0  118.12  11.487  61.405  51.542 
  3240.500 -59.531  10.253  4.9070  4.4360 -50.579  10.253  4.9070  4.4360  2.4903  3239.5  118.14  11.476  61.424  51.548 
  3241.000 -59.679  10.122  4.9570  4.3840 -50.728  10.122  4.9570  4.3840  2.4906  3240.0  118.16  11.466  61.443  51.554 
  3241.500 -59.898  10.194  5.0500  4.3400 -50.948  10.194  5.0500  4.3400  2.4910  3240.5  118.17  11.456  61.462  51.561 
  3242.000 -60.082  10.265  5.0930  4.3110 -51.133  10.265  5.0930  4.3110  2.4914  3241.0  118.19  11.446  61.481  51.567 
