~Version Information
VERS.                     2.0: CWLS log ASCII Standard Version 2.00
WRAP.                      NO: One line per depth step
~Well Information Block
#MNEM.UNIT                               Data Type  Information
#---------                               ---------  -----------
STRT.FT                                   740.0000:
STOP.FT                                  5380.0000:
STEP.FT                                     0.5000:
NULL.                 -999.25                     :
COMP.                                             :COMPANY            
WELL.     SAN EMIDIO A 84-28 REDRILL              :WELL               
FLD .                                             :FIELD              
CTRY.                                             :COUNTRY            
STAT.                                             :STATE              
LOC .                                             :LOCATION           
UWI .                                             :UNIQUE WELL ID     
SRVC.                                             :Service company    
DATE.                                             :LOG DATE           
~Curve Information
#MNEM.UNIT           API CODE  Curve Description
#---------           --------  -----------------
DEPT.FT                      :   1 DEPTH
SP  .MV                      :   2
AM10.OHMM                    :   3
AO10.OHMM                    :   4
AO19.OHMM                    :   5
SBL .MV                      :   6
RS  .OHMM                    :   7
RM  .OHMM                    :   8
RD  .OHMM                    :   9
DEVI.DEG                     :  10
TVD .FT                      :  11
AZIM.DEG                     :  12
NORT.FT                      :  13
EAST.FT                      :  14
OFFS.FT                      :  15
~A
# ...
  2267.500 -48.227  12.103  9.2430  7.4350 -42.009  12.103  9.2430  7.4350  1.7424  2267.2  82.668  18.505  26.760  32.007 
  2268.000 -48.475  12.263  9.3520  7.4210 -42.252  12.263  9.3520  7.4210  1.7428  2267.7  82.686  18.507  26.775  32.019 
  2268.500 -48.723  12.386  9.4830  7.4150 -42.495  12.386  9.4830  7.4150  1.7432  2268.1  82.704  18.509  26.790  32.031 
  2269.000 -48.862  12.488  9.5850  7.3870 -42.629  12.488  9.5850  7.3870  1.7436  2268.6  82.722  18.511  26.805  32.043 
  2269.500 -48.966  12.583  9.7080  7.3810 -42.727  12.583  9.7080  7.3810  1.7440  2269.1  82.741  18.513  26.820  32.055 
  2270.000 -49.068  12.656  9.8320  7.3820 -42.824  12.656  9.8320  7.3820  1.7443  2269.6  82.759  18.514  26.835  32.067 
  2270.500 -49.027  12.736  9.9330  7.3970 -42.778  12.736  9.9330  7.3970  1.7447  2270.1  82.777  18.516  26.851  32.079 
  2271.000 -48.952  12.766  10.050  7.4420 -42.697  12.766  10.050  7.4420  1.7451  2270.6  82.795  18.518  26.866  32.091 
  2271.500 -48.876  12.803  10.151  7.5360 -42.616  12.803  10.151  7.5360  1.7455  2271.1  82.814  18.520  26.881  32.103 
  2272.000 -48.616  12.804  10.253  7.6090 -42.351  12.804  10.253  7.6090  1.7459  2271.6  82.832  18.522  26.896  32.115 
  2272.500 -48.394  12.733  10.341  7.6680 -42.123  12.733  10.341  7.6680  1.7463  2272.1  82.850  18.524  26.911  32.127 
  2273.000 -48.245  12.410  10.392  7.7340 -41.969  12.410  10.392  7.7340  1.7467  2272.6  82.868  18.526  26.926  32.139 
  2273.500 -48.097  12.144  10.429  7.7350 -41.816  12.144  10.429  7.7350  1.7470  2273.1  82.887  18.528  26.941  32.151 
  2274.000 -47.655  11.835  10.474  7.6850 -41.369  11.835  10.474  7.6850  1.7474  2273.6  82.905  18.530  26.956  32.163 
  2274.500 -47.434  11.498  10.518  7.6360 -41.142  11.498  10.518  7.6360  1.7478  2274.1  82.923  18.532  26.972  32.176 
  2275.000 -47.102  11.232  10.548  7.5510 -40.805  11.232  10.548  7.5510  1.7482  2274.6  82.941  18.533  26.987  32.188 
  2275.500 -46.772  11.082  10.592  7.5230 -40.470  11.082  10.592  7.5230  1.7486  2275.1  82.959  18.535  27.002  32.200 
  2276.000 -46.442  11.068  10.644  7.5240 -40.134  11.068  10.644  7.5240  1.7490  2275.6  82.978  18.537  27.017  32.212 
  2276.500 -46.004  11.034  10.688  7.6040 -39.691  11.034  10.688  7.6040  1.7493  2276.1  82.996  18.539  27.032  32.224 
  2277.000 -45.130  11.006  10.725  7.7280 -38.812  11.006  10.725  7.7280  1.7497  2276.6  83.014  18.541  27.047  32.236 
  2277.500 -44.258  10.985  10.769  7.8370 -37.934  10.985  10.769  7.8370  1.7501  2277.1  83.032  18.543  27.062  32.248 
  2278.000 -43.277  10.957  10.820  7.9020 -36.948  10.957  10.820  7.9020  1.7505  2277.6  83.051  18.545  27.078  32.260 
  2278.500 -41.935  10.879  10.857  7.9470 -35.601  10.879  10.857  7.9470  1.7509  2278.1  83.069  18.546  27.093  32.272 
  2279.000 -40.664  10.649  10.693  7.8830 -34.324  10.649  10.693  7.8830  1.7513  2278.6  83.087  18.548  27.108  32.284 
  2279.500 -39.647  9.9730  10.470  7.8120 -33.302  9.9730  10.470  7.8120  1.7516  2279.1  83.105  18.550  27.123  32.296 
  2280.000 -38.991  9.6500  10.356  7.6900 -32.641  9.6500  10.356  7.6900  1.7520  2279.6  83.123  18.552  27.138  32.308 
  2280.500 -38.408  9.5280  10.256  7.5400 -32.053  9.5280  10.256  7.5400  1.7524  2280.1  83.142  18.554  27.153  32.320 
  2281.000 -38.403  9.4570  10.199  7.4260 -32.042  9.4570  10.199  7.4260  1.7528  2280.6  83.160  18.556  27.169  32.332 
  2281.500 -39.989  9.4010  10.265  7.4480 -33.623  9.4010  10.265  7.4480  1.7532  2281.1  83.178  18.557  27.184  32.344 
  2282.000 -41.828  9.3870  10.338  7.5360 -35.457  9.3870  10.338  7.5360  1.7536  2281.6  83.196  18.559  27.199  32.356 
  2282.500 -42.943  9.7200  10.411  7.6090 -36.566  9.7200  10.411  7.6090  1.7540  2282.1  83.215  18.561  27.214  32.368 
  2283.000 -43.083  10.074  10.456  7.6960 -36.701  10.074  10.456  7.6960  1.7543  2282.6  83.233  18.563  27.229  32.380 
  2283.500 -42.607  10.385  10.471  7.7410 -36.220  10.385  10.471  7.7410  1.7547  2283.1  83.251  18.565  27.245  32.392 
  2284.000 -41.952  10.551  10.465  7.7700 -35.559  10.551  10.465  7.7700  1.7551  2283.6  83.269  18.566  27.260  32.404 
  2284.500 -40.718  10.552  10.415  7.7640 -34.320  10.552  10.415  7.7640  1.7555  2284.1  83.287  18.568  27.275  32.416 
  2285.000 -38.906  10.445  10.208  7.7360 -32.503  10.445  10.208  7.7360  1.7559  2284.6  83.306  18.570  27.290  32.428 
  2285.500 -37.057  10.252  9.9060  7.6870 -30.649  10.252  9.9060  7.6870  1.7563  2285.1  83.324  18.572  27.305  32.440 
  2286.000 -35.027  9.7340  9.2870  7.6230 -28.613  9.7340  9.2870  7.6230  1.7566  2285.6  83.342  18.574  27.321  32.452 
  2286.500 -33.215  8.7700  8.5750  7.5160 -26.796  8.7700  8.5750  7.5160  1.7570  2286.1  83.360  18.575  27.336  32.464 
  2287.000 -30.389  8.0000  8.0070  7.4450 -23.965  8.0000  8.0070  7.4450  1.7574  2286.6  83.379  18.577  27.351  32.476 
  2287.500 -27.601  6.5090  7.5610  7.3380 -21.171  6.5090  7.5610  7.3380  1.7578  2287.1  83.397  18.579  27.366  32.488 
  2288.000 -24.993  4.0030  7.1520  7.2450 -18.558  4.0030  7.1520  7.2450  1.7582  2287.6  83.415  18.581  27.382  32.500 
  2288.500 -22.530  3.6010  6.6920  7.1090 -16.090  3.6010  6.6920  7.1090  1.7586  2288.1  83.433  18.582  27.397  32.512 
  2289.000 -20.247  3.2560  6.2100  6.8650 -13.801  3.2560  6.2100  6.8650  1.7589  2288.6  83.452  18.584  27.412  32.524 
  2289.500 -18.507  3.1640  5.6560  6.4920 -12.056  3.1640  5.6560  6.4920  1.7593  2289.1  83.470  18.586  27.427  32.536 
  2290.000 -18.682  3.1430  5.1740  5.4340 -12.226  3.1430  5.1740  5.4340  1.7597  2289.6  83.488  18.588  27.443  32.548 
  2290.500 -19.076  3.1370  5.2110  5.1970 -12.614  3.1370  5.2110  5.1970  1.7601  2290.1  83.506  18.589  27.458  32.560 
  2291.000 -19.470  3.1300  5.2480  5.0250 -13.003  3.1300  5.2480  5.0250  1.7605  2290.6  83.524  18.591  27.473  32.572 
  2291.500 -20.258  3.1170  5.3360  5.3940 -13.786  3.1170  5.3360  5.3940  1.7609  2291.1  83.543  18.593  27.488  32.584 
  2292.000 -20.470  3.0820  5.4230  5.5890 -13.993  3.0820  5.4230  5.5890  1.7613  2291.6  83.561  18.595  27.504  32.596 
  2292.500 -19.055  3.0690  5.5330  5.7060 -12.572  3.0690  5.5330  5.7060  1.7616  2292.1  83.579  18.596  27.519  32.608 
  2293.000 -17.422  3.0190  5.4900  5.7640 -10.934  3.0190  5.4900  5.7640  1.7620  2292.6  83.597  18.598  27.534  32.620 
  2293.500 -16.369  2.8760  5.1600  5.5490 -9.8756  2.8760  5.1600  5.5490  1.7624  2293.1  83.616  18.600  27.549  32.632 
  2294.000 -15.533  2.7620  4.8800  5.3200 -9.0343  2.7620  4.8800  5.3200  1.7628  2293.6  83.634  18.601  27.565  32.644 
  2294.500 -15.348  2.6110  4.7080  5.2120 -8.8440  2.6110  4.7080  5.2120  1.7632  2294.1  83.652  18.603  27.580  32.656 
  2295.000 -15.305  2.3960  4.6230  5.0770 -8.7957  2.3960  4.6230  5.0770  1.7636  2294.6  83.670  18.605  27.595  32.668 
  2295.500 -15.301  2.2820  4.6090  5.0780 -8.7864  2.2820  4.6090  5.0780  1.7639  2295.1  83.688  18.606  27.611  32.680 
  2296.000 -15.296  2.1820  4.6250  5.0930 -8.7761  2.1820  4.6250  5.0930  1.7643  2295.6  83.707  18.608  27.626  32.692 
  2296.500 -15.290  2.1400  4.6470  5.1080 -8.7648  2.1400  4.6470  5.1080  1.7647  2296.1  83.725  18.610  27.641  32.704 
  2297.000 -15.285  2.1410  4.7060  5.1380 -8.7545  2.1410  4.7060  5.1380  1.7651  2296.6  83.743  18.612  27.657  32.716 
  2297.500 -15.282  2.2070  4.7570  5.1570 -8.7462  2.2070  4.7570  5.1570  1.7655  2297.1  83.761  18.613  27.672  32.728 
  2298.000 -15.241  2.2870  4.8160  5.1760 -8.6999  2.2870  4.8160  5.1760  1.7659  2297.6  83.780  18.615  27.687  32.741 
  2298.500 -16.067  2.3670  4.9040  5.3360 -9.5206  2.3670  4.9040  5.3360  1.7662  2298.1  83.798  18.617  27.703  32.753 
  2299.000 -17.145  2.5200  4.9480  5.4300 -10.593  2.5200  4.9480  5.4300  1.7666  2298.6  83.816  18.618  27.718  32.765 
  2299.500 -17.720  2.7730  5.0350  5.6400 -11.163  2.7730  5.0350  5.6400  1.7670  2299.1  83.834  18.620  27.733  32.777 
