~Version Information
VERS.                     2.0: CWLS log ASCII Standard Version 2.00
WRAP.                      NO: One line per depth step
~Well Information Block
#MNEM.UNIT                               Data Type  Information
#---------                               ---------  -----------
STRT.FT                                   740.0000:
STOP.FT                                  5380.0000:
STEP.FT                                     0.5000:
NULL.                 -999.25                     :
COMP.                                             :COMPANY            
WELL.     SAN EMIDIO A 84-28 REDRILL              :WELL               
FLD .                                             :FIELD              
CTRY.                                             :COUNTRY            
STAT.                                             :STATE              
LOC .                                             :LOCATION           
UWI .                                             :UNIQUE WELL ID     
SRVC.                                             :Service company    
DATE.                                             :LOG DATE           
~Curve Information
#MNEM.UNIT           API CODE  Curve Description
#---------           --------  -----------------
DEPT.FT                      :   1 DEPTH
SP  .MV                      :   2
AM10.OHMM                    :   3
AO10.OHMM                    :   4
AO19.OHMM                    :   5
SBL .MV                      :   6
RS  .OHMM                    :   7
RM  .OHMM                    :   8
RD  .OHMM                    :   9
DEVI.DEG                     :  10
TVD .FT                      :  11
AZIM.DEG                     :  12
NORT.FT                      :  13
EAST.FT                      :  14
OFFS.FT                      :  15
~A
# ...
  2885.000 -52.377  6.7540  4.7080  4.4240 -42.821  6.7540  4.7080  4.4240  2.2170  2884.3  105.18  16.885  47.895  45.807 
  2885.500 -58.438  7.1000  4.8590  4.4520 -48.883  7.1000  4.8590  4.4520  2.2174  2884.8  105.20  16.880  47.914  45.816 
  2886.000 -63.887  8.0570  4.9160  4.4520 -54.332  8.0570  4.9160  4.4520  2.2178  2885.3  105.21  16.875  47.933  45.826 
  2886.500 -64.647  9.3170  4.9230  4.4150 -55.093  9.3170  4.9230  4.4150  2.2181  2885.8  105.23  16.870  47.951  45.836 
  2887.000 -63.387  10.210  4.8430  4.3570 -53.834  10.210  4.8430  4.3570  2.2185  2886.3  105.25  16.865  47.970  45.845 
  2887.500 -61.587  10.635  4.6700  4.2340 -52.035  10.635  4.6700  4.2340  2.2189  2886.8  105.27  16.860  47.989  45.855 
  2888.000 -60.327  10.670  4.4960  4.0820 -50.776  10.670  4.4960  4.0820  2.2193  2887.3  105.29  16.855  48.008  45.864 
  2888.500 -59.572  10.173  4.3230  3.9880 -50.022  10.173  4.3230  3.9880  2.2197  2887.8  105.31  16.849  48.026  45.874 
  2889.000 -59.106  9.7540  4.2580  3.8800 -49.556  9.7540  4.2580  3.8800  2.2201  2888.3  105.32  16.844  48.045  45.884 
  2889.500 -59.000  9.3940  4.1420  3.8140 -49.451  9.3940  4.1420  3.8140  2.2205  2888.8  105.34  16.839  48.064  45.893 
  2890.000 -59.796  9.0620  4.0690  3.8570 -50.248  9.0620  4.0690  3.8570  2.2208  2889.3  105.36  16.834  48.082  45.903 
  2890.500 -61.169  8.7660  4.0470  3.8930 -51.622  8.7660  4.0470  3.8930  2.2212  2889.8  105.38  16.829  48.101  45.912 
  2891.000 -62.578  8.9890  4.0540  3.9280 -53.032  8.9890  4.0540  3.9280  2.2216  2890.3  105.40  16.824  48.120  45.922 
  2891.500 -63.518  9.5070  4.0640  4.0210 -53.973  9.5070  4.0640  4.0210  2.2220  2890.8  105.41  16.819  48.138  45.931 
  2892.000 -64.530  9.8670  4.0750  4.0390 -54.986  9.8670  4.0750  4.0390  2.2224  2891.3  105.43  16.813  48.157  45.941 
  2892.500 -65.723  10.183  4.1100  4.0560 -56.179  10.183  4.1100  4.0560  2.2228  2891.8  105.45  16.808  48.176  45.951 
  2893.000 -66.808  10.312  4.1240  4.0410 -57.265  10.312  4.1240  4.0410  2.2231  2892.3  105.47  16.803  48.194  45.960 
  2893.500 -67.712  10.384  4.1380  4.0260 -58.170  10.384  4.1380  4.0260  2.2235  2892.8  105.49  16.798  48.213  45.970 
  2894.000 -68.869  10.456  4.1730  4.0080 -59.328  10.456  4.1730  4.0080  2.2239  2893.3  105.51  16.793  48.232  45.979 
  2894.500 -69.232  10.534  4.2160  3.9890 -59.692  10.534  4.2160  3.9890  2.2243  2893.8  105.52  16.788  48.250  45.989 
  2895.000 -68.622  10.548  4.2950  3.9090 -59.083  10.548  4.2950  3.9090  2.2247  2894.3  105.54  16.782  48.269  45.998 
  2895.500 -68.425  10.548  4.3660  3.8730 -58.887  10.548  4.3660  3.8730  2.2251  2894.8  105.56  16.777  48.288  46.008 
  2896.000 -68.229  10.547  4.4670  3.8000 -58.691  10.547  4.4670  3.8000  2.2255  2895.3  105.58  16.772  48.307  46.017 
  2896.500 -67.728  10.521  4.5530  3.7640 -58.191  10.521  4.5530  3.7640  2.2258  2895.8  105.60  16.767  48.325  46.027 
  2897.000 -67.550  10.496  4.6030  3.7630 -58.014  10.496  4.6030  3.7630  2.2262  2896.3  105.62  16.761  48.344  46.037 
  2897.500 -67.480  10.466  4.6090  3.7950 -57.945  10.466  4.6090  3.7950  2.2266  2896.8  105.63  16.756  48.363  46.046 
  2898.000 -67.680  10.437  4.6310  3.8280 -58.146  10.437  4.6310  3.8280  2.2270  2897.3  105.65  16.751  48.381  46.056 
  2898.500 -67.881  10.408  4.6520  3.9350 -58.348  10.408  4.6520  3.9350  2.2274  2897.8  105.67  16.746  48.400  46.065 
  2899.000 -69.183  10.393  4.7010  3.9920 -59.650  10.393  4.7010  3.9920  2.2278  2898.3  105.69  16.741  48.419  46.075 
  2899.500 -69.799  10.399  4.7230  4.0200 -60.267  10.399  4.7230  4.0200  2.2281  2898.8  105.71  16.735  48.438  46.084 
  2900.000 -69.945  10.413  4.7650  4.0490 -60.414  10.413  4.7650  4.0490  2.2285  2899.3  105.72  16.730  48.456  46.094 
  2900.500 -69.893  10.506  4.8300  4.1340 -60.363  10.506  4.8300  4.1340  2.2289  2899.8  105.74  16.725  48.475  46.103 
  2901.000 -69.841  10.614  4.8910  4.1700 -60.312  10.614  4.8910  4.1700  2.2293  2900.3  105.76  16.719  48.494  46.113 
  2901.500 -69.591  10.693  4.9510  4.2060 -60.063  10.693  4.9510  4.2060  2.2297  2900.8  105.78  16.714  48.512  46.122 
  2902.000 -69.341  10.772  5.0590  4.2410 -59.814  10.772  5.0590  4.2410  2.2301  2901.3  105.80  16.709  48.531  46.132 
  2902.500 -68.768  10.922  5.1090  4.2770 -59.241  10.922  5.1090  4.2770  2.2304  2901.8  105.82  16.704  48.550  46.141 
  2903.000 -68.013  10.965  5.1590  4.3550 -58.487  10.965  5.1590  4.3550  2.2308  2902.3  105.83  16.698  48.569  46.151 
  2903.500 -66.501  10.741  5.1580  4.3690 -56.976  10.741  5.1580  4.3690  2.2312  2902.8  105.85  16.693  48.587  46.160 
  2904.000 -64.628  10.431  5.1430  4.3470 -55.104  10.431  5.1430  4.3470  2.2316  2903.3  105.87  16.688  48.606  46.170 
  2904.500 -62.539  10.099  5.0630  4.2170 -53.016  10.099  5.0630  4.2170  2.2320  2903.8  105.89  16.682  48.625  46.179 
  2905.000 -59.909  9.6810  4.9550  3.9860 -50.387  9.6810  4.9550  3.9860  2.2324  2904.3  105.91  16.677  48.643  46.188 
  2905.500 -55.692  9.2690  4.8250  3.9280 -46.171  9.2690  4.8250  3.9280  2.2328  2904.8  105.92  16.672  48.662  46.198 
  2906.000 -51.943  8.8080  4.6800  3.7250 -42.422  8.8080  4.6800  3.7250  2.2331  2905.3  105.94  16.666  48.681  46.207 
  2906.500 -48.376  8.5050  4.4350  3.6390 -38.856  8.5050  4.4350  3.6390  2.2335  2905.8  105.96  16.661  48.700  46.217 
  2907.000 -46.863  7.9710  4.3330  3.5440 -37.344  7.9710  4.3330  3.5440  2.2339  2906.3  105.98  16.655  48.718  46.226 
  2907.500 -44.630  7.5460  4.1090  3.6450 -35.112  7.5460  4.1090  3.6450  2.2343  2906.8  106.00  16.650  48.737  46.236 
  2908.000 -43.479  6.7820  3.9870  3.8460 -33.962  6.7820  3.9870  3.8460  2.2347  2907.3  106.02  16.645  48.756  46.245 
  2908.500 -42.760  6.0540  3.9000  3.9750 -33.244  6.0540  3.9000  3.9750  2.2351  2907.8  106.03  16.639  48.775  46.255 
  2909.000 -43.520  5.8220  3.9420  4.1120 -34.004  5.8220  3.9420  4.1120  2.2354  2908.3  106.05  16.634  48.793  46.264 
  2909.500 -46.912  6.0240  4.0430  4.2480 -37.397  6.0240  4.0430  4.2480  2.2358  2908.8  106.07  16.629  48.812  46.274 
  2910.000 -51.459  6.6640  4.3010  4.5790 -41.945  6.6640  4.3010  4.5790  2.2362  2909.3  106.09  16.623  48.831  46.283 
  2910.500 -57.737  9.4010  4.6610  4.6720 -48.224  9.4010  4.6610  4.6720  2.2366  2909.8  106.11  16.618  48.850  46.292 
  2911.000 -60.985  10.258  4.9560  4.7290 -51.473  10.258  4.9560  4.7290  2.2370  2910.3  106.13  16.612  48.868  46.302 
  2911.500 -64.017  10.841  5.0780  4.8080 -54.506  10.841  5.0780  4.8080  2.2374  2910.8  106.14  16.607  48.887  46.311 
  2912.000 -66.184  11.633  5.1850  4.8430 -56.674  11.633  5.1850  4.8430  2.2378  2911.3  106.16  16.601  48.906  46.321 
  2912.500 -67.809  12.317  5.2350  4.8500 -58.299  12.317  5.2350  4.8500  2.2381  2911.8  106.18  16.596  48.925  46.330 
  2913.000 -68.858  12.893  5.2850  4.7880 -59.349  12.893  5.2850  4.7880  2.2385  2912.3  106.20  16.591  48.943  46.339 
  2913.500 -68.681  13.044  5.2990  4.7270 -59.173  13.044  5.2990  4.7270  2.2389  2912.8  106.22  16.585  48.962  46.349 
  2914.000 -68.033  12.452  5.2770  4.4590 -58.526  12.452  5.2770  4.4590  2.2393  2913.3  106.23  16.580  48.981  46.358 
  2914.500 -66.269  11.717  5.1610  4.3440 -56.763  11.717  5.1610  4.3440  2.2397  2913.8  106.25  16.574  49.000  46.368 
  2915.000 -64.108  10.881  4.9300  4.2280 -54.603  10.881  4.9300  4.2280  2.2401  2914.3  106.27  16.569  49.018  46.377 
  2915.500 -61.802  9.7710  4.7790  3.9750 -52.298  9.7710  4.7790  3.9750  2.2404  2914.8  106.29  16.563  49.037  46.386 
  2916.000 -58.162  9.0140  4.5840  3.8670 -48.658  9.0140  4.5840  3.8670  2.2408  2915.3  106.31  16.558  49.056  46.396 
  2916.500 -55.568  8.3580  4.3810  3.7580 -46.065  8.3580  4.3810  3.7580  2.2412  2915.8  106.33  16.552  49.075  46.405 
  2917.000 -53.154  7.9680  4.1430  3.5990 -43.652  7.9680  4.1430  3.5990  2.2416  2916.3  106.34  16.547  49.093  46.415 
