~Version Information
VERS.                     2.0: CWLS log ASCII Standard Version 2.00
WRAP.                      NO: One line per depth step
~Well Information Block
#MNEM.UNIT                               Data Type  Information
#---------                               ---------  -----------
STRT.FT                                   740.0000:
STOP.FT                                  5380.0000:
STEP.FT                                     0.5000:
NULL.                 -999.25                     :
COMP.                                             :COMPANY            
WELL.     SAN EMIDIO A 84-28 REDRILL              :WELL               
FLD .                                             :FIELD              
CTRY.                                             :COUNTRY            
STAT.                                             :STATE              
LOC .                                             :LOCATION           
UWI .                                             :UNIQUE WELL ID     
SRVC.                                             :Service company    
DATE.                                             :LOG DATE           
~Curve Information
#MNEM.UNIT           API CODE  Curve Description
#---------           --------  -----------------
DEPT.FT                      :   1 DEPTH
SP  .MV                      :   2
AM10.OHMM                    :   3
AO10.OHMM                    :   4
AO19.OHMM                    :   5
SBL .MV                      :   6
RS  .OHMM                    :   7
RM  .OHMM                    :   8
RD  .OHMM                    :   9
DEVI.DEG                     :  10
TVD .FT                      :  11
AZIM.DEG                     :  12
NORT.FT                      :  13
EAST.FT                      :  14
OFFS.FT                      :  15
~A
# ...
  1032.500 -18.158  2.6410  4.2700  3.9880 -6.1580  2.6410  4.2700  3.9880  0.7934  1032.5  37.643  6.3986  3.0002  6.6459 
  1033.000 -17.831  2.5480  4.0900  3.8450 -5.8310  2.5480  4.0900  3.8450  0.7938  1033.0  37.661  6.4041  3.0044  6.6528 
  1033.500 -18.082  2.4760  3.8230  3.6430 -6.0820  2.4760  3.8230  3.6430  0.7942  1033.5  37.679  6.4095  3.0086  6.6596 
  1034.000 -18.876  2.4480  3.6290  3.5500 -6.8760  2.4480  3.6290  3.5500  0.7946  1034.0  37.697  6.4150  3.0129  6.6665 
  1034.500 -19.561  2.4980  3.5210  3.5500 -7.5610  2.4980  3.5210  3.5500  0.7950  1034.5  37.715  6.4205  3.0171  6.6734 
  1035.000 -20.101  2.6360  3.5360  3.5360 -8.1010  2.6360  3.5360  3.5360  0.7953  1035.0  37.734  6.4260  3.0214  6.6803 
  1035.500 -20.533  2.7660  3.5650  3.5360 -8.5330  2.7660  3.5650  3.5360  0.7957  1035.5  37.752  6.4315  3.0256  6.6872 
  1036.000 -20.821  2.9970  3.5940  3.5660 -8.8210  2.9970  3.5940  3.5660  0.7961  1036.0  37.770  6.4370  3.0299  6.6941 
  1036.500 -21.253  3.1340  3.6600  3.6020 -9.2530  3.1340  3.6600  3.6020  0.7965  1036.5  37.788  6.4425  3.0341  6.7010 
  1037.000 -21.793  3.3140  3.7250  3.6810 -9.7930  3.3140  3.7250  3.6810  0.7969  1037.0  37.807  6.4480  3.0384  6.7079 
  1037.500 -22.949  3.6960  3.8910  3.9200 -10.949  3.6960  3.8910  3.9200  0.7973  1037.5  37.825  6.4535  3.0426  6.7148 
  1038.000 -25.116  4.0850  4.2010  4.2220 -13.116  4.0850  4.2010  4.2220  0.7977  1038.0  37.843  6.4590  3.0469  6.7217 
  1038.500 -28.440  4.7990  4.6980  4.8210 -16.440  4.7990  4.6980  4.8210  0.7980  1038.5  37.861  6.4645  3.0512  6.7286 
  1039.000 -31.620  5.6280  5.2310  5.6280 -19.620  5.6280  5.2310  5.6280  0.7984  1039.0  37.880  6.4700  3.0555  6.7355 
  1039.500 -34.438  6.1250  5.9230  6.2910 -22.438  6.1250  5.9230  6.2910  0.7988  1039.5  37.898  6.4755  3.0597  6.7424 
  1040.000 -35.556  6.6730  6.4710  6.9250 -23.556  6.6730  6.4710  6.9250  0.7992  1040.0  37.916  6.4810  3.0640  6.7493 
  1040.500 -36.278  6.8610  6.7960  7.1130 -24.278  6.8610  6.7960  7.1130  0.7996  1040.5  37.934  6.4865  3.0683  6.7563 
  1041.000 -36.421  6.9830  6.9180  7.2360 -24.421  6.9830  6.9180  7.2360  0.8000  1041.0  37.952  6.4920  3.0726  6.7632 
  1041.500 -36.491  7.0050  7.0130  7.2930 -24.491  7.0050  7.0130  7.2930  0.8003  1041.5  37.971  6.4975  3.0769  6.7701 
  1042.000 -34.610  6.8400  6.9840  7.2140 -22.610  6.8400  6.9840  7.2140  0.8007  1042.0  37.989  6.5030  3.0812  6.7771 
  1042.500 -31.065  6.6600  6.8110  7.0130 -19.065  6.6600  6.8110  7.0130  0.8011  1042.5  38.007  6.5085  3.0855  6.7840 
  1043.000 -28.063  6.2500  6.5950  6.7540 -16.063  6.2500  6.5950  6.7540  0.8015  1043.0  38.025  6.5140  3.0898  6.7909 
  1043.500 -25.386  5.8180  6.1780  6.3580 -13.386  5.8180  6.1780  6.3580  0.8019  1043.5  38.044  6.5195  3.0941  6.7979 
  1044.000 -23.504  5.2420  5.7390  6.0480 -11.504  5.2420  5.7390  6.0480  0.8023  1044.0  38.062  6.5250  3.0985  6.8048 
  1044.500 -21.839  4.6940  5.1270  5.6600 -9.8390  4.6940  5.1270  5.6600  0.8026  1044.5  38.080  6.5305  3.1028  6.8118 
  1045.000 -20.572  4.1470  4.5070  5.1850 -8.5720  4.1470  4.5070  5.1850  0.8030  1045.0  38.098  6.5361  3.1071  6.8187 
  1045.500 -19.775  3.5280  3.8950  4.5440 -7.7750  3.5280  3.8950  4.5440  0.8034  1045.5  38.117  6.5416  3.1114  6.8257 
  1046.000 -18.978  2.9160  3.3050  4.0970 -6.9780  2.9160  3.3050  4.0970  0.8038  1046.0  38.135  6.5471  3.1158  6.8327 
  1046.500 -18.940  2.7360  3.1180  3.5350 -6.9400  2.7360  3.1180  3.5350  0.8042  1046.5  38.153  6.5526  3.1201  6.8396 
  1047.000 -20.059  2.6640  3.1320  3.6940 -8.0590  2.6640  3.1320  3.6940  0.8046  1047.0  38.171  6.5581  3.1244  6.8466 
  1047.500 -21.576  2.6790  3.2190  3.8310 -9.5760  2.6790  3.2190  3.8310  0.8050  1047.5  38.189  6.5636  3.1288  6.8536 
  1048.000 -22.948  2.6930  3.2990  3.9180 -10.948  2.6930  3.2990  3.9180  0.8053  1048.0  38.208  6.5692  3.1331  6.8606 
  1048.500 -23.307  2.7370  3.4720  3.9690 -11.307  2.7370  3.4720  3.9690  0.8057  1048.5  38.226  6.5747  3.1375  6.8675 
  1049.000 -22.908  2.7730  3.6810  3.9910 -10.908  2.7730  3.6810  3.9910  0.8061  1049.0  38.244  6.5802  3.1418  6.8745 
  1049.500 -21.063  2.8240  3.6960  3.6960 -9.0630  2.8240  3.6960  3.6960  0.8065  1049.5  38.262  6.5857  3.1462  6.8815 
  1050.000 -19.470  2.8600  3.6460  3.4440 -7.4700  2.8600  3.6460  3.4440  0.8069  1050.0  38.281  6.5913  3.1505  6.8885 
  1050.500 -18.706  2.8900  3.6180  3.2070 -6.7060  2.8900  3.6180  3.2070  0.8073  1050.5  38.299  6.5968  3.1549  6.8955 
  1051.000 -18.557  2.9420  3.6910  3.1140 -6.5570  2.9420  3.6910  3.1140  0.8076  1051.0  38.317  6.6023  3.1593  6.9025 
  1051.500 -18.878  3.0070  3.8290  3.6480 -6.8780  3.0070  3.8290  3.6480  0.8080  1051.5  38.335  6.6079  3.1637  6.9095 
  1052.000 -21.223  3.3400  4.4060  4.1250 -9.2230  3.3400  4.4060  4.1250  0.8084  1052.0  38.354  6.6134  3.1680  6.9165 
  1052.500 -23.604  3.8950  5.0910  4.6230 -11.604  3.8950  5.0910  4.6230  0.8088  1052.5  38.372  6.6189  3.1724  6.9235 
  1053.000 -25.407  4.5010  5.5890  4.8540 -13.407  4.5010  5.5890  4.8540  0.8092  1053.0  38.390  6.6245  3.1768  6.9305 
  1053.500 -26.849  5.0430  5.8570  4.9920 -14.849  5.0430  5.8570  4.9920  0.8096  1053.5  38.408  6.6300  3.1812  6.9376 
  1054.000 -27.964  5.2960  6.0020  5.0150 -15.964  5.2960  6.0020  5.0150  0.8099  1054.0  38.426  6.6355  3.1856  6.9446 
  1054.500 -28.537  5.4630  6.1110  5.0520 -16.537  5.4630  6.1110  5.0520  0.8103  1054.5  38.445  6.6411  3.1900  6.9516 
  1055.000 -28.823  5.5000  6.0680  5.1180 -16.823  5.5000  6.0680  5.1180  0.8107  1055.0  38.463  6.6466  3.1944  6.9586 
  1055.500 -29.107  5.5000  6.0550  5.1980 -17.107  5.5000  6.0550  5.1980  0.8111  1055.5  38.481  6.6521  3.1988  6.9657 
  1056.000 -29.030  5.4940  6.0700  5.3350 -17.030  5.4940  6.0700  5.3350  0.8115  1056.0  38.499  6.6577  3.2032  6.9727 
  1056.500 -28.592  5.5740  6.0850  5.7980 -16.592  5.5740  6.0850  5.7980  0.8119  1056.5  38.518  6.6632  3.2076  6.9797 
  1057.000 -28.732  5.6540  6.3170  6.2310 -16.732  5.6540  6.3170  6.2310  0.8123  1057.0  38.536  6.6688  3.2120  6.9868 
  1057.500 -30.426  5.8500  6.5340  6.4980 -18.426  5.8500  6.5340  6.4980  0.8126  1057.5  38.554  6.6743  3.2164  6.9938 
  1058.000 -32.374  6.0240  6.6650  6.6500 -20.374  6.0240  6.6650  6.6500  0.8130  1058.0  38.572  6.6799  3.2209  7.0009 
  1058.500 -32.079  6.1540  6.8030  6.7090 -20.079  6.1540  6.8030  6.7090  0.8134  1058.5  38.590  6.6854  3.2253  7.0079 
  1059.000 -30.991  6.2560  6.8400  6.6740 -18.991  6.2560  6.8400  6.6740  0.8138  1059.0  38.609  6.6910  3.2297  7.0150 
  1059.500 -26.684  6.3000  6.8260  6.4080 -14.684  6.3000  6.8260  6.4080  0.8142  1059.5  38.627  6.6965  3.2342  7.0220 
  1060.000 -22.594  6.1930  6.2800  5.7100 -10.594  6.1930  6.2800  5.7100  0.8146  1060.0  38.645  6.7021  3.2386  7.0291 
  1060.500 -20.348  4.7460  5.3440  4.5230 -8.3480  4.7460  5.3440  4.5230  0.8149  1060.5  38.663  6.7076  3.2430  7.0362 
  1061.000 -19.150  3.9110  4.0550  4.0050 -7.1500  3.9110  4.0550  4.0050  0.8153  1061.0  38.682  6.7132  3.2475  7.0433 
  1061.500 -18.784  3.6380  3.3570  3.7250 -6.7840  3.6380  3.3570  3.7250  0.8157  1061.5  38.700  6.7187  3.2519  7.0503 
  1062.000 -18.344  3.3730  2.9620  3.5530 -6.3440  3.3730  2.9620  3.5530  0.8161  1062.0  38.718  6.7243  3.2564  7.0574 
  1062.500 -18.160  2.9990  3.4960  3.9360 -6.1600  2.9990  3.4960  3.9360  0.8165  1062.5  38.736  6.7298  3.2608  7.0645 
  1063.000 -17.720  2.7840  3.8280  4.1810 -5.7200  2.7840  3.8280  4.1810  0.8169  1063.0  38.755  6.7354  3.2653  7.0716 
  1063.500 -17.427  2.5970  4.1250  4.3770 -5.4270  2.5970  4.1250  4.3770  0.8172  1063.5  38.773  6.7410  3.2698  7.0787 
  1064.000 -16.989  2.6200  4.2410  4.3560 -4.9890  2.6200  4.2410  4.3560  0.8176  1064.0  38.791  6.7465  3.2742  7.0858 
  1064.500 -16.696  2.6860  4.3360  4.3000 -4.6960  2.6860  4.3360  4.3000  0.8180  1064.5  38.809  6.7521  3.2787  7.0929 
