~Version Information
VERS.                     2.0: CWLS log ASCII Standard Version 2.00
WRAP.                      NO: One line per depth step
~Well Information Block
#MNEM.UNIT                               Data Type  Information
#---------                               ---------  -----------
STRT.FT                                   740.0000:
STOP.FT                                  5380.0000:
STEP.FT                                     0.5000:
NULL.                 -999.25                     :
COMP.                                             :COMPANY            
WELL.     SAN EMIDIO A 84-28 REDRILL              :WELL               
FLD .                                             :FIELD              
CTRY.                                             :COUNTRY            
STAT.                                             :STATE              
LOC .                                             :LOCATION           
UWI .                                             :UNIQUE WELL ID     
SRVC.                                             :Service company    
DATE.                                             :LOG DATE           
~Curve Information
#MNEM.UNIT           API CODE  Curve Description
#---------           --------  -----------------
DEPT.FT                      :   1 DEPTH
SP  .MV                      :   2
AM10.OHMM                    :   3
AO10.OHMM                    :   4
AO19.OHMM                    :   5
SBL .MV                      :   6
RS  .OHMM                    :   7
RM  .OHMM                    :   8
RD  .OHMM                    :   9
DEVI.DEG                     :  10
TVD .FT                      :  11
AZIM.DEG                     :  12
NORT.FT                      :  13
EAST.FT                      :  14
OFFS.FT                      :  15
~A
   740.000 -999.25 -999.25 -999.25  0.1770 -999.25 -999.25 -999.25  0.1770  0.5687  739.99  26.978  3.4734  1.1285  3.2540 
   740.500 -999.25 -999.25 -999.25  0.1770 -999.25 -999.25 -999.25  0.1770  0.5690  740.49  26.996  3.4778  1.1308  3.2588 
   741.000 -999.25  0.1960 -999.25  0.1710 -999.25  0.1960 -999.25  0.1710  0.5694  740.99  27.015  3.4822  1.1330  3.2635 
   741.500 -999.25  0.1750 -999.25  0.1720 -999.25  0.1750 -999.25  0.1720  0.5698  741.49  27.033  3.4867  1.1353  3.2682 
   742.000 -999.25  0.1690 -999.25  0.1730 -999.25  0.1690 -999.25  0.1730  0.5702  741.99  27.051  3.4911  1.1375  3.2729 
   742.500 -999.25  0.1770 -999.25  0.1770 -999.25  0.1770 -999.25  0.1770  0.5706  742.49  27.069  3.4955  1.1398  3.2777 
   743.000 -999.25  0.1840  0.1770  0.1810 -999.25  0.1840  0.1770  0.1810  0.5710  742.99  27.088  3.5000  1.1421  3.2824 
   743.500 -999.25  0.2070  0.1860  0.1890 -999.25  0.2070  0.1860  0.1890  0.5714  743.49  27.106  3.5044  1.1443  3.2872 
   744.000 -999.25  0.2150  0.1790  0.1940 -999.25  0.2150  0.1790  0.1940  0.5717  743.99  27.124  3.5088  1.1466  3.2919 
   744.500 -999.25  0.2160  0.1730  0.1980 -999.25  0.2160  0.1730  0.1980  0.5721  744.49  27.142  3.5133  1.1489  3.2967 
   745.000 -999.25  0.2380  0.1590  0.2060 -999.25  0.2380  0.1590  0.2060  0.5725  744.99  27.161  3.5177  1.1512  3.3014 
   745.500 -999.25  0.2470  0.1380  0.2140 -999.25  0.2470  0.1380  0.2140  0.5729  745.49  27.179  3.5222  1.1535  3.3062 
   746.000 -999.25  0.2550  0.1170  0.2220 -999.25  0.2550  0.1170  0.2220  0.5733  745.99  27.197  3.5266  1.1557  3.3109 
   746.500 -999.25  0.2700  0.0680  0.2300 -999.25  0.2700  0.0680  0.2300  0.5737  746.49  27.215  3.5311  1.1580  3.3157 
   747.000 -999.25  0.2990  0.0540  0.2340 -999.25  0.2990  0.0540  0.2340  0.5740  746.99  27.233  3.5355  1.1603  3.3205 
   747.500  0.8490  0.3720  0.0410  0.2380  12.849  0.3720  0.0410  0.2380  0.5744  747.49  27.252  3.5400  1.1626  3.3253 
   748.000 -2.6540  1.2660  0.0490  0.2470  9.3460  1.2660  0.0490  0.2470  0.5748  747.99  27.270  3.5445  1.1649  3.3300 
   748.500 -6.1580  2.1170  0.0600  0.2480  5.8420  2.1170  0.0600  0.2480  0.5752  748.49  27.288  3.5489  1.1672  3.3348 
   749.000 -8.8660  3.5230  0.0720  0.2480  3.1340  3.5230  0.0720  0.2480  0.5756  748.99  27.306  3.5534  1.1695  3.3396 
   749.500 -10.670  5.2600  0.0730  0.2490  1.3300  5.2600  0.0730  0.2490  0.5760  749.49  27.325  3.5578  1.1718  3.3444 
   750.000 -16.380  5.7870  0.0660  0.2500 -4.3800  5.7870  0.0660  0.2500  0.5763  749.99  27.343  3.5623  1.1741  3.3492 
   750.500 -18.691  6.1040  0.0530  0.2500 -6.6910  6.1040  0.0530  0.2500  0.5767  750.49  27.361  3.5668  1.1765  3.3540 
   751.000 -19.627  6.2640  0.0530  0.2510 -7.6270  6.2640  0.0530  0.2510  0.5771  750.99  27.379  3.5713  1.1788  3.3588 
   751.500 -19.370  6.2860  0.0470  0.2450 -7.3700  6.2860  0.0470  0.2450  0.5775  751.49  27.397  3.5757  1.1811  3.3636 
   752.000 -18.535  5.9990  0.0400  0.2380 -6.5350  5.9990  0.0400  0.2380  0.5779  751.99  27.416  3.5802  1.1834  3.3684 
   752.500 -17.555  5.5380  0.0270  0.2280 -5.5550  5.5380  0.0270  0.2280  0.5783  752.49  27.434  3.5847  1.1857  3.3732 
   753.000 -17.118  5.1280  0.0280  0.2180 -5.1180  5.1280  0.0280  0.2180  0.5787  752.99  27.452  3.5892  1.1881  3.3780 
   753.500 -17.186  4.6680  0.0320  0.2120 -5.1860  4.6680  0.0320  0.2120  0.5790  753.49  27.470  3.5936  1.1904  3.3828 
   754.000 -17.942  4.3950  0.0360  0.2130 -5.9420  4.3950  0.0360  0.2130  0.5794  753.99  27.489  3.5981  1.1927  3.3877 
   754.500 -19.493  4.2370  0.0440  0.2030 -7.4930  4.2370  0.0440  0.2030  0.5798  754.49  27.507  3.6026  1.1951  3.3925 
   755.000 -20.574  4.2960  0.0450  0.1920 -8.5740  4.2960  0.0450  0.1920  0.5802  754.99  27.525  3.6071  1.1974  3.3973 
   755.500 -18.075  4.3540  0.0530  0.1860 -6.0750  4.3540  0.0530  0.1860  0.5806  755.49  27.543  3.6116  1.1998  3.4021 
   756.000 -16.155  4.4410  0.0680  0.1800 -4.1550  4.4410  0.0680  0.1800  0.5810  755.99  27.562  3.6161  1.2021  3.4070 
   756.500 -15.139  4.3850  0.1490  0.1730 -3.1390  4.3850  0.1490  0.1730  0.5813  756.49  27.580  3.6206  1.2044  3.4118 
   757.000 -14.557  4.0470  0.2210  0.1670 -2.5570  4.0470  0.2210  0.1670  0.5817  756.99  27.598  3.6251  1.2068  3.4167 
   757.500 -14.300  3.7590  0.6470  0.1610 -2.3000  3.7590  0.6470  0.1610  0.5821  757.49  27.616  3.6296  1.2092  3.4215 
   758.000 -14.333  3.6160  0.9720  0.1580 -2.3330  3.6160  0.9720  0.1580  0.5825  757.99  27.634  3.6341  1.2115  3.4264 
   758.500 -15.450  3.5520  1.6360  0.1550 -3.4500  3.5520  1.6360  0.1550  0.5829  758.49  27.653  3.6386  1.2139  3.4312 
   759.000 -16.604  3.6030  2.5590  0.1490 -4.6040  3.6030  2.5590  0.1490  0.5833  758.99  27.671  3.6431  1.2162  3.4361 
   759.500 -17.866  3.7120  3.3380  0.1490 -5.8660  3.7120  3.3380  0.1490  0.5836  759.49  27.689  3.6476  1.2186  3.4409 
   760.000 -19.562  3.8060  3.6620  0.1500 -7.5620  3.8060  3.6620  0.1500  0.5840  759.99  27.707  3.6521  1.2210  3.4458 
   760.500 -21.365  4.0880  4.3760  0.1510 -9.3650  4.0880  4.3760  0.1510  0.5844  760.49  27.726  3.6566  1.2233  3.4507 
   761.000 -22.845  4.5430  4.7730  0.1450 -10.845  4.5430  4.7730  0.1450  0.5848  760.99  27.744  3.6612  1.2257  3.4555 
   761.500 -24.143  4.8820  5.1060  0.1420 -12.143  4.8820  5.1060  0.1420  0.5852  761.49  27.762  3.6657  1.2281  3.4604 
   762.000 -25.586  5.4170  5.5100  0.1390 -13.586  5.4170  5.5100  0.1390  0.5856  761.99  27.780  3.6702  1.2305  3.4653 
   762.500 -26.703  5.5180  5.7560  0.1320 -14.703  5.5180  5.7560  0.1320  0.5860  762.49  27.799  3.6747  1.2329  3.4702 
   763.000 -26.664  5.5830  5.9290  0.1190 -14.664  5.5830  5.9290  0.1190  0.5863  762.99  27.817  3.6793  1.2353  3.4751 
   763.500 -23.803  5.6130  5.9660  0.0980 -11.803  5.6130  5.9660  0.0980  0.5867  763.49  27.835  3.6838  1.2376  3.4800 
   764.000 -21.992  5.5920  5.7000  0.0840 -9.9920  5.5920  5.7000  0.0840  0.5871  763.99  27.853  3.6883  1.2400  3.4849 
   764.500 -20.867  5.4710  5.3340  0.0850 -8.8670  5.4710  5.3340  0.0850  0.5875  764.49  27.871  3.6928  1.2424  3.4898 
   765.000 -20.068  5.2910  5.0820  0.1080 -8.0680  5.2910  5.0820  0.1080  0.5879  764.99  27.890  3.6974  1.2448  3.4947 
   765.500 -19.595  5.0760  4.9460  0.2740 -7.5950  5.0760  4.9460  0.2740  0.5883  765.49  27.908  3.7019  1.2472  3.4996 
   766.000 -20.640  4.7880  4.8820  0.6210 -8.6400  4.7880  4.8820  0.6210  0.5886  765.99  27.926  3.7065  1.2496  3.5045 
   766.500 -22.299  4.3790  4.8900  1.0610 -10.299  4.3790  4.8900  1.0610  0.5890  766.49  27.944  3.7110  1.2521  3.5094 
   767.000 -23.163  4.1560  4.9420  1.8330 -11.163  4.1560  4.9420  1.8330  0.5894  766.99  27.963  3.7155  1.2545  3.5143 
   767.500 -23.847  4.3440  4.9930  2.8420 -11.847  4.3440  4.9930  2.8420  0.5898  767.49  27.981  3.7201  1.2569  3.5192 
   768.000 -24.565  4.5320  5.0370  3.4190 -12.565  4.5320  5.0370  3.4190  0.5902  767.99  27.999  3.7246  1.2593  3.5242 
   768.500 -24.960  4.6990  5.0880  3.8160 -12.960  4.6990  5.0880  3.8160  0.5906  768.49  28.017  3.7292  1.2617  3.5291 
   769.000 -25.716  4.8220  5.1170  4.0620 -13.716  4.8220  5.1170  4.0620  0.5909  768.99  28.035  3.7337  1.2641  3.5340 
   769.500 -26.472  4.9960  5.0890  4.2720 -14.472  4.9960  5.0890  4.2720  0.5913  769.49  28.054  3.7383  1.2666  3.5390 
   770.000 -26.432  5.0320  5.0610  4.4450 -14.432  5.0320  5.0610  4.4450  0.5917  769.99  28.072  3.7428  1.2690  3.5439 
   770.500 -24.982  4.9400  4.9470  4.5540 -12.982  4.9400  4.9470  4.5540  0.5921  770.49  28.090  3.7474  1.2714  3.5488 
   771.000 -23.749  4.7960  5.1420  4.6630 -11.749  4.7960  5.1420  4.6630  0.5925  770.99  28.108  3.7520  1.2739  3.5538 
   771.500 -24.468  4.7180  5.2650  4.7000 -12.468  4.7180  5.2650  4.7000  0.5929  771.49  28.127  3.7565  1.2763  3.5587 
   772.000 -25.224  4.8700  5.3530  4.7510 -13.224  4.8700  5.3530  4.7510  0.5933  771.99  28.145  3.7611  1.2787  3.5637 
