~Version Information
VERS.                     2.0: CWLS log ASCII Standard Version 2.00
WRAP.                      NO: One line per depth step
~Well Information Block
#MNEM.UNIT                               Data Type  Information
#---------                               ---------  -----------
STRT.FT                                   740.0000:
STOP.FT                                  5380.0000:
STEP.FT                                     0.5000:
NULL.                 -999.25                     :
COMP.                                             :COMPANY            
WELL.     SAN EMIDIO A 84-28 REDRILL              :WELL               
FLD .                                             :FIELD              
CTRY.                                             :COUNTRY            
STAT.                                             :STATE              
LOC .                                             :LOCATION           
UWI .                                             :UNIQUE WELL ID     
SRVC.                                             :Service company    
DATE.                                             :LOG DATE           
~Curve Information
#MNEM.UNIT           API CODE  Curve Description
#---------           --------  -----------------
DEPT.FT                      :   1 DEPTH
SP  .MV                      :   2
AM10.OHMM                    :   3
AO10.OHMM                    :   4
AO19.OHMM                    :   5
SBL .MV                      :   6
RS  .OHMM                    :   7
RM  .OHMM                    :   8
RD  .OHMM                    :   9
DEVI.DEG                     :  10
TVD .FT                      :  11
AZIM.DEG                     :  12
NORT.FT                      :  13
EAST.FT                      :  14
OFFS.FT                      :  15
~A
# ...
  4120.000 -35.928  3.7300  2.4970  2.8570 -18.654  3.7300  2.4970  2.8570  3.1663  4117.9  150.21 -18.720  91.809  51.682 
  4120.500 -35.133  3.4630  2.3670  2.7640 -17.844  3.4630  2.3670  2.7640  3.1667  4118.4  150.22 -18.744  91.823  51.675 
  4121.000 -34.987  3.1610  2.2880  2.7350 -17.684  3.1610  2.2880  2.7350  3.1671  4118.9  150.24 -18.768  91.837  51.667 
  4121.500 -34.950  3.0090  2.2740  2.7350 -17.632  3.0090  2.2740  2.7350  3.1674  4119.4  150.26 -18.792  91.850  51.660 
  4122.000 -34.660  2.7570  2.2670  2.7430 -17.328  2.7570  2.2670  2.7430  3.1678  4119.9  150.28 -18.816  91.864  51.653 
  4122.500 -33.756  2.5270  2.2450  2.7000 -16.409  2.5270  2.2450  2.7000  3.1682  4120.4  150.30 -18.840  91.878  51.646 
  4123.000 -31.985  2.3680  2.2020  2.6350 -14.624  2.3680  2.2020  2.6350  3.1686  4120.9  150.32 -18.864  91.891  51.638 
  4123.500 -30.358  2.2240  2.1230  2.5050 -12.982  2.2240  2.1230  2.5050  3.1690  4121.4  150.33 -18.888  91.905  51.631 
  4124.000 -28.550  2.1090  1.9720  2.3330 -11.160  2.1090  1.9720  2.3330  3.1694  4121.9  150.35 -18.912  91.919  51.624 
  4124.500 -27.429  1.9430  1.8210  2.2100 -10.024  1.9430  1.8210  2.2100  3.1698  4122.4  150.37 -18.936  91.932  51.616 
  4125.000 -27.175  1.8140  1.6840  2.0730 -9.7556  1.8140  1.6840  2.0730  3.1701  4122.9  150.39 -18.960  91.946  51.609 
  4125.500 -28.259  1.6990  1.6770  2.0160 -10.825  1.6990  1.6770  2.0160  3.1705  4123.4  150.41 -18.984  91.960  51.602 
  4126.000 -27.752  1.5830  1.7640  1.9300 -10.304  1.5830  1.7640  1.9300  3.1709  4123.9  150.43 -19.008  91.973  51.594 
  4126.500 -27.354  1.5190  1.8070  1.9230 -9.8910  1.5190  1.8070  1.9230  3.1713  4124.4  150.44 -19.032  91.987  51.587 
  4127.000 -28.112  1.4400  1.8540  1.9160 -10.634  1.4400  1.8540  1.9160  3.1717  4124.9  150.46 -19.056  92.001  51.580 
  4127.500 -28.725  1.4040  1.9010  1.9300 -11.233  1.4040  1.9010  1.9300  3.1721  4125.4  150.48 -19.080  92.014  51.572 
  4128.000 -29.086  1.3680  1.9380  1.9450 -11.579  1.3680  1.9380  1.9450  3.1724  4125.9  150.50 -19.104  92.028  51.565 
  4128.500 -29.013  1.3180  1.9670  1.9880 -11.492  1.3180  1.9670  1.9880  3.1728  4126.4  150.52 -19.128  92.042  51.557 
  4129.000 -28.614  1.3030  1.9960  2.0170 -11.078  1.3030  1.9960  2.0170  3.1732  4126.9  150.53 -19.152  92.055  51.550 
  4129.500 -28.686  1.2860  2.0180  2.0460 -11.136  1.2860  2.0180  2.0460  3.1736  4127.4  150.55 -19.177  92.069  51.543 
  4130.000 -28.396  1.2680  2.0470  2.1190 -10.831  1.2680  2.0470  2.1190  3.1740  4127.9  150.57 -19.201  92.082  51.535 
  4130.500 -27.853  1.2460  2.0690  2.1300 -10.274  1.2460  2.0690  2.1300  3.1744  4128.4  150.59 -19.225  92.096  51.528 
  4131.000 -27.166  1.2320  2.0830  2.1410 -9.5724  1.2320  2.0830  2.1410  3.1747  4128.9  150.61 -19.249  92.110  51.520 
  4131.500 -27.056  1.2290  2.1050  2.1480 -9.4479  1.2290  2.1050  2.1480  3.1751  4129.4  150.63 -19.273  92.123  51.513 
  4132.000 -27.851  1.2250  2.1270  2.1270 -10.228  1.2250  2.1270  2.1270  3.1755  4129.9  150.64 -19.297  92.137  51.505 
  4132.500 -28.862  1.2220  2.1560  2.0690 -11.225  1.2220  2.1560  2.0690  3.1759  4130.4  150.66 -19.321  92.150  51.498 
  4133.000 -27.957  1.2190  2.1600  1.9830 -10.305  1.2190  2.1600  1.9830  3.1763  4130.9  150.68 -19.345  92.164  51.490 
  4133.500 -27.162  1.2190  2.1640  1.9260 -9.4958  1.2190  2.1640  1.9260  3.1767  4131.4  150.70 -19.370  92.177  51.483 
  4134.000 -25.715  1.2260  2.0840  1.9040 -8.0343  1.2260  2.0840  1.9040  3.1771  4131.9  150.72 -19.394  92.191  51.475 
  4134.500 -24.956  1.2340  2.0340  1.8760 -7.2608  1.2340  2.0340  1.8760  3.1774  4132.4  150.74 -19.418  92.205  51.468 
  4135.000 -24.955  1.2630  1.9700  1.8790 -7.2453  1.2630  1.9700  1.8790  3.1778  4132.9  150.75 -19.442  92.218  51.460 
  4135.500 -25.568  1.2700  1.8900  1.8830 -7.8438  1.2700  1.8900  1.8830  3.1782  4133.4  150.77 -19.466  92.232  51.453 
  4136.000 -26.110  1.2990  1.8470  1.9990 -8.3712  1.2990  1.8470  1.9990  3.1786  4133.9  150.79 -19.491  92.245  51.445 
  4136.500 -24.953  1.3180  1.8040  2.0640 -7.1997  1.3180  1.8040  2.0640  3.1790  4134.4  150.81 -19.515  92.259  51.438 
  4137.000 -24.301  1.3360  1.8190  2.1800 -6.5332  1.3360  1.8190  2.1800  3.1794  4134.9  150.83 -19.539  92.272  51.430 
  4137.500 -24.409  1.3650  1.8620  2.2740 -6.6267  1.3650  1.8620  2.2740  3.1797  4135.4  150.84 -19.563  92.286  51.423 
  4138.000 -22.999  1.3940  1.8990  2.4110 -5.2022  1.3940  1.8990  2.4110  3.1801  4135.9  150.86 -19.587  92.299  51.415 
  4138.500 -22.564  1.4270  1.9280  2.4690 -4.7527  1.4270  1.9280  2.4690  3.1805  4136.4  150.88 -19.612  92.313  51.407 
  4139.000 -23.611  1.4590  1.9640  2.5700 -5.7852  1.4590  1.9640  2.5700  3.1809  4136.9  150.90 -19.636  92.326  51.400 
  4139.500 -24.550  1.4740  1.9860  2.6640 -6.7097  1.4740  1.9860  2.6640  3.1813  4137.4  150.92 -19.660  92.340  51.392 
  4140.000 -26.284  1.4740  1.9930  2.7150 -8.4291  1.4740  1.9930  2.7150  3.1817  4137.9  150.94 -19.684  92.353  51.385 
  4140.500 -26.247  1.4740  1.9860  2.7440 -8.3776  1.4740  1.9860  2.7440  3.1821  4138.4  150.95 -19.709  92.367  51.377 
  4141.000 -27.041  1.4750  1.9790  2.6500 -9.1571  1.4750  1.9790  2.6500  3.1824  4138.9  150.97 -19.733  92.380  51.369 
  4141.500 -28.414  1.4860  1.9150  2.5280 -10.516  1.4860  1.9150  2.5280  3.1828  4139.4  150.99 -19.757  92.394  51.362 
  4142.000 -30.184  1.4970  1.7560  2.4410 -12.271  1.4970  1.7560  2.4410  3.1832  4139.9  151.01 -19.782  92.407  51.354 
  4142.500 -30.617  1.5260  1.6840  2.3120 -12.690  1.5260  1.6840  2.3120  3.1836  4140.4  151.03 -19.806  92.420  51.346 
  4143.000 -30.291  1.5620  1.6560  2.2610 -12.349  1.5620  1.6560  2.2610  3.1840  4140.9  151.05 -19.830  92.434  51.339 
  4143.500 -29.422  1.5840  1.6780  2.2110 -11.466  1.5840  1.6780  2.2110  3.1844  4141.4  151.06 -19.854  92.447  51.331 
  4144.000 -28.265  1.6200  1.7280  2.1320 -10.294  1.6200  1.7280  2.1320  3.1847  4141.9  151.08 -19.879  92.461  51.323 
  4144.500 -28.228  1.6460  1.7720  2.0600 -10.243  1.6460  1.7720  2.0600  3.1851  4142.4  151.10 -19.903  92.474  51.316 
  4145.000 -29.601  1.6710  1.8010  2.0320 -11.601  1.6710  1.8010  2.0320  3.1855  4142.9  151.12 -19.927  92.488  51.308 
  4145.500 -30.034  1.7070  1.8010  2.0030 -12.074  1.7070  1.8010  2.0030  3.1859  4143.4  151.14 -19.952  92.501  51.300 
  4146.000 -28.913  1.7220  1.7870  1.9670 -10.993  1.7220  1.7870  1.9670  3.1863  4143.9  151.15 -19.976  92.514  51.292 
  4146.500 -28.117  1.7370  1.7730  1.9600 -10.237  1.7370  1.7730  1.9600  3.1867  4144.4  151.17 -20.000  92.528  51.285 
  4147.000 -27.212  1.7260  1.7150  1.9530 -9.3715  1.7260  1.7150  1.9530  3.1870  4144.9  151.19 -20.025  92.541  51.277 
  4147.500 -26.417  1.7150  1.6720  1.9390 -8.6164  1.7150  1.6720  1.9390  3.1874  4145.4  151.21 -20.049  92.555  51.269 
  4148.000 -25.585  1.6870  1.6580  1.9320 -7.8243  1.6870  1.6580  1.9320  3.1878  4145.9  151.23 -20.073  92.568  51.261 
  4148.500 -25.403  1.6650  1.6580  1.9390 -7.6822  1.6650  1.6580  1.9390  3.1882  4146.4  151.25 -20.098  92.581  51.254 
  4149.000 -26.125  1.6150  1.7160  1.9540 -8.4441  1.6150  1.7160  1.9540  3.1886  4146.9  151.26 -20.122  92.595  51.246 
  4149.500 -26.666  1.5860  1.7670  1.9830 -9.0250  1.5860  1.7670  1.9830  3.1890  4147.4  151.28 -20.147  92.608  51.238 
  4150.000 -27.244  1.5650  1.8390  2.0410 -9.6429  1.5650  1.8390  2.0410  3.1894  4147.9  151.30 -20.171  92.621  51.230 
  4150.500 -27.751  1.5290  1.8890  2.0660 -10.190  1.5290  1.8890  2.0660  3.1897  4148.4  151.32 -20.195  92.635  51.222 
  4151.000 -28.512  1.5210  1.9470  2.0910 -10.991  1.5210  1.9470  2.0910  3.1901  4148.9  151.34 -20.220  92.648  51.215 
  4151.500 -28.730  1.5280  2.0040  2.1120 -11.249  1.5280  2.0040  2.1120  3.1905  4149.4  151.36 -20.244  92.662  51.207 
  4152.000 -27.936  1.5390  2.0760  2.1340 -10.494  1.5390  2.0760  2.1340  3.1909  4149.9  151.37 -20.269  92.675  51.199 
