~Version Information
VERS.                     2.0: CWLS log ASCII Standard Version 2.00
WRAP.                      NO: One line per depth step
~Well Information Block
#MNEM.UNIT                               Data Type  Information
#---------                               ---------  -----------
STRT.FT                                   740.0000:
STOP.FT                                  5380.0000:
STEP.FT                                     0.5000:
NULL.                 -999.25                     :
COMP.                                             :COMPANY            
WELL.     SAN EMIDIO A 84-28 REDRILL              :WELL               
FLD .                                             :FIELD              
CTRY.                                             :COUNTRY            
STAT.                                             :STATE              
LOC .                                             :LOCATION           
UWI .                                             :UNIQUE WELL ID     
SRVC.                                             :Service company    
DATE.                                             :LOG DATE           
~Curve Information
#MNEM.UNIT           API CODE  Curve Description
#---------           --------  -----------------
DEPT.FT                      :   1 DEPTH
SP  .MV                      :   2
AM10.OHMM                    :   3
AO10.OHMM                    :   4
AO19.OHMM                    :   5
SBL .MV                      :   6
RS  .OHMM                    :   7
RM  .OHMM                    :   8
RD  .OHMM                    :   9
DEVI.DEG                     :  10
TVD .FT                      :  11
AZIM.DEG                     :  12
NORT.FT                      :  13
EAST.FT                      :  14
OFFS.FT                      :  15
~A
# ...
  5062.500 -27.352  1.8160  2.0080  1.8670 -9.1481  1.8160  2.0080  1.8670  4.3267  5058.2  147.81 -76.289  116.82  28.657 
  5063.000 -24.904  1.9750  2.0710  2.0470 -6.7075  1.9750  2.0710  2.0470  4.3253  5058.7  147.77 -76.321  116.84  28.649 
  5063.500 -23.569  2.0980  2.1330  2.1400 -5.3799  2.0980  2.1330  2.1400  4.3240  5059.2  147.73 -76.353  116.86  28.641 
  5064.000 -25.648  2.1990  2.2240  2.2050 -7.4664  2.1990  2.2240  2.2050  4.3227  5059.7  147.69 -76.385  116.88  28.633 
  5064.500 -27.045  2.2650  2.3150  2.0200 -8.8708  2.2650  2.3150  2.0200  4.3213  5060.2  147.65 -76.417  116.90  28.624 
  5065.000 -26.105  2.1730  2.2870  1.8850 -7.9382  2.1730  2.2870  1.8850  4.3200  5060.7  147.61 -76.448  116.92  28.616 
  5065.500 -27.178  2.1090  2.2130  1.7710 -9.0186  2.1090  2.2130  1.7710  4.3187  5061.2  147.57 -76.480  116.94  28.608 
  5066.000 -26.994  2.0450  2.1380  1.6710 -8.8420  2.0450  2.1380  1.6710  4.3173  5061.7  147.53 -76.512  116.96  28.600 
  5066.500 -26.055  1.9520  2.0310  1.5720 -7.9104  1.9520  2.0310  1.5720  4.3160  5062.2  147.49 -76.544  116.98  28.592 
  5067.000 -29.103  1.9600  1.9460  1.6730 -10.966  1.9600  1.9460  1.6730  4.3146  5062.7  147.44 -76.575  117.00  28.583 
  5067.500 -31.039  2.1410  2.0620  1.7730 -12.909  2.1410  2.0620  1.7730  4.3133  5063.2  147.40 -76.607  117.02  28.575 
  5068.000 -29.166  2.5290  2.4000  2.6680 -11.044  2.5290  2.4000  2.6680  4.3120  5063.7  147.36 -76.639  117.04  28.567 
  5068.500 -27.831  2.7920  2.7020  3.0900 -9.7161  2.7920  2.7020  3.0900  4.3106  5064.2  147.32 -76.670  117.06  28.559 
  5069.000 -28.168  3.0550  3.0980  3.3190 -10.060  3.0550  3.0980  3.3190  4.3093  5064.7  147.28 -76.702  117.08  28.551 
  5069.500 -28.505  3.9820  3.1420  3.4340 -10.405  3.9820  3.1420  3.4340  4.3079  5065.2  147.24 -76.734  117.10  28.543 
  5070.000 -26.954  4.2770  2.7990  3.4140 -8.8613  4.2770  2.7990  3.4140  4.3066  5065.7  147.20 -76.765  117.12  28.535 
  5070.500 -24.074  4.3430  2.4050  2.7710 -5.9887  4.3430  2.4050  2.7710  4.3053  5066.2  147.16 -76.797  117.14  28.528 
  5071.000 -23.387  4.0560  1.9600  2.4500 -5.3091  4.0560  1.9600  2.4500  4.3039  5066.7  147.12 -76.828  117.16  28.520 
  5071.500 -22.701  3.2170  1.7030  1.5220 -4.6306  3.2170  1.7030  1.5220  4.3026  5067.2  147.08 -76.860  117.18  28.512 
  5072.000 -21.257  2.4790  1.5090  1.1580 -3.1940  2.4790  1.5090  1.1580  4.3013  5067.7  147.04 -76.891  117.20  28.504 
  5072.500 -21.882  2.3220  1.3160  1.0230 -3.8264  2.3220  1.3160  1.0230  4.2999  5068.2  147.00 -76.923  117.22  28.496 
  5073.000 -22.506  2.1640  1.3280  1.0230 -4.4578  2.1640  1.3280  1.0230  4.2986  5068.7  146.96 -76.954  117.24  28.488 
  5073.500 -23.238  1.9430  1.3400  1.0910 -5.1972  1.9430  1.3400  1.0910  4.2972  5069.2  146.92 -76.985  117.26  28.481 
  5074.000 -23.970  2.0010  1.4120  1.1580 -5.9366  2.0010  1.4120  1.1580  4.2959  5069.7  146.88 -77.017  117.28  28.473 
  5074.500 -25.292  2.0590  1.4850  1.2250 -7.2660  2.0590  1.4850  1.2250  4.2946  5070.2  146.84 -77.048  117.30  28.465 
  5075.000 -28.412  2.2430  1.6010  1.2790 -10.393  2.2430  1.6010  1.2790  4.2932  5070.7  146.80 -77.079  117.32  28.458 
  5075.500 -35.091  2.4270  1.6380  1.3340 -17.080  2.4270  1.6380  1.3340  4.2919  5071.2  146.76 -77.111  117.35  28.450 
  5076.000 -39.757  2.5360  1.6740  1.3840 -21.753  2.5360  1.6740  1.3840  4.2905  5071.7  146.72 -77.142  117.37  28.442 
  5076.500 -40.434  2.6090  1.6940  1.4350 -22.438  2.6090  1.6940  1.4350  4.2892  5072.2  146.68 -77.173  117.39  28.435 
  5077.000 -37.339  2.5230  1.7140  1.4640 -19.350  2.5230  1.7140  1.4640  4.2879  5072.7  146.64 -77.204  117.41  28.427 
  5077.500 -32.843  2.4380  1.7340  1.4930 -14.862  2.4380  1.7340  1.4930  4.2865  5073.2  146.60 -77.236  117.43  28.420 
  5078.000 -31.401  2.3130  1.7860  1.4330 -13.427  2.3130  1.7860  1.4330  4.2852  5073.7  146.56 -77.267  117.45  28.412 
  5078.500 -31.091  2.1880  1.8650  1.3730 -13.124  2.1880  1.8650  1.3730  4.2839  5074.2  146.52 -77.298  117.47  28.405 
  5079.000 -30.782  2.0600  1.9450  1.3130 -12.823  2.0600  1.9450  1.3130  4.2825  5074.7  146.48 -77.329  117.49  28.397 
  5079.500 -30.488  2.0030  2.8430  1.2530 -12.536  2.0030  2.8430  1.2530  4.2812  5075.2  146.44 -77.360  117.51  28.390 
  5080.000 -32.962  1.9470  3.2390  1.2790 -15.018  1.9470  3.2390  1.2790  4.2798  5075.7  146.40 -77.391  117.53  28.383 
  5080.500 -30.620  2.0730  3.2690  1.3040 -12.683  2.0730  3.2690  1.3040  4.2785  5076.1  146.36 -77.422  117.55  28.375 
  5081.000 -28.784  2.2000  3.2050  1.3730 -10.854  2.2000  3.2050  1.3730  4.2772  5076.6  146.32 -77.453  117.57  28.368 
  5081.500 -28.241  2.4450  3.1410  1.4410 -10.319  2.4450  3.1410  1.4410  4.2758  5077.1  146.28 -77.484  117.59  28.361 
  5082.000 -32.654  2.6900  3.0770  1.5170 -14.739  2.6900  3.0770  1.5170  4.2745  5077.6  146.24 -77.515  117.61  28.353 
  5082.500 -35.739  2.9060  3.0070  1.5930 -17.832  2.9060  3.0070  1.5930  4.2731  5078.1  146.19 -77.546  117.63  28.346 
  5083.000 -38.501  3.0110  3.0290  1.6550 -20.601  3.0110  3.0290  1.6550  4.2718  5078.6  146.15 -77.577  117.65  28.339 
  5083.500 -40.184  3.1160  3.0940  1.7180 -22.292  3.1160  3.0940  1.7180  4.2705  5079.1  146.11 -77.608  117.68  28.332 
  5084.000 -40.431  3.2960  3.1600  1.7800 -22.546  3.2960  3.1600  1.7800  4.2691  5079.6  146.07 -77.639  117.70  28.325 
  5084.500 -38.054  3.4770  3.2470  1.8670 -20.176  3.4770  3.2470  1.8670  4.2678  5080.1  146.03 -77.670  117.72  28.318 
  5085.000 -36.827  3.5920  3.2940  1.9530 -18.957  3.5920  3.2940  1.9530  4.2665  5080.6  145.99 -77.701  117.74  28.310 
  5085.500 -36.068  3.7300  3.3420  2.0330 -18.205  3.7300  3.3420  2.0330  4.2651  5081.1  145.95 -77.732  117.76  28.303 
  5086.000 -33.799  3.8520  3.3820  2.1120 -15.944  3.8520  3.3820  2.1120  4.2638  5081.6  145.91 -77.762  117.78  28.296 
  5086.500 -32.071  3.9400  3.4220  2.1910 -14.223  3.9400  3.4220  2.1910  4.2624  5082.1  145.87 -77.793  117.80  28.289 
  5087.000 -29.442  4.0120  3.3910  2.2710 -11.601  4.0120  3.3910  2.2710  4.2611  5082.6  145.83 -77.824  117.82  28.282 
  5087.500 -27.712  3.9410  3.3590  2.3790 -9.8788  3.9410  3.3590  2.3790  4.2598  5083.1  145.79 -77.855  117.84  28.275 
  5088.000 -27.206  3.8700  3.2170  2.4650 -9.3802  3.8700  3.2170  2.4650  4.2584  5083.6  145.75 -77.885  117.86  28.268 
  5088.500 -27.200  3.5730  3.0890  2.5440 -9.3816  3.5730  3.0890  2.5440  4.2571  5084.1  145.71 -77.916  117.88  28.262 
  5089.000 -27.842  3.2760  2.9600  2.6380 -10.031  3.2760  2.9600  2.6380  4.2557  5084.6  145.67 -77.947  117.90  28.255 
  5089.500 -27.585  3.0440  2.7390  2.5020 -9.7815  3.0440  2.7390  2.5020  4.2544  5085.1  145.63 -77.977  117.93  28.248 
  5090.000 -26.467  2.8110  2.5810  2.3710 -8.6709  2.8110  2.5810  2.3710  4.2531  5085.6  145.59 -78.008  117.95  28.241 
  5090.500 -27.396  2.5900  2.4240  2.2390 -9.6073  2.5900  2.4240  2.2390  4.2517  5086.1  145.55 -78.038  117.97  28.234 
  5091.000 -28.648  2.4110  2.1880  2.0470 -10.867  2.4110  2.1880  2.0470  4.2504  5086.6  145.51 -78.069  117.99  28.227 
  5091.500 -30.655  2.2400  2.1530  2.1050 -12.881  2.2400  2.1530  2.1050  4.2491  5087.1  145.47 -78.099  118.01  28.221 
  5092.000 -33.884  2.0900  2.1690  2.1770 -16.118  2.0900  2.1690  2.1770  4.2477  5087.6  145.43 -78.130  118.03  28.214 
  5092.500 -35.532  2.1690  2.2770  2.2490 -17.773  2.1690  2.2770  2.2490  4.2464  5088.1  145.39 -78.160  118.05  28.207 
  5093.000 -36.425  2.3570  2.4580  2.3390 -18.673  2.3570  2.4580  2.3390  4.2450  5088.6  145.35 -78.191  118.07  28.201 
  5093.500 -30.994  2.5090  2.5470  2.4290 -13.250  2.5090  2.5470  2.4290  4.2437  5089.1  145.31 -78.221  118.09  28.194 
  5094.000 -27.611  2.6100  2.6360  2.4080 -9.8742  2.6100  2.6360  2.4080  4.2424  5089.6  145.27 -78.252  118.11  28.188 
  5094.500 -26.637  2.6650  2.7250  2.2160 -8.9076  2.6650  2.7250  2.2160  4.2410  5090.1  145.23 -78.282  118.14  28.181 
