~Version Information
VERS.                     2.0: CWLS log ASCII Standard Version 2.00
WRAP.                      NO: One line per depth step
~Well Information Block
#MNEM.UNIT                               Data Type  Information
#---------                               ---------  -----------
STRT.FT                                   740.0000:
STOP.FT                                  5380.0000:
STEP.FT                                     0.5000:
NULL.                 -999.25                     :
COMP.                                             :COMPANY            
WELL.     SAN EMIDIO A 84-28 REDRILL              :WELL               
FLD .                                             :FIELD              
CTRY.                                             :COUNTRY            
STAT.                                             :STATE              
LOC .                                             :LOCATION           
UWI .                                             :UNIQUE WELL ID     
SRVC.                                             :Service company    
DATE.                                             :LOG DATE           
~Curve Information
#MNEM.UNIT           API CODE  Curve Description
#---------           --------  -----------------
DEPT.FT                      :   1 DEPTH
SP  .MV                      :   2
AM10.OHMM                    :   3
AO10.OHMM                    :   4
AO19.OHMM                    :   5
SBL .MV                      :   6
RS  .OHMM                    :   7
RM  .OHMM                    :   8
RD  .OHMM                    :   9
DEVI.DEG                     :  10
TVD .FT                      :  11
AZIM.DEG                     :  12
NORT.FT                      :  13
EAST.FT                      :  14
OFFS.FT                      :  15
~A
# ...
  3827.500 -27.830  3.1490  3.9770  4.0380 -19.046  3.1490  3.9770  4.0380  2.9415  3825.8  139.54 -5.9808  82.872  54.370 
  3828.000 -29.528  3.0260  3.8540  4.0160 -20.730  3.0260  3.8540  4.0160  2.9418  3826.3  139.56 -6.0003  82.889  54.368 
  3828.500 -30.685  2.6430  3.7890  4.0300 -21.872  2.6430  3.7890  4.0300  2.9422  3826.8  139.58 -6.0198  82.905  54.366 
  3829.000 -31.481  2.5130  3.7450  4.0550 -22.654  2.5130  3.7450  4.0550  2.9426  3827.3  139.59 -6.0394  82.922  54.364 
  3829.500 -30.006  2.4550  3.7160  4.0800 -21.164  2.4550  3.7160  4.0800  2.9430  3827.8  139.61 -6.0589  82.938  54.362 
  3830.000 -30.910  2.5840  3.6930  4.1150 -22.054  2.5840  3.6930  4.1150  2.9434  3828.3  139.63 -6.0785  82.955  54.360 
  3830.500 -32.896  2.7060  3.6860  4.1290 -24.025  2.7060  3.6860  4.1290  2.9438  3828.8  139.65 -6.0981  82.972  54.358 
  3831.000 -33.224  2.8060  3.6780  4.1350 -24.339  2.8060  3.6780  4.1350  2.9442  3829.3  139.67 -6.1176  82.988  54.356 
  3831.500 -31.784  2.8450  3.6630  4.1420 -22.884  2.8450  3.6630  4.1420  2.9445  3829.8  139.69 -6.1372  83.005  54.354 
  3832.000 -30.994  2.8840  3.6620  4.1490 -22.080  2.8840  3.6620  4.1490  2.9449  3830.3  139.70 -6.1568  83.022  54.352 
  3832.500 -32.620  2.9270  3.6620  4.1480 -23.691  2.9270  3.6620  4.1480  2.9453  3830.8  139.72 -6.1764  83.038  54.349 
  3833.000 -34.498  2.9700  3.6540  4.1400 -25.555  2.9700  3.6540  4.1400  2.9457  3831.3  139.74 -6.1960  83.055  54.347 
  3833.500 -34.176  2.9760  3.6530  4.1250 -25.218  2.9760  3.6530  4.1250  2.9461  3831.8  139.76 -6.2156  83.071  54.345 
  3834.000 -32.917  2.9400  3.6530  4.1100 -23.945  2.9400  3.6530  4.1100  2.9465  3832.3  139.78 -6.2353  83.088  54.343 
  3834.500 -32.270  2.8490  3.6560  4.0990 -23.283  2.8490  3.6560  4.0990  2.9468  3832.8  139.79 -6.2549  83.105  54.341 
  3835.000 -32.310  2.7580  3.6590  4.0880 -23.309  2.7580  3.6590  4.0880  2.9472  3833.3  139.81 -6.2745  83.121  54.339 
  3835.500 -33.106  2.5700  3.6440  4.0510 -24.090  2.5700  3.6440  4.0510  2.9476  3833.8  139.83 -6.2942  83.138  54.337 
  3836.000 -32.099  2.4470  3.6430  4.0290 -23.069  2.4470  3.6430  4.0290  2.9480  3834.3  139.85 -6.3138  83.154  54.334 
  3836.500 -30.118  2.3240  3.6280  3.9850 -21.073  2.3240  3.6280  3.9850  2.9484  3834.8  139.87 -6.3335  83.171  54.332 
  3837.000 -28.318  2.1650  3.6130  3.9480 -19.258  2.1650  3.6130  3.9480  2.9488  3835.3  139.89 -6.3532  83.187  54.330 
  3837.500 -27.708  2.0710  3.5910  3.9330 -18.634  2.0710  3.5910  3.9330  2.9491  3835.8  139.90 -6.3729  83.204  54.328 
  3838.000 -27.584  2.0200  3.5760  3.9190 -18.495  2.0200  3.5760  3.9190  2.9495  3836.3  139.92 -6.3925  83.221  54.326 
  3838.500 -27.460  2.0050  3.5540  3.8530 -18.357  2.0050  3.5540  3.8530  2.9499  3836.8  139.94 -6.4122  83.237  54.323 
  3839.000 -29.304  2.0150  3.5240  3.8230 -20.186  2.0150  3.5240  3.8230  2.9503  3837.3  139.96 -6.4319  83.254  54.321 
  3839.500 -30.749  2.0260  3.4950  3.8010 -21.617  2.0260  3.4950  3.8010  2.9507  3837.8  139.98 -6.4517  83.270  54.319 
  3840.000 -32.230  2.0720  3.4580  3.7790 -23.083  2.0720  3.4580  3.7790  2.9511  3838.3  140.00 -6.4714  83.287  54.317 
  3840.500 -29.997  2.1180  3.4290  3.7070 -20.836  2.1180  3.4290  3.7070  2.9515  3838.8  140.01 -6.4911  83.303  54.314 
  3841.000 -28.665  2.2330  3.3780  3.6770 -19.489  2.2330  3.3780  3.6770  2.9518  3839.3  140.03 -6.5108  83.320  54.312 
  3841.500 -27.550  2.2900  3.3340  3.6480 -18.360  2.2900  3.3340  3.6480  2.9522  3839.8  140.05 -6.5306  83.336  54.310 
  3842.000 -26.472  2.3470  3.2910  3.5460 -17.267  2.3470  3.2910  3.5460  2.9526  3840.3  140.07 -6.5503  83.353  54.308 
  3842.500 -28.241  2.4040  3.2470  3.5020 -19.022  2.4040  3.2470  3.5020  2.9530  3840.8  140.09 -6.5701  83.369  54.305 
  3843.000 -29.939  2.5470  3.1530  3.4590 -20.705  2.5470  3.1530  3.4590  2.9534  3841.3  140.10 -6.5898  83.386  54.303 
  3843.500 -31.637  2.6040  3.0870  3.4440 -22.389  2.6040  3.0870  3.4440  2.9538  3841.8  140.12 -6.6096  83.403  54.301 
  3844.000 -32.686  2.6650  3.0290  3.4500 -23.423  2.6650  3.0290  3.4500  2.9541  3842.3  140.14 -6.6294  83.419  54.298 
  3844.500 -33.374  2.7260  3.0140  3.4570 -24.097  2.7260  3.0140  3.4570  2.9545  3842.8  140.16 -6.6492  83.436  54.296 
  3845.000 -32.765  2.8400  2.9920  3.4710 -23.473  2.8400  2.9920  3.4710  2.9549  3843.3  140.18 -6.6690  83.452  54.294 
  3845.500 -32.190  2.8980  2.9840  3.4850 -22.884  2.8980  2.9840  3.4850  2.9553  3843.8  140.20 -6.6888  83.469  54.292 
  3846.000 -31.507  3.0550  2.9830  3.4190 -22.186  3.0550  2.9830  3.4190  2.9557  3844.3  140.21 -6.7086  83.485  54.289 
  3846.500 -33.927  3.0840  2.9830  3.2600 -24.592  3.0840  2.9830  3.2600  2.9561  3844.8  140.23 -6.7284  83.502  54.287 
  3847.000 -35.552  3.1120  2.9820  3.0650 -26.202  3.1120  2.9820  3.0650  2.9564  3845.3  140.25 -6.7482  83.518  54.284 
  3847.500 -37.214  3.2190  2.9740  2.8410 -27.850  3.2190  2.9740  2.8410  2.9568  3845.8  140.27 -6.7681  83.535  54.282 
  3848.000 -35.883  3.2840  2.8510  2.6390 -26.504  3.2840  2.8510  2.6390  2.9572  3846.3  140.29 -6.7879  83.551  54.280 
  3848.500 -34.046  3.1890  2.7070  2.4650 -24.653  3.1890  2.7070  2.4650  2.9576  3846.8  140.31 -6.8078  83.568  54.277 
  3849.000 -32.030  2.9010  2.5400  2.4580 -22.622  2.9010  2.5400  2.4580  2.9580  3847.3  140.32 -6.8276  83.584  54.275 
  3849.500 -30.302  2.6840  2.4390  2.6660 -20.880  2.6840  2.4390  2.6660  2.9584  3847.8  140.34 -6.8475  83.600  54.273 
  3850.000 -32.180  2.5390  2.4240  2.7810 -22.743  2.5390  2.4240  2.7810  2.9588  3848.3  140.36 -6.8674  83.617  54.270 
  3850.500 -33.443  2.4600  2.4960  2.9460 -23.992  2.4600  2.4960  2.9460  2.9591  3848.8  140.38 -6.8873  83.633  54.268 
  3851.000 -34.166  2.3880  2.6760  3.0040 -24.700  2.3880  2.6760  3.0040  2.9595  3849.3  140.40 -6.9071  83.650  54.265 
  3851.500 -35.250  2.3870  2.9850  3.0680 -25.770  2.3870  2.9850  3.0680  2.9599  3849.8  140.41 -6.9270  83.666  54.263 
  3852.000 -35.792  2.4380  3.1510  3.0790 -26.297  2.4380  3.1510  3.0790  2.9603  3850.3  140.43 -6.9469  83.683  54.260 
  3852.500 -36.442  2.5890  3.2440  3.0900 -26.933  2.5890  3.2440  3.0900  2.9607  3850.8  140.45 -6.9669  83.699  54.258 
  3853.000 -38.463  3.0130  3.3520  3.0890 -28.939  3.0130  3.3520  3.0890  2.9611  3851.3  140.47 -6.9868  83.716  54.255 
  3853.500 -42.539  3.6110  3.4530  3.0890 -33.001  3.6110  3.4530  3.0890  2.9614  3851.8  140.49 -7.0067  83.732  54.253 
  3854.000 -50.006  4.0000  3.5280  3.0960 -40.453  4.0000  3.5280  3.0960  2.9618  3852.3  140.51 -7.0266  83.748  54.251 
  3854.500 -51.342  4.3100  3.6040  3.1460 -41.775  4.3100  3.6040  3.1460  2.9622  3852.8  140.52 -7.0466  83.765  54.248 
  3855.000 -52.389  4.7200  3.8190  3.2540 -42.807  4.7200  3.8190  3.2540  2.9626  3853.3  140.54 -7.0665  83.781  54.246 
  3855.500 -53.761  5.1950  3.9490  3.3910 -44.164  5.1950  3.9490  3.3910  2.9630  3853.8  140.56 -7.0865  83.798  54.243 
  3856.000 -55.709  5.5980  4.1070  3.6420 -46.098  5.5980  4.1070  3.6420  2.9634  3854.3  140.58 -7.1065  83.814  54.241 
  3856.500 -58.271  6.1170  4.2370  3.7360 -48.645  6.1170  4.2370  3.7360  2.9638  3854.8  140.60 -7.1265  83.831  54.238 
  3857.000 -60.905  6.7360  4.3300  3.8870 -51.265  6.7360  4.3300  3.8870  2.9641  3855.3  140.62 -7.1464  83.847  54.235 
  3857.500 -62.493  7.1970  4.3800  3.9590 -52.838  7.1970  4.3800  3.9590  2.9645  3855.8  140.63 -7.1664  83.863  54.233 
  3858.000 -63.180  7.8090  4.3800  4.0090 -53.511  7.8090  4.3800  4.0090  2.9649  3856.3  140.65 -7.1864  83.880  54.230 
  3858.500 -63.109  8.1040  4.3580  4.0230 -53.425  8.1040  4.3580  4.0230  2.9653  3856.8  140.67 -7.2064  83.896  54.228 
  3859.000 -63.003  8.1910  4.3510  3.9870 -53.305  8.1910  4.3510  3.9870  2.9657  3857.3  140.69 -7.2264  83.913  54.225 
  3859.500 -62.787  8.0530  4.3070  3.8360 -53.074  8.0530  4.3070  3.8360  2.9661  3857.8  140.71 -7.2465  83.929  54.223 
