~Version Information
VERS.                     2.0: CWLS log ASCII Standard Version 2.00
WRAP.                      NO: One line per depth step
~Well Information Block
#MNEM.UNIT                               Data Type  Information
#---------                               ---------  -----------
STRT.FT                                   740.0000:
STOP.FT                                  5380.0000:
STEP.FT                                     0.5000:
NULL.                 -999.25                     :
COMP.                                             :COMPANY            
WELL.     SAN EMIDIO A 84-28 REDRILL              :WELL               
FLD .                                             :FIELD              
CTRY.                                             :COUNTRY            
STAT.                                             :STATE              
LOC .                                             :LOCATION           
UWI .                                             :UNIQUE WELL ID     
SRVC.                                             :Service company    
DATE.                                             :LOG DATE           
~Curve Information
#MNEM.UNIT           API CODE  Curve Description
#---------           --------  -----------------
DEPT.FT                      :   1 DEPTH
SP  .MV                      :   2
AM10.OHMM                    :   3
AO10.OHMM                    :   4
AO19.OHMM                    :   5
SBL .MV                      :   6
RS  .OHMM                    :   7
RM  .OHMM                    :   8
RD  .OHMM                    :   9
DEVI.DEG                     :  10
TVD .FT                      :  11
AZIM.DEG                     :  12
NORT.FT                      :  13
EAST.FT                      :  14
OFFS.FT                      :  15
~A
# ...
  3502.500 -29.082  4.7310  3.8230  3.4380 -20.575  4.7310  3.8230  3.4380  2.6916  3501.2  127.69  5.0357  71.348  54.011 
  3503.000 -25.949  4.2610  3.7710  3.3360 -17.443  4.2610  3.7710  3.3360  2.6920  3501.7  127.71  5.0214  71.366  54.014 
  3503.500 -22.565  3.7920  3.7270  3.2910 -14.060  3.7920  3.7270  3.2910  2.6924  3502.2  127.72  5.0070  71.385  54.017 
  3504.000 -19.902  3.5750  3.6900  3.3040 -11.398  3.5750  3.6900  3.3040  2.6928  3502.7  127.74  4.9926  71.404  54.020 
  3504.500 -17.346  3.1200  3.7320  3.3360 -8.8428  3.1200  3.7320  3.3360  2.6932  3503.2  127.76  4.9782  71.422  54.023 
  3505.000 -17.208  3.2410  3.7780  3.3670 -8.7057  3.2410  3.7780  3.3670  2.6936  3503.7  127.78  4.9639  71.441  54.026 
  3505.500 -17.646  3.2650  3.8240  3.4520 -9.1445  3.2650  3.8240  3.4520  2.6940  3504.2  127.80  4.9494  71.459  54.029 
  3506.000 -17.796  3.2890  3.9020  3.4690 -9.2954  3.2890  3.9020  3.4690  2.6943  3504.7  127.82  4.9350  71.478  54.032 
  3506.500 -17.224  3.3130  3.8930  3.4860 -8.7242  3.3130  3.8930  3.4860  2.6947  3505.2  127.83  4.9206  71.496  54.035 
  3507.000 -16.004  3.3370  3.7840  3.4780 -7.5051  3.3370  3.7840  3.4780  2.6951  3505.7  127.85  4.9062  71.515  54.038 
  3507.500 -14.963  3.3140  3.6890  3.4550 -6.4649  3.3140  3.6890  3.4550  2.6955  3506.2  127.87  4.8918  71.534  54.041 
  3508.000 -14.247  3.2880  3.5940  3.3670 -5.7498  3.2880  3.5940  3.3670  2.6959  3506.7  127.89  4.8773  71.552  54.044 
  3508.500 -13.531  3.2620  3.5350  3.3090 -5.0346  3.2620  3.5350  3.3090  2.6963  3507.2  127.91  4.8629  71.571  54.047 
  3509.000 -12.888  3.1520  3.4980  3.3940 -4.3925  3.1520  3.4980  3.3940  2.6966  3507.7  127.92  4.8484  71.589  54.050 
  3509.500 -12.713  3.1150  3.5040  3.5440 -4.2183  3.1150  3.5040  3.5440  2.6970  3508.2  127.94  4.8339  71.608  54.053 
  3510.000 -12.899  3.2510  3.5540  3.7660 -4.4052  3.2510  3.5540  3.7660  2.6974  3508.7  127.96  4.8195  71.626  54.055 
  3510.500 -13.193  3.5740  3.7180  3.8590 -4.7000  3.5740  3.7180  3.8590  2.6978  3509.2  127.98  4.8050  71.645  54.058 
  3511.000 -14.424  3.8540  3.8250  4.0090 -5.9319  3.8540  3.8250  4.0090  2.6982  3509.7  128.00  4.7905  71.663  54.061 
  3511.500 -16.125  4.1550  4.0110  4.1090 -7.6337  4.1550  4.0110  4.1090  2.6986  3510.2  128.02  4.7760  71.682  54.064 
  3512.000 -17.862  4.3420  4.1830  4.1790 -9.3716  4.3420  4.1830  4.1790  2.6989  3510.7  128.03  4.7615  71.701  54.067 
  3512.500 -19.129  4.5640  4.3550  4.2720 -10.639  4.5640  4.3550  4.2720  2.6993  3511.2  128.05  4.7470  71.719  54.070 
  3513.000 -21.659  4.6920  4.5120  4.2490 -13.170  4.6920  4.5120  4.2490  2.6997  3511.7  128.07  4.7325  71.738  54.073 
  3513.500 -23.288  4.7990  4.6050  4.0530 -14.800  4.7990  4.6050  4.0530  2.7001  3512.2  128.09  4.7179  71.756  54.075 
  3514.000 -23.834  4.8120  4.6110  3.9510 -15.347  4.8120  4.6110  3.9510  2.7005  3512.7  128.11  4.7034  71.775  54.078 
  3514.500 -24.128  4.4730  4.4150  3.8350 -15.642  4.4730  4.4150  3.8350  2.7009  3513.2  128.13  4.6888  71.793  54.081 
  3515.000 -24.386  4.0970  4.1910  3.7620 -15.901  4.0970  4.1910  3.7620  2.7013  3513.7  128.14  4.6743  71.812  54.084 
  3515.500 -24.572  3.7860  3.9520  3.6810 -16.088  3.7860  3.9520  3.6810  2.7016  3514.2  128.16  4.6597  71.830  54.087 
  3516.000 -24.541  3.5470  3.8350  3.6910 -16.057  3.5470  3.8350  3.6910  2.7020  3514.7  128.18  4.6452  71.849  54.089 
  3516.500 -23.429  3.3440  3.7400  3.7010 -14.946  3.3440  3.7400  3.7010  2.7024  3515.2  128.20  4.6306  71.867  54.092 
  3517.000 -22.244  3.3430  3.7460  3.7500 -13.762  3.3430  3.7460  3.7500  2.7028  3515.7  128.22  4.6160  71.886  54.095 
  3517.500 -21.528  3.4930  3.7960  3.7850 -13.047  3.4930  3.7960  3.7850  2.7032  3516.2  128.23  4.6014  71.904  54.098 
  3518.000 -22.074  3.5640  3.8160  3.8200 -13.594  3.5640  3.8160  3.8200  2.7036  3516.7  128.25  4.5868  71.923  54.101 
  3518.500 -24.172  3.6130  3.8440  3.9050 -15.693  3.6130  3.8440  3.9050  2.7039  3517.2  128.27  4.5722  71.941  54.103 
  3519.000 -24.826  3.6190  3.8710  3.9110 -16.347  3.6190  3.8710  3.9110  2.7043  3517.7  128.29  4.5576  71.960  54.106 
  3519.500 -23.318  3.5530  3.8700  3.8590 -14.840  3.5530  3.8700  3.8590  2.7047  3518.2  128.31  4.5429  71.979  54.109 
  3520.000 -22.349  3.5160  3.8260  3.8150 -13.872  3.5160  3.8260  3.8150  2.7051  3518.7  128.33  4.5283  71.997  54.112 
  3520.500 -20.948  3.4430  3.7240  3.7920 -12.472  3.4430  3.7240  3.7920  2.7055  3519.2  128.34  4.5137  72.016  54.114 
  3521.000 -19.763  3.3270  3.6580  3.7770 -11.288  3.3270  3.6580  3.7770  2.7059  3519.7  128.36  4.4990  72.034  54.117 
  3521.500 -18.254  3.2530  3.5990  3.8120 -9.7797  3.2530  3.5990  3.8120  2.7062  3520.2  128.38  4.4844  72.053  54.120 
  3522.000 -18.476  3.1660  3.5690  3.8540 -10.003  3.1660  3.5690  3.8540  2.7066  3520.7  128.40  4.4697  72.071  54.122 
  3522.500 -19.275  3.0420  3.8130  3.9820 -10.802  3.0420  3.8130  3.9820  2.7070  3521.2  128.42  4.4550  72.090  54.125 
  3523.000 -19.966  3.3150  3.9990  4.1180 -11.494  3.3150  3.9990  4.1180  2.7074  3521.7  128.44  4.4403  72.108  54.128 
  3523.500 -20.801  3.6230  4.1710  4.2030 -12.330  3.6230  4.1710  4.2030  2.7078  3522.2  128.45  4.4257  72.127  54.131 
  3524.000 -21.996  3.9680  4.3280  4.2890 -13.526  3.9680  4.3280  4.2890  2.7082  3522.7  128.47  4.4110  72.145  54.133 
  3524.500 -23.228  4.3130  4.4570  4.3380 -14.759  4.3130  4.4570  4.3380  2.7086  3523.2  128.49  4.3962  72.164  54.136 
  3525.000 -24.892  4.5280  4.5060  4.3800 -16.424  4.5280  4.5060  4.3800  2.7089  3523.7  128.51  4.3815  72.182  54.139 
  3525.500 -26.773  4.7070  4.5700  4.4000 -18.306  4.7070  4.5700  4.4000  2.7093  3524.2  128.53  4.3668  72.201  54.141 
  3526.000 -28.654  4.8350  4.5830  4.2620 -20.187  4.8350  4.5830  4.2620  2.7097  3524.7  128.54  4.3521  72.219  54.144 
  3526.500 -30.390  4.8560  4.4450  4.1460 -21.924  4.8560  4.4450  4.1460  2.7101  3525.2  128.56  4.3373  72.237  54.147 
  3527.000 -32.199  4.4220  4.0980  3.9360 -23.734  4.4220  4.0980  3.9360  2.7105  3525.7  128.58  4.3226  72.256  54.149 
  3527.500 -29.464  3.8660  3.8880  3.7110 -21.000  3.8660  3.8880  3.7110  2.7109  3526.2  128.60  4.3078  72.274  54.152 
  3528.000 -25.214  3.5910  3.6850  3.5370 -16.751  3.5910  3.6850  3.5370  2.7112  3526.7  128.62  4.2931  72.293  54.154 
  3528.500 -23.776  3.3170  3.5110  3.3780 -15.314  3.3170  3.5110  3.3780  2.7116  3527.2  128.64  4.2783  72.311  54.157 
  3529.000 -25.333  3.0920  3.4810  3.2830 -16.871  3.0920  3.4810  3.2830  2.7120  3527.7  128.65  4.2635  72.330  54.160 
  3529.500 -25.302  2.8750  3.4940  3.2390 -16.841  2.8750  3.4940  3.2390  2.7124  3528.2  128.67  4.2488  72.348  54.162 
  3530.000 -24.875  2.8660  3.5000  3.3530 -16.415  2.8660  3.5000  3.3530  2.7128  3528.7  128.69  4.2340  72.367  54.165 
  3530.500 -24.629  3.0960  3.5420  3.6110 -16.170  3.0960  3.5420  3.6110  2.7132  3529.2  128.71  4.2192  72.385  54.168 
  3531.000 -27.519  3.4190  3.5840  3.7320 -19.061  3.4190  3.5840  3.7320  2.7136  3529.7  128.73  4.2044  72.404  54.170 
  3531.500 -28.931  3.6050  3.6340  3.8540 -20.474  3.6050  3.6340  3.8540  2.7139  3530.2  128.75  4.1895  72.422  54.173 
  3532.000 -29.406  3.7410  3.7770  3.9390 -20.950  3.7410  3.7770  3.9390  2.7143  3530.7  128.76  4.1747  72.441  54.175 
  3532.500 -30.024  3.8770  3.9410  4.0100 -21.568  3.8770  3.9410  4.0100  2.7147  3531.2  128.78  4.1599  72.459  54.178 
  3533.000 -30.426  4.1340  4.0270  4.0300 -21.971  4.1340  4.0270  4.0300  2.7151  3531.7  128.80  4.1450  72.478  54.180 
  3533.500 -30.720  4.1980  4.0900  3.9780 -22.266  4.1980  4.0900  3.9780  2.7155  3532.2  128.82  4.1302  72.496  54.183 
  3534.000 -31.158  4.1900  4.1110  3.9130 -22.705  4.1900  4.1110  3.9130  2.7159  3532.7  128.84  4.1153  72.515  54.185 
  3534.500 -31.398  4.0740  4.1310  3.8470 -22.946  4.0740  4.1310  3.8470  2.7162  3533.2  128.85  4.1005  72.533  54.188 
