~Version Information
VERS.                     2.0: CWLS log ASCII Standard Version 2.00
WRAP.                      NO: One line per depth step
~Well Information Block
#MNEM.UNIT                               Data Type  Information
#---------                               ---------  -----------
STRT.FT                                   740.0000:
STOP.FT                                  5380.0000:
STEP.FT                                     0.5000:
NULL.                 -999.25                     :
COMP.                                             :COMPANY            
WELL.     SAN EMIDIO A 84-28 REDRILL              :WELL               
FLD .                                             :FIELD              
CTRY.                                             :COUNTRY            
STAT.                                             :STATE              
LOC .                                             :LOCATION           
UWI .                                             :UNIQUE WELL ID     
SRVC.                                             :Service company    
DATE.                                             :LOG DATE           
~Curve Information
#MNEM.UNIT           API CODE  Curve Description
#---------           --------  -----------------
DEPT.FT                      :   1 DEPTH
SP  .MV                      :   2
AM10.OHMM                    :   3
AO10.OHMM                    :   4
AO19.OHMM                    :   5
SBL .MV                      :   6
RS  .OHMM                    :   7
RM  .OHMM                    :   8
RD  .OHMM                    :   9
DEVI.DEG                     :  10
TVD .FT                      :  11
AZIM.DEG                     :  12
NORT.FT                      :  13
EAST.FT                      :  14
OFFS.FT                      :  15
~A
# ...
  4445.000 -29.947  1.8660  2.3560  1.9450 -21.494  1.8660  2.3560  1.9450  3.4161  4442.4  162.06 -35.764  99.321  44.941 
  4445.500 -29.368  1.8590  2.3060  1.9450 -20.911  1.8590  2.3060  1.9450  3.4165  4442.9  162.08 -35.793  99.330  44.928 
  4446.000 -27.632  1.8660  2.2560  1.9310 -19.170  1.8660  2.2560  1.9310  3.4169  4443.4  162.10 -35.821  99.339  44.914 
  4446.500 -26.764  1.8740  2.1910  1.9200 -18.298  1.8740  2.1910  1.9200  3.4173  4443.9  162.11 -35.849  99.348  44.900 
  4447.000 -26.185  1.8810  2.1260  1.9100 -17.715  1.8810  2.1260  1.9100  3.4176  4444.4  162.13 -35.878  99.357  44.887 
  4447.500 -25.751  1.8850  2.0690  1.8780 -17.277  1.8850  2.0690  1.8780  3.4180  4444.9  162.15 -35.906  99.366  44.873 
  4448.000 -26.075  1.8890  2.0470  1.8450 -17.597  1.8890  2.0470  1.8450  3.4184  4445.4  162.17 -35.935  99.376  44.860 
  4448.500 -26.689  1.8820  2.0190  1.8740 -18.207  1.8820  2.0190  1.8740  3.4188  4445.9  162.19 -35.963  99.385  44.846 
  4449.000 -27.519  1.8670  2.0120  1.9180 -19.033  1.8670  2.0120  1.9180  3.4192  4446.4  162.20 -35.991  99.394  44.832 
  4449.500 -28.711  1.8600  2.0050  1.9610 -20.220  1.8600  2.0050  1.9610  3.4196  4446.9  162.22 -36.020  99.403  44.819 
  4450.000 -29.361  1.8530  1.9980  2.0050 -20.866  1.8530  1.9980  2.0050  3.4200  4447.4  162.24 -36.048  99.412  44.805 
  4450.500 -29.833  1.8310  2.0040  2.0840 -21.334  1.8310  2.0040  2.0840  3.4203  4447.9  162.26 -36.077  99.421  44.791 
  4451.000 -30.811  1.8020  2.0040  2.1340 -22.308  1.8020  2.0040  2.1340  3.4207  4448.4  162.28 -36.105  99.430  44.778 
  4451.500 -32.114  1.7870  2.0030  2.1690 -23.607  1.7870  2.0030  2.1690  3.4211  4448.9  162.30 -36.133  99.439  44.764 
  4452.000 -33.888  1.7500  2.0030  2.1900 -25.377  1.7500  2.0030  2.1900  3.4215  4449.4  162.31 -36.162  99.448  44.750 
  4452.500 -36.420  1.7280  2.0060  2.1970 -27.904  1.7280  2.0060  2.1970  3.4219  4449.9  162.33 -36.190  99.457  44.737 
  4453.000 -38.807  1.7060  2.0090  2.2040 -30.287  1.7060  2.0090  2.2040  3.4223  4450.4  162.35 -36.219  99.466  44.723 
  4453.500 -40.508  1.6620  2.0090  2.2100 -31.984  1.6620  2.0090  2.2100  3.4226  4450.9  162.37 -36.247  99.476  44.709 
  4454.000 -38.342  1.6260  2.0150  2.2170 -29.814  1.6260  2.0150  2.2170  3.4230  4451.4  162.39 -36.276  99.485  44.695 
  4454.500 -36.899  1.6040  2.0150  2.2170 -28.367  1.6040  2.0150  2.2170  3.4234  4451.9  162.41 -36.304  99.494  44.682 
  4455.000 -35.492  1.6180  2.0180  2.2160 -26.956  1.6180  2.0180  2.2160  3.4238  4452.3  162.42 -36.333  99.503  44.668 
  4455.500 -33.363  1.6390  2.0210  2.2120 -24.822  1.6390  2.0210  2.2120  3.4242  4452.8  162.44 -36.361  99.512  44.654 
  4456.000 -31.522  1.6530  2.0420  2.2080 -22.977  1.6530  2.0420  2.2080  3.4246  4453.3  162.46 -36.389  99.521  44.640 
  4456.500 -30.296  1.6670  2.0450  2.1930 -21.747  1.6670  2.0450  2.1930  3.4249  4453.8  162.48 -36.418  99.530  44.627 
  4457.000 -28.744  1.6800  2.0480  2.1930 -20.191  1.6800  2.0480  2.1930  3.4253  4454.3  162.50 -36.446  99.539  44.613 
  4457.500 -27.085  1.6940  2.0620  2.1920 -18.528  1.6940  2.0620  2.1920  3.4257  4454.8  162.51 -36.475  99.548  44.599 
  4458.000 -25.352  1.7160  2.0690  2.1840 -16.791  1.7160  2.0690  2.1840  3.4261  4455.3  162.53 -36.503  99.557  44.585 
  4458.500 -23.440  1.7290  2.0650  2.1770 -14.875  1.7290  2.0650  2.1770  3.4265  4455.8  162.55 -36.532  99.565  44.571 
  4459.000 -22.502  1.7360  2.0610  2.1690 -13.932  1.7360  2.0610  2.1690  3.4269  4456.3  162.57 -36.560  99.574  44.558 
  4459.500 -21.565  1.7430  2.0580  2.1680 -12.991  1.7430  2.0580  2.1680  3.4273  4456.8  162.59 -36.589  99.583  44.544 
  4460.000 -20.700  1.7640  2.0550  2.1680 -12.122  1.7640  2.0550  2.1680  3.4276  4457.3  162.61 -36.618  99.592  44.530 
  4460.500 -20.378  1.7780  2.0520  2.1670 -11.796  1.7780  2.0520  2.1670  3.4280  4457.8  162.62 -36.646  99.601  44.516 
  4461.000 -21.573  1.7920  2.0510  2.1740 -12.987  1.7920  2.0510  2.1740  3.4284  4458.3  162.64 -36.675  99.610  44.502 
  4461.500 -22.515  1.8200  2.0510  2.1770 -13.925  1.8200  2.0510  2.1770  3.4288  4458.8  162.66 -36.703  99.619  44.488 
  4462.000 -21.794  1.8340  2.0580  2.1800 -13.199  1.8340  2.0580  2.1800  3.4292  4459.3  162.68 -36.732  99.628  44.474 
  4462.500 -20.315  1.8440  2.0570  2.1870 -11.716  1.8440  2.0570  2.1870  3.4296  4459.8  162.70 -36.760  99.637  44.460 
  4463.000 -19.956  1.8550  2.0570  2.1830 -11.353  1.8550  2.0570  2.1830  3.4299  4460.3  162.72 -36.789  99.646  44.447 
  4463.500 -20.465  1.8760  2.0630  2.1790 -11.858  1.8760  2.0630  2.1790  3.4303  4460.8  162.73 -36.817  99.655  44.433 
  4464.000 -20.973  1.8790  2.0700  2.1730 -12.362  1.8790  2.0700  2.1730  3.4307  4461.3  162.75 -36.846  99.664  44.419 
  4464.500 -20.144  1.8820  2.0840  2.1680 -11.529  1.8820  2.0840  2.1680  3.4311  4461.8  162.77 -36.875  99.672  44.405 
  4465.000 -19.279  1.8960  2.0760  2.1630 -10.659  1.8960  2.0760  2.1630  3.4315  4462.3  162.79 -36.903  99.681  44.391 
  4465.500 -18.631  1.8920  2.0760  2.1590 -10.007  1.8920  2.0760  2.1590  3.4319  4462.8  162.81 -36.932  99.690  44.377 
  4466.000 -17.947  1.8880  2.0750  2.1550 -9.3191  1.8880  2.0750  2.1550  3.4323  4463.3  162.82 -36.960  99.699  44.363 
  4466.500 -19.251  1.8940  2.0750  2.1540 -10.619  1.8940  2.0750  2.1540  3.4326  4463.8  162.84 -36.989  99.708  44.349 
  4467.000 -20.662  1.8900  2.0740  2.1540 -12.026  1.8900  2.0740  2.1540  3.4330  4464.3  162.86 -37.018  99.717  44.335 
  4467.500 -19.978  1.8860  2.0740  2.1420 -11.338  1.8860  2.0740  2.1420  3.4334  4464.8  162.88 -37.046  99.725  44.321 
  4468.000 -19.041  1.8820  2.0730  2.1310 -10.397  1.8820  2.0730  2.1310  3.4338  4465.3  162.90 -37.075  99.734  44.307 
  4468.500 -18.357  1.8780  2.0730  2.1200 -9.7084  1.8780  2.0730  2.1200  3.4342  4465.8  162.92 -37.103  99.743  44.293 
  4469.000 -17.384  1.8700  2.0650  2.1080 -8.7312  1.8700  2.0650  2.1080  3.4346  4466.3  162.93 -37.132  99.752  44.279 
  4469.500 -19.157  1.8630  2.0570  2.0970 -10.500  1.8630  2.0570  2.0970  3.4349  4466.8  162.95 -37.161  99.761  44.265 
  4470.000 -19.991  1.8620  2.0460  2.0860 -11.330  1.8620  2.0460  2.0860  3.4353  4467.3  162.97 -37.189  99.769  44.251 
  4470.500 -19.812  1.8620  2.0350  2.0760 -11.147  1.8620  2.0350  2.0760  3.4357  4467.8  162.99 -37.218  99.778  44.237 
  4471.000 -19.634  1.8570  2.0310  2.0650 -10.965  1.8570  2.0310  2.0650  3.4361  4468.3  163.01 -37.247  99.787  44.223 
  4471.500 -18.408  1.8530  2.0260  2.0550 -9.7344  1.8530  2.0260  2.0550  3.4365  4468.8  163.03 -37.275  99.796  44.209 
  4472.000 -17.688  1.8530  2.0190  2.0480 -9.0102  1.8530  2.0190  2.0480  3.4369  4469.3  163.04 -37.304  99.804  44.194 
  4472.500 -17.184  1.8520  2.0110  2.0400 -8.5021  1.8520  2.0110  2.0400  3.4372  4469.8  163.06 -37.333  99.813  44.180 
  4473.000 -16.681  1.8450  2.0030  2.0370 -7.9949  1.8450  2.0030  2.0370  3.4376  4470.3  163.08 -37.361  99.822  44.166 
  4473.500 -17.117  1.8370  1.9960  2.0340 -8.4268  1.8370  1.9960  2.0340  3.4380  4470.8  163.10 -37.390  99.831  44.152 
  4474.000 -17.481  1.8290  1.9880  2.0310 -8.7866  1.8290  1.9880  2.0310  3.4384  4471.3  163.12 -37.419  99.839  44.138 
  4474.500 -18.206  1.8210  1.9800  2.0270 -9.5075  1.8210  1.9800  2.0270  3.4388  4471.8  163.13 -37.447  99.848  44.124 
  4475.000 -18.786  1.8070  1.9650  2.0230 -10.083  1.8070  1.9650  2.0230  3.4392  4472.3  163.15 -37.476  99.857  44.110 
  4475.500 -19.764  1.7920  1.9500  2.0190 -11.057  1.7920  1.9500  2.0190  3.4396  4472.8  163.17 -37.505  99.865  44.096 
  4476.000 -20.562  1.7770  1.9430  2.0150 -11.851  1.7770  1.9430  2.0150  3.4399  4473.3  163.19 -37.534  99.874  44.081 
  4476.500 -19.336  1.7620  1.9350  2.0110 -10.621  1.7620  1.9350  2.0110  3.4403  4473.8  163.21 -37.562  99.883  44.067 
  4477.000 -17.712  1.7470  1.9270  2.0060 -8.9927  1.7470  1.9270  2.0060  3.4407  4474.3  163.23 -37.591  99.891  44.053 
