~Version Information
VERS.                     2.0: CWLS log ASCII Standard Version 2.00
WRAP.                      NO: One line per depth step
~Well Information Block
#MNEM.UNIT                               Data Type  Information
#---------                               ---------  -----------
STRT.FT                                   740.0000:
STOP.FT                                  5380.0000:
STEP.FT                                     0.5000:
NULL.                 -999.25                     :
COMP.                                             :COMPANY            
WELL.     SAN EMIDIO A 84-28 REDRILL              :WELL               
FLD .                                             :FIELD              
CTRY.                                             :COUNTRY            
STAT.                                             :STATE              
LOC .                                             :LOCATION           
UWI .                                             :UNIQUE WELL ID     
SRVC.                                             :Service company    
DATE.                                             :LOG DATE           
~Curve Information
#MNEM.UNIT           API CODE  Curve Description
#---------           --------  -----------------
DEPT.FT                      :   1 DEPTH
SP  .MV                      :   2
AM10.OHMM                    :   3
AO10.OHMM                    :   4
AO19.OHMM                    :   5
SBL .MV                      :   6
RS  .OHMM                    :   7
RM  .OHMM                    :   8
RD  .OHMM                    :   9
DEVI.DEG                     :  10
TVD .FT                      :  11
AZIM.DEG                     :  12
NORT.FT                      :  13
EAST.FT                      :  14
OFFS.FT                      :  15
~A
# ...
  5355.000 -20.931  2.1730  3.0200  2.4450 -6.9310  2.1730  3.0200  2.4450  3.7419  5350.1  143.27 -90.790  129.26  27.203 
  5355.500 -20.801  2.1680  3.0030  2.4890 -6.8010  2.1680  3.0030  2.4890  3.7428  5350.6  143.45 -90.816  129.28  27.198 
  5356.000 -20.670  2.1630  2.9900  2.5340 -6.6700  2.1630  2.9900  2.5340  3.7436  5351.0  143.62 -90.843  129.30  27.194 
  5356.500 -22.784  2.1640  2.9830  2.5780 -8.7840  2.1640  2.9830  2.5780  3.7445  5351.5  143.79 -90.869  129.32  27.189 
  5357.000 -24.503  2.1650  2.9910  2.6220 -10.503  2.1650  2.9910  2.6220  3.7453  5352.0  143.97 -90.895  129.34  27.183 
  5357.500 -25.900  2.1660  2.9990  2.6670 -11.900  2.1660  2.9990  2.6670  3.7462  5352.5  144.14 -90.922  129.36  27.178 
  5358.000 -27.081  2.1780  3.0000  2.7260 -13.081  2.1780  3.0000  2.7260  3.7470  5353.0  144.31 -90.948  129.38  27.173 
  5358.500 -28.011  2.1900  3.0010  2.7560 -14.011  2.1900  3.0010  2.7560  3.7479  5353.5  144.49 -90.975  129.40  27.168 
  5359.000 -24.987  2.2000  2.9660  2.7860 -10.987  2.2000  2.9660  2.7860  3.7487  5354.0  144.66 -91.002  129.41  27.162 
  5359.500 -23.079  2.2100  2.9160  2.8120 -9.0790  2.2100  2.9160  2.8120  3.7496  5354.5  144.84 -91.028  129.43  27.157 
  5360.000 -22.282  2.2200  2.8670  2.8390 -8.2820  2.2200  2.8670  2.8390  3.7504  5355.0  145.01 -91.055  129.45  27.151 
  5360.500 -22.117  2.2260  2.8100  2.8510 -8.1170  2.2260  2.8100  2.8510  3.7549  5355.5  144.99 -91.082  129.47  27.145 
  5361.000 -21.952  2.2320  2.7830  2.8630 -7.9520  2.2320  2.7830  2.8630  3.7595  5356.0  144.97 -91.109  129.49  27.139 
  5361.500 -21.515  2.2370  2.7720  2.8810 -7.5150  2.2370  2.7720  2.8810  3.7640  5356.5  144.94 -91.136  129.51  27.134 
  5362.000 -21.186  2.2640  2.7620  2.8990 -7.1860  2.2640  2.7620  2.8990  3.7685  5357.0  144.92 -91.163  129.53  27.128 
  5362.500 -21.470  2.2900  2.7560  2.9170 -7.4700  2.2900  2.7560  2.9170  3.7731  5357.5  144.90 -91.190  129.55  27.122 
  5363.000 -22.149  2.3010  2.7500  2.9470 -8.1490  2.3010  2.7500  2.9470  3.7776  5358.0  144.88 -91.217  129.57  27.117 
  5363.500 -22.828  2.3130  2.7720  2.9770 -8.8280  2.3130  2.7720  2.9770  3.7821  5358.5  144.86 -91.244  129.58  27.111 
  5364.000 -24.222  2.3210  2.8310  3.0320 -10.222  2.3210  2.8310  3.0320  3.7867  5359.0  144.83 -91.271  129.60  27.106 
  5364.500 -22.816  2.2390  2.9540  3.0880 -8.8160  2.2390  2.9540  3.0880  3.7912  5359.5  144.81 -91.298  129.62  27.100 
  5365.000 -23.674  2.1570  3.0620  3.3110 -9.6740  2.1570  3.0620  3.3110  3.7957  5360.0  144.79 -91.325  129.64  27.094 
  5365.500 -24.819  2.0860  3.3860  3.8910 -10.819  2.0860  3.3860  3.8910  3.8003  5360.5  144.77 -91.352  129.66  27.089 
  5366.000 -22.658  2.1980  3.7890  4.8360 -8.6580  2.1980  3.7890  4.8360  3.8048  5361.0  144.75 -91.379  129.68  27.083 
  5366.500 -21.145  2.3100  4.5070  5.8810 -7.1450  2.3100  4.5070  5.8810  3.8093  5361.5  144.73 -91.406  129.70  27.077 
  5367.000 -19.559  2.8140  5.1760  7.1260 -5.5590  2.8140  5.1760  7.1260  3.8139  5362.0  144.70 -91.433  129.72  27.072 
  5367.500 -18.369  3.0690  5.8940  7.8140 -4.3690  3.0690  5.8940  7.8140  3.8184  5362.5  144.68 -91.460  129.74  27.066 
  5368.000 -18.904  3.3250  6.6560  8.6090 -4.9040  3.3250  6.6560  8.6090  3.8229  5363.0  144.66 -91.487  129.76  27.061 
  5368.500 -19.439  4.1730  7.3100  8.9680 -5.4390  4.1730  7.3100  8.9680  3.8275  5363.5  144.64 -91.515  129.78  27.055 
  5369.000 -19.201  4.3750  7.1170  8.6400 -5.2010  4.3750  7.1170  8.6400  3.8320  5364.0  144.62 -91.542  129.80  27.049 
  5369.500 -18.962  4.5270  6.4650  7.0480 -4.9620  4.5270  6.4650  7.0480  3.8365  5364.5  144.60 -91.569  129.81  27.044 
  5370.000 -19.495  4.5060  5.5180  3.7620 -5.4950  4.5060  5.5180  3.7620  3.8411  5365.0  144.57 -91.596  129.83  27.038 
  5370.500 -20.136  4.2920  4.7800  3.0480 -6.1360  4.2920  4.7800  3.0480  3.8456  5365.5  144.55 -91.624  129.85  27.033 
  5371.000 -19.377  3.9620  3.9050  2.3350 -5.3770  3.9620  3.9050  2.3350  3.8501  5366.0  144.53 -91.651  129.87  27.027 
  5371.500 -19.013  3.5180  1.6080  1.8220 -5.0130  3.5180  1.6080  1.8220  3.8547  5366.5  144.51 -91.678  129.89  27.022 
  5372.000 -18.649  3.2570  1.4510  1.5670 -4.6490  3.2570  1.4510  1.5670  3.8592  5367.0  144.49 -91.706  129.91  27.016 
  5372.500 -18.321  2.9950  1.3660  1.5900 -4.3210  2.9950  1.3660  1.5900  3.8637  5367.5  144.46 -91.733  129.93  27.011 
  5373.000 -17.993  2.4440  1.3670  1.7200 -3.9930  2.4440  1.3670  1.7200  3.8683  5368.0  144.44 -91.761  129.95  27.005 
  5373.500 -17.773  2.4130  1.4030  1.7930 -3.7730  2.4130  1.4030  1.7930  3.8728  5368.5  144.42 -91.788  129.97  26.999 
  5374.000 -17.445  2.3830  1.4400  1.8230 -3.4450  2.3830  1.4400  1.8230  3.8773  5369.0  144.40 -91.816  129.99  26.994 
  5374.500 -17.746  2.3530  1.4880  1.8240 -3.7460  2.3530  1.4880  1.8240  3.8819  5369.5  144.38 -91.843  130.01  26.988 
  5375.000 -18.048  2.3180  1.5350  1.8080 -4.0480  2.3180  1.5350  1.8080  3.8864  5370.0  144.36 -91.871  130.03  26.983 
  5375.500 -18.760  2.2830  1.5790  1.7910 -4.7600  2.2830  1.5790  1.7910  3.8909  5370.5  144.33 -91.898  130.05  26.977 
  5376.000 -18.216  2.1790  1.5870  1.7710 -4.2160  2.1790  1.5870  1.7710  3.8954  5371.0  144.31 -91.926  130.07  26.972 
  5376.500 -17.907  2.0760  1.5950  1.7620 -3.9070  2.0760  1.5950  1.7620  3.9000  5371.5  144.29 -91.953  130.09  26.966 
  5377.000 -17.598  1.9330  1.5920  1.7530 -3.5980  1.9330  1.5920  1.7530  3.9045  5372.0  144.27 -91.981  130.11  26.961 
  5377.500 -17.305  1.9160  1.5900  1.7470 -3.3050  1.9160  1.5900  1.7470  3.9090  5372.5  144.25 -92.009  130.13  26.955 
  5378.000 -17.193  1.8990  1.5880  1.7420 -3.1930  1.8990  1.5880  1.7420  3.9136  5373.0  144.23 -92.036  130.15  26.950 
  5378.500 -17.082  1.9000  1.5860  1.7400 -3.0820  1.9000  1.5860  1.7400  3.9181  5373.5  144.20 -92.064  130.17  26.945 
  5379.000 -16.933  1.9010  1.5840  1.7380 -2.9330  1.9010  1.5840  1.7380  3.9226  5374.0  144.18 -92.092  130.19  26.939 
  5379.500 -16.784  1.9120  1.5930  1.7250 -2.7840  1.9120  1.5930  1.7250  3.9272  5374.5  144.16 -92.120  130.21  26.934 
  5380.000 -16.671  1.9240  1.6010 -999.25 -2.6710  1.9240  1.6010 -999.25  3.9317  5375.0  144.14 -92.147  130.23  26.928 
