~Version Information
VERS.                     2.0: CWLS log ASCII Standard Version 2.00
WRAP.                      NO: One line per depth step
~Well Information Block
#MNEM.UNIT                               Data Type  Information
#---------                               ---------  -----------
STRT.FT                                   740.0000:
STOP.FT                                  5380.0000:
STEP.FT                                     0.5000:
NULL.                 -999.25                     :
COMP.                                             :COMPANY            
WELL.     SAN EMIDIO A 84-28 REDRILL              :WELL               
FLD .                                             :FIELD              
CTRY.                                             :COUNTRY            
STAT.                                             :STATE              
LOC .                                             :LOCATION           
UWI .                                             :UNIQUE WELL ID     
SRVC.                                             :Service company    
DATE.                                             :LOG DATE           
~Curve Information
#MNEM.UNIT           API CODE  Curve Description
#---------           --------  -----------------
DEPT.FT                      :   1 DEPTH
SP  .MV                      :   2
AM10.OHMM                    :   3
AO10.OHMM                    :   4
AO19.OHMM                    :   5
SBL .MV                      :   6
RS  .OHMM                    :   7
RM  .OHMM                    :   8
RD  .OHMM                    :   9
DEVI.DEG                     :  10
TVD .FT                      :  11
AZIM.DEG                     :  12
NORT.FT                      :  13
EAST.FT                      :  14
OFFS.FT                      :  15
~A
# ...
  1975.000 -23.074  2.6010  3.8830  4.2940 -9.1033  2.6010  3.8830  4.2940  1.5177  1974.8  72.005  16.702  18.649  24.997 
  1975.500 -23.539  2.5950  3.9710  4.2090 -9.5830  2.5950  3.9710  4.2090  1.5180  1975.3  72.023  16.706  18.661  25.008 
  1976.000 -24.580  2.6970  4.0400  4.4690 -10.639  2.6970  4.0400  4.4690  1.5184  1975.8  72.042  16.710  18.674  25.020 
  1976.500 -24.937  2.7450  4.1100  4.6360 -11.010  2.7450  4.1100  4.6360  1.5188  1976.3  72.060  16.714  18.686  25.032 
  1977.000 -25.221  2.7920  4.2340  4.7020 -11.309  2.7920  4.2340  4.7020  1.5192  1976.8  72.078  16.718  18.699  25.044 
  1977.500 -24.889  2.9450  4.1630  4.7540 -10.992  2.9450  4.1630  4.7540  1.5196  1977.3  72.096  16.722  18.712  25.056 
  1978.000 -24.594  3.0550  4.0920  4.7840 -10.711  3.0550  4.0920  4.7840  1.5200  1977.8  72.115  16.726  18.724  25.067 
  1978.500 -24.300  3.1100  4.0070  4.7630 -10.432  3.1100  4.0070  4.7630  1.5204  1978.3  72.133  16.730  18.737  25.079 
  1979.000 -23.715  3.1650  3.9290  4.7070 -9.8615  3.1650  3.9290  4.7070  1.5207  1978.8  72.151  16.734  18.749  25.091 
  1979.500 -24.144  3.3180  3.8650  4.5860 -10.305  3.3180  3.8650  4.5860  1.5211  1979.3  72.169  16.739  18.762  25.103 
  1980.000 -26.452  3.3620  3.8370  4.4860 -12.628  3.3620  3.8370  4.4860  1.5215  1979.8  72.187  16.743  18.775  25.115 
  1980.500 -28.543  3.2260  3.8030  4.3570 -14.733  3.2260  3.8030  4.3570  1.5219  1980.3  72.206  16.747  18.787  25.126 
  1981.000 -31.032  3.0830  3.7970  4.2930 -17.237  3.0830  3.7970  4.2930  1.5223  1980.8  72.224  16.751  18.800  25.138 
  1981.500 -35.184  3.0050  3.7980  4.2080 -21.404  3.0050  3.7980  4.2080  1.5227  1981.3  72.242  16.755  18.813  25.150 
  1982.000 -39.191  2.9050  3.8420  4.0720 -25.425  2.9050  3.8420  4.0720  1.5230  1981.8  72.260  16.759  18.825  25.162 
  1982.500 -42.656  2.8490  3.8900  3.9800 -28.905  2.8490  3.8900  3.9800  1.5234  1982.3  72.279  16.763  18.838  25.174 
  1983.000 -42.542  2.8790  3.9370  3.9740 -28.806  2.8790  3.9370  3.9740  1.5238  1982.8  72.297  16.767  18.851  25.185 
  1983.500 -41.234  3.0530  4.0900  4.1480 -27.512  3.0530  4.0900  4.1480  1.5242  1983.3  72.315  16.771  18.863  25.197 
  1984.000 -36.819  3.1400  4.1640  4.3510 -23.112  3.1400  4.1640  4.3510  1.5246  1983.8  72.333  16.775  18.876  25.209 
  1984.500 -30.848  3.2280  4.2300  4.4670 -17.156  3.2280  4.2300  4.4670  1.5250  1984.3  72.352  16.779  18.889  25.221 
  1985.000 -24.299  3.4310  4.2880  4.5620 -10.621  3.4310  4.2880  4.5620  1.5253  1984.8  72.370  16.783  18.901  25.233 
  1985.500 -22.811  3.5910  4.3760  4.6210 -9.1480  3.5910  4.3760  4.6210  1.5257  1985.3  72.388  16.787  18.914  25.245 
  1986.000 -22.263  3.6490  4.4060  4.6360 -8.6146  3.6490  4.4060  4.6360  1.5261  1985.8  72.406  16.791  18.927  25.256 
  1986.500 -23.197  3.7520  4.5010  4.6450 -9.5633  3.7520  4.5010  4.6450  1.5265  1986.3  72.424  16.795  18.939  25.268 
  1987.000 -23.879  3.8390  4.5450  4.6460 -10.260  3.8390  4.5450  4.6460  1.5269  1986.8  72.443  16.799  18.952  25.280 
  1987.500 -25.101  3.8910  4.6040  4.6760 -11.497  3.8910  4.6040  4.6760  1.5273  1987.3  72.461  16.803  18.965  25.292 
  1988.000 -25.927  3.9210  4.6340  4.6990 -12.337  3.9210  4.6340  4.6990  1.5277  1987.8  72.479  16.807  18.978  25.304 
  1988.500 -27.222  3.9650  4.6570  4.7430 -13.647  3.9650  4.6570  4.7430  1.5280  1988.3  72.497  16.811  18.990  25.315 
  1989.000 -28.013  4.0170  4.6220  4.7800 -14.453  4.0170  4.6220  4.7800  1.5284  1988.8  72.516  16.815  19.003  25.327 
  1989.500 -29.020  4.0320  4.5290  4.7890 -15.474  4.0320  4.5290  4.7890  1.5288  1989.3  72.534  16.819  19.016  25.339 
  1990.000 -29.195  4.0840  4.3930  4.7680 -15.664  4.0840  4.3930  4.7680  1.5292  1989.8  72.552  16.823  19.028  25.351 
  1990.500 -28.032  3.8900  4.0630  4.7330 -14.516  3.8900  4.0630  4.7330  1.5296  1990.3  72.570  16.827  19.041  25.363 
  1991.000 -26.942  3.6540  3.7550  4.5690 -13.440  3.6540  3.7550  4.5690  1.5300  1990.8  72.588  16.831  19.054  25.375 
  1991.500 -26.177  3.3520  3.5540  4.4110 -12.690  3.3520  3.5540  4.4110  1.5303  1991.3  72.607  16.835  19.067  25.386 
  1992.000 -26.859  3.0870  3.4690  4.1310 -13.386  3.0870  3.4690  4.1310  1.5307  1991.8  72.625  16.839  19.079  25.398 
  1992.500 -26.636  2.8570  3.3760  3.8810 -13.178  2.8570  3.3760  3.8810  1.5311  1992.3  72.643  16.843  19.092  25.410 
  1993.000 -25.617  2.5560  3.3410  3.6660 -12.174  2.5560  3.3410  3.6660  1.5315  1992.8  72.661  16.847  19.105  25.422 
  1993.500 -25.648  2.3920  3.3280  3.5950 -12.219  2.3920  3.3280  3.5950  1.5319  1993.3  72.680  16.851  19.118  25.434 
  1994.000 -26.836  2.2630  3.3440  3.5160 -13.422  2.2630  3.3440  3.5160  1.5323  1993.8  72.698  16.855  19.130  25.446 
  1994.500 -27.554  2.2350  3.4100  3.4890 -14.155  2.2350  3.4100  3.4890  1.5326  1994.3  72.716  16.859  19.143  25.457 
  1995.000 -26.138  2.2440  3.4970  3.4970 -12.753  2.2440  3.4970  3.4970  1.5330  1994.8  72.734  16.863  19.156  25.469 
  1995.500 -24.830  2.2880  3.6070  3.5710 -11.460  2.2880  3.6070  3.5710  1.5334  1995.3  72.753  16.867  19.169  25.481 
  1996.000 -24.319  2.3400  3.7010  3.6220 -10.964  2.3400  3.7010  3.6220  1.5338  1995.8  72.771  16.871  19.182  25.493 
  1996.500 -24.132  2.4130  3.7960  3.7170 -10.791  2.4130  3.7960  3.7170  1.5342  1996.3  72.789  16.875  19.194  25.505 
  1997.000 -24.922  2.5220  3.8910  3.7790 -11.596  2.5220  3.8910  3.7790  1.5346  1996.8  72.807  16.879  19.207  25.517 
  1997.500 -24.844  2.6240  3.9570  3.8410 -11.533  2.6240  3.9570  3.8410  1.5350  1997.3  72.825  16.883  19.220  25.529 
  1998.000 -23.826  2.8130  4.0660  4.0010 -10.529  2.8130  4.0660  4.0010  1.5353  1997.8  72.844  16.887  19.233  25.540 
  1998.500 -23.314  2.9430  4.1250  4.1250 -10.032  2.9430  4.1250  4.1250  1.5357  1998.3  72.862  16.891  19.246  25.552 
  1999.000 -24.863  3.1530  4.2130  4.1910 -11.596  3.1530  4.2130  4.1910  1.5361  1998.8  72.880  16.895  19.258  25.564 
  1999.500 -24.749  3.3270  4.2640  4.2280 -11.496  3.3270  4.2640  4.2280  1.5365  1999.3  72.898  16.899  19.271  25.576 
  2000.000 -23.947  3.4510  4.3160  4.2440 -10.709  3.4510  4.3160  4.2440  1.5369  1999.8  72.917  16.903  19.284  25.588 
  2000.500 -23.402  3.5100  4.3310  4.2230 -10.179  3.5100  4.3310  4.2230  1.5373  2000.3  72.935  16.907  19.297  25.600 
  2001.000 -22.820  3.4600  4.2880  4.1870 -9.6112  3.4600  4.2880  4.1870  1.5376  2000.8  72.953  16.910  19.310  25.611 
  2001.500 -22.924  3.3460  4.1880  4.1520 -9.7299  3.3460  4.1880  4.1520  1.5380  2001.3  72.971  16.914  19.322  25.623 
  2002.000 -22.161  3.2530  4.0880  4.0740 -8.9815  3.2530  4.0880  4.0740  1.5384  2001.8  72.989  16.918  19.335  25.635 
  2002.500 -21.506  3.1880  4.0240  4.0030 -8.3412  3.1880  4.0240  4.0030  1.5388  2002.3  73.008  16.922  19.348  25.647 
  2003.000 -21.321  3.0810  3.9460  3.9600 -8.1708  3.0810  3.9460  3.9600  1.5392  2002.8  73.026  16.926  19.361  25.659 
  2003.500 -22.148  3.0170  3.9500  3.9110 -9.0125  3.0170  3.9500  3.9110  1.5396  2003.3  73.044  16.930  19.374  25.671 
  2004.000 -22.795  2.9750  3.9540  3.9260 -9.6741  2.9750  3.9540  3.9260  1.5399  2003.8  73.062  16.934  19.387  25.683 
  2004.500 -23.586  2.9470  4.0350  3.9550 -10.480  2.9470  4.0350  3.9550  1.5403  2004.3  73.081  16.938  19.400  25.694 
  2005.000 -24.269  2.9840  4.0790  4.0570 -11.177  2.9840  4.0790  4.0570  1.5407  2004.8  73.099  16.942  19.412  25.706 
  2005.500 -23.722  3.0640  4.1150  4.1660 -10.645  3.0640  4.1150  4.1660  1.5411  2005.3  73.117  16.946  19.425  25.718 
  2006.000 -22.996  3.2440  4.1520  4.2680 -9.9337  3.2440  4.1520  4.2680  1.5415  2005.8  73.135  16.950  19.438  25.730 
  2006.500 -22.956  3.4970  4.2470  4.4700 -9.9084  3.4970  4.2470  4.4700  1.5419  2006.3  73.153  16.954  19.451  25.742 
  2007.000 -23.349  3.7860  4.2870  4.6150 -10.316  3.7860  4.2870  4.6150  1.5423  2006.8  73.172  16.957  19.464  25.754 
