~Version Information
VERS.                     2.0: CWLS log ASCII Standard Version 2.00
WRAP.                      NO: One line per depth step
~Well Information Block
#MNEM.UNIT                               Data Type  Information
#---------                               ---------  -----------
STRT.FT                                   740.0000:
STOP.FT                                  5380.0000:
STEP.FT                                     0.5000:
NULL.                 -999.25                     :
COMP.                                             :COMPANY            
WELL.     SAN EMIDIO A 84-28 REDRILL              :WELL               
FLD .                                             :FIELD              
CTRY.                                             :COUNTRY            
STAT.                                             :STATE              
LOC .                                             :LOCATION           
UWI .                                             :UNIQUE WELL ID     
SRVC.                                             :Service company    
DATE.                                             :LOG DATE           
~Curve Information
#MNEM.UNIT           API CODE  Curve Description
#---------           --------  -----------------
DEPT.FT                      :   1 DEPTH
SP  .MV                      :   2
AM10.OHMM                    :   3
AO10.OHMM                    :   4
AO19.OHMM                    :   5
SBL .MV                      :   6
RS  .OHMM                    :   7
RM  .OHMM                    :   8
RD  .OHMM                    :   9
DEVI.DEG                     :  10
TVD .FT                      :  11
AZIM.DEG                     :  12
NORT.FT                      :  13
EAST.FT                      :  14
OFFS.FT                      :  15
~A
# ...
  1650.000 -41.689  6.5280  6.0950  6.8440 -28.423  6.5280  6.0950  6.8440  1.2679  1649.9  60.157  13.528  11.429  17.647 
  1650.500 -44.146  8.4220  6.4630  7.2340 -30.879  8.4220  6.4630  7.2340  1.2683  1650.4  60.175  13.533  11.438  17.658 
  1651.000 -45.915  9.0710  7.9040  7.4720 -32.647  9.0710  7.9040  7.4720  1.2687  1650.9  60.194  13.539  11.448  17.668 
  1651.500 -46.130  10.231  8.9130  7.7820 -32.861  10.231  8.9130  7.7820  1.2691  1651.4  60.212  13.544  11.458  17.679 
  1652.000 -45.767  11.031  9.4890  7.9480 -32.497  11.031  9.4890  7.9480  1.2695  1651.9  60.230  13.550  11.467  17.690 
  1652.500 -45.260  11.752  9.8430  8.0560 -31.989  11.752  9.8430  8.0560  1.2698  1652.4  60.248  13.555  11.477  17.700 
  1653.000 -43.595  11.961  10.102  8.0990 -30.322  11.961  10.102  8.0990  1.2702  1652.9  60.266  13.561  11.487  17.711 
  1653.500 -42.040  12.026  10.348  8.0350 -28.766  12.026  10.348  8.0350  1.2706  1653.4  60.285  13.566  11.496  17.722 
  1654.000 -39.869  11.810  10.340  7.9700 -26.594  11.810  10.340  7.9700  1.2710  1653.9  60.303  13.572  11.506  17.732 
  1654.500 -37.337  11.306  9.9800  7.7400 -24.061  11.306  9.9800  7.7400  1.2714  1654.4  60.321  13.577  11.515  17.743 
  1655.000 -34.624  10.031  9.3030  7.2070 -21.347  10.031  9.3030  7.2070  1.2718  1654.9  60.339  13.583  11.525  17.754 
  1655.500 -32.635  7.2430  8.3740  6.5730 -19.357  7.2430  8.3740  6.5730  1.2722  1655.4  60.358  13.588  11.535  17.765 
  1656.000 -30.175  5.6800  7.3870  5.6940 -16.896  5.6800  7.3870  5.6940  1.2725  1655.9  60.376  13.594  11.544  17.775 
  1656.500 -27.931  4.9740  5.8670  4.4990 -14.651  4.9740  5.8670  4.4990  1.2729  1656.4  60.394  13.599  11.554  17.786 
  1657.000 -26.666  4.2830  4.8660  3.7420 -13.384  4.2830  4.8660  3.7420  1.2733  1656.9  60.412  13.605  11.564  17.797 
  1657.500 -26.339  3.7280  4.5930  3.3750 -13.056  3.7280  4.5930  3.3750  1.2737  1657.4  60.431  13.610  11.573  17.807 
  1658.000 -26.554  3.5630  4.6220  3.1950 -13.270  3.5630  4.6220  3.1950  1.2741  1657.9  60.449  13.616  11.583  17.818 
  1658.500 -27.131  3.5120  4.6510  3.1380 -13.846  3.5120  4.6510  3.1380  1.2745  1658.4  60.467  13.621  11.593  17.829 
  1659.000 -28.503  3.5200  4.6800  3.1520 -15.217  3.5200  4.6800  3.1520  1.2748  1658.9  60.485  13.627  11.602  17.840 
  1659.500 -30.418  3.6860  4.7590  3.2460 -17.131  3.6860  4.7590  3.2460  1.2752  1659.4  60.503  13.632  11.612  17.850 
  1660.000 -32.332  3.8300  4.9610  3.3830 -19.044  3.8300  4.9610  3.3830  1.2756  1659.9  60.522  13.638  11.622  17.861 
  1660.500 -33.886  4.3420  5.5810  3.6000 -20.596  4.3420  5.5810  3.6000  1.2760  1660.4  60.540  13.643  11.631  17.872 
  1661.000 -35.764  4.9190  6.5030  3.8740 -22.473  4.9190  6.5030  3.8740  1.2764  1660.9  60.558  13.649  11.641  17.882 
  1661.500 -38.040  5.3150  7.1950  4.2770 -24.748  5.3150  7.1950  4.2770  1.2768  1661.4  60.576  13.654  11.651  17.893 
  1662.000 -39.629  5.8910  7.7430  4.8400 -26.336  5.8910  7.7430  4.8400  1.2771  1661.9  60.595  13.659  11.661  17.904 
  1662.500 -41.038  6.6990  8.2620  5.2500 -27.744  6.6990  8.2620  5.2500  1.2775  1662.4  60.613  13.665  11.670  17.915 
  1663.000 -42.628  7.3260  8.5290  5.7260 -29.333  7.3260  8.5290  5.7260  1.2779  1662.9  60.631  13.670  11.680  17.925 
  1663.500 -44.289  7.9450  8.9040  6.1080 -30.993  7.9450  8.9040  6.1080  1.2783  1663.4  60.649  13.676  11.690  17.936 
  1664.000 -45.191  8.3420  9.3430  6.6420 -31.894  8.3420  9.3430  6.6420  1.2787  1663.9  60.668  13.681  11.699  17.947 
  1664.500 -45.298  8.5650  9.5380  6.8360 -31.999  8.5650  9.5380  6.8360  1.2791  1664.4  60.686  13.687  11.709  17.958 
  1665.000 -44.972  8.6020  9.4660  6.9090 -31.672  8.6020  9.4660  6.9090  1.2795  1664.9  60.704  13.692  11.719  17.968 
  1665.500 -44.464  8.5010  9.1780  7.0030 -31.163  8.5010  9.1780  7.0030  1.2798  1665.4  60.722  13.698  11.729  17.979 
  1666.000 -44.390  8.4150  8.8690  7.1250 -31.088  8.4150  8.8690  7.1250  1.2802  1665.9  60.740  13.703  11.738  17.990 
  1666.500 -44.678  8.3500  8.7320  7.2050 -31.375  8.3500  8.7320  7.2050  1.2806  1666.4  60.759  13.709  11.748  18.001 
  1667.000 -45.797  8.7610  8.6890  7.4280 -32.493  8.7610  8.6890  7.4280  1.2810  1666.9  60.777  13.714  11.758  18.011 
  1667.500 -47.206  9.6760  8.8480  7.9400 -33.901  9.6760  8.8480  7.9400  1.2814  1667.4  60.795  13.720  11.768  18.022 
  1668.000 -48.506  10.534  9.0930  8.3150 -35.199  10.534  9.0930  8.3150  1.2818  1667.9  60.813  13.725  11.777  18.033 
  1668.500 -50.023  11.290  9.4320  8.9270 -36.715  11.290  9.4320  8.9270  1.2821  1668.4  60.832  13.730  11.787  18.044 
  1669.000 -51.106  11.809  9.6340  9.4100 -37.797  11.809  9.6340  9.4100  1.2825  1668.9  60.850  13.736  11.797  18.054 
  1669.500 -51.285  12.004  9.7280  9.7200 -37.975  12.004  9.7280  9.7200  1.2829  1669.4  60.868  13.741  11.807  18.065 
  1670.000 -51.356  12.062  9.7710  10.023 -38.045  12.062  9.7710  10.023  1.2833  1669.9  60.886  13.747  11.817  18.076 
  1670.500 -51.174  12.077  9.8650  10.182 -37.862  12.077  9.8650  10.182  1.2837  1670.4  60.905  13.752  11.826  18.087 
  1671.000 -50.629  12.034  9.9730  10.269 -37.316  12.034  9.9730  10.269  1.2841  1670.9  60.923  13.758  11.836  18.098 
  1671.500 -50.231  11.573  10.103  10.334 -36.917  11.573  10.103  10.334  1.2844  1671.4  60.941  13.763  11.846  18.108 
  1672.000 -48.891  11.184  10.240  10.391 -35.575  11.184  10.240  10.391  1.2848  1671.9  60.959  13.769  11.856  18.119 
  1672.500 -47.480  10.716  10.392  10.428 -34.163  10.716  10.392  10.428  1.2852  1672.4  60.977  13.774  11.866  18.130 
  1673.000 -46.720  10.370  10.594  10.449 -33.402  10.370  10.594  10.449  1.2856  1672.9  60.996  13.779  11.875  18.141 
  1673.500 -46.429  10.125  10.860  10.507 -33.110  10.125  10.860  10.507  1.2860  1673.4  61.014  13.785  11.885  18.151 
  1674.000 -46.464  9.9310  11.430  10.572 -33.144  9.9310  11.430  10.572  1.2864  1673.9  61.032  13.790  11.895  18.162 
  1674.500 -46.500  10.040  12.136  10.652 -33.179  10.040  12.136  10.652  1.2868  1674.4  61.050  13.796  11.905  18.173 
  1675.000 -46.536  10.198  12.662  10.767 -33.214  10.198  12.662  10.767  1.2871  1674.9  61.069  13.801  11.915  18.184 
  1675.500 -46.388  10.364  13.152  10.976 -33.064  10.364  13.152  10.976  1.2875  1675.4  61.087  13.807  11.924  18.195 
  1676.000 -46.169  10.480  13.426  11.042 -32.844  10.480  13.426  11.042  1.2879  1675.9  61.105  13.812  11.934  18.205 
  1676.500 -45.336  10.487  13.578  11.078 -32.010  10.487  13.578  11.078  1.2883  1676.4  61.123  13.818  11.944  18.216 
  1677.000 -43.889  10.271  13.614  11.064 -30.562  10.271  13.614  11.064  1.2887  1676.9  61.142  13.823  11.954  18.227 
  1677.500 -40.814  9.9250  13.326  10.617 -27.486  9.9250  13.326  10.617  1.2891  1677.4  61.160  13.828  11.964  18.238 
  1678.000 -38.499  9.5010  12.462  9.9330 -25.170  9.5010  12.462  9.9330  1.2894  1677.9  61.178  13.834  11.974  18.249 
  1678.500 -35.425  8.6650  11.597  9.1840 -22.095  8.6650  11.597  9.1840  1.2898  1678.4  61.196  13.839  11.984  18.259 
  1679.000 -33.110  7.5270  10.762  7.8870 -19.779  7.5270  10.762  7.8870  1.2902  1678.9  61.214  13.845  11.993  18.270 
  1679.500 -30.325  4.6170  7.4190  6.6910 -16.992  4.6170  7.4190  6.6910  1.2906  1679.4  61.233  13.850  12.003  18.281 
  1680.000 -28.660  3.7020  5.9640  5.8420 -15.326  3.7020  5.9640  5.8420  1.2910  1679.9  61.251  13.855  12.013  18.292 
  1680.500 -28.297  3.0900  5.3880  4.7680 -14.962  3.0900  5.3880  4.7680  1.2914  1680.4  61.269  13.861  12.023  18.303 
  1681.000 -28.150  3.3710  5.2010  4.0190 -14.814  3.3710  5.2010  4.0190  1.2917  1680.9  61.287  13.866  12.033  18.314 
  1681.500 -28.222  3.8540  5.6550  4.1280 -14.885  3.8540  5.6550  4.1280  1.2921  1681.4  61.306  13.872  12.043  18.324 
  1682.000 -28.509  4.2570  5.9070  4.3080 -15.171  4.2570  5.9070  4.3080  1.2925  1681.9  61.324  13.877  12.053  18.335 
