~Version Information
VERS.                     2.0: CWLS log ASCII Standard Version 2.00
WRAP.                      NO: One line per depth step
~Well Information Block
#MNEM.UNIT                               Data Type  Information
#---------                               ---------  -----------
STRT.FT                                   740.0000:
STOP.FT                                  5380.0000:
STEP.FT                                     0.5000:
NULL.                 -999.25                     :
COMP.                                             :COMPANY            
WELL.     SAN EMIDIO A 84-28 REDRILL              :WELL               
FLD .                                             :FIELD              
CTRY.                                             :COUNTRY            
STAT.                                             :STATE              
LOC .                                             :LOCATION           
UWI .                                             :UNIQUE WELL ID     
SRVC.                                             :Service company    
DATE.                                             :LOG DATE           
~Curve Information
#MNEM.UNIT           API CODE  Curve Description
#---------           --------  -----------------
DEPT.FT                      :   1 DEPTH
SP  .MV                      :   2
AM10.OHMM                    :   3
AO10.OHMM                    :   4
AO19.OHMM                    :   5
SBL .MV                      :   6
RS  .OHMM                    :   7
RM  .OHMM                    :   8
RD  .OHMM                    :   9
DEVI.DEG                     :  10
TVD .FT                      :  11
AZIM.DEG                     :  12
NORT.FT                      :  13
EAST.FT                      :  14
OFFS.FT                      :  15
~A
# ...
  4737.500 -33.764  2.3730  2.6170  2.5610 -16.482  2.3730  2.6170  2.5610  3.9171  4734.3  148.26 -52.676  103.90  36.219 
  4738.000 -34.443  2.3230  2.5380  2.5900 -17.127  2.3230  2.5380  2.5900  3.9647  4734.8  147.94 -52.706  103.92  36.211 
  4738.500 -34.856  2.2730  2.4920  2.6180 -17.506  2.2730  2.4920  2.6180  4.0123  4735.3  147.62 -52.735  103.94  36.204 
  4739.000 -35.269  2.1660  2.4450  2.6550 -17.884  2.1660  2.4450  2.6550  4.0599  4735.8  147.29 -52.765  103.95  36.196 
  4739.500 -36.092  2.0590  2.4170  2.6910 -18.673  2.0590  2.4170  2.6910  4.1075  4736.3  146.97 -52.795  103.97  36.189 
  4740.000 -36.541  2.0090  2.3890  2.7270 -19.088  2.0090  2.3890  2.7270  4.1551  4736.8  146.65 -52.825  103.99  36.182 
  4740.500 -36.990  1.9880  2.3610  2.6850 -19.503  1.9880  2.3610  2.6850  4.2028  4737.3  146.33 -52.856  104.01  36.174 
  4741.000 -37.814  1.9670  2.3420  2.6420 -20.293  1.9670  2.3420  2.6420  4.2504  4737.8  146.01 -52.886  104.03  36.167 
  4741.500 -38.424  1.9550  2.3230  2.5500 -20.868  1.9550  2.3230  2.5500  4.2490  4738.3  146.07 -52.917  104.06  36.160 
  4742.000 -38.801  1.9430  2.3040  2.4580 -21.211  1.9430  2.3040  2.4580  4.2477  4738.8  146.14 -52.948  104.08  36.153 
  4742.500 -39.178  1.9320  2.2870  2.4110 -21.554  1.9320  2.2870  2.4110  4.2464  4739.3  146.20 -52.979  104.10  36.146 
  4743.000 -38.763  1.9100  2.2700  2.3630 -21.105  1.9100  2.2700  2.3630  4.2450  4739.8  146.27 -53.010  104.12  36.139 
  4743.500 -38.349  1.8890  2.2650  2.3160 -20.657  1.8890  2.2650  2.3160  4.2437  4740.3  146.33 -53.040  104.14  36.131 
  4744.000 -37.592  1.8680  2.2610  2.1960 -19.866  1.8680  2.2610  2.1960  4.2424  4740.8  146.40 -53.071  104.16  36.124 
  4744.500 -36.801  1.8440  2.2560  2.1390 -19.040  1.8440  2.2560  2.1390  4.2410  4741.3  146.46 -53.102  104.18  36.117 
  4745.000 -36.010  1.8190  2.2570  2.0960 -18.215  1.8190  2.2570  2.0960  4.2397  4741.8  146.53 -53.133  104.20  36.109 
  4745.500 -34.138  1.7910  2.2580  2.0540 -16.309  1.7910  2.2580  2.0540  4.2383  4742.3  146.59 -53.164  104.22  36.102 
  4746.000 -33.060  1.7630  2.2440  2.0190 -15.197  1.7630  2.2440  2.0190  4.2370  4742.8  146.65 -53.194  104.24  36.094 
  4746.500 -32.521  1.7420  2.2290  2.0050 -14.624  1.7420  2.2290  2.0050  4.2357  4743.3  146.72 -53.225  104.26  36.087 
  4747.000 -33.381  1.7200  2.2300  2.0520 -15.449  1.7200  2.2300  2.0520  4.2343  4743.8  146.78 -53.256  104.28  36.079 
  4747.500 -33.920  1.7350  2.2450  2.0990 -15.954  1.7350  2.2450  2.0990  4.2330  4744.3  146.85 -53.287  104.30  36.072 
  4748.000 -34.459  1.7570  2.2570  2.2000 -16.459  1.7570  2.2570  2.2000  4.2316  4744.8  146.91 -53.318  104.32  36.064 
  4748.500 -34.671  1.7790  2.2700  2.2750 -16.637  1.7790  2.2700  2.2750  4.2303  4745.3  146.98 -53.349  104.34  36.057 
  4749.000 -34.347  1.8400  2.2820  2.3500 -16.279  1.8400  2.2820  2.3500  4.2290  4745.8  147.04 -53.380  104.36  36.049 
  4749.500 -33.843  1.9020  2.3580  2.4730 -15.740  1.9020  2.3580  2.4730  4.2276  4746.3  147.11 -53.411  104.38  36.041 
  4750.000 -33.555  2.0320  2.4340  2.5370 -15.418  2.0320  2.4340  2.5370  4.2263  4746.8  147.17 -53.442  104.40  36.033 
  4750.500 -33.334  2.0860  2.4850  2.6020 -15.163  2.0860  2.4850  2.6020  4.2250  4747.3  147.23 -53.473  104.42  36.026 
  4751.000 -33.868  2.1410  2.5360  2.6960 -15.663  2.1410  2.5360  2.6960  4.2236  4747.8  147.30 -53.504  104.44  36.018 
  4751.500 -35.695  2.1630  2.6440  2.7890 -17.456  2.1630  2.6440  2.7890  4.2223  4748.3  147.36 -53.535  104.46  36.010 
  4752.000 -37.164  2.1850  2.7100  2.9120 -18.890  2.1850  2.7100  2.9120  4.2209  4748.8  147.43 -53.566  104.48  36.002 
  4752.500 -39.709  2.3730  2.7970  2.9620 -21.401  2.3730  2.7970  2.9620  4.2196  4749.3  147.49 -53.597  104.50  35.994 
  4753.000 -42.542  2.7480  2.9060  2.9770 -24.200  2.7480  2.9060  2.9770  4.2183  4749.8  147.56 -53.628  104.52  35.986 
  4753.500 -44.190  3.0790  2.7630  2.9100 -25.814  3.0790  2.7630  2.9100  4.2169  4750.3  147.62 -53.659  104.54  35.978 
  4754.000 -45.192  3.2590  2.6340  2.8430 -26.782  3.2590  2.6340  2.8430  4.2156  4750.8  147.69 -53.690  104.56  35.970 
  4754.500 -44.863  3.1740  2.5060  2.7640 -26.419  3.1740  2.5060  2.7640  4.2142  4751.3  147.75 -53.721  104.58  35.962 
  4755.000 -42.558  3.0630  2.2920  2.6860 -24.079  3.0630  2.2920  2.6860  4.2129  4751.8  147.82 -53.752  104.60  35.954 
  4755.500 -42.159  2.9530  2.3930  2.6010 -23.646  2.9530  2.3930  2.6010  4.2116  4752.3  147.88 -53.783  104.62  35.945 
  4756.000 -41.760  2.7890  2.4650  2.6950 -23.213  2.7890  2.4650  2.6950  4.2102  4752.8  147.94 -53.814  104.64  35.937 
  4756.500 -41.430  3.1410  2.5380  2.7890 -22.849  3.1410  2.5380  2.7890  4.2089  4753.3  148.01 -53.845  104.66  35.929 
  4757.000 -41.605  3.4870  2.6320  2.8970 -22.990  3.4870  2.6320  2.8970  4.2076  4753.8  148.07 -53.877  104.68  35.921 
  4757.500 -42.247  3.6960  2.7260  2.9760 -23.597  3.6960  2.7260  2.9760  4.2062  4754.3  148.14 -53.908  104.70  35.912 
  4758.000 -42.979  3.7830  2.7160  2.9980 -24.295  3.7830  2.7160  2.9980  4.2049  4754.8  148.20 -53.939  104.71  35.904 
  4758.500 -43.711  3.7910  2.7060  2.8560 -24.993  3.7910  2.7060  2.8560  4.2035  4755.3  148.27 -53.970  104.73  35.895 
  4759.000 -44.820  3.6910  2.5450  2.7200 -26.068  3.6910  2.5450  2.7200  4.2022  4755.8  148.33 -54.001  104.75  35.887 
  4759.500 -45.928  3.5840  2.3830  2.5850 -27.142  3.5840  2.3830  2.5850  4.2009  4756.3  148.40 -54.032  104.77  35.879 
  4760.000 -46.605  3.2550  2.2210  2.2930 -27.784  3.2550  2.2210  2.2930  4.1995  4756.8  148.46 -54.064  104.79  35.870 
  4760.500 -43.940  3.0620  2.0500  2.1580 -25.085  3.0620  2.0500  2.1580  4.1982  4757.3  148.53 -54.095  104.81  35.861 
  4761.000 -39.768  2.6680  2.0610  2.0510 -20.879  2.6680  2.0610  2.0510  4.1968  4757.8  148.59 -54.126  104.83  35.853 
  4761.500 -38.038  2.3600  2.0730  1.9440 -19.115  2.3600  2.0730  1.9440  4.1955  4758.3  148.65 -54.157  104.85  35.844 
  4762.000 -37.279  2.2390  2.1560  1.9840 -18.322  2.2390  2.1560  1.9840  4.1942  4758.8  148.72 -54.189  104.87  35.836 
  4762.500 -36.664  2.1170  2.2400  2.0240 -17.673  2.1170  2.2400  2.0240  4.1928  4759.3  148.78 -54.220  104.89  35.827 
  4763.000 -36.048  2.1000  2.3150  2.1250 -17.022  2.1000  2.3150  2.1250  4.1915  4759.8  148.85 -54.251  104.91  35.818 
  4763.500 -35.504  2.0840  2.3900  2.1900 -16.444  2.0840  2.3900  2.1900  4.1902  4760.3  148.91 -54.282  104.92  35.809 
  4764.000 -35.302  2.0990  2.4650  2.2230 -16.208  2.0990  2.4650  2.2230  4.1888  4760.8  148.98 -54.314  104.94  35.800 
  4764.500 -35.100  2.1140  2.5450  2.2550 -15.972  2.1140  2.5450  2.2550  4.1875  4761.3  149.04 -54.345  104.96  35.792 
  4765.000 -35.561  2.1400  2.6250  2.2210 -16.399  2.1400  2.6250  2.2210  4.1861  4761.8  149.11 -54.376  104.98  35.783 
  4765.500 -36.238  2.1660  2.6590  2.1880 -17.041  2.1660  2.6590  2.1880  4.1848  4762.3  149.17 -54.408  105.00  35.774 
  4766.000 -36.987  2.1810  2.6930  2.1550 -17.756  2.1810  2.6930  2.1550  4.1835  4762.8  149.23 -54.439  105.02  35.765 
  4766.500 -37.593  2.1970  2.7280  2.1220 -18.328  2.1970  2.7280  2.1220  4.1821  4763.3  149.30 -54.470  105.04  35.756 
  4767.000 -38.666  2.2010  2.7590  2.0380 -19.367  2.2010  2.7590  2.0380  4.1808  4763.8  149.36 -54.502  105.06  35.747 
  4767.500 -38.733  2.2050  2.7900  2.0170 -19.400  2.2050  2.7900  2.0170  4.1794  4764.3  149.43 -54.533  105.07  35.738 
  4768.000 -38.064  2.1700  2.8220  2.0280 -18.696  2.1700  2.8220  2.0280  4.1781  4764.8  149.49 -54.565  105.09  35.729 
  4768.500 -37.394  2.1350  2.8530  2.0390 -17.992  2.1350  2.8530  2.0390  4.1768  4765.3  149.56 -54.596  105.11  35.719 
  4769.000 -36.850  2.0570  2.8900  2.1150 -17.414  2.0570  2.8900  2.1150  4.1754  4765.8  149.62 -54.627  105.13  35.710 
  4769.500 -36.520  2.0650  2.9270  2.1910 -17.050  2.0650  2.9270  2.1910  4.1741  4766.3  149.69 -54.659  105.15  35.701 
