~Version Information
VERS.                     2.0: CWLS log ASCII Standard Version 2.00
WRAP.                      NO: One line per depth step
~Well Information Block
#MNEM.UNIT                               Data Type  Information
#---------                               ---------  -----------
STRT.FT                                   350.0000:
STOP.FT                                  6830.0000:
STEP.FT                                     0.5000:
NULL.                 -999.25                     :
COMP.                                             :COMPANY            
WELL.     CCMO 78-20                              :WELL               
FLD .                                             :FIELD              
CTRY.                                             :COUNTRY            
STAT.                                             :STATE              
LOC .                                             :LOCATION           
UWI .                                             :UNIQUE WELL ID     
SRVC.                                             :Service company    
DATE.                                             :LOG DATE           
~Curve Information
#MNEM.UNIT           API CODE  Curve Description
#---------           --------  -----------------
DEPT.FT                      :   1 DEPTH
SP  .MV                      :   2
AM10.OHMM                    :   3
AO10.OHMM                    :   4
AO19.OHMM                    :   5
SBL .MV                      :   6
RS  .OHMM                    :   7
RM  .OHMM                    :   8
RD  .OHMM                    :   9
DEVI.DEG                     :  10
TVD .FT                      :  11
AZIM.DEG                     :  12
NORT.FT                      :  13
EAST.FT                      :  14
OFFS.FT                      :  15
~A
# ...
  3340.000 -22.957  4.0050  7.0670  5.3740 -10.011  4.0050  7.0670  5.3740  0.1667  3339.9  331.20 -11.986 -7.7914 -13.985 
  3340.500 -21.873  3.5010  6.1300  4.8690 -8.9305  3.5010  6.1300  4.8690  0.1688  3340.4  330.84 -11.985 -7.7921 -13.984 
  3341.000 -20.969  3.2120  5.9140  4.1490 -8.0303  3.2120  5.9140  4.1490  0.1709  3340.9  330.48 -11.983 -7.7929 -13.984 
  3341.500 -20.336  3.1220  5.9130  3.7520 -7.4011  3.1220  5.9130  3.7520  0.1729  3341.4  330.12 -11.982 -7.7936 -13.983 
  3342.000 -19.704  3.0310  5.9670  3.6440 -6.7730  3.0310  5.9670  3.6440  0.1750  3341.9  329.76 -11.981 -7.7944 -13.983 
  3342.500 -19.162  2.9410  6.0210  3.5350 -6.2348  2.9410  6.0210  3.5350  0.1771  3342.4  329.40 -11.979 -7.7952 -13.983 
  3343.000 -18.620  2.8510  6.3080  3.5710 -5.6966  2.8510  6.3080  3.5710  0.1792  3342.9  329.04 -11.978 -7.7960 -13.982 
  3343.500 -18.622  2.7780  6.3440  3.6430 -5.7025  2.7780  6.3440  3.6430  0.1813  3343.4  328.68 -11.977 -7.7968 -13.982 
  3344.000 -18.622  2.7780  6.3800  3.6960 -5.7063  2.7780  6.3800  3.6960  0.1834  3343.9  328.32 -11.975 -7.7976 -13.982 
  3344.500 -18.623  2.7780  6.4150  3.7500 -5.7111  2.7780  6.4150  3.7500  0.1854  3344.4  327.96 -11.974 -7.7985 -13.981 
  3345.000 -18.805  2.9210  6.4150  3.8940 -5.8970  2.9210  6.4150  3.8940  0.1875  3344.9  327.60 -11.972 -7.7994 -13.981 
  3345.500 -18.986  2.9930  6.4150  4.0190 -6.0818  2.9930  6.4150  4.0190  0.1896  3345.4  327.24 -11.971 -7.8003 -13.980 
  3346.000 -19.350  3.0650  6.4140  4.1450 -6.4496  3.0650  6.4140  4.1450  0.1917  3345.9  326.88 -11.970 -7.8012 -13.980 
  3346.500 -19.713  3.2260  6.3960  4.3610 -6.8164  3.2260  6.3960  4.3610  0.1938  3346.4  326.52 -11.968 -7.8021 -13.980 
  3347.000 -19.714  3.3880  6.3780  4.5050 -6.8213  3.3880  6.3780  4.5050  0.1959  3346.9  326.16 -11.967 -7.8031 -13.979 
  3347.500 -19.895  3.6040  6.3770  4.7560 -7.0061  3.6040  6.3770  4.7560  0.1979  3347.4  325.80 -11.965 -7.8040 -13.979 
  3348.000 -20.077  3.6750  6.3770  4.8820 -7.1919  3.6750  6.3770  4.8820  0.2000  3347.9  325.44 -11.964 -7.8050 -13.979 
  3348.500 -20.078  3.7110  6.3040  5.0080 -7.1968  3.7110  6.3040  5.0080  0.2021  3348.4  325.08 -11.963 -7.8060 -13.978 
  3349.000 -20.079  3.7470  6.2320  5.1340 -7.2016  3.7470  6.2320  5.1340  0.2042  3348.9  324.72 -11.961 -7.8071 -13.978 
  3349.500 -20.080  3.6740  5.9440  5.2590 -7.2064  3.6740  5.9440  5.2590  0.2063  3349.4  324.36 -11.960 -7.8081 -13.978 
  3350.000 -20.262  3.5300  5.6550  5.4390 -7.3923  3.5300  5.6550  5.4390  0.2084  3349.9  324.00 -11.958 -7.8092 -13.978 
  3350.500 -20.263  3.3850  5.2590  5.3660 -7.3971  3.3850  5.2590  5.3660  0.2104  3350.4  323.64 -11.957 -7.8103 -13.977 
  3351.000 -20.083  3.2050  4.7900  5.3660 -7.2209  3.2050  4.7900  5.3660  0.2125  3350.9  323.28 -11.955 -7.8114 -13.977 
  3351.500 -19.902  3.1320  4.6090  5.3660 -7.0438  3.1320  4.6090  5.3660  0.2146  3351.4  322.92 -11.954 -7.8125 -13.977 
  3352.000 -19.722  2.9880  4.4650  5.3650 -6.8676  2.9880  4.4650  5.3650  0.2167  3351.9  322.56 -11.952 -7.8137 -13.977 
  3352.500 -19.181  3.0240  4.4290  5.4010 -6.3304  3.0240  4.4290  5.4010  0.2188  3352.4  322.20 -11.951 -7.8148 -13.976 
  3353.000 -18.910  3.0590  4.3920  5.5090 -6.0633  3.0590  4.3920  5.5090  0.2209  3352.9  321.84 -11.949 -7.8160 -13.976 
  3353.500 -18.639  3.2390  4.3920  5.7250 -5.7961  3.2390  4.3920  5.7250  0.2229  3353.4  321.48 -11.948 -7.8172 -13.976 
  3354.000 -19.003  3.3470  4.4820  5.9400 -6.1639  3.3470  4.4820  5.9400  0.2250  3353.9  321.12 -11.946 -7.8185 -13.976 
  3354.500 -19.365  3.4550  4.5710  6.0480 -6.5298  3.4550  4.5710  6.0480  0.2271  3354.4  320.76 -11.945 -7.8197 -13.975 
  3355.000 -19.728  3.6700  4.7510  6.2640 -6.8966  3.6700  4.7510  6.2640  0.2292  3354.9  320.40 -11.943 -7.8210 -13.975 
  3355.500 -20.091  3.8860  4.8230  6.6240 -7.2634  3.8860  4.8230  6.6240  0.2313  3355.4  320.04 -11.941 -7.8223 -13.975 
  3356.000 -21.358  4.0840  4.8950  6.8030 -8.5342  4.0840  4.8950  6.8030  0.2334  3355.9  319.68 -11.940 -7.8236 -13.975 
  3356.500 -22.806  4.2820  5.0380  6.9650 -9.9861  4.2820  5.0380  6.9650  0.2354  3356.4  319.32 -11.938 -7.8249 -13.975 
  3357.000 -25.521  4.6410  5.1100  7.1270 -12.705  4.6410  5.1100  7.1270  0.2375  3356.9  318.96 -11.937 -7.8263 -13.975 
  3357.500 -28.054  4.7850  5.1820  7.1630 -15.242  4.7850  5.1820  7.1630  0.2396  3357.4  318.60 -11.935 -7.8277 -13.974 
  3358.000 -29.864  5.0010  5.2710  7.2700 -17.056  5.0010  5.2710  7.2700  0.2417  3357.9  318.24 -11.934 -7.8291 -13.974 
  3358.500 -32.217  5.2170  5.3610  7.3060 -19.412  5.2170  5.3610  7.3060  0.2438  3358.4  317.88 -11.932 -7.8305 -13.974 
  3359.000 -34.388  5.5770  5.4690  7.3420 -21.587  5.5770  5.4690  7.3420  0.2459  3358.9  317.52 -11.930 -7.8320 -13.974 
  3359.500 -41.626  6.2250  5.5760  7.3770 -28.829  6.2250  5.5760  7.3770  0.2479  3359.4  317.16 -11.929 -7.8334 -13.974 
  3360.000 -43.798  6.8000  5.7020  7.5210 -31.005  6.8000  5.7020  7.5210  0.2500  3359.9  316.80 -11.927 -7.8349 -13.974 
  3360.500 -44.522  7.1960  5.8280  7.5930 -31.733  7.1960  5.8280  7.5930  0.2521  3360.4  316.44 -11.926 -7.8365 -13.974 
  3361.000 -45.247  7.5560  6.0790  7.6280 -32.462  7.5560  6.0790  7.6280  0.2542  3360.9  316.08 -11.924 -7.8380 -13.974 
  3361.500 -45.971  7.9880  6.1870  7.6640 -33.189  7.9880  6.1870  7.6640  0.2563  3361.4  315.72 -11.923 -7.8396 -13.974 
  3362.000 -46.153  8.3480  6.3310  7.8800 -33.375  8.3480  6.3310  7.8800  0.2584  3361.9  315.36 -11.921 -7.8411 -13.974 
  3362.500 -46.154  8.6000  6.4390  7.9150 -33.380  8.6000  6.4390  7.9150  0.2604  3362.4  315.00 -11.919 -7.8427 -13.974 
  3363.000 -45.974  8.6710  6.5460  7.9690 -33.204  8.6710  6.5460  7.9690  0.2625  3362.9  314.64 -11.918 -7.8444 -13.974 
  3363.500 -46.337  8.7430  6.9060  8.0230 -33.571  8.7430  6.9060  8.0230  0.2646  3363.4  314.28 -11.916 -7.8460 -13.974 
  3364.000 -46.699  8.7970  7.1940  8.0940 -33.937  8.7970  7.1940  8.0940  0.2667  3363.9  313.92 -11.914 -7.8477 -13.974 
  3364.500 -47.243  8.8500  7.4820  8.1300 -34.484  8.8500  7.4820  8.1300  0.2688  3364.4  313.56 -11.913 -7.8494 -13.974 
  3365.000 -47.425  9.1380  7.8050  8.2380 -34.670  9.1380  7.8050  8.2380  0.2709  3364.9  313.20 -11.911 -7.8511 -13.974 
  3365.500 -47.426  9.3540  8.0930  8.3810 -34.675  9.3540  8.0930  8.3810  0.2729  3365.4  312.84 -11.910 -7.8529 -13.974 
  3366.000 -46.703  9.5700  8.4530  8.5250 -33.956  9.5700  8.4530  8.5250  0.2750  3365.9  312.48 -11.908 -7.8546 -13.974 
  3366.500 -46.161  9.7850  8.7410  8.5970 -33.418  9.7850  8.7410  8.5970  0.2771  3366.4  312.12 -11.906 -7.8564 -13.974 
  3367.000 -45.620  9.9290  8.9570  8.6690 -32.881  9.9290  8.9570  8.6690  0.2792  3366.9  311.76 -11.905 -7.8583 -13.975 
  3367.500 -45.258  9.9650  9.1000  8.5960 -32.522  9.9650  9.1000  8.5960  0.2813  3367.4  311.40 -11.903 -7.8601 -13.975 
  3368.000 -44.897  9.9100  9.1900  8.5240 -32.165  9.9100  9.1900  8.5240  0.2834  3367.9  311.04 -11.902 -7.8620 -13.975 
  3368.500 -44.899  9.8560  9.2800  8.2710 -32.171  9.8560  9.2800  8.2710  0.2854  3368.4  310.68 -11.900 -7.8638 -13.975 
  3369.000 -44.900  9.5670  9.3690  7.9110 -32.176  9.5670  9.3690  7.9110  0.2875  3368.9  310.32 -11.898 -7.8658 -13.975 
  3369.500 -44.900  9.2790  9.4590  7.6940 -32.180  9.2790  9.4590  7.6940  0.2896  3369.4  309.96 -11.897 -7.8677 -13.975 
  3370.000 -44.901  8.9900  9.6750  7.5140 -32.185  8.9900  9.6750  7.5140  0.2917  3369.9  309.60 -11.895 -7.8697 -13.976 
  3370.500 -44.902  8.6660  9.7820  7.4050 -32.189  8.6660  9.7820  7.4050  0.2938  3370.4  309.24 -11.893 -7.8716 -13.976 
  3371.000 -44.902  8.3410  9.8900  7.2970 -32.193  8.3410  9.8900  7.2970  0.2959  3370.9  308.88 -11.892 -7.8737 -13.976 
  3371.500 -44.903  8.0170  9.9980  7.2430 -32.198  8.0170  9.9980  7.2430  0.2979  3371.4  308.52 -11.890 -7.8757 -13.977 
  3372.000 -44.904  7.7640  10.178  7.1880 -32.203  7.7640  10.178  7.1880  0.3000  3371.9  308.16 -11.889 -7.8777 -13.977 
