~Version Information
VERS.                     2.0: CWLS log ASCII Standard Version 2.00
WRAP.                      NO: One line per depth step
~Well Information Block
#MNEM.UNIT                               Data Type  Information
#---------                               ---------  -----------
STRT.FT                                   350.0000:
STOP.FT                                  6830.0000:
STEP.FT                                     0.5000:
NULL.                 -999.25                     :
COMP.                                             :COMPANY            
WELL.     CCMO 78-20                              :WELL               
FLD .                                             :FIELD              
CTRY.                                             :COUNTRY            
STAT.                                             :STATE              
LOC .                                             :LOCATION           
UWI .                                             :UNIQUE WELL ID     
SRVC.                                             :Service company    
DATE.                                             :LOG DATE           
~Curve Information
#MNEM.UNIT           API CODE  Curve Description
#---------           --------  -----------------
DEPT.FT                      :   1 DEPTH
SP  .MV                      :   2
AM10.OHMM                    :   3
AO10.OHMM                    :   4
AO19.OHMM                    :   5
SBL .MV                      :   6
RS  .OHMM                    :   7
RM  .OHMM                    :   8
RD  .OHMM                    :   9
DEVI.DEG                     :  10
TVD .FT                      :  11
AZIM.DEG                     :  12
NORT.FT                      :  13
EAST.FT                      :  14
OFFS.FT                      :  15
~A
# ...
  6362.500 -22.501  1.5100  2.3760  1.4020 -10.501  1.5100  2.3760  1.4020  0.9063  6362.3  198.25 -24.547  1.0911 -16.586 
  6363.000 -22.859  1.5110  2.4130  1.4030 -10.859  1.5110  2.4130  1.4030  0.9075  6362.8  198.30 -24.554  1.0886 -16.593 
  6363.500 -23.217  1.5480  2.4490  1.4030 -11.217  1.5480  2.4490  1.4030  0.9088  6363.3  198.35 -24.562  1.0861 -16.600 
  6364.000 -23.394  1.5480  2.4500  1.4220 -11.394  1.5480  2.4500  1.4220  0.9100  6363.8  198.40 -24.569  1.0836 -16.607 
  6364.500 -23.572  1.5490  2.4500  1.4400 -11.572  1.5490  2.4500  1.4400  0.9113  6364.3  198.45 -24.577  1.0811 -16.614 
  6365.000 -22.847  1.5490  2.4510  1.4770 -10.847  1.5490  2.4510  1.4770  0.9125  6364.8  198.50 -24.584  1.0786 -16.621 
  6365.500 -22.302  1.5500  2.4330  1.4960 -10.302  1.5500  2.4330  1.4960  0.9138  6365.3  198.55 -24.592  1.0760 -16.628 
  6366.000 -21.758  1.5680  2.4160  1.5140 -9.7580  1.5680  2.4160  1.5140  0.9150  6365.8  198.60 -24.599  1.0735 -16.635 
  6366.500 -21.214  1.5870  2.3800  1.5330 -9.2140  1.5870  2.3800  1.5330  0.9163  6366.3  198.65 -24.607  1.0709 -16.643 
  6367.000 -21.031  1.6050  2.3090  1.5510 -9.0310  1.6050  2.3090  1.5510  0.9175  6366.8  198.70 -24.615  1.0684 -16.650 
  6367.500 -21.148  1.6240  2.2730  1.5880 -9.1480  1.6240  2.2730  1.5880  0.9188  6367.3  198.75 -24.622  1.0658 -16.657 
  6368.000 -21.266  1.6420  2.2560  1.6240 -9.2660  1.6420  2.2560  1.6240  0.9200  6367.8  198.80 -24.630  1.0632 -16.664 
  6368.500 -21.384  1.6610  2.2380  1.6610 -9.3840  1.6610  2.2380  1.6610  0.9213  6368.3  198.85 -24.637  1.0606 -16.671 
  6369.000 -22.645  1.6800  2.2030  1.6980 -10.645  1.6800  2.2030  1.6980  0.9225  6368.8  198.90 -24.645  1.0580 -16.679 
  6369.500 -23.364  1.6980  2.1670  1.7340 -11.364  1.6980  2.1670  1.7340  0.9238  6369.3  198.95 -24.653  1.0554 -16.686 
  6370.000 -23.722  1.6990  2.1500  1.8070 -11.722  1.6990  2.1500  1.8070  0.9250  6369.8  199.00 -24.660  1.0527 -16.693 
  6370.500 -25.164  1.6990  2.1320  1.9160 -13.164  1.6990  2.1320  1.9160  0.9263  6370.3  199.05 -24.668  1.0501 -16.700 
  6371.000 -25.703  1.7000  2.1150  2.0610 -13.703  1.7000  2.1150  2.0610  0.9275  6370.8  199.10 -24.676  1.0475 -16.708 
  6371.500 -26.243  1.7010  2.0970  2.1330 -14.243  1.7010  2.0970  2.1330  0.9288  6371.3  199.15 -24.683  1.0448 -16.715 
  6372.000 -26.150  1.7190  2.0800  2.1700 -14.150  1.7190  2.0800  2.1700  0.9300  6371.8  199.20 -24.691  1.0421 -16.722 
  6372.500 -26.057  1.7380  2.0620  2.1700 -14.057  1.7380  2.0620  2.1700  0.9313  6372.3  199.25 -24.699  1.0394 -16.730 
  6373.000 -24.789  1.7560  2.0630  2.1710 -12.789  1.7560  2.0630  2.1710  0.9325  6372.8  199.30 -24.706  1.0368 -16.737 
  6373.500 -24.426  1.7750  2.0630  2.1720 -12.426  1.7750  2.0630  2.1720  0.9338  6373.3  199.35 -24.714  1.0341 -16.744 
  6374.000 -24.063  1.7750  2.0640  2.1540 -12.063  1.7750  2.0640  2.1540  0.9350  6373.8  199.40 -24.722  1.0313 -16.752 
  6374.500 -22.795  1.7940  2.0640  2.1370 -10.795  1.7940  2.0640  2.1370  0.9363  6374.3  199.45 -24.729  1.0286 -16.759 
  6375.000 -22.251  1.8120  2.0650  2.1130 -10.251  1.8120  2.0650  2.1130  0.9375  6374.8  199.50 -24.737  1.0259 -16.766 
  6375.500 -21.165  1.8130  2.0650  2.0890 -9.1650  1.8130  2.0650  2.0890  0.9388  6375.3  199.55 -24.745  1.0232 -16.774 
  6376.000 -20.802  1.8130  2.0660  2.0660 -8.8020  1.8130  2.0660  2.0660  0.9400  6375.8  199.60 -24.752  1.0204 -16.781 
  6376.500 -20.438  1.8140  2.0670  2.0480 -8.4380  1.8140  2.0670  2.0480  0.9413  6376.3  199.65 -24.760  1.0176 -16.789 
  6377.000 -19.713  1.7960  2.0670  2.0310 -7.7130  1.7960  2.0670  2.0310  0.9425  6376.8  199.70 -24.768  1.0149 -16.796 
  6377.500 -20.161  1.7790  2.0680  2.0200 -8.1610  1.7790  2.0680  2.0200  0.9438  6377.3  199.75 -24.776  1.0121 -16.803 
  6378.000 -20.610  1.7800  2.0680  2.0080 -8.6100  1.7800  2.0680  2.0080  0.9450  6377.8  199.80 -24.783  1.0093 -16.811 
  6378.500 -21.329  1.7800  2.0690  1.9970 -9.3290  1.7800  2.0690  1.9970  0.9463  6378.3  199.85 -24.791  1.0065 -16.818 
  6379.000 -21.779  1.7810  2.0690  1.9610 -9.7790  1.7810  2.0690  1.9610  0.9475  6378.8  199.90 -24.799  1.0037 -16.826 
  6379.500 -22.228  1.7810  2.0700  1.9260 -10.228  1.7810  2.0700  1.9260  0.9488  6379.3  199.95 -24.807  1.0008 -16.833 
  6380.000 -22.586  1.7820  2.0700  1.9080 -10.586  1.7820  2.0700  1.9080  0.9500  6379.8  200.00 -24.815  0.9980 -16.841 
  6380.500 -22.944  1.7820  2.0710  1.8900 -10.944  1.7820  2.0710  1.8900  0.9513  6380.3  200.05 -24.822  0.9952 -16.848 
  6381.000 -22.760  1.7830  2.0710  1.8550 -10.760  1.7830  2.0710  1.8550  0.9525  6380.8  200.10 -24.830  0.9923 -16.856 
  6381.500 -22.397  1.7650  2.0720  1.8200 -10.397  1.7650  2.0720  1.8200  0.9538  6381.3  200.15 -24.838  0.9894 -16.863 
  6382.000 -21.943  1.7480  2.0720  1.8020 -9.9430  1.7480  2.0720  1.8020  0.9550  6381.8  200.20 -24.846  0.9866 -16.871 
  6382.500 -21.489  1.7480  2.0730  1.7840 -9.4890  1.7480  2.0730  1.7840  0.9563  6382.3  200.25 -24.854  0.9837 -16.879 
  6383.000 -20.402  1.7490  2.0730  1.7490 -8.4020  1.7490  2.0730  1.7490  0.9575  6382.8  200.30 -24.861  0.9808 -16.886 
  6383.500 -20.039  1.7490  2.0740  1.7500 -8.0390  1.7490  2.0740  1.7500  0.9588  6383.3  200.35 -24.869  0.9779 -16.894 
  6384.000 -19.676  1.7500  2.0750  1.7500 -7.6760  1.7500  2.0750  1.7500  0.9600  6383.8  200.40 -24.877  0.9749 -16.901 
  6384.500 -19.672  1.7500  2.0750  1.7330 -7.6720  1.7500  2.0750  1.7330  0.9613  6384.3  200.45 -24.885  0.9720 -16.909 
  6385.000 -19.941  1.7510  2.0760  1.7150 -7.9410  1.7510  2.0760  1.7150  0.9625  6384.8  200.50 -24.893  0.9691 -16.917 
  6385.500 -20.209  1.7520  2.0760  1.7160 -8.2090  1.7520  2.0760  1.7160  0.9638  6385.3  200.55 -24.901  0.9661 -16.924 
  6386.000 -20.567  1.7340  2.0770  1.7160 -8.5670  1.7340  2.0770  1.7160  0.9650  6385.8  200.60 -24.909  0.9632 -16.932 
  6386.500 -20.384  1.7170  2.0770  1.7170 -8.3840  1.7170  2.0770  1.7170  0.9663  6386.3  200.65 -24.917  0.9602 -16.940 
  6387.000 -20.200  1.7170  2.0780  1.7170 -8.2000  1.7170  2.0780  1.7170  0.9675  6386.8  200.70 -24.924  0.9572 -16.947 
  6387.500 -19.837  1.7180  2.0960  1.7300 -7.8370  1.7180  2.0960  1.7300  0.9688  6387.3  200.75 -24.932  0.9542 -16.955 
  6388.000 -19.474  1.7180  2.1150  1.7420 -7.4740  1.7180  2.1150  1.7420  0.9700  6387.8  200.80 -24.940  0.9512 -16.963 
  6388.500 -19.109  1.7190  2.1160  1.7550 -7.1090  1.7190  2.1160  1.7550  0.9713  6388.3  200.85 -24.948  0.9482 -16.971 
  6389.000 -19.467  1.7190  2.1160  1.7550 -7.4670  1.7190  2.1160  1.7550  0.9725  6388.8  200.90 -24.956  0.9452 -16.978 
  6389.500 -19.826  1.7200  2.1170  1.7560 -7.8260  1.7200  2.1170  1.7560  0.9738  6389.3  200.95 -24.964  0.9421 -16.986 
  6390.000 -20.365  1.7200  2.1170  1.7930 -8.3650  1.7200  2.1170  1.7930  0.9750  6389.7  201.00 -24.972  0.9391 -16.994 
  6390.500 -19.820  1.7210  2.1180  1.8110 -7.8200  1.7210  2.1180  1.8110  0.9763  6390.2  201.05 -24.980  0.9360 -17.002 
  6391.000 -18.915  1.7220  2.1360  1.8300 -6.9150  1.7220  2.1360  1.8300  0.9775  6390.7  201.10 -24.988  0.9329 -17.009 
  6391.500 -19.093  1.7400  2.1550  1.8300 -7.0930  1.7400  2.1550  1.8300  0.9788  6391.2  201.15 -24.996  0.9299 -17.017 
  6392.000 -19.090  1.7590  2.1740  1.8490 -7.0900  1.7590  2.1740  1.8490  0.9800  6391.7  201.20 -25.004  0.9268 -17.025 
  6392.500 -19.810  1.7770  2.1920  1.8670 -7.8100  1.7770  2.1920  1.8670  0.9813  6392.2  201.25 -25.012  0.9237 -17.033 
  6393.000 -21.612  1.7960  2.2650  1.9040 -9.6120  1.7960  2.2650  1.9040  0.9825  6392.7  201.30 -25.020  0.9205 -17.041 
  6393.500 -22.422  1.9050  2.3560  1.9770 -10.422  1.9050  2.3560  1.9770  0.9838  6393.2  201.35 -25.028  0.9174 -17.049 
  6394.000 -23.232  1.9770  2.4460  2.0490 -11.232  1.9770  2.4460  2.0490  0.9850  6393.7  201.40 -25.036  0.9143 -17.057 
  6394.500 -24.854  2.0680  2.6630  2.1940 -12.854  2.0680  2.6630  2.1940  0.9863  6394.2  201.45 -25.044  0.9111 -17.064 
