~Version Information
VERS.                     2.0: CWLS log ASCII Standard Version 2.00
WRAP.                      NO: One line per depth step
~Well Information Block
#MNEM.UNIT                               Data Type  Information
#---------                               ---------  -----------
STRT.FT                                   350.0000:
STOP.FT                                  6830.0000:
STEP.FT                                     0.5000:
NULL.                 -999.25                     :
COMP.                                             :COMPANY            
WELL.     CCMO 78-20                              :WELL               
FLD .                                             :FIELD              
CTRY.                                             :COUNTRY            
STAT.                                             :STATE              
LOC .                                             :LOCATION           
UWI .                                             :UNIQUE WELL ID     
SRVC.                                             :Service company    
DATE.                                             :LOG DATE           
~Curve Information
#MNEM.UNIT           API CODE  Curve Description
#---------           --------  -----------------
DEPT.FT                      :   1 DEPTH
SP  .MV                      :   2
AM10.OHMM                    :   3
AO10.OHMM                    :   4
AO19.OHMM                    :   5
SBL .MV                      :   6
RS  .OHMM                    :   7
RM  .OHMM                    :   8
RD  .OHMM                    :   9
DEVI.DEG                     :  10
TVD .FT                      :  11
AZIM.DEG                     :  12
NORT.FT                      :  13
EAST.FT                      :  14
OFFS.FT                      :  15
~A
# ...
  4640.000 -51.394  10.390  7.9030  5.7610 -39.394  10.390  7.9030  5.7610  0.3000  4639.9  117.60 -11.870 -5.1685 -12.048 
  4640.500 -49.227  9.6680  7.7210  5.4350 -37.227  9.6680  7.7210  5.4350  0.2996  4640.4  116.82 -11.871 -5.1662 -12.047 
  4641.000 -47.785  8.9090  7.4310  5.1810 -35.785  8.9090  7.4310  5.1810  0.2992  4640.9  116.04 -11.872 -5.1638 -12.046 
  4641.500 -44.530  8.4400  7.1240  4.7470 -32.530  8.4400  7.1240  4.7470  0.2987  4641.4  115.26 -11.873 -5.1615 -12.045 
  4642.000 -36.570  7.8980  6.8160  4.5290 -24.570  7.8980  6.8160  4.5290  0.2983  4641.9  114.48 -11.874 -5.1591 -12.044 
  4642.500 -31.868  7.4280  6.2380  4.3480 -19.868  7.4280  6.2380  4.3480  0.2979  4642.4  113.70 -11.875 -5.1567 -12.043 
  4643.000 -28.797  6.4170  5.9120  4.1660 -16.797  6.4170  5.9120  4.1660  0.2975  4642.9  112.92 -11.876 -5.1543 -12.042 
  4643.500 -28.260  5.7300  5.7310  3.9120 -16.260  5.7300  5.7310  3.9120  0.2971  4643.4  112.14 -11.877 -5.1519 -12.041 
  4644.000 -28.085  5.0080  5.5490  3.7310 -16.085  5.0080  5.5490  3.7310  0.2967  4643.9  111.36 -11.878 -5.1495 -12.040 
  4644.500 -27.365  4.7550  5.2230  3.6570 -15.365  4.7550  5.2230  3.6570  0.2962  4644.4  110.58 -11.879 -5.1471 -12.039 
  4645.000 -25.923  4.5020  5.0420  3.6020 -13.923  4.5020  5.0420  3.6020  0.2958  4644.9  109.80 -11.880 -5.1447 -12.038 
  4645.500 -24.481  4.2660  4.9680  3.5460 -12.481  4.2660  4.9680  3.5460  0.2954  4645.4  109.02 -11.881 -5.1422 -12.037 
  4646.000 -21.952  4.0300  4.8950  3.5090 -9.9520  4.0300  4.8950  3.5090  0.2950  4645.9  108.24 -11.881 -5.1398 -12.036 
  4646.500 -20.872  3.8850  4.8760  3.5790 -8.8720  3.8850  4.8760  3.5790  0.2946  4646.4  107.46 -11.882 -5.1373 -12.035 
  4647.000 -21.240  3.7390  4.8570  3.6860 -9.2400  3.7390  4.8570  3.6860  0.2942  4646.9  106.68 -11.883 -5.1349 -12.033 
  4647.500 -22.695  3.5210  4.9640  3.8290 -10.695  3.5210  4.9640  3.8290  0.2937  4647.4  105.90 -11.884 -5.1324 -12.032 
  4648.000 -24.331  3.3400  5.0710  4.4040 -12.331  3.3400  5.0710  4.4040  0.2933  4647.9  105.12 -11.884 -5.1299 -12.031 
  4648.500 -25.967  3.4830  5.2850  4.7270 -13.967  3.4830  5.2850  4.7270  0.2929  4648.4  104.34 -11.885 -5.1275 -12.030 
  4649.000 -32.132  4.1300  5.3920  4.7980 -20.132  4.1300  5.3920  4.7980  0.2925  4648.9  103.56 -11.886 -5.1250 -12.028 
  4649.500 -33.767  4.5260  5.5350  4.8690 -21.767  4.5260  5.5350  4.8690  0.2921  4649.4  102.78 -11.886 -5.1225 -12.027 
  4650.000 -35.041  4.9930  5.6060  4.9390 -23.041  4.9930  5.6060  4.9390  0.2917  4649.9  102.00 -11.887 -5.1200 -12.026 
  4650.500 -34.504  5.5330  5.5330  4.9370 -22.504  5.5330  5.5330  4.9370  0.2912  4650.4  101.22 -11.887 -5.1175 -12.024 
  4651.000 -33.424  5.5310  5.4590  4.9360 -21.424  5.5310  5.4590  4.9360  0.2908  4650.9  100.44 -11.888 -5.1150 -12.023 
  4651.500 -33.793  5.3860  5.3860  4.9350 -21.793  5.3860  5.3860  4.9350  0.2904  4651.4  99.662 -11.888 -5.1125 -12.021 
  4652.000 -35.429  5.2400  5.4570  5.0770 -23.429  5.2400  5.4570  5.0770  0.2900  4651.9  98.882 -11.888 -5.1100 -12.020 
  4652.500 -36.521  5.1310  5.5280  5.2200 -24.521  5.1310  5.5280  5.2200  0.2896  4652.4  98.102 -11.889 -5.1075 -12.018 
  4653.000 -37.795  5.1840  5.5990  5.3630 -25.795  5.1840  5.5990  5.3630  0.2892  4652.9  97.322 -11.889 -5.1050 -12.017 
  4653.500 -39.793  5.2370  5.6700  5.6500 -27.793  5.2370  5.6700  5.6500  0.2887  4653.4  96.542 -11.889 -5.1025 -12.015 
  4654.000 -42.698  5.6320  5.8480  5.9370 -30.698  5.6320  5.8480  5.9370  0.2883  4653.9  95.762 -11.890 -5.1000 -12.014 
  4654.500 -43.248  6.2070  5.8830  5.9710 -31.248  6.2070  5.8830  5.9710  0.2879  4654.4  94.982 -11.890 -5.0975 -12.012 
  4655.000 -42.349  6.7110  5.9180  5.9700 -30.349  6.7110  5.9180  5.9700  0.2875  4654.9  94.202 -11.890 -5.0950 -12.010 
  4655.500 -41.086  6.9980  5.8440  5.8960 -29.086  6.9980  5.8440  5.8960  0.2871  4655.4  93.422 -11.890 -5.0925 -12.009 
  4656.000 -39.823  7.2130  5.7350  5.7150 -27.823  7.2130  5.7350  5.7150  0.2867  4655.9  92.642 -11.890 -5.0900 -12.007 
  4656.500 -36.391  6.7070  5.5180  5.6050 -24.391  6.7070  5.5180  5.6050  0.2862  4656.4  91.862 -11.890 -5.0875 -12.005 
  4657.000 -34.043  6.0930  5.1920  5.4780 -22.043  6.0930  5.1920  5.4780  0.2858  4656.9  91.082 -11.890 -5.0850 -12.003 
  4657.500 -32.601  5.7310  4.7940  5.3500 -20.601  5.7310  4.7940  5.3500  0.2854  4657.4  90.302 -11.890 -5.0825 -12.002 
  4658.000 -30.797  5.4060  4.5760  5.2040 -18.797  5.4060  4.5760  5.2040  0.2850  4657.9  89.522 -11.890 -5.0800 -12.000 
  4658.500 -30.079  5.0080  4.4310  5.1670 -18.079  5.0080  4.4310  5.1670  0.2846  4658.4  88.742 -11.890 -5.0776 -11.998 
  4659.000 -31.353  4.7540  4.3930  5.1300 -19.353  4.7540  4.3930  5.1300  0.2842  4658.9  87.962 -11.890 -5.0751 -11.996 
  4659.500 -34.799  4.5010  4.4820  5.0920 -22.799  4.5010  4.4820  5.0920  0.2837  4659.4  87.182 -11.890 -5.0726 -11.994 
  4660.000 -42.412  4.3550  4.5710  5.1630 -30.412  4.3550  4.5710  5.1630  0.2833  4659.9  86.402 -11.890 -5.0701 -11.993 
  4660.500 -46.402  4.5700  4.7500  5.2330 -34.402  4.5700  4.7500  5.2330  0.2829  4660.4  85.622 -11.890 -5.0677 -11.991 
  4661.000 -48.943  4.8930  4.8570  5.4840 -36.943  4.8930  4.8570  5.4840  0.2825  4660.9  84.842 -11.890 -5.0652 -11.989 
  4661.500 -51.303  5.5050  5.0720  5.5910 -39.303  5.5050  5.0720  5.5910  0.2821  4661.4  84.062 -11.889 -5.0628 -11.987 
  4662.000 -54.933  6.1160  5.3230  5.6250 -42.933  6.1160  5.3230  5.6250  0.2817  4661.9  83.282 -11.889 -5.0603 -11.985 
  4662.500 -56.569  7.1250  5.4850  5.6600 -44.569  7.1250  5.4850  5.6600  0.2812  4662.4  82.502 -11.889 -5.0579 -11.983 
  4663.000 -56.575  8.0970  5.6460  5.6940 -44.575  8.0970  5.6460  5.6940  0.2808  4662.9  81.722 -11.888 -5.0555 -11.981 
  4663.500 -56.400  8.6360  6.1130  5.6570 -44.400  8.6360  6.1130  5.6570  0.2804  4663.4  80.942 -11.888 -5.0531 -11.979 
  4664.000 -56.223  8.9600  6.2200  5.6020 -44.223  8.9600  6.2200  5.6020  0.2800  4663.9  80.162 -11.888 -5.0506 -11.977 
  4664.500 -54.059  9.2110  6.3270  5.5460 -42.059  9.2110  6.3270  5.5460  0.2796  4664.4  79.382 -11.887 -5.0482 -11.975 
  4665.000 -53.158  9.4620  6.5410  5.4360 -41.158  9.4620  6.5410  5.4360  0.2792  4664.9  78.602 -11.887 -5.0459 -11.973 
  4665.500 -48.095  9.3160  6.6120  5.2910 -36.095  9.3160  6.6120  5.2910  0.2787  4665.4  77.822 -11.886 -5.0435 -11.971 
  4666.000 -44.299  8.8460  6.5750  5.1810 -32.299  8.8460  6.5750  5.1810  0.2783  4665.9  77.042 -11.886 -5.0411 -11.969 
  4666.500 -39.778  8.3040  6.4300  4.9270 -27.778  8.3040  6.4300  4.9270  0.2779  4666.4  76.262 -11.885 -5.0388 -11.967 
  4667.000 -36.342  7.9060  5.9240  4.7460 -24.342  7.9060  5.9240  4.7460  0.2775  4666.9  75.482 -11.884 -5.0364 -11.965 
  4667.500 -28.563  7.4360  5.2370  4.6360 -16.563  7.4360  5.2370  4.6360  0.2771  4667.4  74.702 -11.884 -5.0341 -11.963 
  4668.000 -24.043  7.0030  4.5510  4.1300 -12.043  7.0030  4.5510  4.1300  0.2767  4667.9  73.922 -11.883 -5.0318 -11.961 
  4668.500 -20.245  6.4610  4.2980  3.7320 -8.2450  6.4610  4.2980  3.7320  0.2762  4668.4  73.142 -11.882 -5.0295 -11.958 
  4669.000 -18.440  5.8100  4.0440  3.4780 -6.4400  5.8100  4.0440  3.4780  0.2758  4668.9  72.362 -11.882 -5.0272 -11.956 
  4669.500 -18.447  5.2680  3.8270  3.2970 -6.4470  5.2680  3.8270  3.2970  0.2754  4669.4  71.582 -11.881 -5.0249 -11.954 
  4670.000 -18.453  4.2210  3.6090  3.4750 -6.4530  4.2210  3.6090  3.4750  0.2750  4669.9  70.802 -11.880 -5.0226 -11.952 
  4670.500 -19.002  3.3910  3.6790  3.7260 -7.0020  3.3910  3.6790  3.7260  0.2746  4670.4  70.022 -11.879 -5.0204 -11.950 
  4671.000 -22.451  3.0650  3.7860  3.8690 -10.451  3.0650  3.7860  3.8690  0.2742  4670.9  69.242 -11.878 -5.0181 -11.948 
  4671.500 -29.519  2.9920  3.8930  4.2280 -17.519  2.9920  3.8930  4.2280  0.2737  4671.4  68.462 -11.878 -5.0159 -11.946 
  4672.000 -33.327  3.0810  4.0360  4.3710 -21.327  3.0810  4.0360  4.3710  0.2733  4671.9  67.682 -11.877 -5.0137 -11.943 
