~Version Information
VERS.                     2.0: CWLS log ASCII Standard Version 2.00
WRAP.                      NO: One line per depth step
~Well Information Block
#MNEM.UNIT                               Data Type  Information
#---------                               ---------  -----------
STRT.FT                                   350.0000:
STOP.FT                                  6830.0000:
STEP.FT                                     0.5000:
NULL.                 -999.25                     :
COMP.                                             :COMPANY            
WELL.     CCMO 78-20                              :WELL               
FLD .                                             :FIELD              
CTRY.                                             :COUNTRY            
STAT.                                             :STATE              
LOC .                                             :LOCATION           
UWI .                                             :UNIQUE WELL ID     
SRVC.                                             :Service company    
DATE.                                             :LOG DATE           
~Curve Information
#MNEM.UNIT           API CODE  Curve Description
#---------           --------  -----------------
DEPT.FT                      :   1 DEPTH
SP  .MV                      :   2
AM10.OHMM                    :   3
AO10.OHMM                    :   4
AO19.OHMM                    :   5
SBL .MV                      :   6
RS  .OHMM                    :   7
RM  .OHMM                    :   8
RD  .OHMM                    :   9
DEVI.DEG                     :  10
TVD .FT                      :  11
AZIM.DEG                     :  12
NORT.FT                      :  13
EAST.FT                      :  14
OFFS.FT                      :  15
~A
# ...
  4217.500 -23.998  5.7790  5.1300  4.6610 -11.998  5.7790  5.1300  4.6610  0.3333  4217.4  118.58 -12.411 -5.6284 -12.756 
  4218.000 -19.656  5.5980  4.6610  4.4080 -7.6560  5.5980  4.6610  4.4080  0.3333  4217.9  118.42 -12.413 -5.6259 -12.755 
  4218.500 -17.124  4.6240  4.3360  4.2270 -5.1240  4.6240  4.3360  4.2270  0.3333  4218.4  118.27 -12.414 -5.6233 -12.754 
  4219.000 -16.583  2.8200  4.1910  4.1910 -4.5830  2.8200  4.1910  4.1910  0.3333  4218.9  118.11 -12.416 -5.6207 -12.754 
  4219.500 -15.680  2.6390  4.1720  4.2440 -3.6800  2.6390  4.1720  4.2440  0.3333  4219.4  117.96 -12.417 -5.6182 -12.753 
  4220.000 -15.773  2.5670  4.1540  4.2980 -3.7730  2.5670  4.1540  4.2980  0.3333  4219.9  117.80 -12.418 -5.6156 -12.752 
  4220.500 -15.865  2.5300  4.1530  4.4050 -3.8650  2.5300  4.1530  4.4050  0.3333  4220.4  117.65 -12.420 -5.6130 -12.751 
  4221.000 -16.232  2.6190  4.1520  4.4760 -4.2320  2.6190  4.1520  4.4760  0.3333  4220.9  117.49 -12.421 -5.6104 -12.750 
  4221.500 -16.686  2.7090  4.2230  4.5830 -4.6860  2.7090  4.2230  4.5830  0.3333  4221.4  117.34 -12.422 -5.6079 -12.749 
  4222.000 -17.140  2.8880  4.3130  4.7270 -5.1400  2.8880  4.3130  4.7270  0.3333  4221.9  117.18 -12.424 -5.6053 -12.748 
  4222.500 -19.499  3.1760  4.4020  5.1950 -7.4990  3.1760  4.4020  5.1950  0.3333  4222.4  117.03 -12.425 -5.6027 -12.748 
  4223.000 -20.950  3.4640  4.7260  5.4100 -8.9500  3.4640  4.7260  5.4100  0.3333  4222.9  116.87 -12.426 -5.6001 -12.747 
  4223.500 -35.621  3.7520  4.9770  5.6620 -23.621  3.7520  4.9770  5.6620  0.3333  4223.4  116.72 -12.428 -5.5975 -12.746 
  4224.000 -41.058  4.4000  5.5170  5.9860 -29.058  4.4000  5.5170  5.9860  0.3333  4223.9  116.56 -12.429 -5.5949 -12.745 
  4224.500 -44.682  4.8680  6.2730  6.1830 -32.682  4.8680  6.2730  6.1830  0.3333  4224.4  116.41 -12.430 -5.5923 -12.744 
  4225.000 -48.306  6.4530  6.7410  6.3810 -36.306  6.4530  6.7410  6.3810  0.3333  4224.9  116.25 -12.432 -5.5897 -12.743 
  4225.500 -52.111  6.8490  6.8490  6.7770 -40.111  6.8490  6.8490  6.7770  0.3333  4225.4  116.10 -12.433 -5.5871 -12.742 
  4226.000 -58.091  8.3990  7.0290  6.9930 -46.091  8.3990  7.0290  6.9930  0.3333  4225.9  115.94 -12.434 -5.5844 -12.741 
  4226.500 -60.447  9.1730  6.9920  7.0460 -48.447  9.1730  6.9920  7.0460  0.3333  4226.4  115.79 -12.435 -5.5818 -12.740 
  4227.000 -63.528  9.9480  6.8830  7.1000 -51.528  9.9480  6.8830  7.1000  0.3333  4226.9  115.63 -12.437 -5.5792 -12.739 
  4227.500 -63.893  11.461  6.7380  7.0990 -51.893  11.461  6.7380  7.0990  0.3333  4227.4  115.48 -12.438 -5.5766 -12.738 
  4228.000 -64.166  11.821  6.6290  7.0980 -52.166  11.821  6.6290  7.0980  0.3333  4227.9  115.32 -12.439 -5.5739 -12.737 
  4228.500 -64.439  11.892  6.5020  7.0970 -52.439  11.892  6.5020  7.0970  0.3333  4228.4  115.17 -12.440 -5.5713 -12.736 
  4229.000 -64.987  11.909  6.3750  7.0970 -52.987  11.909  6.3750  7.0970  0.3333  4228.9  115.01 -12.442 -5.5687 -12.735 
  4229.500 -64.990  11.927  6.3210  7.0420 -52.990  11.927  6.3210  7.0420  0.3333  4229.4  114.86 -12.443 -5.5660 -12.734 
  4230.000 -64.811  11.854  6.2660  6.9870 -52.811  11.854  6.2660  6.9870  0.3333  4229.9  114.70 -12.444 -5.5634 -12.733 
  4230.500 -64.452  11.817  6.1930  6.9500 -52.452  11.817  6.1930  6.9500  0.3333  4230.4  114.55 -12.445 -5.5608 -12.732 
  4231.000 -64.093  11.672  6.1200  6.8770 -52.093  11.672  6.1200  6.8770  0.3333  4230.9  114.39 -12.446 -5.5581 -12.731 
  4231.500 -63.009  11.599  6.0840  6.8040 -51.009  11.599  6.0840  6.8040  0.3333  4231.4  114.24 -12.448 -5.5555 -12.730 
  4232.000 -61.925  11.527  6.0470  6.7680 -49.925  11.527  6.0470  6.7680  0.3333  4231.9  114.08 -12.449 -5.5528 -12.729 
  4232.500 -60.661  11.237  6.1180  6.7310 -48.661  11.237  6.1180  6.7310  0.3333  4232.4  113.93 -12.450 -5.5501 -12.728 
  4233.000 -59.577  10.984  6.1530  6.6940 -47.577  10.984  6.1530  6.6940  0.3333  4232.9  113.77 -12.451 -5.5475 -12.727 
  4233.500 -58.493  10.695  6.3690  6.6030 -46.493  10.695  6.3690  6.6030  0.3333  4233.4  113.62 -12.452 -5.5448 -12.726 
  4234.000 -56.685  10.442  6.8010  6.5130 -44.685  10.442  6.8010  6.5130  0.3333  4233.9  113.46 -12.453 -5.5421 -12.725 
  4234.500 -55.964  9.8640  6.9800  6.4400 -43.964  9.8640  6.9800  6.4400  0.3333  4234.4  113.31 -12.455 -5.5395 -12.724 
  4235.000 -54.518  9.5030  7.1600  6.3310 -42.518  9.5030  7.1600  6.3310  0.3333  4234.9  113.15 -12.456 -5.5368 -12.723 
  4235.500 -53.613  9.1780  7.9520  6.2940 -41.613  9.1780  7.9520  6.2940  0.3333  4235.4  113.00 -12.457 -5.5341 -12.722 
  4236.000 -53.524  8.9250  8.1680  6.1850 -41.524  8.9250  8.1680  6.1850  0.3333  4235.9  112.84 -12.458 -5.5314 -12.720 
  4236.500 -53.436  8.7080  8.3830  6.0760 -41.436  8.7080  8.3830  6.0760  0.3333  4236.4  112.69 -12.459 -5.5288 -12.719 
  4237.000 -56.158  8.4910  8.7070  5.9670 -44.158  8.4910  8.7070  5.9670  0.3333  4236.9  112.53 -12.460 -5.5261 -12.718 
  4237.500 -57.428  9.0670  9.0670  6.1100 -45.428  9.0670  9.0670  6.1100  0.3333  4237.4  112.38 -12.461 -5.5234 -12.717 
  4238.000 -57.883  9.3730  9.3190  6.1460 -45.883  9.3730  9.3190  6.1460  0.3333  4237.9  112.22 -12.462 -5.5207 -12.716 
  4238.500 -58.337  9.6790  9.4980  6.2170 -46.337  9.6790  9.4980  6.2170  0.3333  4238.4  112.07 -12.464 -5.5180 -12.715 
  4239.000 -58.885  10.254  9.5690  6.2160 -46.885  10.254  9.5690  6.2160  0.3333  4238.9  111.91 -12.465 -5.5153 -12.714 
  4239.500 -59.068  10.506  9.6770  6.2160 -47.068  10.506  9.6770  6.2160  0.3333  4239.4  111.76 -12.466 -5.5126 -12.713 
  4240.000 -59.251  11.046  9.7480  6.1070 -47.251  11.046  9.7480  6.1070  0.3333  4239.9  111.60 -12.467 -5.5099 -12.711 
  4240.500 -59.163  11.226  9.7840  6.0340 -47.163  11.226  9.7840  6.0340  0.3333  4240.4  111.45 -12.468 -5.5072 -12.710 
  4241.000 -59.075  11.117  9.8190  5.9610 -47.075  11.117  9.8190  5.9610  0.3333  4240.9  111.29 -12.469 -5.5045 -12.709 
  4241.500 -58.899  10.990  9.8180  5.9970 -46.899  10.990  9.8180  5.9970  0.3333  4241.4  111.14 -12.470 -5.5018 -12.708 
  4242.000 -58.358  10.864  9.8170  6.1760 -46.358  10.864  9.8170  6.1760  0.3333  4241.9  110.98 -12.471 -5.4990 -12.707 
  4242.500 -58.088  10.862  9.7810  6.3560 -46.088  10.862  9.7810  6.3560  0.3333  4242.4  110.83 -12.472 -5.4963 -12.706 
  4243.000 -57.818  10.826  9.7440  6.4630 -45.818  10.826  9.7440  6.4630  0.3333  4242.9  110.67 -12.473 -5.4936 -12.704 
  4243.500 -55.831  10.717  9.6350  6.5350 -43.831  10.717  9.6350  6.5350  0.3333  4243.4  110.52 -12.474 -5.4909 -12.703 
  4244.000 -55.018  10.500  9.4540  6.5340 -43.018  10.500  9.4540  6.5340  0.3333  4243.9  110.36 -12.475 -5.4882 -12.702 
  4244.500 -54.205  9.7060  9.3270  6.5330 -42.205  9.7060  9.3270  6.5330  0.3333  4244.4  110.21 -12.476 -5.4854 -12.701 
  4245.000 -53.120  9.3080  9.2010  6.5150 -41.120  9.3080  9.2010  6.5150  0.3333  4244.9  110.05 -12.477 -5.4827 -12.699 
  4245.500 -52.036  8.8390  8.7670  6.4960 -40.036  8.8390  8.7670  6.4960  0.3333  4245.4  109.90 -12.478 -5.4800 -12.698 
  4246.000 -50.954  8.3700  8.4060  6.4950 -38.954  8.3700  8.4060  6.4950  0.3333  4245.9  109.74 -12.479 -5.4772 -12.697 
  4246.500 -53.132  8.8020  8.2970  6.5670 -41.132  8.8020  8.2970  6.5670  0.3333  4246.4  109.59 -12.480 -5.4745 -12.696 
  4247.000 -54.402  9.2700  8.4400  6.6380 -42.402  9.2700  8.4400  6.6380  0.3333  4246.9  109.43 -12.481 -5.4717 -12.695 
  4247.500 -56.215  9.9540  8.5840  6.7090 -44.215  9.9540  8.5840  6.7090  0.3333  4247.4  109.28 -12.482 -5.4690 -12.693 
  4248.000 -57.485  10.205  8.6910  6.8170 -45.485  10.205  8.6910  6.8170  0.3333  4247.9  109.12 -12.483 -5.4662 -12.692 
  4248.500 -58.755  10.421  8.7990  6.9240 -46.755  10.421  8.7990  6.9240  0.3333  4248.4  108.97 -12.484 -5.4635 -12.691 
  4249.000 -59.482  10.492  8.9780  7.0680 -47.482  10.492  8.9780  7.0680  0.3333  4248.9  108.81 -12.485 -5.4607 -12.689 
  4249.500 -60.209  10.528  9.0500  7.2110 -48.209  10.528  9.0500  7.2110  0.3333  4249.4  108.66 -12.486 -5.4580 -12.688 
