~Version Information
VERS.                     2.0: CWLS log ASCII Standard Version 2.00
WRAP.                      NO: One line per depth step
~Well Information Block
#MNEM.UNIT                               Data Type  Information
#---------                               ---------  -----------
STRT.FT                                   350.0000:
STOP.FT                                  6830.0000:
STEP.FT                                     0.5000:
NULL.                 -999.25                     :
COMP.                                             :COMPANY            
WELL.     CCMO 78-20                              :WELL               
FLD .                                             :FIELD              
CTRY.                                             :COUNTRY            
STAT.                                             :STATE              
LOC .                                             :LOCATION           
UWI .                                             :UNIQUE WELL ID     
SRVC.                                             :Service company    
DATE.                                             :LOG DATE           
~Curve Information
#MNEM.UNIT           API CODE  Curve Description
#---------           --------  -----------------
DEPT.FT                      :   1 DEPTH
SP  .MV                      :   2
AM10.OHMM                    :   3
AO10.OHMM                    :   4
AO19.OHMM                    :   5
SBL .MV                      :   6
RS  .OHMM                    :   7
RM  .OHMM                    :   8
RD  .OHMM                    :   9
DEVI.DEG                     :  10
TVD .FT                      :  11
AZIM.DEG                     :  12
NORT.FT                      :  13
EAST.FT                      :  14
OFFS.FT                      :  15
~A
# ...
  5485.000 -21.536  1.3980  1.8910  1.7830 -9.5360  1.3980  1.8910  1.7830  0.6458  5484.8  166.25 -18.235  0.5850 -12.480 
  5485.500 -21.900  1.3860  1.8540  1.7640 -9.9000  1.3860  1.8540  1.7640  0.6437  5485.3  166.48 -18.240  0.5864 -12.483 
  5486.000 -22.265  1.3850  1.8360  1.7460 -10.265  1.3850  1.8360  1.7460  0.6416  5485.8  166.70 -18.246  0.5876 -12.486 
  5486.500 -22.720  1.3850  1.8170  1.7330 -10.720  1.3850  1.8170  1.7330  0.6396  5486.3  166.93 -18.251  0.5889 -12.489 
  5487.000 -23.174  1.3720  1.7810  1.7210 -11.174  1.3720  1.7810  1.7210  0.6375  5486.8  167.15 -18.257  0.5901 -12.492 
  5487.500 -23.721  1.3600  1.7620  1.7080 -11.721  1.3600  1.7620  1.7080  0.6354  5487.3  167.38 -18.262  0.5914 -12.495 
  5488.000 -24.085  1.3470  1.7440  1.6890 -12.085  1.3470  1.7440  1.6890  0.6333  5487.8  167.60 -18.268  0.5925 -12.498 
  5488.500 -24.449  1.3470  1.7430  1.6710 -12.449  1.3470  1.7430  1.6710  0.6312  5488.3  167.83 -18.273  0.5937 -12.501 
  5489.000 -25.358  1.3460  1.7420  1.6520 -13.358  1.3460  1.7420  1.6520  0.6291  5488.8  168.05 -18.278  0.5948 -12.504 
  5489.500 -26.264  1.3460  1.7420  1.6340 -14.264  1.3460  1.7420  1.6340  0.6271  5489.3  168.28 -18.284  0.5960 -12.507 
  5490.000 -27.170  1.3450  1.7240  1.5970 -15.170  1.3450  1.7240  1.5970  0.6250  5489.8  168.50 -18.289  0.5970 -12.510 
  5490.500 -28.985  1.3440  1.7050  1.5600 -16.985  1.3440  1.7050  1.5600  0.6229  5490.3  168.73 -18.294  0.5981 -12.513 
  5491.000 -27.991  1.3440  1.7040  1.5420 -15.991  1.3440  1.7040  1.5420  0.6208  5490.8  168.95 -18.300  0.5991 -12.516 
  5491.500 -26.998  1.3430  1.7040  1.5230 -14.998  1.3430  1.7040  1.5230  0.6187  5491.3  169.18 -18.305  0.6002 -12.519 
  5492.000 -23.384  1.3430  1.7030  1.5050 -11.384  1.3430  1.7030  1.5050  0.6166  5491.8  169.40 -18.310  0.6011 -12.522 
  5492.500 -22.120  1.3420  1.7020  1.4860 -10.120  1.3420  1.7020  1.4860  0.6146  5492.3  169.63 -18.316  0.6021 -12.525 
  5493.000 -21.219  1.3410  1.7020  1.4860 -9.2190  1.3410  1.7020  1.4860  0.6125  5492.8  169.85 -18.321  0.6031 -12.528 
  5493.500 -20.317  1.3410  1.7020  1.4850 -8.3170  1.3410  1.7020  1.4850  0.6104  5493.3  170.08 -18.326  0.6040 -12.531 
  5494.000 -19.957  1.3400  1.7370  1.4850 -7.9570  1.3400  1.7370  1.4850  0.6083  5493.8  170.30 -18.331  0.6049 -12.534 
  5494.500 -19.597  1.3400  1.7360  1.4840 -7.5970  1.3400  1.7360  1.4840  0.6062  5494.3  170.53 -18.336  0.6057 -12.538 
  5495.000 -19.148  1.3510  1.7540  1.5190 -7.1480  1.3510  1.7540  1.5190  0.6041  5494.8  170.75 -18.342  0.6066 -12.541 
  5495.500 -18.700  1.3630  1.7720  1.5190 -6.7000  1.3630  1.7720  1.5190  0.6021  5495.3  170.98 -18.347  0.6074 -12.544 
  5496.000 -18.341  1.3750  1.8070  1.5180 -6.3410  1.3750  1.8070  1.5180  0.6000  5495.8  171.20 -18.352  0.6082 -12.547 
  5496.500 -17.981  1.4100  1.8420  1.5360 -5.9810  1.4100  1.8420  1.5360  0.5979  5496.3  171.43 -18.357  0.6090 -12.550 
  5497.000 -17.621  1.4090  1.8780  1.5540 -5.6210  1.4090  1.8780  1.5540  0.5958  5496.8  171.65 -18.362  0.6097 -12.553 
  5497.500 -17.263  1.4090  1.9140  1.5890 -5.2630  1.4090  1.9140  1.5890  0.5937  5497.3  171.88 -18.367  0.6105 -12.556 
  5498.000 -17.266  1.4260  1.9490  1.6600 -5.2660  1.4260  1.9490  1.6600  0.5916  5497.8  172.10 -18.373  0.6112 -12.559 
  5498.500 -17.631  1.4440  1.9660  1.6600 -5.6310  1.4440  1.9660  1.6600  0.5896  5498.3  172.33 -18.378  0.6119 -12.562 
  5499.000 -18.085  1.4790  1.9840  1.6600 -6.0850  1.4790  1.9840  1.6600  0.5875  5498.8  172.55 -18.383  0.6125 -12.565 
  5499.500 -18.539  1.4970  2.0190  1.6770 -6.5390  1.4970  2.0190  1.6770  0.5854  5499.3  172.78 -18.388  0.6132 -12.569 
  5500.000 -20.533  1.5140  2.0190  1.6950 -8.5330  1.5140  2.0190  1.6950  0.5833  5499.8  173.00 -18.393  0.6138 -12.572 
  5500.500 -20.897  1.5320  2.0190  1.7300 -8.8970  1.5320  2.0190  1.7300  0.5829  5500.3  172.94 -18.398  0.6144 -12.575 
  5501.000 -21.442  1.5500  2.0000  1.7470 -9.4420  1.5500  2.0000  1.7470  0.5825  5500.8  172.87 -18.403  0.6151 -12.578 
  5501.500 -21.987  1.5850  1.9820  1.7640 -9.9870  1.5850  1.9820  1.7640  0.5821  5501.3  172.81 -18.408  0.6157 -12.581 
  5502.000 -21.991  1.6030  1.9810  1.7820 -9.9910  1.6030  1.9810  1.7820  0.5816  5501.8  172.74 -18.413  0.6163 -12.584 
  5502.500 -21.812  1.6210  1.9810  1.7990 -9.8120  1.6210  1.9810  1.7990  0.5812  5502.3  172.68 -18.418  0.6170 -12.587 
  5503.000 -21.633  1.6560  1.9450  1.7980 -9.6330  1.6560  1.9450  1.7980  0.5808  5502.8  172.61 -18.423  0.6176 -12.590 
  5503.500 -21.184  1.6560  1.9440  1.8160 -9.1840  1.6560  1.9440  1.8160  0.5804  5503.3  172.55 -18.428  0.6183 -12.593 
  5504.000 -20.734  1.6740  1.9440  1.8330 -8.7340  1.6740  1.9440  1.8330  0.5800  5503.8  172.48 -18.433  0.6190 -12.597 
  5504.500 -19.834  1.6910  1.9430  1.8320 -7.8340  1.6910  1.9430  1.8320  0.5796  5504.3  172.42 -18.438  0.6196 -12.600 
  5505.000 -18.932  1.6910  1.9430  1.8310 -6.9320  1.6910  1.9430  1.8310  0.5791  5504.8  172.35 -18.443  0.6203 -12.603 
  5505.500 -18.211  1.6900  1.9430  1.8310 -6.2110  1.6900  1.9430  1.8310  0.5787  5505.3  172.29 -18.448  0.6210 -12.606 
  5506.000 -17.671  1.6900  1.9430  1.8300 -5.6710  1.6900  1.9430  1.8300  0.5783  5505.8  172.22 -18.453  0.6217 -12.609 
  5506.500 -17.402  1.6720  1.9420  1.8290 -5.4020  1.6720  1.9420  1.8290  0.5779  5506.3  172.16 -18.458  0.6223 -12.612 
  5507.000 -17.133  1.6540  1.9420  1.8290 -5.1330  1.6540  1.9420  1.8290  0.5775  5506.8  172.09 -18.463  0.6230 -12.615 
  5507.500 -17.045  1.6530  1.9410  1.8280 -5.0450  1.6530  1.9410  1.8280  0.5771  5507.3  172.03 -18.468  0.6237 -12.618 
  5508.000 -16.957  1.6530  1.9410  1.8270 -4.9570  1.6530  1.9410  1.8270  0.5766  5507.8  171.96 -18.473  0.6244 -12.621 
  5508.500 -16.781  1.6520  1.9410  1.8270 -4.7810  1.6520  1.9410  1.8270  0.5762  5508.3  171.90 -18.478  0.6251 -12.624 
  5509.000 -16.602  1.6340  1.9410  1.8260 -4.6020  1.6340  1.9410  1.8260  0.5758  5508.8  171.83 -18.483  0.6259 -12.627 
  5509.500 -16.604  1.6160  1.9400  1.8250 -4.6040  1.6160  1.9400  1.8250  0.5754  5509.3  171.77 -18.488  0.6266 -12.630 
  5510.000 -16.606  1.6150  1.9400  1.8240 -4.6060  1.6150  1.9400  1.8240  0.5750  5509.8  171.70 -18.493  0.6273 -12.633 
  5510.500 -16.790  1.6150  1.9390  1.8240 -4.7900  1.6150  1.9390  1.8240  0.5746  5510.3  171.64 -18.498  0.6280 -12.636 
  5511.000 -16.973  1.5780  1.9390  1.8050 -4.9730  1.5780  1.9390  1.8050  0.5741  5510.8  171.57 -18.503  0.6288 -12.639 
  5511.500 -17.067  1.5780  1.9380  1.7860 -5.0670  1.5780  1.9380  1.7860  0.5737  5511.3  171.51 -18.508  0.6295 -12.642 
  5512.000 -17.160  1.5780  1.9380  1.7850 -5.1600  1.5780  1.9380  1.7850  0.5733  5511.8  171.44 -18.513  0.6302 -12.645 
  5512.500 -17.163  1.5780  1.9380  1.7850 -5.1630  1.5780  1.9380  1.7850  0.5729  5512.3  171.38 -18.518  0.6310 -12.648 
  5513.000 -17.165  1.5770  1.9380  1.7840 -5.1650  1.5770  1.9380  1.7840  0.5725  5512.8  171.31 -18.523  0.6318 -12.651 
  5513.500 -17.350  1.5770  1.9370  1.7830 -5.3500  1.5770  1.9370  1.7830  0.5721  5513.3  171.25 -18.528  0.6325 -12.654 
  5514.000 -17.353  1.5760  1.9370  1.7820 -5.3530  1.5760  1.9370  1.7820  0.5716  5513.8  171.18 -18.533  0.6333 -12.657 
  5514.500 -17.356  1.5760  1.9370  1.7820 -5.3560  1.5760  1.9370  1.7820  0.5712  5514.3  171.12 -18.538  0.6340 -12.660 
  5515.000 -17.359  1.5930  1.9360  1.7810 -5.3590  1.5930  1.9360  1.7810  0.5708  5514.8  171.05 -18.542  0.6348 -12.663 
  5515.500 -17.180  1.6110  1.9360  1.7810 -5.1800  1.6110  1.9360  1.7810  0.5704  5515.3  170.99 -18.547  0.6356 -12.666 
  5516.000 -16.821  1.6110  1.9360  1.7800 -4.8210  1.6110  1.9360  1.7800  0.5700  5515.8  170.92 -18.552  0.6364 -12.668 
  5516.500 -16.462  1.6100  1.9530  1.7790 -4.4620  1.6100  1.9530  1.7790  0.5696  5516.3  170.86 -18.557  0.6372 -12.671 
  5517.000 -16.284  1.6100  1.9710  1.7780 -4.2840  1.6100  1.9710  1.7780  0.5691  5516.8  170.79 -18.562  0.6380 -12.674 
