~Version Information
VERS.                     2.0: CWLS log ASCII Standard Version 2.00
WRAP.                      NO: One line per depth step
~Well Information Block
#MNEM.UNIT                               Data Type  Information
#---------                               ---------  -----------
STRT.FT                                   350.0000:
STOP.FT                                  6830.0000:
STEP.FT                                     0.5000:
NULL.                 -999.25                     :
COMP.                                             :COMPANY            
WELL.     CCMO 78-20                              :WELL               
FLD .                                             :FIELD              
CTRY.                                             :COUNTRY            
STAT.                                             :STATE              
LOC .                                             :LOCATION           
UWI .                                             :UNIQUE WELL ID     
SRVC.                                             :Service company    
DATE.                                             :LOG DATE           
~Curve Information
#MNEM.UNIT           API CODE  Curve Description
#---------           --------  -----------------
DEPT.FT                      :   1 DEPTH
SP  .MV                      :   2
AM10.OHMM                    :   3
AO10.OHMM                    :   4
AO19.OHMM                    :   5
SBL .MV                      :   6
RS  .OHMM                    :   7
RM  .OHMM                    :   8
RD  .OHMM                    :   9
DEVI.DEG                     :  10
TVD .FT                      :  11
AZIM.DEG                     :  12
NORT.FT                      :  13
EAST.FT                      :  14
OFFS.FT                      :  15
~A
# ...
  1195.000 -47.201  4.5530  7.3460  7.5260 -19.349  4.5530  7.3460  7.5260  0.6584  1195.0  140.95 -4.2552  2.5831 -1.1823 
  1195.500 -47.833  4.5360  7.3830  7.6350 -19.984  4.5360  7.3830  7.6350  0.6592  1195.5  140.76 -4.2596  2.5867 -1.1829 
  1196.000 -48.372  4.4640  7.3830  7.7790 -20.526  4.4640  7.3830  7.7790  0.6600  1196.0  140.56 -4.2641  2.5904 -1.1835 
  1196.500 -48.550  4.5730  7.3480  7.9240 -20.707  4.5730  7.3480  7.9240  0.6609  1196.5  140.37 -4.2685  2.5941 -1.1840 
  1197.000 -48.366  4.6100  7.2760  8.0690 -20.526  4.6100  7.2760  8.0690  0.6617  1197.0  140.17 -4.2729  2.5978 -1.1845 
  1197.500 -48.183  4.7540  7.2040  8.0340 -20.346  4.7540  7.2040  8.0340  0.6625  1197.5  139.98 -4.2774  2.6015 -1.1850 
  1198.000 -47.454  4.8090  6.9530  7.9980 -19.620  4.8090  6.9530  7.9980  0.6634  1198.0  139.78 -4.2818  2.6052 -1.1855 
  1198.500 -47.362  4.8630  6.8450  7.9620 -19.531  4.8630  6.8450  7.9620  0.6642  1198.5  139.59 -4.2862  2.6090 -1.1860 
  1199.000 -47.269  4.8820  6.7020  7.9270 -19.441  4.8820  6.7020  7.9270  0.6650  1199.0  139.39 -4.2906  2.6128 -1.1864 
  1199.500 -47.084  4.9000  6.5940  7.9270 -19.260  4.9000  6.5940  7.9270  0.6659  1199.5  139.20 -4.2950  2.6166 -1.1868 
  1200.000 -47.443  4.8290  6.5950  7.9280 -19.622  4.8290  6.5950  7.9280  0.6667  1200.0  139.00 -4.2994  2.6204 -1.1873 
  1200.500 -47.802  4.8300  6.8480  8.0730 -19.984  4.8300  6.8480  8.0730  0.6667  1200.5  139.17 -4.3038  2.6242 -1.1877 
  1201.000 -48.160  4.7590  7.0290  8.2900 -20.345  4.7590  7.0290  8.2900  0.6667  1201.0  139.33 -4.3082  2.6280 -1.1881 
  1201.500 -48.700  4.8320  7.1020  8.4340 -20.888  4.8320  7.1020  8.4340  0.6667  1201.5  139.50 -4.3126  2.6317 -1.1886 
  1202.000 -48.696  4.9410  7.1030  8.2910 -20.887  4.9410  7.1030  8.2910  0.6667  1202.0  139.66 -4.3171  2.6355 -1.1890 
  1202.500 -48.330  5.0860  7.1040  8.1470 -20.524  5.0860  7.1040  8.1470  0.6667  1202.5  139.83 -4.3215  2.6393 -1.1895 
  1203.000 -48.509  5.1950  6.9600  8.0040 -20.706  5.1950  6.9600  8.0040  0.6667  1203.0  139.99 -4.3260  2.6430 -1.1900 
  1203.500 -48.687  5.1960  6.8530  7.8960 -20.887  5.1960  6.8530  7.8960  0.6667  1203.5  140.16 -4.3304  2.6467 -1.1906 
  1204.000 -49.227  5.1970  6.6380  7.7880 -21.430  5.1970  6.6380  7.7880  0.6667  1204.0  140.32 -4.3349  2.6504 -1.1911 
  1204.500 -49.585  5.1250  6.5310  7.6810 -21.791  5.1250  6.5310  7.6810  0.6667  1204.5  140.49 -4.3394  2.6542 -1.1917 
  1205.000 -49.944  5.0900  6.4960  7.7350 -22.153  5.0900  6.4960  7.7350  0.6667  1205.0  140.65 -4.3439  2.6578 -1.1922 
  1205.500 -50.302  4.9830  6.6410  7.7900 -22.514  4.9830  6.6410  7.7900  0.6667  1205.5  140.82 -4.3484  2.6615 -1.1928 
  1206.000 -50.842  4.9480  6.7490  7.8990 -23.057  4.9480  6.7490  7.8990  0.6667  1206.0  140.98 -4.3529  2.6652 -1.1934 
  1206.500 -51.019  4.9850  6.8580  8.0430 -23.237  4.9850  6.8580  8.0430  0.6667  1206.5  141.15 -4.3575  2.6688 -1.1941 
  1207.000 -51.378  5.0580  7.1480  8.0800 -23.599  5.0580  7.1480  8.0800  0.6667  1207.0  141.31 -4.3620  2.6725 -1.1947 
  1207.500 -51.284  5.2030  7.3650  8.1530 -23.508  5.2030  7.3650  8.1530  0.6667  1207.5  141.47 -4.3666  2.6761 -1.1953 
  1208.000 -51.191  5.4200  7.3660  8.0810 -23.418  5.4200  7.3660  8.0810  0.6667  1208.0  141.64 -4.3711  2.6797 -1.1960 
  1208.500 -49.918  5.5650  7.3670  8.0090 -22.148  5.5650  7.3670  8.0090  0.6667  1208.5  141.80 -4.3757  2.6833 -1.1967 
  1209.000 -48.466  5.8540  7.2590  7.6140 -20.699  5.8540  7.2590  7.6140  0.6667  1209.0  141.97 -4.3803  2.6869 -1.1974 
  1209.500 -46.107  6.1070  7.1520  7.5060 -18.343  6.1070  7.1520  7.5060  0.6667  1209.5  142.13 -4.3849  2.6905 -1.1981 
  1210.000 -42.844  6.2520  6.1080  7.2180 -15.083  6.2520  6.1080  7.2180  0.6667  1210.0  142.30 -4.3895  2.6940 -1.1989 
  1210.500 -40.667  5.6050  6.0730  7.1100 -12.909  5.6050  6.0730  7.1100  0.6667  1210.5  142.46 -4.3941  2.6976 -1.1996 
  1211.000 -40.302  5.2090  6.0380  6.8590 -12.547  5.2090  6.0380  6.8590  0.6667  1211.0  142.63 -4.3987  2.7011 -1.2004 
  1211.500 -40.118  4.9220  5.9310  6.3550 -12.366  4.9220  5.9310  6.3550  0.6667  1211.5  142.79 -4.4033  2.7046 -1.2012 
  1212.000 -39.934  4.7070  5.8600  6.2110 -12.185  4.7070  5.8600  6.2110  0.6667  1212.0  142.96 -4.4080  2.7081 -1.2020 
  1212.500 -39.566  4.4550  5.8240  6.1400 -11.820  4.4550  5.8240  6.1400  0.6667  1212.5  143.12 -4.4126  2.7116 -1.2028 
  1213.000 -39.382  4.3840  5.8250  6.0680 -11.640  4.3840  5.8250  6.0680  0.6667  1213.0  143.29 -4.4173  2.7151 -1.2037 
  1213.500 -39.016  4.3130  5.8260  5.9960 -11.277  4.3130  5.8260  5.9960  0.6667  1213.5  143.45 -4.4220  2.7185 -1.2045 
  1214.000 -39.012  4.2060  5.7910  5.9250 -11.276  4.2060  5.7910  5.9250  0.6667  1214.0  143.62 -4.4267  2.7220 -1.2054 
  1214.500 -38.828  4.1340  5.7200  5.8530 -11.095  4.1340  5.7200  5.8530  0.6667  1214.5  143.78 -4.4314  2.7254 -1.2063 
  1215.000 -38.824  4.0810  5.6490  5.7820 -11.094  4.0810  5.6490  5.7820  0.6667  1215.0  143.95 -4.4361  2.7289 -1.2072 
  1215.500 -39.001  4.0280  5.5780  5.6750 -11.274  4.0280  5.5780  5.6750  0.6667  1215.5  144.11 -4.4408  2.7323 -1.2081 
  1216.000 -39.360  3.9390  5.5060  5.6390 -11.636  3.9390  5.5060  5.6390  0.6667  1216.0  144.28 -4.4455  2.7357 -1.2090 
  1216.500 -40.081  3.8490  5.5790  5.8200 -12.360  3.8490  5.5790  5.8200  0.6667  1216.5  144.44 -4.4502  2.7390 -1.2100 
  1217.000 -41.163  3.7070  5.6880  6.0360 -13.445  3.7070  5.6880  6.0360  0.6667  1217.0  144.61 -4.4550  2.7424 -1.2110 
  1217.500 -41.703  4.3920  5.8330  6.2890 -13.988  4.3920  5.8330  6.2890  0.6667  1217.5  144.77 -4.4597  2.7458 -1.2120 
  1218.000 -43.148  4.8610  6.0870  6.3440 -15.436  4.8610  6.0870  6.3440  0.6667  1218.0  144.94 -4.4645  2.7491 -1.2130 
  1218.500 -44.050  5.2230  6.2320  6.3980 -16.341  5.2230  6.2320  6.3980  0.6667  1218.5  145.10 -4.4693  2.7524 -1.2140 
  1219.000 -44.589  5.4760  6.3400  6.4710 -16.883  5.4760  6.3400  6.4710  0.6667  1219.0  145.27 -4.4740  2.7558 -1.2150 
  1219.500 -45.129  5.6570  6.4490  6.5080 -17.426  5.6570  6.4490  6.5080  0.6667  1219.5  145.43 -4.4788  2.7591 -1.2161 
  1220.000 -45.307  5.8020  6.5950  6.5620 -17.607  5.8020  6.5950  6.5620  0.6667  1220.0  145.60 -4.4836  2.7623 -1.2171 
  1220.500 -45.485  5.8390  6.7040  6.6160 -17.788  5.8390  6.7040  6.6160  0.6667  1220.5  145.76 -4.4885  2.7656 -1.2182 
  1221.000 -45.844  5.6950  6.7040  6.7250 -18.150  5.6950  6.7040  6.7250  0.6667  1221.0  145.93 -4.4933  2.7689 -1.2193 
  1221.500 -46.564  5.6600  6.7050  6.9790 -18.873  5.6600  6.7050  6.9790  0.6667  1221.5  146.09 -4.4981  2.7721 -1.2205 
  1222.000 -47.104  5.6250  6.7060  7.1230 -19.416  5.6250  6.7060  7.1230  0.6667  1222.0  146.26 -4.5029  2.7754 -1.2216 
  1222.500 -48.006  5.5900  6.7790  7.2320 -20.321  5.5900  6.7790  7.2320  0.6667  1222.5  146.42 -4.5078  2.7786 -1.2227 
  1223.000 -49.451  5.5550  7.1410  7.3400 -21.769  5.5550  7.1410  7.3400  0.6667  1223.0  146.59 -4.5126  2.7818 -1.2239 
  1223.500 -51.982  5.7360  7.3940  7.7370 -24.303  5.7360  7.3940  7.7370  0.6667  1223.5  146.75 -4.5175  2.7850 -1.2251 
  1224.000 -54.151  6.0250  7.5570  8.1340 -26.475  6.0250  7.5570  8.1340  0.6667  1224.0  146.92 -4.5224  2.7881 -1.2263 
  1224.500 -56.321  6.4590  7.7200  8.5310 -28.648  6.4590  7.7200  8.5310  0.6667  1224.5  147.08 -4.5273  2.7913 -1.2275 
  1225.000 -57.947  7.2530  7.9370  8.7840 -30.277  7.2530  7.9370  8.7840  0.6667  1225.0  147.25 -4.5322  2.7944 -1.2287 
  1225.500 -58.848  7.6500  8.0820  8.9650 -31.181  7.6500  8.0820  8.9650  0.6667  1225.5  147.41 -4.5371  2.7976 -1.2300 
  1226.000 -59.931  8.2990  8.2270  9.3250 -32.267  8.2990  8.2270  9.3250  0.6667  1226.0  147.58 -4.5420  2.8007 -1.2313 
  1226.500 -61.376  8.6970  8.5160  9.5780 -33.716  8.6970  8.5160  9.5780  0.6667  1226.5  147.74 -4.5469  2.8038 -1.2325 
  1227.000 -62.007  8.9140  8.7330  9.9390 -34.350  8.9140  8.7330  9.9390  0.6667  1227.0  147.91 -4.5518  2.8069 -1.2338 
