~Version Information
VERS.                     2.0: CWLS log ASCII Standard Version 2.00
WRAP.                      NO: One line per depth step
~Well Information Block
#MNEM.UNIT                               Data Type  Information
#---------                               ---------  -----------
STRT.FT                                   350.0000:
STOP.FT                                  6830.0000:
STEP.FT                                     0.5000:
NULL.                 -999.25                     :
COMP.                                             :COMPANY            
WELL.     CCMO 78-20                              :WELL               
FLD .                                             :FIELD              
CTRY.                                             :COUNTRY            
STAT.                                             :STATE              
LOC .                                             :LOCATION           
UWI .                                             :UNIQUE WELL ID     
SRVC.                                             :Service company    
DATE.                                             :LOG DATE           
~Curve Information
#MNEM.UNIT           API CODE  Curve Description
#---------           --------  -----------------
DEPT.FT                      :   1 DEPTH
SP  .MV                      :   2
AM10.OHMM                    :   3
AO10.OHMM                    :   4
AO19.OHMM                    :   5
SBL .MV                      :   6
RS  .OHMM                    :   7
RM  .OHMM                    :   8
RD  .OHMM                    :   9
DEVI.DEG                     :  10
TVD .FT                      :  11
AZIM.DEG                     :  12
NORT.FT                      :  13
EAST.FT                      :  14
OFFS.FT                      :  15
~A
# ...
   772.500 -43.426  3.3350  4.3790  5.3150 -13.008  3.3350  4.3790  5.3150  0.4771  772.48  163.05 -1.2048  0.9587 -0.1740 
   773.000 -43.967  3.2460  4.3790  5.3870 -13.552  3.2460  4.3790  5.3870  0.4775  772.98  162.74 -1.2088  0.9599 -0.1760 
   773.500 -44.870  3.1560  4.4520  5.6040 -14.458  3.1560  4.4520  5.6040  0.4779  773.48  162.43 -1.2128  0.9612 -0.1779 
   774.000 -45.410  3.0850  4.5960  5.8200 -15.001  3.0850  4.5960  5.8200  0.4783  773.98  162.12 -1.2168  0.9625 -0.1798 
   774.500 -45.951  3.1930  4.9210  5.9280 -15.545  3.1930  4.9210  5.9280  0.4788  774.48  161.81 -1.2207  0.9638 -0.1817 
   775.000 -47.216  3.3020  5.2810  6.3610 -16.813  3.3020  5.2810  6.3610  0.4792  774.98  161.50 -1.2247  0.9651 -0.1836 
   775.500 -48.119  3.5540  5.7500  6.8650 -17.719  3.5540  5.7500  6.8650  0.4796  775.48  161.19 -1.2287  0.9665 -0.1854 
   776.000 -49.383  3.8790  6.0020  7.1180 -18.986  3.8790  6.0020  7.1180  0.4800  775.98  160.88 -1.2326  0.9678 -0.1872 
   776.500 -50.828  4.0950  6.2540  7.4060 -20.434  4.0950  6.2540  7.4060  0.4804  776.48  160.57 -1.2366  0.9692 -0.1890 
   777.000 -51.912  4.6000  6.2910  7.4430 -21.521  4.6000  6.2910  7.4430  0.4808  776.98  160.26 -1.2405  0.9706 -0.1908 
   777.500 -52.815  5.2480  6.3270  7.5150 -22.428  5.2480  6.3270  7.5150  0.4813  777.48  159.95 -1.2445  0.9721 -0.1926 
   778.000 -52.994  5.4460  6.3280  7.4620 -22.610  5.4460  6.3280  7.4620  0.4817  777.98  159.64 -1.2484  0.9735 -0.1944 
   778.500 -52.087  5.6450  6.2930  7.4080 -21.706  5.6450  6.2930  7.4080  0.4821  778.48  159.33 -1.2523  0.9750 -0.1961 
   779.000 -51.543  5.8970  6.2570  7.1210 -21.165  5.8970  6.2570  7.1210  0.4825  778.98  159.02 -1.2563  0.9765 -0.1978 
   779.500 -50.999  6.0060  6.1860  6.9410 -20.624  6.0060  6.1860  6.9410  0.4829  779.48  158.71 -1.2602  0.9781 -0.1995 
   780.000 -50.002  6.0060  6.1140  6.7620 -19.630  6.0060  6.1140  6.7620  0.4833  779.98  158.40 -1.2641  0.9796 -0.2012 
   780.500 -49.006  5.8270  5.8990  6.5470 -18.637  5.8270  5.8990  6.5470  0.4838  780.48  158.09 -1.2680  0.9812 -0.2028 
   781.000 -47.375  5.6120  5.7200  6.3310 -17.009  5.6120  5.7200  6.3310  0.4842  780.98  157.78 -1.2719  0.9828 -0.2045 
   781.500 -47.554  5.2520  5.4680  6.0080 -17.191  5.2520  5.4680  6.0080  0.4846  781.48  157.47 -1.2759  0.9844 -0.2061 
   782.000 -48.276  4.9650  5.2890  5.9370 -17.916  4.9650  5.2890  5.9370  0.4850  781.98  157.16 -1.2798  0.9860 -0.2077 
   782.500 -47.731  4.7670  5.1090  5.8650 -17.374  4.7670  5.1090  5.8650  0.4854  782.48  156.85 -1.2836  0.9877 -0.2093 
   783.000 -47.368  4.5700  4.9660  5.7940 -17.014  4.5700  4.9660  5.7940  0.4858  782.98  156.54 -1.2875  0.9894 -0.2108 
   783.500 -47.457  4.3190  4.8940  5.9020 -17.106  4.3190  4.8940  5.9020  0.4863  783.48  156.23 -1.2914  0.9911 -0.2123 
   784.000 -47.546  4.1750  4.8950  6.0470 -17.198  4.1750  4.8950  6.0470  0.4867  783.98  155.92 -1.2953  0.9928 -0.2139 
   784.500 -48.629  4.2120  4.9680  6.1550 -18.284  4.2120  4.9680  6.1550  0.4871  784.48  155.61 -1.2992  0.9946 -0.2154 
   785.000 -49.079  4.4280  5.1120  5.9760 -18.737  4.4280  5.1120  5.9760  0.4875  784.98  155.30 -1.3030  0.9964 -0.2168 
   785.500 -49.530  4.5370  5.2570  5.8680 -19.191  4.5370  5.2570  5.8680  0.4879  785.48  154.99 -1.3069  0.9982 -0.2183 
   786.000 -49.528  4.6450  5.2570  5.7610 -19.192  4.6450  5.2570  5.7610  0.4883  785.98  154.68 -1.3107  1.0000 -0.2197 
   786.500 -49.527  4.7180  5.2580  5.6530 -19.194  4.7180  5.2580  5.6530  0.4888  786.48  154.37 -1.3146  1.0018 -0.2211 
   787.000 -49.344  4.7540  5.2760  5.6000 -19.014  4.7540  5.2760  5.6000  0.4892  786.98  154.06 -1.3184  1.0037 -0.2225 
   787.500 -49.161  4.6470  5.2950  5.5470 -18.834  4.6470  5.2950  5.5470  0.4896  787.48  153.75 -1.3223  1.0056 -0.2239 
   788.000 -48.797  4.6110  5.4390  5.4390 -18.473  4.6110  5.4390  5.4390  0.4900  787.98  153.44 -1.3261  1.0075 -0.2253 
   788.500 -48.433  4.5400  5.6560  5.5120 -18.112  4.5400  5.6560  5.5120  0.4904  788.48  153.13 -1.3299  1.0094 -0.2266 
   789.000 -48.250  4.4690  5.8000  5.5840 -17.932  4.4690  5.8000  5.5840  0.4908  788.98  152.82 -1.3337  1.0114 -0.2279 
   789.500 -48.068  4.4330  6.0530  5.6930 -17.753  4.4330  6.0530  5.6930  0.4913  789.48  152.51 -1.3375  1.0134 -0.2292 
   790.000 -48.609  4.3980  6.0890  5.7650 -18.297  4.3980  6.0890  5.7650  0.4917  789.98  152.20 -1.3413  1.0154 -0.2305 
   790.500 -49.330  4.4340  6.0900  5.8020 -19.021  4.4340  6.0900  5.8020  0.4921  790.48  151.89 -1.3451  1.0174 -0.2317 
   791.000 -50.052  4.5430  6.0540  5.7660 -19.747  4.5430  6.0540  5.7660  0.4925  790.98  151.58 -1.3489  1.0195 -0.2329 
   791.500 -50.774  4.6510  5.9470  5.6230 -20.472  4.6510  5.9470  5.6230  0.4929  791.48  151.27 -1.3527  1.0215 -0.2341 
   792.000 -50.772  4.7240  5.8570  5.3720 -20.473  4.7240  5.8570  5.3720  0.4933  791.98  150.96 -1.3564  1.0236 -0.2353 
   792.500 -50.409  4.7240  5.7680  5.0120 -20.113  4.7240  5.7680  5.0120  0.4938  792.48  150.65 -1.3602  1.0257 -0.2365 
   793.000 -50.046  4.4010  5.5530  4.7610 -19.753  4.4010  5.5530  4.7610  0.4942  792.98  150.34 -1.3639  1.0279 -0.2376 
   793.500 -48.958  4.2220  5.3370  4.5810 -18.668  4.2220  5.3370  4.5810  0.4946  793.48  150.03 -1.3677  1.0300 -0.2388 
   794.000 -48.232  4.0780  5.0500  4.3660 -17.945  4.0780  5.0500  4.3660  0.4950  793.98  149.72 -1.3714  1.0322 -0.2398 
   794.500 -47.507  3.9350  4.9780  4.3310 -17.223  3.9350  4.9780  4.3310  0.4954  794.48  149.41 -1.3751  1.0344 -0.2409 
   795.000 -47.143  3.6830  4.9070  4.3310 -16.862  3.6830  4.9070  4.3310  0.4958  794.98  149.10 -1.3788  1.0366 -0.2420 
   795.500 -46.418  3.6120  4.7630  4.3320 -16.140  3.6120  4.7630  4.3320  0.4963  795.48  148.79 -1.3825  1.0389 -0.2430 
   796.000 -45.692  3.5580  4.7280  4.4040 -15.417  3.5580  4.7280  4.4040  0.4967  795.98  148.48 -1.3862  1.0411 -0.2440 
   796.500 -44.786  3.5050  4.7650  4.4770 -14.514  3.5050  4.7650  4.4770  0.4971  796.48  148.17 -1.3899  1.0434 -0.2450 
   797.000 -43.518  3.4700  4.8010  4.5850 -13.249  3.4700  4.8010  4.5850  0.4975  796.98  147.86 -1.3936  1.0457 -0.2460 
   797.500 -43.697  3.4700  4.8020  4.7300 -13.431  3.4700  4.8020  4.7300  0.4979  797.48  147.55 -1.3972  1.0481 -0.2469 
   798.000 -44.238  3.4710  4.8020  4.8020 -13.975  3.4710  4.8020  4.8020  0.4983  797.98  147.24 -1.4009  1.0504 -0.2478 
   798.500 -44.598  3.5430  4.8030  4.9470 -14.338  3.5430  4.8030  4.9470  0.4988  798.48  146.93 -1.4046  1.0528 -0.2487 
   799.000 -45.682  3.5440  4.8750  5.0010 -15.425  3.5440  4.8750  5.0010  0.4992  798.98  146.62 -1.4082  1.0552 -0.2496 
   799.500 -46.584  3.5800  4.9840  5.0560 -16.330  3.5800  4.9840  5.0560  0.4996  799.48  146.31 -1.4118  1.0576 -0.2505 
   800.000 -47.306  3.7250  4.9840  5.0560 -17.055  3.7250  4.9840  5.0560  0.5000  799.98  146.00 -1.4154  1.0600 -0.2513 
   800.500 -45.676  3.8330  4.9850  4.8770 -15.428  3.8330  4.9850  4.8770  0.5004  800.48  146.05 -1.4191  1.0625 -0.2521 
   801.000 -44.408  3.9420  4.9490  4.7330 -14.163  3.9420  4.9490  4.7330  0.5008  800.98  146.09 -1.4227  1.0649 -0.2530 
   801.500 -43.683  3.7980  4.8780  4.5540 -13.441  3.7980  4.8780  4.5540  0.5013  801.48  146.14 -1.4263  1.0673 -0.2538 
   802.000 -42.053  3.7450  4.7350  4.4470 -11.814  3.7450  4.7350  4.4470  0.5017  801.98  146.18 -1.4300  1.0698 -0.2547 
   802.500 -41.146  3.6910  4.6630  4.3390 -10.910  3.6910  4.6630  4.3390  0.5021  802.48  146.23 -1.4336  1.0722 -0.2555 
   803.000 -40.421  3.4760  4.5920  4.5560 -10.188  3.4760  4.5920  4.5560  0.5025  802.98  146.27 -1.4372  1.0747 -0.2564 
   803.500 -40.238  3.3690  4.4840  4.8080 -10.008  3.3690  4.4840  4.8080  0.5029  803.48  146.32 -1.4409  1.0771 -0.2572 
   804.000 -40.508  3.4230  4.4490  4.9530 -10.281  3.4230  4.4490  4.9530  0.5033  803.98  146.36 -1.4446  1.0795 -0.2581 
   804.500 -40.778  3.4780  4.4850  5.2050 -10.554  3.4780  4.4850  5.2050  0.5038  804.48  146.41 -1.4482  1.0820 -0.2590 
