~Version Information
VERS.                     2.0: CWLS log ASCII Standard Version 2.00
WRAP.                      NO: One line per depth step
~Well Information Block
#MNEM.UNIT                               Data Type  Information
#---------                               ---------  -----------
STRT.FT                                   350.0000:
STOP.FT                                  6830.0000:
STEP.FT                                     0.5000:
NULL.                 -999.25                     :
COMP.                                             :COMPANY            
WELL.     CCMO 78-20                              :WELL               
FLD .                                             :FIELD              
CTRY.                                             :COUNTRY            
STAT.                                             :STATE              
LOC .                                             :LOCATION           
UWI .                                             :UNIQUE WELL ID     
SRVC.                                             :Service company    
DATE.                                             :LOG DATE           
~Curve Information
#MNEM.UNIT           API CODE  Curve Description
#---------           --------  -----------------
DEPT.FT                      :   1 DEPTH
SP  .MV                      :   2
AM10.OHMM                    :   3
AO10.OHMM                    :   4
AO19.OHMM                    :   5
SBL .MV                      :   6
RS  .OHMM                    :   7
RM  .OHMM                    :   8
RD  .OHMM                    :   9
DEVI.DEG                     :  10
TVD .FT                      :  11
AZIM.DEG                     :  12
NORT.FT                      :  13
EAST.FT                      :  14
OFFS.FT                      :  15
~A
# ...
  5940.000 -19.519  1.6410  2.0010  1.6150 -7.5190  1.6410  2.0010  1.6150  0.3668  5939.8  199.60 -21.094  2.6058 -13.073 
  5940.500 -20.065  1.6220  2.0180  1.6500 -8.0650  1.6220  2.0180  1.6500  0.3651  5940.3  200.37 -21.097  2.6047 -13.076 
  5941.000 -19.978  1.6030  2.0540  1.6500 -7.9780  1.6030  2.0540  1.6500  0.3635  5940.8  201.14 -21.100  2.6036 -13.079 
  5941.500 -19.890  1.5850  2.0900  1.6680 -7.8900  1.5850  2.0900  1.6680  0.3618  5941.3  201.91 -21.103  2.6024 -13.082 
  5942.000 -19.532  1.5840  2.0890  1.6850 -7.5320  1.5840  2.0890  1.6850  0.3601  5941.8  202.68 -21.105  2.6012 -13.084 
  5942.500 -19.173  1.5840  2.0890  1.7090 -7.1730  1.5840  2.0890  1.7090  0.3585  5942.3  203.45 -21.108  2.5999 -13.087 
  5943.000 -18.724  1.5840  2.1240  1.7320 -6.7240  1.5840  2.1240  1.7320  0.3568  5942.8  204.22 -21.111  2.5987 -13.090 
  5943.500 -18.275  1.5830  2.1240  1.7560 -6.2750  1.5830  2.1240  1.7560  0.3551  5943.3  204.99 -21.114  2.5974 -13.093 
  5944.000 -18.459  1.5830  2.1240  1.7550 -6.4590  1.5830  2.1240  1.7550  0.3535  5943.8  205.76 -21.117  2.5960 -13.096 
  5944.500 -18.643  1.5820  2.1230  1.7720 -6.6430  1.5820  2.1230  1.7720  0.3518  5944.3  206.53 -21.119  2.5946 -13.099 
  5945.000 -19.191  1.5820  2.1230  1.7900 -7.1910  1.5820  2.1230  1.7900  0.3502  5944.8  207.30 -21.122  2.5932 -13.102 
  5945.500 -19.013  1.5820  2.1220  1.8250 -7.0130  1.5820  2.1220  1.8250  0.3485  5945.3  208.07 -21.125  2.5918 -13.105 
  5946.000 -18.835  1.6530  2.1220  1.8250 -6.8350  1.6530  2.1220  1.8250  0.3468  5945.8  208.84 -21.128  2.5903 -13.108 
  5946.500 -18.476  1.6890  2.1210  1.8250 -6.4760  1.6890  2.1210  1.8250  0.3452  5946.3  209.61 -21.130  2.5889 -13.111 
  5947.000 -18.841  1.6880  2.1210  1.8420 -6.8410  1.6880  2.1210  1.8420  0.3435  5946.8  210.38 -21.133  2.5873 -13.114 
  5947.500 -19.568  1.7240  2.1200  1.8590 -7.5680  1.7240  2.1200  1.8590  0.3418  5947.3  211.15 -21.135  2.5858 -13.116 
  5948.000 -19.752  1.7230  2.1200  1.8590 -7.7520  1.7230  2.1200  1.8590  0.3402  5947.8  211.92 -21.138  2.5842 -13.119 
  5948.500 -19.575  1.7230  2.1190  1.8580 -7.5750  1.7230  2.1190  1.8580  0.3385  5948.3  212.69 -21.140  2.5826 -13.122 
  5949.000 -19.397  1.7230  2.1190  1.8580 -7.3970  1.7230  2.1190  1.8580  0.3368  5948.8  213.46 -21.143  2.5810 -13.125 
  5949.500 -19.038  1.7400  2.1190  1.8570 -7.0380  1.7400  2.1190  1.8570  0.3352  5949.3  214.23 -21.145  2.5794 -13.128 
  5950.000 -19.222  1.7580  2.1180  1.8570 -7.2220  1.7580  2.1180  1.8570  0.3335  5949.8  215.00 -21.148  2.5777 -13.131 
  5950.500 -19.587  1.7930  2.1180  1.8560 -7.5870  1.7930  2.1180  1.8560  0.3318  5950.3  215.77 -21.150  2.5760 -13.134 
  5951.000 -19.861  1.7920  2.1170  1.8380 -7.8610  1.7920  2.1170  1.8380  0.3302  5950.8  216.54 -21.152  2.5743 -13.137 
  5951.500 -20.135  1.8100  2.1160  1.8190 -8.1350  1.8100  2.1160  1.8190  0.3285  5951.3  217.31 -21.154  2.5726 -13.139 
  5952.000 -20.772  1.8280  2.1340  1.8180 -8.7720  1.8280  2.1340  1.8180  0.3268  5951.8  218.08 -21.157  2.5708 -13.142 
  5952.500 -21.409  1.8270  2.1520  1.8180 -9.4090  1.8270  2.1520  1.8180  0.3252  5952.3  218.85 -21.159  2.5690 -13.145 
  5953.000 -21.955  1.8630  2.1870  1.8180 -9.9550  1.8630  2.1870  1.8180  0.3235  5952.8  219.62 -21.161  2.5672 -13.148 
  5953.500 -22.320  1.8980  2.1870  1.7810 -10.320  1.8980  2.1870  1.7810  0.3218  5953.3  220.39 -21.163  2.5654 -13.151 
  5954.000 -23.046  1.9340  2.2220  1.7620 -11.046  1.9340  2.2220  1.7620  0.3202  5953.8  221.16 -21.165  2.5636 -13.153 
  5954.500 -23.592  1.9520  2.2220  1.7440 -11.592  1.9520  2.2220  1.7440  0.3185  5954.3  221.93 -21.167  2.5617 -13.156 
  5955.000 -23.595  1.9690  2.2220  1.7310 -11.595  1.9690  2.2220  1.7310  0.3169  5954.8  222.70 -21.169  2.5598 -13.159 
  5955.500 -23.779  1.9690  2.2210  1.7190 -11.779  1.9690  2.2210  1.7190  0.3152  5955.3  223.47 -21.171  2.5579 -13.162 
  5956.000 -23.962  1.9680  2.2210  1.7060 -11.962  1.9680  2.2210  1.7060  0.3135  5955.8  224.24 -21.173  2.5560 -13.164 
  5956.500 -23.784  1.9680  2.2200  1.6880 -11.784  1.9680  2.2200  1.6880  0.3119  5956.3  225.01 -21.175  2.5541 -13.167 
  5957.000 -23.607  1.9680  2.2200  1.6690 -11.607  1.9680  2.2200  1.6690  0.3102  5956.8  225.78 -21.177  2.5522 -13.170 
  5957.500 -23.069  1.8950  2.1650  1.6500 -11.069  1.8950  2.1650  1.6500  0.3085  5957.3  226.55 -21.179  2.5502 -13.173 
  5958.000 -22.710  1.8220  2.1110  1.6320 -10.710  1.8220  2.1110  1.6320  0.3069  5957.8  227.32 -21.181  2.5482 -13.175 
  5958.500 -22.170  1.7860  2.0020  1.6190 -10.170  1.7860  2.0020  1.6190  0.3052  5958.3  228.09 -21.183  2.5463 -13.178 
  5959.000 -21.993  1.7500  2.0020  1.6070 -9.9930  1.7500  2.0020  1.6070  0.3035  5958.8  228.86 -21.184  2.5443 -13.181 
  5959.500 -21.814  1.7130  2.0020  1.5940 -9.8140  1.7130  2.0020  1.5940  0.3019  5959.3  229.63 -21.186  2.5423 -13.183 
  5960.000 -21.636  1.6770  2.0010  1.5760 -9.6360  1.6770  2.0010  1.5760  0.3002  5959.8  230.40 -21.188  2.5402 -13.186 
  5960.500 -21.277  1.6760  2.0010  1.5570 -9.2770  1.6760  2.0010  1.5570  0.2985  5960.3  231.17 -21.189  2.5382 -13.188 
  5961.000 -20.919  1.6760  2.0000  1.5560 -8.9190  1.6760  2.0000  1.5560  0.2969  5960.8  231.94 -21.191  2.5362 -13.191 
  5961.500 -21.104  1.6750  2.0000  1.5560 -9.1040  1.6750  2.0000  1.5560  0.2952  5961.3  232.71 -21.193  2.5341 -13.194 
  5962.000 -21.288  1.6750  1.9990  1.5550 -9.2880  1.6750  1.9990  1.5550  0.2935  5961.8  233.48 -21.194  2.5321 -13.196 
  5962.500 -21.472  1.6740  1.9990  1.5550 -9.4720  1.6740  1.9990  1.5550  0.2919  5962.3  234.25 -21.196  2.5300 -13.199 
  5963.000 -21.837  1.6740  1.9980  1.5540 -9.8370  1.6740  1.9980  1.5540  0.2902  5962.8  235.02 -21.197  2.5279 -13.201 
  5963.500 -22.201  1.7450  1.9980  1.5720 -10.201  1.7450  1.9980  1.5720  0.2885  5963.3  235.79 -21.198  2.5258 -13.204 
  5964.000 -22.929  1.7630  1.9970  1.5890 -10.929  1.7630  1.9970  1.5890  0.2869  5963.8  236.56 -21.200  2.5237 -13.206 
  5964.500 -22.932  1.7800  2.0150  1.6070 -10.932  1.7800  2.0150  1.6070  0.2852  5964.3  237.33 -21.201  2.5216 -13.208 
  5965.000 -22.482  1.8160  2.0320  1.6240 -10.482  1.8160  2.0320  1.6240  0.2836  5964.8  238.10 -21.202  2.5195 -13.211 
  5965.500 -22.033  1.8520  2.0500  1.6600 -10.033  1.8520  2.0500  1.6600  0.2819  5965.3  238.87 -21.204  2.5174 -13.213 
  5966.000 -21.314  1.8870  2.0680  1.6770 -9.3140  1.8870  2.0680  1.6770  0.2802  5965.8  239.64 -21.205  2.5153 -13.216 
  5966.500 -20.955  1.8870  2.0850  1.6950 -8.9550  1.8870  2.0850  1.6950  0.2786  5966.3  240.41 -21.206  2.5132 -13.218 
  5967.000 -20.416  1.8870  2.1030  1.7660 -8.4160  1.8870  2.1030  1.7660  0.2769  5966.8  241.18 -21.207  2.5111 -13.220 
  5967.500 -19.876  1.8860  2.1020  1.7660 -7.8760  1.8860  2.1020  1.7660  0.2752  5967.3  241.95 -21.208  2.5090 -13.223 
  5968.000 -19.517  1.8500  2.1380  1.7650 -7.5170  1.8500  2.1380  1.7650  0.2736  5967.8  242.72 -21.210  2.5069 -13.225 
  5968.500 -18.978  1.8130  2.1370  1.7830 -6.9780  1.8130  2.1370  1.7830  0.2719  5968.3  243.49 -21.211  2.5047 -13.227 
  5969.000 -18.800  1.7400  2.1370  1.8000 -6.8000  1.7400  2.1370  1.8000  0.2702  5968.8  244.26 -21.212  2.5026 -13.229 
  5969.500 -18.442  1.7040  2.1550  1.8180 -6.4420  1.7040  2.1550  1.8180  0.2686  5969.3  245.03 -21.213  2.5005 -13.232 
  5970.000 -18.264  1.6670  2.1720  1.8350 -6.2640  1.6670  2.1720  1.8350  0.2669  5969.8  245.80 -21.214  2.4984 -13.234 
  5970.500 -18.267  1.6310  2.1540  1.8340 -6.2670  1.6310  2.1540  1.8340  0.2652  5970.3  246.57 -21.215  2.4962 -13.236 
  5971.000 -18.270  1.5940  2.1350  1.8340 -6.2700  1.5940  2.1350  1.8340  0.2636  5970.8  247.34 -21.215  2.4941 -13.238 
  5971.500 -18.273  1.5940  2.1350  1.8340 -6.2730  1.5940  2.1350  1.8340  0.2619  5971.3  248.11 -21.216  2.4920 -13.240 
  5972.000 -18.277  1.6110  2.1340  1.8330 -6.2770  1.6110  2.1340  1.8330  0.2602  5971.8  248.88 -21.217  2.4899 -13.242 
