~Version Information
VERS.                     2.0: CWLS log ASCII Standard Version 2.00
WRAP.                      NO: One line per depth step
~Well Information Block
#MNEM.UNIT                               Data Type  Information
#---------                               ---------  -----------
STRT.FT                                   350.0000:
STOP.FT                                  6830.0000:
STEP.FT                                     0.5000:
NULL.                 -999.25                     :
COMP.                                             :COMPANY            
WELL.     CCMO 78-20                              :WELL               
FLD .                                             :FIELD              
CTRY.                                             :COUNTRY            
STAT.                                             :STATE              
LOC .                                             :LOCATION           
UWI .                                             :UNIQUE WELL ID     
SRVC.                                             :Service company    
DATE.                                             :LOG DATE           
~Curve Information
#MNEM.UNIT           API CODE  Curve Description
#---------           --------  -----------------
DEPT.FT                      :   1 DEPTH
SP  .MV                      :   2
AM10.OHMM                    :   3
AO10.OHMM                    :   4
AO19.OHMM                    :   5
SBL .MV                      :   6
RS  .OHMM                    :   7
RM  .OHMM                    :   8
RD  .OHMM                    :   9
DEVI.DEG                     :  10
TVD .FT                      :  11
AZIM.DEG                     :  12
NORT.FT                      :  13
EAST.FT                      :  14
OFFS.FT                      :  15
~A
# ...
  5062.500 -22.184  4.0700  2.5190  2.3910 -10.184  4.0700  2.5190  2.3910  0.6354  5062.3  147.88 -13.290 -3.6746 -11.995 
  5063.000 -21.827  3.7080  2.4100  2.4260 -9.8270  3.7080  2.4100  2.4260  0.6358  5062.8  147.81 -13.294 -3.6716 -11.997 
  5063.500 -21.289  3.5990  2.4090  2.4620 -9.2890  3.5990  2.4090  2.4620  0.6363  5063.3  147.75 -13.299 -3.6686 -11.998 
  5064.000 -20.751  3.3100  2.4260  2.5330 -8.7510  3.3100  2.4260  2.5330  0.6367  5063.8  147.68 -13.304 -3.6657 -11.999 
  5064.500 -20.393  3.0920  2.4430  2.5680 -8.3930  3.0920  2.4430  2.5680  0.6371  5064.3  147.62 -13.308 -3.6627 -12.000 
  5065.000 -20.036  2.9470  2.5510  2.6040 -8.0360  2.9470  2.5510  2.6040  0.6375  5064.8  147.55 -13.313 -3.6597 -12.002 
  5065.500 -19.769  2.6940  2.6580  2.6210 -7.7690  2.6940  2.6580  2.6210  0.6379  5065.3  147.49 -13.318 -3.6567 -12.003 
  5066.000 -19.501  2.5490  2.7470  2.6390 -7.5010  2.5490  2.7470  2.6390  0.6383  5065.8  147.42 -13.322 -3.6537 -12.004 
  5066.500 -19.415  2.4220  2.8360  2.6380 -7.4150  2.4220  2.8360  2.6380  0.6388  5066.3  147.36 -13.327 -3.6507 -12.005 
  5067.000 -19.329  2.2950  2.9440  2.6380 -7.3290  2.2950  2.9440  2.6380  0.6392  5066.8  147.29 -13.332 -3.6477 -12.006 
  5067.500 -19.154  2.1850  3.0510  2.6370 -7.1540  2.1850  3.0510  2.6370  0.6396  5067.3  147.23 -13.337 -3.6447 -12.008 
  5068.000 -19.340  2.1490  3.1580  2.6180 -7.3400  2.1490  3.1580  2.6180  0.6400  5067.8  147.16 -13.341 -3.6416 -12.009 
  5068.500 -19.524  2.1120  3.3010  2.6000 -7.5240  2.1120  3.3010  2.6000  0.6404  5068.3  147.10 -13.346 -3.6386 -12.010 
  5069.000 -19.709  2.3270  3.3370  2.5990 -7.7090  2.3270  3.3370  2.5990  0.6408  5068.8  147.03 -13.351 -3.6356 -12.011 
  5069.500 -20.619  2.4700  3.3720  2.7060 -8.6190  2.4700  3.3720  2.7060  0.6413  5069.3  146.97 -13.355 -3.6325 -12.012 
  5070.000 -22.071  2.7580  3.5150  2.8860 -10.071  2.7580  3.5150  2.8860  0.6417  5069.8  146.90 -13.360 -3.6295 -12.013 
  5070.500 -22.799  3.1900  3.5500  3.0300 -10.799  3.1900  3.5500  3.0300  0.6421  5070.3  146.84 -13.365 -3.6264 -12.015 
  5071.000 -24.251  3.4410  3.5860  3.0470 -12.251  3.4410  3.5860  3.0470  0.6425  5070.8  146.77 -13.369 -3.6233 -12.016 
  5071.500 -32.578  3.6930  3.5310  3.0650 -20.578  3.6930  3.5310  3.0650  0.6429  5071.3  146.71 -13.374 -3.6202 -12.017 
  5072.000 -32.039  4.1960  3.4760  2.9190 -20.039  4.1960  3.4760  2.9190  0.6434  5071.8  146.64 -13.379 -3.6172 -12.018 
  5072.500 -32.225  4.5200  3.3670  2.8110 -20.225  4.5200  3.3670  2.8110  0.6438  5072.3  146.58 -13.383 -3.6141 -12.019 
  5073.000 -36.028  4.6630  3.2580  2.7380 -24.028  4.6630  3.2580  2.7380  0.6442  5072.8  146.51 -13.388 -3.6110 -12.020 
  5073.500 -37.480  4.7710  3.0400  2.7010 -25.480  4.7710  3.0400  2.7010  0.6446  5073.3  146.45 -13.393 -3.6079 -12.021 
  5074.000 -36.037  4.6980  2.9850  2.8090 -24.037  4.6980  2.9850  2.8090  0.6450  5073.8  146.38 -13.398 -3.6047 -12.022 
  5074.500 -34.413  4.6250  2.9300  2.8800 -22.413  4.6250  2.9300  2.8800  0.6454  5074.3  146.32 -13.402 -3.6016 -12.024 
  5075.000 -32.247  4.5340  2.7850  2.8080 -20.247  4.5340  2.7850  2.8080  0.6459  5074.8  146.25 -13.407 -3.5985 -12.025 
  5075.500 -31.166  4.4430  2.7120  2.7350 -19.166  4.4430  2.7120  2.7350  0.6463  5075.3  146.19 -13.412 -3.5953 -12.026 
  5076.000 -28.277  4.1530  2.6390  2.6980 -16.277  4.1530  2.6390  2.6980  0.6467  5075.8  146.12 -13.416 -3.5922 -12.027 
  5076.500 -25.930  4.0440  2.5660  2.6610 -13.930  4.0440  2.5660  2.6610  0.6471  5076.3  146.06 -13.421 -3.5890 -12.028 
  5077.000 -24.125  3.7910  2.5290  2.6250 -12.125  3.7910  2.5290  2.6250  0.6475  5076.8  145.99 -13.426 -3.5859 -12.029 
  5077.500 -24.671  3.5380  2.5100  2.5520 -12.671  3.5380  2.5100  2.5520  0.6479  5077.3  145.93 -13.430 -3.5827 -12.030 
  5078.000 -25.218  3.4640  2.4910  2.5510 -13.218  3.4640  2.4910  2.5510  0.6484  5077.8  145.86 -13.435 -3.5795 -12.031 
  5078.500 -27.033  3.6080  2.4540  2.5870 -15.033  3.6080  2.4540  2.5870  0.6488  5078.3  145.80 -13.440 -3.5764 -12.032 
  5079.000 -28.484  3.7150  2.4530  2.6940 -16.484  3.7150  2.4530  2.6940  0.6492  5078.8  145.73 -13.444 -3.5732 -12.033 
  5079.500 -26.499  3.8950  2.5960  2.7660 -14.499  3.8950  2.5960  2.7660  0.6496  5079.3  145.67 -13.449 -3.5700 -12.034 
  5080.000 -24.514  4.0740  2.8120  2.8370 -12.514  4.0740  2.8120  2.8370  0.6500  5079.8  145.60 -13.454 -3.5668 -12.035 
  5080.500 -22.167  4.0010  3.0280  2.9450 -10.167  4.0010  3.0280  2.9450  0.6504  5080.3  145.54 -13.458 -3.5636 -12.036 
  5081.000 -22.532  3.9280  3.4590  2.9440 -10.532  3.9280  3.4590  2.9440  0.6509  5080.8  145.47 -13.463 -3.5603 -12.037 
  5081.500 -22.898  3.7830  3.5660  2.9430 -10.898  3.7830  3.5660  2.9430  0.6513  5081.3  145.41 -13.468 -3.5571 -12.038 
  5082.000 -23.446  3.5650  3.6200  2.9430 -11.446  3.5650  3.6200  2.9430  0.6517  5081.8  145.34 -13.472 -3.5539 -12.039 
  5082.500 -23.812  3.5830  3.6730  2.9060 -11.812  3.5830  3.6730  2.9060  0.6521  5082.3  145.28 -13.477 -3.5506 -12.040 
  5083.000 -24.177  3.6000  3.6540  2.9050 -12.177  3.6000  3.6540  2.9050  0.6525  5082.8  145.21 -13.482 -3.5474 -12.041 
  5083.500 -24.907  3.7790  3.6350  2.9050 -12.907  3.7790  3.6350  2.9050  0.6529  5083.3  145.15 -13.487 -3.5441 -12.042 
  5084.000 -25.454  3.8500  3.5620  2.9040 -13.454  3.8500  3.5620  2.9040  0.6534  5083.8  145.08 -13.491 -3.5409 -12.043 
  5084.500 -25.820  3.9580  3.5430  2.9030 -13.820  3.9580  3.5430  2.9030  0.6538  5084.3  145.02 -13.496 -3.5376 -12.044 
  5085.000 -26.185  4.2090  3.5240  2.8850 -14.185  4.2090  3.5240  2.8850  0.6542  5084.8  144.95 -13.501 -3.5343 -12.045 
  5085.500 -27.819  4.3520  3.4870  2.8660 -15.819  4.3520  3.4870  2.8660  0.6546  5085.3  144.89 -13.505 -3.5310 -12.046 
  5086.000 -29.271  4.3510  3.4500  2.8660 -17.271  4.3510  3.4500  2.8660  0.6550  5085.8  144.82 -13.510 -3.5277 -12.047 
  5086.500 -31.627  4.4230  3.4490  2.8650 -19.627  4.4230  3.4490  2.8650  0.6554  5086.3  144.76 -13.515 -3.5244 -12.048 
  5087.000 -33.079  4.4580  3.4480  2.8640 -21.079  4.4580  3.4480  2.8640  0.6559  5086.8  144.69 -13.519 -3.5211 -12.049 
  5087.500 -35.616  4.5290  3.3750  2.8640 -23.616  4.5290  3.3750  2.8640  0.6563  5087.3  144.63 -13.524 -3.5178 -12.050 
  5088.000 -38.697  4.6010  3.3740  2.8630 -26.697  4.6010  3.3740  2.8630  0.6567  5087.8  144.56 -13.529 -3.5145 -12.051 
  5088.500 -41.596  4.7440  3.3730  2.8620 -29.596  4.7440  3.3730  2.8620  0.6571  5088.3  144.50 -13.533 -3.5112 -12.052 
  5089.000 -45.941  4.8870  3.3730  2.8980 -33.941  4.8870  3.3730  2.8980  0.6575  5088.8  144.43 -13.538 -3.5078 -12.053 
  5089.500 -48.298  5.1740  3.3720  2.8970 -36.298  5.1740  3.3720  2.8970  0.6579  5089.3  144.37 -13.543 -3.5045 -12.054 
  5090.000 -49.749  5.2640  3.3890  2.9150 -37.749  5.2640  3.3890  2.9150  0.6584  5089.8  144.30 -13.547 -3.5011 -12.055 
  5090.500 -50.839  5.3530  3.4060  2.9320 -38.839  5.3530  3.4060  2.9320  0.6588  5090.3  144.24 -13.552 -3.4978 -12.056 
  5091.000 -51.748  5.4600  3.4410  2.9860 -39.748  5.4600  3.4410  2.9860  0.6592  5090.8  144.17 -13.557 -3.4944 -12.057 
  5091.500 -52.476  5.5680  3.4760  3.0390 -40.476  5.5680  3.4760  3.0390  0.6596  5091.3  144.11 -13.561 -3.4910 -12.058 
  5092.000 -53.204  5.6390  3.5470  3.1110 -41.204  5.6390  3.5470  3.1110  0.6600  5091.8  144.04 -13.566 -3.4876 -12.059 
  5092.500 -54.115  5.7100  3.5820  3.1820 -42.115  5.7100  3.5820  3.1820  0.6604  5092.3  143.98 -13.571 -3.4843 -12.060 
  5093.000 -52.761  5.8530  3.5090  3.2170 -40.761  5.8530  3.5090  3.2170  0.6609  5092.8  143.91 -13.575 -3.4809 -12.060 
  5093.500 -51.407  5.8520  3.4550  3.2890 -39.407  5.8520  3.4550  3.2890  0.6613  5093.3  143.85 -13.580 -3.4775 -12.061 
  5094.000 -48.608  5.9230  3.4000  3.2880 -36.608  5.9230  3.4000  3.2880  0.6617  5093.8  143.78 -13.585 -3.4740 -12.062 
  5094.500 -45.808  5.8500  3.2910  3.2150 -33.808  5.8500  3.2910  3.2150  0.6621  5094.3  143.72 -13.589 -3.4706 -12.063 
