~Version Information
VERS.                     2.0: CWLS log ASCII Standard Version 2.00
WRAP.                      NO: One line per depth step
~Well Information Block
#MNEM.UNIT                               Data Type  Information
#---------                               ---------  -----------
STRT.FT                                   350.0000:
STOP.FT                                  6830.0000:
STEP.FT                                     0.5000:
NULL.                 -999.25                     :
COMP.                                             :COMPANY            
WELL.     CCMO 78-20                              :WELL               
FLD .                                             :FIELD              
CTRY.                                             :COUNTRY            
STAT.                                             :STATE              
LOC .                                             :LOCATION           
UWI .                                             :UNIQUE WELL ID     
SRVC.                                             :Service company    
DATE.                                             :LOG DATE           
~Curve Information
#MNEM.UNIT           API CODE  Curve Description
#---------           --------  -----------------
DEPT.FT                      :   1 DEPTH
SP  .MV                      :   2
AM10.OHMM                    :   3
AO10.OHMM                    :   4
AO19.OHMM                    :   5
SBL .MV                      :   6
RS  .OHMM                    :   7
RM  .OHMM                    :   8
RD  .OHMM                    :   9
DEVI.DEG                     :  10
TVD .FT                      :  11
AZIM.DEG                     :  12
NORT.FT                      :  13
EAST.FT                      :  14
OFFS.FT                      :  15
~A
# ...
  2917.500 -62.378  10.439  8.3840  8.7180 -46.194  10.439  8.3840  8.7180  0.4854  2917.4  280.50 -12.797 -5.8954 -13.218 
  2918.000 -63.182  10.259  8.2400  8.8980 -47.002  10.259  8.2400  8.8980  0.4850  2917.9  280.40 -12.796 -5.8996 -13.220 
  2918.500 -63.986  10.727  8.1310  9.2230 -47.810  10.727  8.1310  9.2230  0.4846  2918.4  280.30 -12.796 -5.9038 -13.222 
  2919.000 -64.791  11.051  8.0590  9.5110 -48.619  11.051  8.0590  9.5110  0.4842  2918.9  280.20 -12.795 -5.9079 -13.225 
  2919.500 -65.595  11.195  8.2020  10.016 -49.426  11.195  8.2020  10.016  0.4838  2919.4  280.10 -12.794 -5.9121 -13.227 
  2920.000 -65.867  11.915  8.3460  10.664 -49.702  11.915  8.3460  10.664  0.4833  2919.9  280.00 -12.793 -5.9162 -13.230 
  2920.500 -66.139  12.239  8.5980  11.025 -49.978  12.239  8.5980  11.025  0.4829  2920.4  279.90 -12.793 -5.9204 -13.232 
  2921.000 -66.863  12.635  8.8860  11.241 -50.706  12.635  8.8860  11.241  0.4825  2920.9  279.80 -12.792 -5.9245 -13.235 
  2921.500 -66.863  12.996  9.2820  11.493 -50.710  12.996  9.2820  11.493  0.4821  2921.4  279.70 -12.791 -5.9287 -13.237 
  2922.000 -66.864  13.536  10.291  11.781 -50.715  13.536  10.291  11.781  0.4817  2921.9  279.60 -12.791 -5.9328 -13.239 
  2922.500 -66.864  14.004  11.084  11.925 -50.718  14.004  11.084  11.925  0.4813  2922.4  279.50 -12.790 -5.9370 -13.242 
  2923.000 -66.684  14.220  11.336  12.069 -50.542  14.220  11.336  12.069  0.4809  2922.9  279.40 -12.789 -5.9411 -13.244 
  2923.500 -66.504  14.724  11.732  11.961 -50.366  14.724  11.732  11.961  0.4804  2923.4  279.30 -12.788 -5.9453 -13.247 
  2924.000 -65.599  14.327  11.948  11.528 -49.465  14.327  11.948  11.528  0.4800  2923.9  279.20 -12.788 -5.9494 -13.249 
  2924.500 -64.333  13.858  12.164  10.807 -48.203  13.858  12.164  10.807  0.4796  2924.4  279.10 -12.787 -5.9535 -13.252 
  2925.000 -63.610  13.425  12.596  10.014 -47.484  13.425  12.596  10.014  0.4792  2924.9  279.00 -12.786 -5.9576 -13.254 
  2925.500 -63.068  13.064  13.136  9.4370 -46.945  13.064  13.136  9.4370  0.4788  2925.4  278.90 -12.786 -5.9618 -13.257 
  2926.000 -63.430  12.595  13.028  8.9680 -47.311  12.595  13.028  8.9680  0.4784  2925.9  278.80 -12.785 -5.9659 -13.259 
  2926.500 -64.878  10.720  12.811  8.7510 -48.763  10.720  12.811  8.7510  0.4779  2926.4  278.70 -12.785 -5.9700 -13.262 
  2927.000 -65.964  9.8540  12.558  8.7150 -49.853  9.8540  12.558  8.7150  0.4775  2926.9  278.60 -12.784 -5.9741 -13.264 
  2927.500 -66.869  10.052  12.449  8.8230 -50.762  10.052  12.449  8.8230  0.4771  2927.4  278.50 -12.783 -5.9783 -13.266 
  2928.000 -68.136  10.250  12.341  8.9670 -52.033  10.250  12.341  8.9670  0.4767  2927.9  278.40 -12.783 -5.9824 -13.269 
  2928.500 -68.498  10.826  12.448  9.1470 -52.398  10.826  12.448  9.1470  0.4763  2928.4  278.30 -12.782 -5.9865 -13.271 
  2929.000 -68.317  11.114  12.881  9.2550 -52.221  11.114  12.881  9.2550  0.4759  2928.9  278.20 -12.782 -5.9906 -13.274 
  2929.500 -68.137  11.402  13.457  9.2910 -52.045  11.402  13.457  9.2910  0.4754  2929.4  278.10 -12.781 -5.9947 -13.276 
  2930.000 -67.414  11.726  14.178  9.2910 -51.326  11.726  14.178  9.2910  0.4750  2929.9  278.00 -12.780 -5.9988 -13.279 
  2930.500 -66.329  12.338  14.682  9.1460 -50.245  12.338  14.682  9.1460  0.4746  2930.4  277.90 -12.780 -6.0029 -13.281 
  2931.000 -64.882  13.203  15.150  9.0380 -48.802  13.203  15.150  9.0380  0.4742  2930.9  277.80 -12.779 -6.0070 -13.284 
  2931.500 -62.712  12.806  15.114  8.7490 -46.635  12.806  15.114  8.7490  0.4738  2931.4  277.70 -12.779 -6.0111 -13.286 
  2932.000 -61.808  10.354  14.825  8.6050 -45.735  10.354  14.825  8.6050  0.4734  2931.9  277.60 -12.778 -6.0152 -13.289 
  2932.500 -59.818  9.6330  14.536  8.2800 -43.749  9.6330  14.536  8.2800  0.4729  2932.4  277.50 -12.778 -6.0193 -13.291 
  2933.000 -56.924  8.9110  14.175  7.8840 -40.859  8.9110  14.175  7.8840  0.4725  2932.9  277.40 -12.777 -6.0234 -13.294 
  2933.500 -54.030  8.0820  14.030  7.6670 -37.969  8.0820  14.030  7.6670  0.4721  2933.4  277.30 -12.777 -6.0275 -13.296 
  2934.000 -52.041  7.4680  13.669  7.4510 -35.984  7.4680  13.669  7.4510  0.4717  2933.9  277.20 -12.776 -6.0316 -13.299 
  2934.500 -48.061  7.1070  13.272  7.3060 -32.007  7.1070  13.272  7.3060  0.4713  2934.4  277.10 -12.776 -6.0356 -13.302 
  2935.000 -46.614  6.7100  12.731  7.1260 -30.564  6.7100  12.731  7.1260  0.4709  2934.9  277.00 -12.775 -6.0397 -13.304 
  2935.500 -45.530  6.4570  10.495  7.0350 -29.484  6.4570  10.495  7.0350  0.4704  2935.4  276.90 -12.775 -6.0438 -13.307 
  2936.000 -44.445  6.2410  9.9900  6.9450 -28.403  6.2410  9.9900  6.9450  0.4700  2935.9  276.80 -12.774 -6.0479 -13.309 
  2936.500 -41.731  6.0600  9.5570  6.8010 -25.693  6.0600  9.5570  6.8010  0.4696  2936.4  276.70 -12.774 -6.0519 -13.312 
  2937.000 -40.465  5.9150  9.2320  6.6560 -24.431  5.9150  9.2320  6.6560  0.4692  2936.9  276.60 -12.773 -6.0560 -13.314 
  2937.500 -35.401  5.7710  8.9430  6.4760 -19.370  5.7710  8.9430  6.4760  0.4688  2937.4  276.50 -12.773 -6.0601 -13.317 
  2938.000 -32.687  5.2290  8.5460  6.3680 -16.660  5.2290  8.5460  6.3680  0.4684  2937.9  276.40 -12.772 -6.0641 -13.319 
  2938.500 -29.974  4.8320  7.9690  6.2590 -13.951  4.8320  7.9690  6.2590  0.4679  2938.4  276.30 -12.772 -6.0682 -13.322 
  2939.000 -29.070  4.4350  7.7520  6.0430 -13.051  4.4350  7.7520  6.0430  0.4675  2938.9  276.20 -12.771 -6.0722 -13.324 
  2939.500 -28.166  4.0740  7.4270  5.8980 -12.151  4.0740  7.4270  5.8980  0.4671  2939.4  276.10 -12.771 -6.0763 -13.327 
  2940.000 -27.353  3.8580  7.2830  6.0780 -11.342  3.8580  7.2830  6.0780  0.4667  2939.9  276.00 -12.770 -6.0803 -13.330 
  2940.500 -26.539  3.6410  7.2100  6.2950 -10.531  3.6410  7.2100  6.2950  0.4663  2940.4  275.90 -12.770 -6.0844 -13.332 
  2941.000 -26.178  3.4960  7.1370  6.4030 -10.174  3.4960  7.1370  6.4030  0.4659  2940.9  275.80 -12.770 -6.0884 -13.335 
  2941.500 -25.816  3.6220  6.9930  6.4740 -9.8160  3.6220  6.9930  6.4740  0.4654  2941.4  275.70 -12.769 -6.0925 -13.337 
  2942.000 -25.636  3.7480  6.8480  6.5100 -9.6398  3.7480  6.8480  6.5100  0.4650  2941.9  275.60 -12.769 -6.0965 -13.340 
  2942.500 -25.455  3.8370  6.6670  6.4560 -9.4627  3.8370  6.6670  6.4560  0.4646  2942.4  275.50 -12.768 -6.1006 -13.342 
  2943.000 -25.275  3.9270  6.4150  6.4020 -9.2865  3.9270  6.4150  6.4020  0.4642  2942.9  275.40 -12.768 -6.1046 -13.345 
  2943.500 -25.185  3.9270  6.0540  6.1850 -9.2003  3.9270  6.0540  6.1850  0.4638  2943.4  275.30 -12.768 -6.1086 -13.348 
  2944.000 -25.095  3.8180  5.8010  5.9690 -9.1142  3.8180  5.8010  5.9690  0.4634  2943.9  275.20 -12.767 -6.1126 -13.350 
  2944.500 -25.095  3.4570  5.5480  5.6800 -9.1180  3.4570  5.5480  5.6800  0.4629  2944.4  275.10 -12.767 -6.1167 -13.353 
  2945.000 -25.458  3.2040  5.3310  5.5360 -9.4848  3.2040  5.3310  5.5360  0.4625  2944.9  275.00 -12.767 -6.1207 -13.355 
  2945.500 -26.182  3.0600  5.0780  5.4280 -10.213  3.0600  5.0780  5.4280  0.4621  2945.4  274.90 -12.766 -6.1247 -13.358 
  2946.000 -26.544  2.9870  4.9340  5.4810 -10.578  2.9870  4.9340  5.4810  0.4617  2945.9  274.80 -12.766 -6.1287 -13.361 
  2946.500 -27.268  2.9140  4.8610  5.5350 -11.306  2.9140  4.8610  5.5350  0.4613  2946.4  274.70 -12.766 -6.1327 -13.363 
  2947.000 -27.992  2.8780  4.8250  5.8240 -12.034  2.8780  4.8250  5.8240  0.4609  2946.9  274.60 -12.765 -6.1367 -13.366 
  2947.500 -29.078  2.9140  4.8960  5.9310 -13.124  2.9140  4.8960  5.9310  0.4604  2947.4  274.50 -12.765 -6.1407 -13.368 
  2948.000 -31.068  3.0570  5.0760  6.0390 -15.118  3.0570  5.0760  6.0390  0.4600  2947.9  274.40 -12.765 -6.1448 -13.371 
  2948.500 -33.240  3.2010  5.4000  6.7960 -17.294  3.2010  5.4000  6.7960  0.4596  2948.4  274.30 -12.764 -6.1488 -13.374 
  2949.000 -37.220  3.7050  5.6160  7.1210 -21.277  3.7050  5.6160  7.1210  0.4592  2948.9  274.20 -12.764 -6.1527 -13.376 
  2949.500 -44.457  4.6060  5.9400  7.6250 -28.518  4.6060  5.9400  7.6250  0.4588  2949.4  274.10 -12.764 -6.1567 -13.379 
