~Version Information
VERS.                     2.0: CWLS log ASCII Standard Version 2.00
WRAP.                      NO: One line per depth step
~Well Information Block
#MNEM.UNIT                               Data Type  Information
#---------                               ---------  -----------
STRT.FT                                   350.0000:
STOP.FT                                  6830.0000:
STEP.FT                                     0.5000:
NULL.                 -999.25                     :
COMP.                                             :COMPANY            
WELL.     CCMO 78-20                              :WELL               
FLD .                                             :FIELD              
CTRY.                                             :COUNTRY            
STAT.                                             :STATE              
LOC .                                             :LOCATION           
UWI .                                             :UNIQUE WELL ID     
SRVC.                                             :Service company    
DATE.                                             :LOG DATE           
~Curve Information
#MNEM.UNIT           API CODE  Curve Description
#---------           --------  -----------------
DEPT.FT                      :   1 DEPTH
SP  .MV                      :   2
AM10.OHMM                    :   3
AO10.OHMM                    :   4
AO19.OHMM                    :   5
SBL .MV                      :   6
RS  .OHMM                    :   7
RM  .OHMM                    :   8
RD  .OHMM                    :   9
DEVI.DEG                     :  10
TVD .FT                      :  11
AZIM.DEG                     :  12
NORT.FT                      :  13
EAST.FT                      :  14
OFFS.FT                      :  15
~A
# ...
  3795.000 -27.941  3.6780  4.7220  4.0720 -15.941  3.6780  4.7220  4.0720  0.2500  3794.9  152.75 -11.411 -7.0827 -13.077 
  3795.500 -32.827  3.9650  5.0460  4.2880 -20.827  3.9650  5.0460  4.2880  0.2500  3795.4  152.98 -11.413 -7.0817 -13.078 
  3796.000 -34.817  4.3610  5.2980  4.5040 -22.817  4.3610  5.2980  4.5040  0.2500  3795.9  153.20 -11.415 -7.0807 -13.079 
  3796.500 -36.266  4.7570  5.6210  4.9000 -24.266  4.7570  5.6210  4.9000  0.2500  3796.4  153.43 -11.417 -7.0797 -13.079 
  3797.000 -35.543  5.0450  5.8370  5.0440 -23.543  5.0450  5.8370  5.0440  0.2500  3796.9  153.65 -11.419 -7.0787 -13.080 
  3797.500 -31.021  5.5130  5.9810  5.0800 -19.021  5.5130  5.9810  5.0800  0.2500  3797.4  153.88 -11.421 -7.0778 -13.081 
  3798.000 -28.670  5.8370  5.6200  4.8630 -16.670  5.8370  5.6200  4.8630  0.2500  3797.9  154.10 -11.423 -7.0768 -13.081 
  3798.500 -26.862  5.6200  5.3680  4.6830 -14.862  5.6200  5.3680  4.6830  0.2500  3798.4  154.33 -11.425 -7.0759 -13.082 
  3799.000 -27.406  5.4040  5.0430  4.5390 -15.406  5.4040  5.0430  4.5390  0.2500  3798.9  154.55 -11.427 -7.0749 -13.083 
  3799.500 -28.854  4.8630  4.6110  4.3220 -16.854  4.8630  4.6110  4.3220  0.2500  3799.4  154.78 -11.429 -7.0740 -13.084 
  3800.000 -30.302  4.6820  4.4300  4.2860 -18.302  4.6820  4.4300  4.2860  0.2500  3799.9  155.00 -11.431 -7.0731 -13.084 
  3800.500 -30.936  4.5380  4.2860  4.2500 -18.936  4.5380  4.2860  4.2500  0.2500  3800.4  154.96 -11.433 -7.0722 -13.085 
  3801.000 -31.569  4.3940  4.2500  4.2860 -19.569  4.3940  4.2500  4.2860  0.2500  3800.9  154.91 -11.435 -7.0712 -13.086 
  3801.500 -32.476  4.2500  4.1780  4.3220 -20.476  4.2500  4.1780  4.3220  0.2500  3801.4  154.87 -11.437 -7.0703 -13.087 
  3802.000 -33.019  4.1060  4.1420  4.3760 -21.019  4.1060  4.1420  4.3760  0.2500  3801.9  154.82 -11.439 -7.0694 -13.087 
  3802.500 -33.381  4.0700  4.1780  4.4300 -21.381  4.0700  4.1780  4.4300  0.2500  3802.4  154.78 -11.441 -7.0685 -13.088 
  3803.000 -33.744  4.1780  4.2860  4.4830 -21.744  4.1780  4.2860  4.4830  0.2500  3802.9  154.73 -11.443 -7.0675 -13.089 
  3803.500 -34.288  4.3040  4.4300  4.5370 -22.288  4.3040  4.4300  4.5370  0.2500  3803.4  154.69 -11.445 -7.0666 -13.089 
  3804.000 -34.922  4.4310  4.6460  4.6450 -22.922  4.4310  4.6460  4.6450  0.2500  3803.9  154.64 -11.447 -7.0657 -13.090 
  3804.500 -35.556  4.6820  4.7730  4.7530 -23.556  4.6820  4.7730  4.7530  0.2500  3804.4  154.60 -11.449 -7.0647 -13.091 
  3805.000 -36.100  4.8630  4.8990  4.8250 -24.100  4.8630  4.8990  4.8250  0.2500  3804.9  154.55 -11.451 -7.0638 -13.092 
  3805.500 -36.824  5.1510  5.3310  5.0410 -24.824  5.1510  5.3310  5.0410  0.2500  3805.4  154.51 -11.453 -7.0628 -13.092 
  3806.000 -38.092  5.4390  5.4030  5.1130 -26.092  5.4390  5.4030  5.1130  0.2500  3805.9  154.46 -11.455 -7.0619 -13.093 
  3806.500 -38.093  5.6910  5.4030  5.1120 -26.093  5.6910  5.4030  5.1120  0.2500  3806.4  154.42 -11.457 -7.0610 -13.094 
  3807.000 -35.018  6.0510  5.1870  5.0040 -23.018  6.0510  5.1870  5.0040  0.2500  3806.9  154.37 -11.459 -7.0600 -13.095 
  3807.500 -32.848  5.9070  5.0070  4.8240 -20.848  5.9070  5.0070  4.8240  0.2500  3807.4  154.33 -11.460 -7.0591 -13.095 
  3808.000 -29.774  5.5470  4.8270  4.6080 -17.774  5.5470  4.8270  4.6080  0.2500  3807.9  154.28 -11.462 -7.0581 -13.096 
  3808.500 -26.519  5.1870  4.4660  4.3910 -14.519  5.1870  4.4660  4.3910  0.2500  3808.4  154.24 -11.464 -7.0572 -13.097 
  3809.000 -24.349  4.4660  3.9980  4.0310 -12.349  4.4660  3.9980  4.0310  0.2500  3808.9  154.19 -11.466 -7.0562 -13.097 
  3809.500 -22.541  4.0340  3.8180  3.7430 -10.541  4.0340  3.8180  3.7430  0.2500  3809.4  154.15 -11.468 -7.0553 -13.098 
  3810.000 -20.913  3.4940  3.7100  3.5260 -8.9130  3.4940  3.7100  3.5260  0.2500  3809.9  154.10 -11.470 -7.0543 -13.099 
  3810.500 -21.547  3.0980  3.6020  3.5260 -9.5470  3.0980  3.6020  3.5260  0.2500  3810.4  154.06 -11.472 -7.0534 -13.100 
  3811.000 -22.181  2.9360  3.7820  3.6340 -10.181  2.9360  3.7820  3.6340  0.2500  3810.9  154.01 -11.474 -7.0524 -13.100 
  3811.500 -23.630  2.7740  3.9080  3.7780 -11.630  2.7740  3.9080  3.7780  0.2500  3811.4  153.97 -11.476 -7.0515 -13.101 
  3812.000 -25.439  2.6660  4.0340  3.9220 -13.439  2.6660  4.0340  3.9220  0.2500  3811.9  153.92 -11.478 -7.0505 -13.102 
  3812.500 -27.430  2.5580  4.2860  4.2100 -15.430  2.5580  4.2860  4.2100  0.2500  3812.4  153.88 -11.480 -7.0495 -13.102 
  3813.000 -29.783  3.3140  4.6470  4.3540 -17.783  3.3140  4.6470  4.3540  0.2500  3812.9  153.83 -11.482 -7.0486 -13.103 
  3813.500 -31.774  3.6740  5.1150  4.5340 -19.774  3.6740  5.1150  4.5340  0.2500  3813.4  153.79 -11.484 -7.0476 -13.104 
  3814.000 -34.307  4.0340  5.2950  4.8220 -22.307  4.0340  5.2950  4.8220  0.2500  3813.9  153.74 -11.486 -7.0466 -13.105 
  3814.500 -37.022  4.9350  5.5830  4.8930 -25.022  4.9350  5.5830  4.8930  0.2500  3814.4  153.70 -11.488 -7.0457 -13.105 
  3815.000 -38.470  6.0510  5.9790  5.3250 -26.470  6.0510  5.9790  5.3250  0.2500  3814.9  153.65 -11.490 -7.0447 -13.106 
  3815.500 -40.099  6.7000  6.7000  5.8660 -28.099  6.7000  6.7000  5.8660  0.2500  3815.4  153.61 -11.492 -7.0437 -13.107 
  3816.000 -42.451  6.8800  7.0600  6.4060 -30.451  6.8800  7.0600  6.4060  0.2500  3815.9  153.56 -11.494 -7.0428 -13.107 
  3816.500 -44.080  7.9960  7.7080  6.6940 -32.080  7.9960  7.7080  6.6940  0.2500  3816.4  153.52 -11.496 -7.0418 -13.108 
  3817.000 -46.976  9.4730  8.1400  6.9820 -34.976  9.4730  8.1400  6.9820  0.2500  3816.9  153.47 -11.498 -7.0408 -13.109 
  3817.500 -54.575  10.013  8.1400  7.3780 -42.575  10.013  8.1400  7.3780  0.2500  3817.4  153.43 -11.500 -7.0398 -13.109 
  3818.000 -57.832  10.410  8.0680  7.5940 -45.832  10.410  8.0680  7.5940  0.2500  3817.9  153.38 -11.502 -7.0389 -13.110 
  3818.500 -61.270  10.662  7.8160  7.5580 -49.270  10.662  7.8160  7.5580  0.2500  3818.4  153.34 -11.504 -7.0379 -13.111 
  3819.000 -62.899  11.058  7.2400  7.5210 -50.899  11.058  7.2400  7.5210  0.2500  3818.9  153.29 -11.505 -7.0369 -13.111 
  3819.500 -66.337  11.454  6.8080  7.3590 -54.337  11.454  6.8080  7.3590  0.2500  3819.4  153.25 -11.507 -7.0359 -13.112 
  3820.000 -68.509  13.183  6.5560  7.1970 -56.509  13.183  6.5560  7.1970  0.2500  3819.9  153.20 -11.509 -7.0349 -13.113 
  3820.500 -70.681  12.895  6.4110  6.8720 -58.681  12.895  6.4110  6.8720  0.2500  3820.4  153.16 -11.511 -7.0340 -13.114 
  3821.000 -72.129  12.571  6.3030  6.6920 -60.129  12.571  6.3030  6.6920  0.2500  3820.9  153.11 -11.513 -7.0330 -13.114 
  3821.500 -73.758  12.139  6.2310  6.4760 -61.758  12.139  6.2310  6.4760  0.2500  3821.4  153.07 -11.515 -7.0320 -13.115 
  3822.000 -75.025  11.832  6.2310  6.2960 -63.025  11.832  6.2310  6.2960  0.2500  3821.9  153.02 -11.517 -7.0310 -13.116 
  3822.500 -75.207  11.526  6.2320  5.9350 -63.207  11.526  6.2320  5.9350  0.2500  3822.4  152.98 -11.519 -7.0300 -13.116 
  3823.000 -74.484  11.238  6.2670  5.7910 -62.484  11.238  6.2670  5.7910  0.2500  3822.9  152.93 -11.521 -7.0290 -13.117 
  3823.500 -74.123  10.878  6.3030  5.5740 -62.123  10.878  6.3030  5.5740  0.2500  3823.4  152.89 -11.523 -7.0280 -13.118 
  3824.000 -73.761  10.662  6.3580  5.4660 -61.761  10.662  6.3580  5.4660  0.2500  3823.9  152.84 -11.525 -7.0270 -13.118 
  3824.500 -72.497  10.536  6.4120  5.4300 -60.497  10.536  6.4120  5.4300  0.2500  3824.4  152.80 -11.527 -7.0260 -13.119 
  3825.000 -71.864  10.410  6.9880  5.3940 -59.864  10.410  6.9880  5.3940  0.2500  3824.9  152.75 -11.529 -7.0250 -13.120 
  3825.500 -71.231  10.230  7.2400  5.3220 -59.231  10.230  7.2400  5.3220  0.2500  3825.4  152.71 -11.531 -7.0240 -13.120 
  3826.000 -69.243  10.050  7.5640  5.3220 -57.243  10.050  7.5640  5.3220  0.2500  3825.9  152.66 -11.533 -7.0230 -13.121 
  3826.500 -66.712  9.8870  7.8520  5.3210 -54.712  9.8870  7.8520  5.3210  0.2500  3826.4  152.62 -11.535 -7.0220 -13.122 
  3827.000 -63.095  9.7250  8.1040  5.3210 -51.095  9.7250  8.1040  5.3210  0.2500  3826.9  152.57 -11.537 -7.0210 -13.122 
