~Version Information
VERS.                     2.0: CWLS log ASCII Standard Version 2.00
WRAP.                      NO: One line per depth step
~Well Information Block
#MNEM.UNIT                               Data Type  Information
#---------                               ---------  -----------
STRT.FT                                   350.0000:
STOP.FT                                  6830.0000:
STEP.FT                                     0.5000:
NULL.                 -999.25                     :
COMP.                                             :COMPANY            
WELL.     CCMO 78-20                              :WELL               
FLD .                                             :FIELD              
CTRY.                                             :COUNTRY            
STAT.                                             :STATE              
LOC .                                             :LOCATION           
UWI .                                             :UNIQUE WELL ID     
SRVC.                                             :Service company    
DATE.                                             :LOG DATE           
~Curve Information
#MNEM.UNIT           API CODE  Curve Description
#---------           --------  -----------------
DEPT.FT                      :   1 DEPTH
SP  .MV                      :   2
AM10.OHMM                    :   3
AO10.OHMM                    :   4
AO19.OHMM                    :   5
SBL .MV                      :   6
RS  .OHMM                    :   7
RM  .OHMM                    :   8
RD  .OHMM                    :   9
DEVI.DEG                     :  10
TVD .FT                      :  11
AZIM.DEG                     :  12
NORT.FT                      :  13
EAST.FT                      :  14
OFFS.FT                      :  15
~A
# ...
  2072.500 -41.847  6.7020  11.173  9.2410 -19.325  6.7020  11.173  9.2410  0.8250  2072.4  222.77 -11.891 -0.9699 -9.0939 
  2073.000 -42.749  6.5410  10.705  8.9890 -20.230  6.5410  10.705  8.9890  0.8267  2072.9  222.67 -11.896 -0.9748 -9.1011 
  2073.500 -43.832  6.3790  10.453  8.6650 -21.316  6.3790  10.453  8.6650  0.8284  2073.4  222.56 -11.901 -0.9797 -9.1083 
  2074.000 -45.096  5.4790  10.093  8.1970 -22.583  5.4790  10.093  8.1970  0.8300  2073.9  222.46 -11.907 -0.9845 -9.1156 
  2074.500 -46.178  5.2990  9.6250  8.0530 -23.668  5.2990  9.6250  8.0530  0.8317  2074.4  222.35 -11.912 -0.9894 -9.1228 
  2075.000 -46.718  5.0110  9.4820  7.9810 -24.211  5.0110  9.4820  7.9810  0.8334  2074.9  222.25 -11.918 -0.9943 -9.1301 
  2075.500 -46.897  4.9040  9.6630  8.2340 -24.393  4.9040  9.6630  8.2340  0.8350  2075.4  222.14 -11.923 -0.9992 -9.1373 
  2076.000 -46.713  4.7960  9.7180  8.3610 -24.212  4.7960  9.7180  8.3610  0.8367  2075.9  222.04 -11.928 -1.0041 -9.1446 
  2076.500 -46.710  4.8510  9.7720  8.4870 -24.212  4.8510  9.7720  8.4870  0.8384  2076.4  221.93 -11.934 -1.0090 -9.1519 
  2077.000 -46.346  4.9060  9.9170  8.6320 -23.851  4.9060  9.9170  8.6320  0.8400  2076.9  221.83 -11.939 -1.0139 -9.1593 
  2077.500 -46.253  5.0150  10.062  8.7760 -23.761  5.0150  10.062  8.7760  0.8417  2077.4  221.72 -11.945 -1.0188 -9.1666 
  2078.000 -46.160  5.0880  10.153  9.0290 -23.671  5.0880  10.153  9.0290  0.8434  2077.9  221.62 -11.950 -1.0237 -9.1739 
  2078.500 -45.795  5.1600  10.244  9.1020 -23.309  5.1600  10.244  9.1020  0.8450  2078.4  221.51 -11.956 -1.0285 -9.1813 
  2079.000 -45.792  5.3060  10.533  9.2100 -23.309  5.3060  10.533  9.2100  0.8467  2078.9  221.41 -11.961 -1.0334 -9.1887 
  2079.500 -45.699  5.3780  10.714  9.3550 -23.219  5.3780  10.714  9.3550  0.8484  2079.4  221.30 -11.967 -1.0383 -9.1961 
  2080.000 -45.606  5.4510  10.931  9.5000 -23.129  5.4510  10.931  9.5000  0.8500  2079.9  221.20 -11.972 -1.0432 -9.2035 
  2080.500 -45.422  5.5780  11.148  9.9330 -22.948  5.5780  11.148  9.9330  0.8517  2080.4  221.09 -11.978 -1.0481 -9.2109 
  2081.000 -45.781  5.7050  11.437  10.330 -23.310  5.7050  11.437  10.330  0.8534  2080.9  220.99 -11.984 -1.0530 -9.2183 
  2081.500 -46.864  5.9220  11.654  10.979 -24.396  5.9220  11.654  10.979  0.8550  2081.4  220.88 -11.989 -1.0579 -9.2257 
  2082.000 -49.394  6.1750  11.871  11.773 -26.929  6.1750  11.871  11.773  0.8567  2081.9  220.78 -11.995 -1.0627 -9.2332 
  2082.500 -54.457  6.6810  12.629  12.242 -31.995  6.6810  12.629  12.242  0.8584  2082.4  220.67 -12.001 -1.0676 -9.2407 
  2083.000 -56.263  7.0780  13.279  12.855 -33.804  7.0780  13.279  12.855  0.8600  2082.9  220.57 -12.006 -1.0725 -9.2482 
  2083.500 -56.532  7.9800  13.640  13.469 -34.076  7.9800  13.640  13.469  0.8617  2083.4  220.46 -12.012 -1.0774 -9.2557 
  2084.000 -56.800  8.8100  13.821  14.082 -34.348  8.8100  13.821  14.082  0.8634  2083.9  220.36 -12.018 -1.0823 -9.2632 
  2084.500 -55.803  10.505  13.641  14.299 -33.354  10.505  13.641  14.299  0.8650  2084.4  220.25 -12.024 -1.0871 -9.2707 
  2085.000 -54.805  10.181  13.498  14.516 -32.359  10.181  13.498  14.516  0.8667  2084.9  220.15 -12.029 -1.0920 -9.2782 
  2085.500 -48.290  9.6050  11.480  14.552 -25.847  9.6050  11.480  14.552  0.8684  2085.4  220.04 -12.035 -1.0969 -9.2858 
  2086.000 -46.659  8.5960  10.543  14.228 -24.219  8.5960  10.543  14.228  0.8700  2085.9  219.94 -12.041 -1.1018 -9.2933 
  2086.500 -44.847  7.2990  10.147  13.147 -22.410  7.2990  10.147  13.147  0.8717  2086.4  219.83 -12.047 -1.1066 -9.3009 
  2087.000 -44.301  6.7590  9.7880  11.777 -21.867  6.7590  9.7880  11.777  0.8734  2086.9  219.73 -12.053 -1.1115 -9.3085 
  2087.500 -44.842  6.4350  9.0670  10.877 -22.411  6.4350  9.0670  10.877  0.8750  2087.4  219.62 -12.059 -1.1164 -9.3161 
  2088.000 -45.382  6.1120  8.7790  10.372 -22.954  6.1120  8.7790  10.372  0.8767  2087.9  219.52 -12.064 -1.1213 -9.3237 
  2088.500 -47.007  5.9320  8.7800  10.445 -24.582  5.9320  8.7800  10.445  0.8784  2088.4  219.41 -12.070 -1.1261 -9.3313 
  2089.000 -47.728  5.9330  8.7270  10.517 -25.306  5.9330  8.7270  10.517  0.8800  2088.9  219.31 -12.076 -1.1310 -9.3390 
  2089.500 -46.640  6.1140  8.6730  10.464 -24.221  6.1140  8.6730  10.464  0.8817  2089.4  219.20 -12.082 -1.1358 -9.3466 
  2090.000 -45.552  6.3310  8.2420  10.410 -23.136  6.3310  8.2420  10.410  0.8834  2089.9  219.10 -12.088 -1.1407 -9.3543 
  2090.500 -43.740  6.4400  8.1700  10.122 -21.327  6.4400  8.1700  10.122  0.8850  2090.4  218.99 -12.094 -1.1456 -9.3620 
  2091.000 -42.109  6.2600  7.9910  9.9060 -19.699  6.2600  7.9910  9.9060  0.8867  2090.9  218.89 -12.100 -1.1504 -9.3697 
  2091.500 -41.292  6.0810  7.7030  9.6540 -18.885  6.0810  7.7030  9.6540  0.8884  2091.4  218.78 -12.106 -1.1553 -9.3774 
  2092.000 -40.476  5.7210  7.4870  9.1140 -18.072  5.7210  7.4870  9.1140  0.8900  2091.9  218.68 -12.112 -1.1601 -9.3851 
  2092.500 -39.388  5.3970  7.2720  8.5380 -16.987  5.3970  7.2720  8.5380  0.8917  2092.4  218.57 -12.118 -1.1650 -9.3928 
  2093.000 -38.299  5.2720  7.0920  7.8530 -15.901  5.2720  7.0920  7.8530  0.8934  2092.9  218.47 -12.125 -1.1698 -9.4006 
  2093.500 -35.402  5.1460  6.9130  7.4570 -13.007  5.1460  6.9130  7.4570  0.8950  2093.4  218.36 -12.131 -1.1747 -9.4083 
  2094.000 -34.495  4.7500  6.6250  6.8450 -12.103  4.7500  6.6250  6.8450  0.8967  2093.9  218.26 -12.137 -1.1795 -9.4161 
  2094.500 -32.864  4.3180  6.5180  6.5570 -10.475  4.3180  6.5180  6.5570  0.8984  2094.4  218.15 -12.143 -1.1844 -9.4239 
  2095.000 -31.957  3.7420  6.5540  6.4130 -9.5713  3.7420  6.5540  6.4130  0.9000  2094.9  218.05 -12.149 -1.1892 -9.4317 
  2095.500 -31.592  3.5810  6.5910  6.3590 -9.2094  3.5810  6.5910  6.3590  0.9017  2095.4  217.94 -12.155 -1.1941 -9.4395 
  2096.000 -31.408  3.4190  6.6280  6.3060 -9.0284  3.4190  6.6280  6.3060  0.9034  2095.9  217.84 -12.162 -1.1989 -9.4473 
  2096.500 -32.129  3.1680  6.9890  6.7390 -9.7524  3.1680  6.9890  6.7390  0.9050  2096.4  217.73 -12.168 -1.2037 -9.4552 
  2097.000 -33.393  3.3130  7.6390  7.1180 -11.019  3.3130  7.6390  7.1180  0.9067  2096.9  217.63 -12.174 -1.2086 -9.4630 
  2097.500 -35.561  3.5120  8.5410  7.4970 -13.191  3.5120  8.5410  7.4970  0.9084  2097.4  217.52 -12.180 -1.2134 -9.4709 
  2098.000 -38.272  3.7100  9.0820  8.5070 -15.905  3.7100  9.0820  8.5070  0.9100  2097.9  217.42 -12.187 -1.2182 -9.4787 
  2098.500 -42.249  4.0720  10.020  9.1200 -19.885  4.0720  10.020  9.1200  0.9117  2098.4  217.31 -12.193 -1.2230 -9.4866 
  2099.000 -49.483  4.7570  10.273  10.022 -27.122  4.7570  10.273  10.022  0.9134  2098.9  217.21 -12.199 -1.2279 -9.4945 
  2099.500 -51.651  6.4170  11.031  10.635 -29.293  6.4170  11.031  10.635  0.9150  2099.4  217.10 -12.206 -1.2327 -9.5024 
  2100.000 -55.085  8.3640  11.537  11.320 -32.730  8.3640  11.537  11.320  0.9167  2099.9  217.00 -12.212 -1.2375 -9.5104 
  2100.500 -58.702  9.1570  11.825  11.753 -36.350  9.1570  11.825  11.753  0.9155  2100.4  216.99 -12.219 -1.2423 -9.5183 
  2101.000 -59.968  10.456  11.862  12.330 -37.619  10.456  11.862  12.330  0.9142  2100.9  216.99 -12.225 -1.2471 -9.5262 
  2101.500 -60.148  12.258  11.898  12.727 -37.802  12.258  11.898  12.727  0.9130  2101.4  216.98 -12.231 -1.2519 -9.5340 
  2102.000 -59.966  12.691  11.826  12.871 -37.623  12.691  11.826  12.871  0.9117  2101.9  216.98 -12.238 -1.2567 -9.5419 
  2102.500 -59.061  12.331  11.754  13.016 -36.721  12.331  11.754  13.016  0.9105  2102.4  216.97 -12.244 -1.2614 -9.5498 
  2103.000 -58.336  12.007  11.682  12.980 -35.999  12.007  11.682  12.980  0.9092  2102.9  216.97 -12.250 -1.2662 -9.5577 
  2103.500 -57.612  11.105  11.466  12.944 -35.278  11.105  11.466  12.944  0.9080  2103.4  216.96 -12.257 -1.2710 -9.5655 
  2104.000 -55.802  10.421  11.142  12.746 -33.471  10.421  11.142  12.746  0.9067  2103.9  216.96 -12.263 -1.2757 -9.5733 
  2104.500 -47.841  9.7360  10.817  12.548 -25.513  9.7360  10.817  12.548  0.9055  2104.4  216.95 -12.269 -1.2805 -9.5812 
