~Version Information
VERS.                     2.0: CWLS log ASCII Standard Version 2.00
WRAP.                      NO: One line per depth step
~Well Information Block
#MNEM.UNIT                               Data Type  Information
#---------                               ---------  -----------
STRT.FT                                   350.0000:
STOP.FT                                  6830.0000:
STEP.FT                                     0.5000:
NULL.                 -999.25                     :
COMP.                                             :COMPANY            
WELL.     CCMO 78-20                              :WELL               
FLD .                                             :FIELD              
CTRY.                                             :COUNTRY            
STAT.                                             :STATE              
LOC .                                             :LOCATION           
UWI .                                             :UNIQUE WELL ID     
SRVC.                                             :Service company    
DATE.                                             :LOG DATE           
~Curve Information
#MNEM.UNIT           API CODE  Curve Description
#---------           --------  -----------------
DEPT.FT                      :   1 DEPTH
SP  .MV                      :   2
AM10.OHMM                    :   3
AO10.OHMM                    :   4
AO19.OHMM                    :   5
SBL .MV                      :   6
RS  .OHMM                    :   7
RM  .OHMM                    :   8
RD  .OHMM                    :   9
DEVI.DEG                     :  10
TVD .FT                      :  11
AZIM.DEG                     :  12
NORT.FT                      :  13
EAST.FT                      :  14
OFFS.FT                      :  15
~A
# ...
  1650.000 -39.296  3.4050  6.9010  4.9190 -14.208  3.4050  6.9010  4.9190  0.6250  1649.9  209.00 -8.4130  1.9346 -4.5809 
  1650.500 -41.105  3.7310  7.1900  4.9920 -16.020  3.7310  7.1900  4.9920  0.6254  1650.4  208.99 -8.4178  1.9320 -4.5862 
  1651.000 -43.819  4.0910  7.8390  5.1720 -18.737  4.0910  7.8390  5.1720  0.6258  1650.9  208.98 -8.4226  1.9293 -4.5914 
  1651.500 -45.990  4.5600  8.1640  5.4250 -20.911  4.5600  8.1640  5.4250  0.6263  1651.4  208.97 -8.4273  1.9267 -4.5967 
  1652.000 -48.342  5.1010  8.8490  5.6060 -23.266  5.1010  8.8490  5.6060  0.6267  1651.9  208.96 -8.4321  1.9240 -4.6019 
  1652.500 -49.970  5.3180  9.2100  6.1110 -24.897  5.3180  9.2100  6.1110  0.6271  1652.4  208.95 -8.4369  1.9214 -4.6072 
  1653.000 -51.236  5.5350  9.6790  6.5080 -26.166  5.5350  9.6790  6.5080  0.6275  1652.9  208.94 -8.4417  1.9187 -4.6124 
  1653.500 -50.873  6.1480  10.076  7.3730 -25.806  6.1480  10.076  7.3730  0.6279  1653.4  208.93 -8.4465  1.9161 -4.6177 
  1654.000 -50.510  6.4010  11.158  7.7340 -25.446  6.4010  11.158  7.7340  0.6283  1653.9  208.92 -8.4513  1.9134 -4.6230 
  1654.500 -49.058  7.0500  11.338  8.1310 -23.997  7.0500  11.338  8.1310  0.6288  1654.4  208.91 -8.4561  1.9108 -4.6283 
  1655.000 -48.332  7.6990  11.195  8.3480 -23.274  7.6990  11.195  8.3480  0.6292  1654.9  208.90 -8.4609  1.9081 -4.6335 
  1655.500 -47.607  7.0150  10.979  8.3120 -22.552  7.0150  10.979  8.3120  0.6296  1655.4  208.89 -8.4657  1.9055 -4.6388 
  1656.000 -45.612  6.6550  10.692  8.2770 -20.560  6.6550  10.692  8.2770  0.6300  1655.9  208.88 -8.4705  1.9028 -4.6441 
  1656.500 -44.343  6.2230  10.439  7.9170 -19.294  6.2230  10.439  7.9170  0.6304  1656.4  208.87 -8.4754  1.9002 -4.6494 
  1657.000 -43.979  5.8270  9.5750  7.5930 -18.933  5.8270  9.5750  7.5930  0.6308  1656.9  208.86 -8.4802  1.8975 -4.6547 
  1657.500 -43.432  5.3600  8.6750  7.3780 -18.389  5.3600  8.6750  7.3780  0.6313  1657.4  208.85 -8.4850  1.8948 -4.6600 
  1658.000 -43.068  5.1800  8.0270  7.3060 -18.028  5.1800  8.0270  7.3060  0.6317  1657.9  208.84 -8.4898  1.8922 -4.6652 
  1658.500 -42.342  4.8920  7.4510  7.4510 -17.305  4.8920  7.4510  7.4510  0.6321  1658.4  208.83 -8.4947  1.8895 -4.6705 
  1659.000 -41.978  4.6050  7.4150  8.0280 -16.944  4.6050  7.4150  8.0280  0.6325  1658.9  208.82 -8.4995  1.8869 -4.6758 
  1659.500 -41.887  4.6410  7.4700  8.2810 -16.856  4.6410  7.4700  8.2810  0.6329  1659.4  208.81 -8.5043  1.8842 -4.6811 
  1660.000 -41.795  5.0020  7.5240  8.5340 -16.767  5.0020  7.5240  8.5340  0.6334  1659.9  208.80 -8.5092  1.8815 -4.6865 
  1660.500 -42.516  5.4710  7.6330  8.7500 -17.491  5.4710  7.6330  8.7500  0.6338  1660.4  208.79 -8.5140  1.8789 -4.6918 
  1661.000 -43.601  5.6160  7.8140  9.0030 -18.579  5.6160  7.8140  9.0030  0.6342  1660.9  208.78 -8.5189  1.8762 -4.6971 
  1661.500 -45.047  5.8680  7.9230  9.2200 -20.028  5.8680  7.9230  9.2200  0.6346  1661.4  208.77 -8.5237  1.8735 -4.7024 
  1662.000 -45.589  6.0130  8.0670  9.5090 -20.574  6.0130  8.0670  9.5090  0.6350  1661.9  208.76 -8.5286  1.8709 -4.7077 
  1662.500 -46.855  6.1390  8.2120  9.7250 -21.843  6.1390  8.2120  9.7250  0.6354  1662.4  208.75 -8.5335  1.8682 -4.7130 
  1663.000 -47.217  6.2660  8.6450  10.014 -22.208  6.2660  8.6450  10.014  0.6359  1662.9  208.74 -8.5383  1.8655 -4.7184 
  1663.500 -47.758  6.7360  8.6450  10.015 -22.752  6.7360  8.6450  10.015  0.6363  1663.4  208.73 -8.5432  1.8629 -4.7237 
  1664.000 -43.590  6.8800  8.5020  9.8710 -18.587  6.8800  8.5020  9.8710  0.6367  1663.9  208.72 -8.5481  1.8602 -4.7290 
  1664.500 -43.950  6.5210  8.3220  9.5470 -18.950  6.5210  8.3220  9.5470  0.6371  1664.4  208.71 -8.5529  1.8575 -4.7344 
  1665.000 -44.130  6.3950  8.0340  9.1150 -19.133  6.3950  8.0340  9.1150  0.6375  1664.9  208.70 -8.5578  1.8549 -4.7397 
  1665.500 -44.671  6.2690  7.9630  8.7200 -19.677  6.2690  7.9630  8.7200  0.6379  1665.4  208.69 -8.5627  1.8522 -4.7451 
  1666.000 -44.489  6.0710  7.6030  8.4680 -19.498  6.0710  7.6030  8.4680  0.6384  1665.9  208.68 -8.5676  1.8495 -4.7504 
  1666.500 -44.307  5.8730  7.3870  8.1800 -19.319  5.8730  7.3870  8.1800  0.6388  1666.4  208.67 -8.5725  1.8468 -4.7557 
  1667.000 -43.036  5.4420  7.2260  7.8920 -18.051  5.4420  7.2260  7.8920  0.6392  1666.9  208.66 -8.5774  1.8442 -4.7611 
  1667.500 -41.405  5.2260  7.0640  7.5330 -16.423  5.2260  7.0640  7.5330  0.6396  1667.4  208.65 -8.5823  1.8415 -4.7665 
  1668.000 -40.678  4.9750  6.8850  7.2090 -15.699  4.9750  6.8850  7.2090  0.6400  1667.9  208.64 -8.5872  1.8388 -4.7718 
  1668.500 -39.771  4.8310  6.7050  7.0830 -14.795  4.8310  6.7050  7.0830  0.6404  1668.4  208.63 -8.5921  1.8361 -4.7772 
  1669.000 -38.683  4.6150  6.5610  6.9570 -13.710  4.6150  6.5610  6.9570  0.6409  1668.9  208.62 -8.5970  1.8335 -4.7825 
  1669.500 -38.681  4.4000  6.4540  6.8320 -13.711  4.4000  6.4540  6.8320  0.6413  1669.4  208.61 -8.6019  1.8308 -4.7879 
  1670.000 -38.861  4.2200  6.4180  6.7060 -13.894  4.2200  6.4180  6.7060  0.6417  1669.9  208.60 -8.6068  1.8281 -4.7933 
  1670.500 -39.040  4.0760  6.3820  6.6350 -14.076  4.0760  6.3820  6.6350  0.6421  1670.4  208.59 -8.6117  1.8254 -4.7987 
  1671.000 -39.310  4.1490  6.4190  6.7440 -14.349  4.1490  6.4190  6.7440  0.6425  1670.9  208.58 -8.6167  1.8227 -4.8040 
  1671.500 -39.581  4.2220  6.6000  6.9240 -14.623  4.2220  6.6000  6.9240  0.6429  1671.4  208.57 -8.6216  1.8200 -4.8094 
  1672.000 -39.940  4.2940  6.8530  7.1050 -14.985  4.2940  6.8530  7.1050  0.6434  1671.9  208.56 -8.6265  1.8174 -4.8148 
  1672.500 -39.305  4.3670  7.0340  7.2860 -14.353  4.3670  7.0340  7.2860  0.6438  1672.4  208.55 -8.6315  1.8147 -4.8202 
  1673.000 -38.670  4.4390  7.1780  7.2680 -13.721  4.4390  7.1780  7.2680  0.6442  1672.9  208.54 -8.6364  1.8120 -4.8256 
  1673.500 -37.399  4.6200  7.0710  7.2510 -12.453  4.6200  7.0710  7.2510  0.6446  1673.4  208.53 -8.6413  1.8093 -4.8310 
  1674.000 -36.311  4.5850  6.8190  7.1790 -11.368  4.5850  6.8190  7.1790  0.6450  1673.9  208.52 -8.6463  1.8066 -4.8364 
  1674.500 -34.680  4.4770  6.6210  7.0000 -9.7404  4.4770  6.6210  7.0000  0.6454  1674.4  208.51 -8.6512  1.8039 -4.8418 
  1675.000 -32.322  4.2250  6.4230  6.7120 -7.3855  4.2250  6.4230  6.7120  0.6459  1674.9  208.50 -8.6562  1.8012 -4.8472 
  1675.500 -31.053  4.0460  5.9200  6.3520 -6.1195  4.0460  5.9200  6.3520  0.6463  1675.4  208.49 -8.6611  1.7985 -4.8526 
  1676.000 -30.327  3.8840  5.7760  6.1370 -5.3965  3.8840  5.7760  6.1370  0.6467  1675.9  208.48 -8.6661  1.7959 -4.8580 
  1676.500 -30.236  3.7220  5.6680  5.9570 -5.3086  3.7220  5.6680  5.9570  0.6471  1676.4  208.47 -8.6711  1.7932 -4.8634 
  1677.000 -30.144  3.3630  5.5610  5.8850 -5.2196  3.3630  5.5610  5.8850  0.6475  1676.9  208.46 -8.6760  1.7905 -4.8688 
  1677.500 -30.141  3.1470  5.3810  5.8680 -5.2197  3.1470  5.3810  5.8680  0.6479  1677.4  208.45 -8.6810  1.7878 -4.8742 
  1678.000 -30.863  2.9670  5.3820  5.8500 -5.9447  2.9670  5.3820  5.8500  0.6484  1677.9  208.44 -8.6860  1.7851 -4.8797 
  1678.500 -31.315  3.0040  5.4190  5.9950 -6.3997  3.0040  5.4190  5.9950  0.6488  1678.4  208.43 -8.6910  1.7824 -4.8851 
  1679.000 -31.767  3.0410  5.5630  6.3200 -6.8548  3.0410  5.5630  6.3200  0.6492  1678.9  208.42 -8.6959  1.7797 -4.8905 
  1679.500 -33.031  3.1130  5.8520  6.6450 -8.1218  3.1130  5.8520  6.6450  0.6496  1679.4  208.41 -8.7009  1.7770 -4.8960 
  1680.000 -34.296  3.4380  6.0330  7.1500 -9.3898  3.4380  6.0330  7.1500  0.6500  1679.9  208.40 -8.7059  1.7743 -4.9014 
  1680.500 -35.743  3.7990  6.3580  7.5830 -10.840  3.7990  6.3580  7.5830  0.6504  1680.4  208.39 -8.7109  1.7716 -4.9068 
  1681.000 -36.829  4.0880  6.8630  7.8350 -11.929  4.0880  6.8630  7.8350  0.6509  1680.9  208.38 -8.7159  1.7689 -4.9123 
  1681.500 -37.916  4.2320  7.3310  8.1600 -13.019  4.2320  7.3310  8.1600  0.6513  1681.4  208.37 -8.7209  1.7662 -4.9177 
  1682.000 -43.707  4.7010  7.8000  8.5930 -18.813  4.7010  7.8000  8.5930  0.6517  1681.9  208.36 -8.7259  1.7635 -4.9232 
