~Version Information
VERS.                     2.0: CWLS log ASCII Standard Version 2.00
WRAP.                      NO: One line per depth step
~Well Information Block
#MNEM.UNIT                               Data Type  Information
#---------                               ---------  -----------
STRT.FT                                   350.0000:
STOP.FT                                  6830.0000:
STEP.FT                                     0.5000:
NULL.                 -999.25                     :
COMP.                                             :COMPANY            
WELL.     CCMO 78-20                              :WELL               
FLD .                                             :FIELD              
CTRY.                                             :COUNTRY            
STAT.                                             :STATE              
LOC .                                             :LOCATION           
UWI .                                             :UNIQUE WELL ID     
SRVC.                                             :Service company    
DATE.                                             :LOG DATE           
~Curve Information
#MNEM.UNIT           API CODE  Curve Description
#---------           --------  -----------------
DEPT.FT                      :   1 DEPTH
SP  .MV                      :   2
AM10.OHMM                    :   3
AO10.OHMM                    :   4
AO19.OHMM                    :   5
SBL .MV                      :   6
RS  .OHMM                    :   7
RM  .OHMM                    :   8
RD  .OHMM                    :   9
DEVI.DEG                     :  10
TVD .FT                      :  11
AZIM.DEG                     :  12
NORT.FT                      :  13
EAST.FT                      :  14
OFFS.FT                      :  15
~A
# ...
  2495.000 -41.707  8.1100  7.6770  9.1190 -22.286  8.1100  7.6770  9.1190  0.4167  2494.9  208.50 -13.512 -4.1520 -12.490 
  2495.500 -44.601  8.7950  8.0020  9.5520 -25.183  8.7950  8.0020  9.5520  0.4167  2495.4  208.05 -13.515 -4.1538 -12.494 
  2496.000 -48.218  9.4440  8.8670  9.9130 -28.804  9.4440  8.8670  9.9130  0.4167  2495.9  207.60 -13.519 -4.1554 -12.497 
  2496.500 -52.016  10.382  8.9940  10.346 -32.606  10.382  8.9940  10.346  0.4167  2496.4  207.15 -13.522 -4.1571 -12.501 
  2497.000 -54.367  10.959  9.1200  10.544 -34.961  10.959  9.1200  10.544  0.4167  2496.9  206.70 -13.525 -4.1587 -12.504 
  2497.500 -56.718  11.356  9.3010  10.743 -37.316  11.356  9.3010  10.743  0.4167  2497.4  206.25 -13.528 -4.1603 -12.508 
  2498.000 -58.707  11.590  9.4810  11.067 -39.309  11.590  9.4810  11.067  0.4167  2497.9  205.80 -13.532 -4.1619 -12.511 
  2498.500 -59.792  11.825  9.5530  11.248 -40.397  11.825  9.5530  11.248  0.4167  2498.4  205.35 -13.535 -4.1635 -12.515 
  2499.000 -60.876  12.221  9.6260  11.320 -41.485  12.221  9.6260  11.320  0.4167  2498.9  204.90 -13.538 -4.1650 -12.518 
  2499.500 -61.960  14.168  9.8420  11.410 -42.573  14.168  9.8420  11.410  0.4167  2499.4  204.45 -13.541 -4.1665 -12.521 
  2500.000 -62.321  14.601  9.9500  11.501 -42.938  14.601  9.9500  11.501  0.4167  2499.9  204.00 -13.545 -4.1680 -12.525 
  2500.500 -62.321  14.781  10.095  11.519 -42.942  14.781  10.095  11.519  0.4146  2500.4  204.78 -13.548 -4.1695 -12.528 
  2501.000 -62.140  14.781  10.167  11.537 -42.765  14.781  10.167  11.537  0.4125  2500.9  205.56 -13.551 -4.1711 -12.532 
  2501.500 -62.140  14.745  10.275  11.501 -42.768  14.745  10.275  11.501  0.4105  2501.4  206.34 -13.554 -4.1727 -12.535 
  2502.000 -61.869  14.637  10.437  11.465 -42.501  14.637  10.437  11.465  0.4084  2501.9  207.12 -13.558 -4.1743 -12.538 
  2502.500 -61.598  14.529  10.599  11.284 -42.234  14.529  10.599  11.284  0.4063  2502.4  207.90 -13.561 -4.1759 -12.542 
  2503.000 -61.055  14.096  10.960  11.212 -41.695  14.096  10.960  11.212  0.4042  2502.9  208.68 -13.564 -4.1776 -12.545 
  2503.500 -60.784  13.808  11.284  11.140 -41.428  13.808  11.284  11.140  0.4021  2503.4  209.46 -13.567 -4.1794 -12.549 
  2504.000 -60.513  13.664  11.465  10.996 -41.161  13.664  11.465  10.996  0.4000  2503.9  210.24 -13.570 -4.1811 -12.552 
  2504.500 -59.427  13.502  11.627  10.744 -40.078  13.502  11.627  10.744  0.3980  2504.4  211.02 -13.573 -4.1829 -12.555 
  2505.000 -58.884  13.339  11.789  10.527 -39.539  13.339  11.789  10.527  0.3959  2504.9  211.80 -13.576 -4.1847 -12.559 
  2505.500 -58.342  13.087  12.186  10.383 -39.001  13.087  12.186  10.383  0.3938  2505.4  212.58 -13.579 -4.1866 -12.562 
  2506.000 -57.980  12.835  12.546  10.167 -38.643  12.835  12.546  10.167  0.3917  2505.9  213.36 -13.582 -4.1885 -12.565 
  2506.500 -57.618  12.294  12.943  9.9500 -38.285  12.294  12.943  9.9500  0.3896  2506.4  214.14 -13.584 -4.1904 -12.569 
  2507.000 -57.166  11.861  14.493  9.8420 -37.836  11.861  14.493  9.8420  0.3875  2506.9  214.92 -13.587 -4.1923 -12.572 
  2507.500 -56.714  10.311  15.070  9.5900 -37.388  10.311  15.070  9.5900  0.3855  2507.4  215.70 -13.590 -4.1943 -12.575 
  2508.000 -55.809  10.095  15.394  9.4460 -36.487  10.095  15.394  9.4460  0.3834  2507.9  216.48 -13.593 -4.1962 -12.579 
  2508.500 -55.447  9.8780  15.683  9.3020 -36.129  9.8780  15.683  9.3020  0.3813  2508.4  217.26 -13.595 -4.1983 -12.582 
  2509.000 -55.085  9.6620  15.971  9.0850 -35.771  9.6620  15.971  9.0850  0.3792  2508.9  218.04 -13.598 -4.2003 -12.585 
  2509.500 -54.724  9.4100  16.151  8.9050 -35.414  9.4100  16.151  8.9050  0.3771  2509.4  218.82 -13.600 -4.2024 -12.588 
  2510.000 -53.819  9.3200  16.404  8.8690 -34.512  9.3200  16.404  8.8690  0.3750  2509.9  219.60 -13.603 -4.2045 -12.592 
  2510.500 -53.819  9.2290  16.548  8.9050 -34.516  9.2290  16.548  8.9050  0.3730  2510.4  220.38 -13.605 -4.2066 -12.595 
  2511.000 -55.447  9.0490  16.909  8.9770 -36.148  9.0490  16.909  8.9770  0.3709  2510.9  221.16 -13.608 -4.2087 -12.598 
  2511.500 -56.171  9.5900  17.089  9.0850 -36.876  9.5900  17.089  9.0850  0.3688  2511.4  221.94 -13.610 -4.2108 -12.601 
  2512.000 -56.895  11.104  17.485  9.3380 -37.604  11.104  17.485  9.3380  0.3667  2511.9  222.72 -13.613 -4.2130 -12.605 
  2512.500 -59.427  11.573  17.882  10.023 -40.140  11.573  17.882  10.023  0.3646  2512.4  223.50 -13.615 -4.2152 -12.608 
  2513.000 -60.874  12.078  18.242  10.527 -41.590  12.078  18.242  10.527  0.3625  2512.9  224.28 -13.617 -4.2174 -12.611 
  2513.500 -61.779  12.294  18.639  10.834 -42.499  12.294  18.639  10.834  0.3605  2513.4  225.06 -13.619 -4.2196 -12.614 
  2514.000 -63.588  12.943  19.324  11.140 -44.312  12.943  19.324  11.140  0.3584  2513.9  225.84 -13.622 -4.2219 -12.617 
  2514.500 -63.769  13.808  19.937  11.699 -44.497  13.808  19.937  11.699  0.3563  2514.4  226.62 -13.624 -4.2241 -12.620 
  2515.000 -64.221  14.277  20.550  12.258 -44.953  14.277  20.550  12.258  0.3542  2514.9  227.40 -13.626 -4.2264 -12.623 
  2515.500 -64.674  14.565  20.970  13.051 -45.410  14.565  20.970  13.051  0.3521  2515.4  228.18 -13.628 -4.2287 -12.627 
  2516.000 -64.945  14.962  21.391  13.592 -45.684  14.962  21.391  13.592  0.3500  2515.9  228.96 -13.630 -4.2310 -12.630 
  2516.500 -65.216  14.962  21.811  14.241 -45.959  14.962  21.811  14.241  0.3480  2516.4  229.74 -13.632 -4.2333 -12.633 
  2517.000 -65.035  14.854  22.232  15.106 -45.782  14.854  22.232  15.106  0.3459  2516.9  230.52 -13.634 -4.2357 -12.636 
  2517.500 -65.035  14.745  22.653  16.260 -45.786  14.745  22.653  16.260  0.3438  2517.4  231.30 -13.636 -4.2380 -12.639 
  2518.000 -64.764  14.493  23.073  16.836 -45.519  14.493  23.073  16.836  0.3417  2517.9  232.08 -13.637 -4.2404 -12.642 
  2518.500 -64.493  14.367  23.074  17.197 -45.252  14.367  23.074  17.197  0.3396  2518.4  232.86 -13.639 -4.2427 -12.644 
  2519.000 -63.769  14.241  23.074  17.594 -44.531  14.241  23.074  17.594  0.3375  2518.9  233.64 -13.641 -4.2451 -12.647 
  2519.500 -63.407  13.952  23.434  17.882 -44.173  13.952  23.434  17.882  0.3355  2519.4  234.42 -13.643 -4.2475 -12.650 
  2520.000 -63.045  13.736  23.434  17.936 -43.815  13.736  23.434  17.936  0.3334  2519.9  235.20 -13.644 -4.2499 -12.653 
  2520.500 -61.055  13.448  23.074  17.990 -41.829  13.448  23.074  17.990  0.3313  2520.4  235.98 -13.646 -4.2523 -12.656 
  2521.000 -59.608  13.357  23.074  17.882 -40.386  13.357  23.074  17.882  0.3292  2520.9  236.76 -13.648 -4.2547 -12.659 
  2521.500 -57.618  13.267  21.992  17.594 -38.400  13.267  21.992  17.594  0.3271  2521.4  237.54 -13.649 -4.2571 -12.662 
  2522.000 -56.533  12.582  21.632  17.233 -37.318  12.582  21.632  17.233  0.3250  2521.9  238.32 -13.651 -4.2595 -12.664 
  2522.500 -54.362  9.5540  21.091  16.764 -35.151  9.5540  21.091  16.764  0.3229  2522.4  239.10 -13.652 -4.2619 -12.667 
  2523.000 -53.095  8.3640  20.550  16.007 -33.888  8.3640  20.550  16.007  0.3209  2522.9  239.88 -13.653 -4.2643 -12.670 
  2523.500 -52.915  7.9320  18.026  15.466 -33.712  7.9320  18.026  15.466  0.3188  2523.4  240.66 -13.655 -4.2667 -12.672 
  2524.000 -53.276  7.7150  16.945  14.998 -34.077  7.7150  16.945  14.998  0.3167  2523.9  241.44 -13.656 -4.2692 -12.675 
  2524.500 -53.638  7.4990  16.224  14.385 -34.443  7.4990  16.224  14.385  0.3146  2524.4  242.22 -13.657 -4.2716 -12.678 
  2525.000 -54.724  8.3640  16.584  14.385 -35.532  8.3640  16.584  14.385  0.3125  2524.9  243.00 -13.659 -4.2740 -12.680 
  2525.500 -55.990  8.9410  16.944  14.601 -36.802  8.9410  16.944  14.601  0.3104  2525.4  243.78 -13.660 -4.2765 -12.683 
  2526.000 -56.895  10.924  18.026  15.502 -37.711  10.924  18.026  15.502  0.3084  2525.9  244.56 -13.661 -4.2789 -12.685 
  2526.500 -57.799  11.266  19.468  16.368 -38.619  11.266  19.468  16.368  0.3063  2526.4  245.34 -13.662 -4.2813 -12.688 
  2527.000 -59.608  11.609  21.271  17.557 -40.432  11.609  21.271  17.557  0.3042  2526.9  246.12 -13.663 -4.2837 -12.690 
