~Version Information
VERS.                     2.0: CWLS log ASCII Standard Version 2.00
WRAP.                      NO: One line per depth step
~Well Information Block
#MNEM.UNIT                               Data Type  Information
#---------                               ---------  -----------
STRT.FT                                   350.0000:
STOP.FT                                  6830.0000:
STEP.FT                                     0.5000:
NULL.                 -999.25                     :
COMP.                                             :COMPANY            
WELL.     CCMO 78-20                              :WELL               
FLD .                                             :FIELD              
CTRY.                                             :COUNTRY            
STAT.                                             :STATE              
LOC .                                             :LOCATION           
UWI .                                             :UNIQUE WELL ID     
SRVC.                                             :Service company    
DATE.                                             :LOG DATE           
~Curve Information
#MNEM.UNIT           API CODE  Curve Description
#---------           --------  -----------------
DEPT.FT                      :   1 DEPTH
SP  .MV                      :   2
AM10.OHMM                    :   3
AO10.OHMM                    :   4
AO19.OHMM                    :   5
SBL .MV                      :   6
RS  .OHMM                    :   7
RM  .OHMM                    :   8
RD  .OHMM                    :   9
DEVI.DEG                     :  10
TVD .FT                      :  11
AZIM.DEG                     :  12
NORT.FT                      :  13
EAST.FT                      :  14
OFFS.FT                      :  15
~A
   350.000 -999.25  0.3600 -999.25 -999.25 -999.25  0.3600 -999.25 -999.25  0.4584  349.99  63.000  1.7953  0.2067  1.4156 
   350.500 -36.634  0.8270 -999.25 -999.25 -4.6340  0.8270 -999.25 -999.25  0.4579  350.49  63.630  1.7971  0.2102  1.4194 
   351.000 -38.805  1.5110 -999.25 -999.25 -6.8050  1.5110 -999.25 -999.25  0.4575  350.99  64.260  1.7988  0.2138  1.4232 
   351.500 -39.711  2.3020 -999.25 -999.25 -7.7110  2.3020 -999.25 -999.25  0.4571  351.49  64.890  1.8005  0.2175  1.4269 
   352.000 -42.064  10.741 -999.25 -999.25 -10.064  10.741 -999.25 -999.25  0.4567  351.99  65.520  1.8021  0.2211  1.4306 
   352.500 -44.055  19.180 -999.25 -999.25 -12.055  19.180 -999.25 -999.25  0.4563  352.49  66.150  1.8038  0.2247  1.4343 
   353.000 -45.503  19.791 -999.25 -999.25 -13.503  19.791 -999.25 -999.25  0.4559  352.99  66.780  1.8053  0.2284  1.4380 
   353.500 -47.494  19.863 -999.25 -999.25 -15.494  19.863 -999.25 -999.25  0.4554  353.49  67.410  1.8068  0.2321  1.4417 
   354.000 -48.942  19.898 -999.25 -999.25 -16.942  19.898 -999.25 -999.25  0.4550  353.99  68.040  1.8083  0.2357  1.4454 
   354.500 -50.571  19.862 -999.25 -999.25 -18.571  19.862 -999.25 -999.25  0.4546  354.49  68.670  1.8098  0.2394  1.4490 
   355.000 -51.657  19.790 -999.25 -999.25 -19.657  19.790 -999.25 -999.25  0.4542  354.99  69.300  1.8112  0.2431  1.4526 
   355.500 -51.658  18.710 -999.25 -999.25 -19.658  18.710 -999.25 -999.25  0.4538  355.49  69.930  1.8125  0.2469  1.4562 
   356.000 -51.659  17.917 -999.25 -999.25 -19.659  17.917 -999.25 -999.25  0.4534  355.99  70.560  1.8139  0.2506  1.4598 
   356.500 -51.660  16.999 -999.25 -999.25 -19.660  16.999 -999.25 -999.25  0.4529  356.49  71.190  1.8151  0.2543  1.4633 
   357.000 -51.480  16.081 -999.25 -999.25 -19.480  16.081 -999.25 -999.25  0.4525  356.99  71.820  1.8164  0.2581  1.4668 
   357.500 -51.481  11.799 -999.25 -999.25 -19.481  11.799 -999.25 -999.25  0.4521  357.49  72.450  1.8175  0.2618  1.4703 
   358.000 -51.482  10.719 -999.25 -999.25 -19.482  10.719 -999.25 -999.25  0.4517  357.99  73.080  1.8187  0.2656  1.4738 
   358.500 -51.663  8.0550 -999.25 -999.25 -19.663  8.0550 -999.25 -999.25  0.4513  358.49  73.710  1.8198  0.2694  1.4773 
   359.000 -51.845  7.8030 -999.25 -999.25 -19.845  7.8030 -999.25 -999.25  0.4509  358.99  74.340  1.8209  0.2732  1.4807 
   359.500 -52.208  7.7670 -999.25 -999.25 -20.208  7.7670 -999.25 -999.25  0.4504  359.49  74.970  1.8219  0.2770  1.4841 
   360.000 -52.571  7.8380  0.6770 -999.25 -20.571  7.8380  0.6770 -999.25  0.4500  359.99  75.600  1.8229  0.2808  1.4875 
   360.500 -53.838  8.0180  1.4320 -999.25 -21.838  8.0180  1.4320 -999.25  0.4496  360.49  76.230  1.8238  0.2846  1.4909 
   361.000 -54.381  8.1610  6.0380 -999.25 -22.381  8.1610  6.0380 -999.25  0.4492  360.99  76.860  1.8247  0.2884  1.4942 
   361.500 -54.925  8.2690  10.644 -999.25 -22.925  8.2690  10.644 -999.25  0.4488  361.49  77.490  1.8255  0.2922  1.4975 
   362.000 -54.564  8.4120  15.250 -999.25 -22.564  8.4120  15.250 -999.25  0.4484  361.99  78.120  1.8263  0.2961  1.5008 
   362.500 -54.203  8.5200  19.856 -999.25 -22.203  8.5200  19.856 -999.25  0.4479  362.49  78.750  1.8271  0.2999  1.5040 
   363.000 -53.842  8.7360  19.922 -999.25 -21.842  8.7360  19.922 -999.25  0.4475  362.99  79.380  1.8278  0.3037  1.5072 
   363.500 -53.843  9.0950  19.987 -999.25 -21.843  9.0950  19.987 -999.25  0.4471  363.49  80.010  1.8285  0.3076  1.5104 
   364.000 -54.025  9.4550  20.052 -999.25 -22.025  9.4550  20.052 -999.25  0.4467  363.99  80.640  1.8291  0.3114  1.5136 
   364.500 -54.297  9.7420  21.368 -999.25 -22.297  9.7420  21.368 -999.25  0.4463  364.49  81.270  1.8297  0.3153  1.5167 
   365.000 -54.570  9.9940  22.684 -999.25 -22.570  9.9940  22.684 -999.25  0.4459  364.99  81.900  1.8303  0.3191  1.5198 
   365.500 -55.475  10.137  24.000 -999.25 -23.475  10.137  24.000 -999.25  0.4454  365.49  82.530  1.8308  0.3230  1.5229 
   366.000 -55.928  10.137  24.356 -999.25 -23.928  10.137  24.356 -999.25  0.4450  365.99  83.160  1.8312  0.3268  1.5260 
   366.500 -56.382  9.8850  23.633 -999.25 -24.382  9.8850  23.633 -999.25  0.4446  366.49  83.790  1.8317  0.3307  1.5290 
   367.000 -56.111  9.6320  20.751 -999.25 -24.111  9.6320  20.751 -999.25  0.4442  366.99  84.420  1.8320  0.3345  1.5320 
   367.500 -55.841  9.3080  18.588 -999.25 -23.841  9.3080  18.588 -999.25  0.4438  367.49  85.050  1.8324  0.3384  1.5350 
   368.000 -54.575  9.3800  17.145 -999.25 -22.575  9.3800  17.145 -999.25  0.4434  367.99  85.680  1.8327  0.3423  1.5379 
   368.500 -54.214  9.6310  16.061 -999.25 -22.214  9.6310  16.061 -999.25  0.4429  368.49  86.310  1.8329  0.3461  1.5408 
   369.000 -53.853  10.423  16.418  0.4610 -21.853  10.423  16.418  0.4610  0.4425  368.99  86.940  1.8331  0.3500  1.5437 
   369.500 -53.854  12.798  16.414  5.2920 -21.854  12.798  16.414  5.2920  0.4421  369.49  87.570  1.8333  0.3538  1.5465 
   370.000 -54.397  13.553  17.130  10.123 -22.397  13.553  17.130  10.123  0.4417  369.99  88.200  1.8334  0.3577  1.5493 
   370.500 -54.760  14.092  18.206  14.954 -22.760  14.092  18.206  14.954  0.4413  370.49  88.830  1.8335  0.3615  1.5521 
   371.000 -55.214  14.560  19.282  19.786 -23.214  14.560  19.282  19.786  0.4409  370.99  89.460  1.8335  0.3654  1.5549 
   371.500 -55.667  15.207  21.078  20.076 -23.667  15.207  21.078  20.076  0.4404  371.49  90.090  1.8335  0.3692  1.5576 
   372.000 -56.391  15.675  22.874  24.212 -24.391  15.675  22.874  24.212  0.4400  371.99  90.720  1.8335  0.3731  1.5602 
   372.500 -56.935  15.890  23.950  28.348 -24.935  15.890  23.950  28.348  0.4396  372.49  91.350  1.8334  0.3769  1.5629 
   373.000 -57.117  16.430  24.666  30.147 -25.117  16.430  24.666  30.147  0.4392  372.99  91.980  1.8332  0.3807  1.5655 
   373.500 -56.937  16.303  24.662  30.684 -24.937  16.303  24.662  30.684  0.4388  373.49  92.610  1.8331  0.3846  1.5681 
   374.000 -56.757  16.177  24.838  31.222 -24.757  16.177  24.838  31.222  0.4384  373.99  93.240  1.8328  0.3884  1.5706 
   374.500 -56.578  15.997  25.014  32.661 -24.578  15.997  25.014  32.661  0.4379  374.49  93.870  1.8326  0.3922  1.5732 
   375.000 -56.036  15.816  25.371  32.659 -24.036  15.816  25.371  32.659  0.4375  374.99  94.500  1.8323  0.3960  1.5756 
   375.500 -55.494  15.384  25.728  33.016 -23.494  15.384  25.728  33.016  0.4371  375.49  95.130  1.8319  0.3998  1.5781 
   376.000 -55.314  15.348  26.804  33.374 -23.314  15.348  26.804  33.374  0.4367  375.99  95.760  1.8316  0.4036  1.5805 
   376.500 -55.134  15.815  27.880  34.813 -23.134  15.815  27.880  34.813  0.4363  376.49  96.390  1.8311  0.4074  1.5829 
   377.000 -55.225  15.743  29.676  35.890 -23.225  15.743  29.676  35.890  0.4359  376.99  97.020  1.8307  0.4111  1.5852 
   377.500 -55.317  15.671  31.111  36.608 -23.317  15.671  31.111  36.608  0.4354  377.49  97.650  1.8302  0.4149  1.5875 
   378.000 -55.679  15.454  33.267  37.686 -23.679  15.454  33.267  37.686  0.4350  377.99  98.280  1.8296  0.4187  1.5898 
   378.500 -55.680  15.346  35.063  38.224 -23.680  15.346  35.063  38.224  0.4346  378.49  98.910  1.8290  0.4224  1.5920 
   379.000 -55.681  15.238  36.859  38.761 -23.681  15.238  36.859  38.761  0.4342  378.99  99.540  1.8284  0.4262  1.5942 
   379.500 -55.681  15.094  39.374  40.200 -23.681  15.094  39.374  40.200  0.4338  379.49  100.17  1.8277  0.4299  1.5964 
   380.000 -55.501  14.913  41.890  39.298 -23.501  14.913  41.890  39.298  0.4334  379.99  100.80  1.8270  0.4336  1.5985 
   380.500 -55.322  14.733  42.606  38.396 -23.322  14.733  42.606  38.396  0.4329  380.49  101.43  1.8263  0.4373  1.6006 
   381.000 -55.142  14.517  41.882  31.558 -23.142  14.517  41.882  31.558  0.4325  380.99  102.06  1.8255  0.4410  1.6026 
   381.500 -54.510  13.653  40.079  26.518 -22.510  13.653  40.079  26.518  0.4321  381.49  102.69  1.8247  0.4447  1.6047 
   382.000 -53.877  12.645  38.636  25.076 -21.877  12.645  38.636  25.076  0.4317  381.99  103.32  1.8238  0.4483  1.6066 
