~Version Information
VERS.                     2.0: CWLS log ASCII Standard Version 2.00
WRAP.                      NO: One line per depth step
~Well Information Block
#MNEM.UNIT                               Data Type  Information
#---------                               ---------  -----------
STRT.FT                                   350.0000:
STOP.FT                                  6830.0000:
STEP.FT                                     0.5000:
NULL.                 -999.25                     :
COMP.                                             :COMPANY            
WELL.     CCMO 78-20                              :WELL               
FLD .                                             :FIELD              
CTRY.                                             :COUNTRY            
STAT.                                             :STATE              
LOC .                                             :LOCATION           
UWI .                                             :UNIQUE WELL ID     
SRVC.                                             :Service company    
DATE.                                             :LOG DATE           
~Curve Information
#MNEM.UNIT           API CODE  Curve Description
#---------           --------  -----------------
DEPT.FT                      :   1 DEPTH
SP  .MV                      :   2
AM10.OHMM                    :   3
AO10.OHMM                    :   4
AO19.OHMM                    :   5
SBL .MV                      :   6
RS  .OHMM                    :   7
RM  .OHMM                    :   8
RD  .OHMM                    :   9
DEVI.DEG                     :  10
TVD .FT                      :  11
AZIM.DEG                     :  12
NORT.FT                      :  13
EAST.FT                      :  14
OFFS.FT                      :  15
~A
# ...
  6785.000 -88.859  19.178  3.9570  4.5100 -76.859  19.178  3.9570  4.5100  0.8917  6784.7  186.75 -30.960 -1.0649 -22.645 
  6785.500 -88.842  19.500  4.3540  4.6370 -76.842  19.500  4.3540  4.6370  0.8925  6785.2  186.53 -30.968 -1.0658 -22.651 
  6786.000 -88.826  19.822  4.6790  4.7820 -76.826  19.822  4.6790  4.7820  0.8934  6785.7  186.30 -30.976 -1.0667 -22.657 
  6786.500 -88.809  20.144  5.2200  4.8910 -76.809  20.144  5.2200  4.8910  0.8942  6786.2  186.08 -30.984 -1.0675 -22.664 
  6787.000 -88.793  20.466  5.7620  5.0720 -76.793  20.466  5.7620  5.0720  0.8950  6786.7  185.85 -30.991 -1.0683 -22.670 
  6787.500 -88.776  21.624  6.3750  5.1260 -76.776  21.624  6.3750  5.1260  0.8959  6787.2  185.63 -30.999 -1.0690 -22.676 
  6788.000 -88.759  22.782  7.0250  5.1810 -76.759  22.782  7.0250  5.1810  0.8967  6787.7  185.40 -31.007 -1.0698 -22.682 
  6788.500 -88.743  23.939  12.472  5.2900 -76.743  23.939  12.472  5.2900  0.8975  6788.2  185.18 -31.015 -1.0705 -22.688 
  6789.000 -88.726  25.097  12.869  5.3260 -76.726  25.097  12.869  5.3260  0.8984  6788.7  184.95 -31.023 -1.0712 -22.694 
  6789.500 -88.710  26.255  14.456  5.3270 -76.710  26.255  14.456  5.3270  0.8992  6789.2  184.73 -31.030 -1.0718 -22.700 
  6790.000 -88.693  26.799  14.781  5.3270 -76.693  26.799  14.781  5.3270  0.9000  6789.7  184.50 -31.038 -1.0724 -22.706 
  6790.500 -88.677  27.343  15.214  5.4000 -76.677  27.343  15.214  5.4000  0.9009  6790.2  184.28 -31.046 -1.0730 -22.712 
  6791.000 -88.660  28.069  15.395  5.4730 -76.660  28.069  15.395  5.4730  0.9017  6790.7  184.05 -31.054 -1.0736 -22.718 
  6791.500 -88.643  27.712  15.756  5.5450 -76.643  27.712  15.756  5.5450  0.9025  6791.2  183.83 -31.062 -1.0741 -22.723 
  6792.000 -88.627  27.355  16.225  5.7620 -76.627  27.355  16.225  5.7620  0.9034  6791.7  183.60 -31.070 -1.0746 -22.729 
  6792.500 -88.610  32.769  16.875  5.9070 -76.610  32.769  16.875  5.9070  0.9042  6792.2  183.38 -31.077 -1.0751 -22.735 
  6793.000 -88.594  34.215  17.344  6.5210 -76.594  34.215  17.344  6.5210  0.9050  6792.7  183.15 -31.085 -1.0755 -22.741 
  6793.500 -84.438  35.301  17.813  6.6660 -72.438  35.301  17.813  6.6660  0.9059  6793.2  182.93 -31.093 -1.0759 -22.747 
  6794.000 -80.644  33.862  18.210  6.8100 -68.644  33.862  18.210  6.8100  0.9067  6793.7  182.70 -31.101 -1.0763 -22.753 
  6794.500 -77.572  29.234  18.607  5.8730 -65.572  29.234  18.607  5.8730  0.9075  6794.2  182.48 -31.109 -1.0766 -22.759 
  6795.000 -72.875  24.606  19.798  4.0340 -60.875  24.606  19.798  4.0340  0.9084  6794.7  182.25 -31.117 -1.0769 -22.765 
  6795.500 -70.706  19.979  19.546  3.0250 -58.706  19.979  19.546  3.0250  0.9092  6795.2  182.03 -31.125 -1.0772 -22.770 
  6796.000 -32.790  7.4990  17.526  2.5210 -20.790  7.4990  17.526  2.5210  0.9100  6795.7  181.80 -31.133 -1.0775 -22.776 
  6796.500 -28.093  5.9130  13.956  2.6470 -16.093  5.9130  13.956  2.6470  0.9109  6796.2  181.58 -31.141 -1.0777 -22.782 
  6797.000 -21.410  4.0380  13.343  2.7740 -9.4100  4.0380  13.343  2.7740  0.9117  6796.7  181.35 -31.149 -1.0779 -22.788 
  6797.500 -21.769  2.7030  4.3260  3.3880 -9.7690  2.7030  4.3260  3.3880  0.9125  6797.2  181.13 -31.157 -1.0780 -22.793 
  6798.000 -22.037  3.2810  4.8680  3.5690 -10.037  3.2810  4.8680  3.5690  0.9134  6797.7  180.90 -31.165 -1.0781 -22.799 
  6798.500 -22.306  3.4980  5.4810  4.2550 -10.306  3.4980  5.4810  4.2550  0.9142  6798.2  180.68 -31.173 -1.0782 -22.805 
  6799.000 -23.566  3.7140  6.0590  4.9400 -11.566  3.7140  6.0590  4.9400  0.9150  6798.7  180.45 -31.181 -1.0783 -22.811 
  6799.500 -24.285  4.3640  6.7440  5.1210 -12.285  4.3640  6.7440  5.1210  0.9159  6799.2  180.23 -31.189 -1.0783 -22.816 
  6800.000 -25.727  4.7250  6.8890  5.0500 -13.727  4.7250  6.8890  5.0500  0.9167  6799.7  180.00 -31.197 -1.0783 -22.822 
  6800.500 -26.358  4.9760  6.6720  4.7250 -14.358  4.9760  6.6720  4.7250  0.9171  6800.2  180.18 -31.205 -1.0784 -22.828 
  6801.000 -26.988  4.9750  6.2010  4.4360 -14.988  4.9750  6.2010  4.4360  0.9175  6800.7  180.35 -31.213 -1.0784 -22.833 
  6801.500 -26.716  4.5770  5.2990  3.5340 -14.716  4.5770  5.2990  3.5340  0.9180  6801.2  180.53 -31.221 -1.0785 -22.839 
  6802.000 -26.444  3.8910  4.4320  3.6060 -14.444  3.8910  4.4320  3.6060  0.9184  6801.7  180.70 -31.229 -1.0786 -22.845 
  6802.500 -26.622  3.4570  4.0340  3.7500 -14.622  3.4570  4.0340  3.7500  0.9188  6802.2  180.88 -31.237 -1.0787 -22.850 
  6803.000 -26.982  3.1310  4.3570  3.6950 -14.982  3.1310  4.3570  3.6950  0.9192  6802.7  181.05 -31.245 -1.0788 -22.856 
  6803.500 -27.342  2.9850  4.3740  3.6410 -15.342  2.9850  4.3740  3.6410  0.9196  6803.2  181.23 -31.253 -1.0790 -22.862 
  6804.000 -27.701  2.9480  4.3910  3.3880 -15.701  2.9480  4.3910  3.3880  0.9200  6803.7  181.40 -31.261 -1.0792 -22.868 
  6804.500 -27.609  2.9110  4.1730  3.3160 -15.609  2.9110  4.1730  3.3160  0.9205  6804.2  181.58 -31.269 -1.0794 -22.874 
  6805.000 -27.518  2.9100  3.9190  3.2430 -15.518  2.9100  3.9190  3.2430  0.9209  6804.7  181.75 -31.277 -1.0797 -22.880 
  6805.500 -27.154  2.8720  3.7020  3.2070 -15.154  2.8720  3.7020  3.2070  0.9213  6805.2  181.93 -31.285 -1.0799 -22.885 
  6806.000 -26.251  2.8350  3.4840  3.2970 -14.251  2.8350  3.4840  3.2970  0.9217  6805.7  182.10 -31.293 -1.0802 -22.891 
  6806.500 -25.347  2.8160  3.4110  3.3860 -13.347  2.8160  3.4110  3.3860  0.9221  6806.2  182.28 -31.301 -1.0806 -22.897 
  6807.000 -24.261  2.7960  3.3380  3.8550 -12.261  2.7960  3.3380  3.8550  0.9225  6806.7  182.45 -31.309 -1.0809 -22.903 
  6807.500 -24.440  2.7230  3.3000  3.8910 -12.440  2.7230  3.3000  3.8910  0.9230  6807.2  182.63 -31.317 -1.0813 -22.909 
  6808.000 -24.529  2.6500  3.2990  3.9090 -12.529  2.6500  3.2990  3.9090  0.9234  6807.7  182.80 -31.325 -1.0817 -22.915 
  6808.500 -24.618  2.6130  3.2980  3.9260 -12.618  2.6130  3.2980  3.9260  0.9238  6808.2  182.98 -31.333 -1.0821 -22.921 
  6809.000 -24.978  2.5750  3.2970  3.9980 -12.978  2.5750  3.2970  3.9980  0.9242  6808.7  183.15 -31.341 -1.0825 -22.927 
  6809.500 -25.338  2.5380  3.7640  4.0340 -13.338  2.5380  3.7640  4.0340  0.9246  6809.2  183.33 -31.349 -1.0830 -22.933 
  6810.000 -24.433  2.5370  4.0520  4.1600 -12.433  2.5370  4.0520  4.1600  0.9250  6809.7  183.50 -31.357 -1.0835 -22.939 
  6810.500 -23.167  2.7160  5.0240  4.2860 -11.167  2.7160  5.0240  4.2860  0.9255  6810.2  183.68 -31.365 -1.0840 -22.945 
  6811.000 -22.444  2.8950  5.3120  5.2960 -10.444  2.8950  5.3120  5.2960  0.9259  6810.7  183.85 -31.373 -1.0846 -22.951 
  6811.500 -22.442  3.2550  5.3290  5.9800 -10.442  3.2550  5.3290  5.9800  0.9263  6811.2  184.03 -31.381 -1.0851 -22.957 
  6812.000 -22.802  3.3980  5.3450  6.8100 -10.802  3.3980  5.3450  6.8100  0.9267  6811.7  184.20 -31.390 -1.0857 -22.963 
  6812.500 -23.162  3.6130  5.0560  7.1340 -11.162  3.6130  5.0560  7.1340  0.9271  6812.2  184.38 -31.398 -1.0863 -22.970 
  6813.000 -23.522  3.9360  4.4050  7.0260 -11.522  3.9360  4.4050  7.0260  0.9275  6812.7  184.55 -31.406 -1.0870 -22.976 
  6813.500 -24.964  3.8990  4.0790  6.6290 -12.964  3.8990  4.0790  6.6290  0.9280  6813.2  184.73 -31.414 -1.0876 -22.982 
  6814.000 -24.783  3.8620  3.6450  4.9330 -12.783  3.8620  3.6450  4.9330  0.9284  6813.7  184.90 -31.422 -1.0883 -22.988 
  6814.500 -24.601  3.2830  2.8870  4.4460 -12.601  3.2830  2.8870  4.4460  0.9288  6814.2  185.08 -31.430 -1.0890 -22.994 
  6815.000 -23.515  2.7770  2.4170  3.9580 -11.515  2.7770  2.4170  3.9580  0.9292  6814.7  185.25 -31.438 -1.0898 -23.001 
  6815.500 -22.882  2.4880  2.2350  3.7780 -10.882  2.4880  2.2350  3.7780  0.9296  6815.2  185.43 -31.446 -1.0906 -23.007 
  6816.000 -22.249  2.2340  2.1980  3.5970 -10.249  2.2340  2.1980  3.5970  0.9300  6815.7  185.60 -31.454 -1.0914 -23.013 
  6816.500 -20.983  1.9800  2.1600  3.4530 -8.9830  1.9800  2.1600  3.4530  0.9305  6816.2  185.78 -31.462 -1.0922 -23.019 
  6817.000 -20.079  1.7990  2.1590  3.3440 -8.0790  1.7990  2.1590  3.3440  0.9309  6816.7  185.95 -31.470 -1.0930 -23.026 
