~Version Information
VERS.                     2.0: CWLS log ASCII Standard Version 2.00
WRAP.                      NO: One line per depth step
~Well Information Block
#MNEM.UNIT                               Data Type  Information
#---------                               ---------  -----------
STRT.FT                                   360.0000:
STOP.FT                                  7920.0000:
STEP.FT                                     0.5000:
NULL.                 -999.25                     :
COMP.                                             :COMPANY            
WELL.     KCL 12-27                               :WELL               
FLD .                                             :FIELD              
CTRY.                                             :COUNTRY            
STAT.                                             :STATE              
LOC .                                             :LOCATION           
UWI .                                             :UNIQUE WELL ID     
SRVC.                                             :Service company    
DATE.                                             :LOG DATE           
~Curve Information
#MNEM.UNIT           API CODE  Curve Description
#---------           --------  -----------------
DEPT.FT                      :   1 DEPTH
SP  .MV                      :   2
DT  .US/F                    :   3
SP  .MV                      :   4
SN  .OHMM                    :   5
LN  .OHMM                    :   6
SBL .MV                      :   7
RS  .OHMM                    :   8
RD  .OHMM                    :   9
DTS .US/F                    :  10
SPS .MV                      :  11
~A
# ...
  5406.000 -999.25 -999.25 -39.958  4.3720  3.3250 -18.039  4.3720  3.3250 -999.25 -999.25 
  5406.500 -999.25 -999.25 -42.314  4.4450  3.3610 -20.392  4.4450  3.3610 -999.25 -999.25 
  5407.000 -999.25 -999.25 -44.126  4.5170  3.3980 -22.200  4.5170  3.3980 -999.25 -999.25 
  5407.500 -999.25 -999.25 -45.212  4.6260  3.3980 -23.283  4.6260  3.3980 -999.25 -999.25 
  5408.000 -999.25 -999.25 -46.209  4.7340  3.3980 -24.277  4.7340  3.3980 -999.25 -999.25 
  5408.500 -999.25 -999.25 -47.205  4.8430  3.3980 -25.270  4.8430  3.3980 -999.25 -999.25 
  5409.000 -999.25 -999.25 -48.835  4.9330  3.3980 -26.896  4.9330  3.3980 -999.25 -999.25 
  5409.500 -999.25 -999.25 -49.378  5.0240  3.3980 -27.436  5.0240  3.3980 -999.25 -999.25 
  5410.000 -999.25 -999.25 -49.922  5.2770  3.3990 -27.977  5.2770  3.3990 -999.25 -999.25 
  5410.500 -999.25 -999.25 -51.551  5.5300  3.3990 -29.603  5.5300  3.3990 -999.25 -999.25 
  5411.000 -999.25 -999.25 -54.088  5.8190  3.3990 -32.136  5.8190  3.3990 -999.25 -999.25 
  5411.500 -999.25 -999.25 -55.357  6.1800  3.3990 -33.402  6.1800  3.3990 -999.25 -999.25 
  5412.000 -999.25 -999.25 -56.626  6.7950  3.3990 -34.668  6.7950  3.3990 -999.25 -999.25 
  5412.500 -999.25 -999.25 -62.062  7.5530  3.4000 -40.101  7.5530  3.4000 -999.25 -999.25 
  5413.000 -999.25 -999.25 -65.686  7.9510  3.4000 -43.722  7.9510  3.4000 -999.25 -999.25 
  5413.500 -999.25 -999.25 -70.579  8.5650  3.4360 -48.611  8.5650  3.4360 -999.25 -999.25 
  5414.000 -999.25 -999.25 -71.847  8.7460  3.4360 -49.876  8.7460  3.4360 -999.25 -999.25 
  5414.500 -999.25 -999.25 -72.119  8.6920  3.4360 -50.145  8.6920  3.4360 -999.25 -999.25 
  5415.000 -999.25 -999.25 -72.390  8.6370  3.4370 -50.413  8.6370  3.4370 -999.25 -999.25 
  5415.500 -999.25 -999.25 -71.845  8.5110  3.4370 -49.864  8.5110  3.4370 -999.25 -999.25 
  5416.000 -999.25 -999.25 -71.119  8.3850  3.4370 -49.135  8.3850  3.4370 -999.25 -999.25 
  5416.500 -999.25 -999.25 -70.937  7.8800  3.4370 -48.950  7.8800  3.4370 -999.25 -999.25 
  5417.000 -999.25 -999.25 -69.848  7.7350  3.4370 -47.858  7.7350  3.4370 -999.25 -999.25 
  5417.500 -999.25 -999.25 -69.122  7.6270  3.4370 -47.128  7.6270  3.4370 -999.25 -999.25 
  5418.000 -999.25 -999.25 -68.759  7.7000  3.4560 -46.762  7.7000  3.4560 -999.25 -999.25 
  5418.500 -999.25 -999.25 -68.939  7.7360  3.4740 -46.939  7.7360  3.4740 -999.25 -999.25 
  5419.000 -999.25 -999.25 -69.301  7.7720  3.4740 -47.298  7.7720  3.4740 -999.25 -999.25 
  5419.500 -999.25 -999.25 -69.481  7.8090  3.4740 -47.475  7.8090  3.4740 -999.25 -999.25 
  5420.000 -999.25 -999.25 -69.480  7.7730  3.4740 -47.470  7.7730  3.4740 -999.25 -999.25 
  5420.500 -999.25 -999.25 -69.479  7.7010  3.4750 -47.466  7.7010  3.4750 -999.25 -999.25 
  5421.000 -999.25 -999.25 -69.298  7.6650  3.4390 -47.282  7.6650  3.4390 -999.25 -999.25 
  5421.500 -999.25 -999.25 -69.116  7.5560  3.4030 -47.097  7.5560  3.4030 -999.25 -999.25 
  5422.000 -999.25 -999.25 -68.208  7.4840  3.3670 -46.185  7.4840  3.3670 -999.25 -999.25 
  5422.500 -999.25 -999.25 -66.575  7.1960  3.3310 -44.549  7.1960  3.3310 -999.25 -999.25 
  5423.000 -999.25 -999.25 -64.581  7.0510  3.2410 -42.552  7.0510  3.2410 -999.25 -999.25 
  5423.500 -999.25 -999.25 -60.773  6.5820  3.1510 -38.741  6.5820  3.1510 -999.25 -999.25 
  5424.000 -999.25 -999.25 -58.596  6.3290  3.0070 -36.560  6.3290  3.0070 -999.25 -999.25 
  5424.500 -999.25 -999.25 -56.239  5.7880  2.9700 -34.200  5.7880  2.9700 -999.25 -999.25 
  5425.000 -999.25 -999.25 -54.788  5.4630  2.9340 -32.746  5.4630  2.9340 -999.25 -999.25 
  5425.500 -999.25 -999.25 -52.068  4.3430  2.8990 -30.023  4.3430  2.8990 -999.25 -999.25 
  5426.000 -999.25 -999.25 -49.348  3.7660  2.8270 -27.300  3.7660  2.8270 -999.25 -999.25 
  5426.500 -999.25 -999.25 -37.565  3.4050  2.8630 -15.513  3.4050  2.8630 -999.25 -999.25 
  5427.000 -999.25 -999.25 -35.026  3.2970  2.8990 -12.971  3.2970  2.8990 -999.25 -999.25 
  5427.500 -999.25 -999.25 -32.850  3.2240  3.0080 -10.792  3.2240  3.0080 -999.25 -999.25 
  5428.000 -999.25 -999.25 -31.581  3.2970  3.1520 -9.5196  3.2970  3.1520 -999.25 -999.25 
  5428.500 -999.25 -999.25 -31.217  3.4420  3.3330 -9.1524  3.4420  3.3330 -999.25 -999.25 
  5429.000 -999.25 -999.25 -31.216  3.5140  3.3690 -9.1481  3.5140  3.3690 -999.25 -999.25 
  5429.500 -999.25 -999.25 -30.853  3.5860  3.3880 -8.7819  3.5860  3.3880 -999.25 -999.25 
  5430.000 -999.25 -999.25 -30.671  3.6230  3.4060 -8.5967  3.6230  3.4060 -999.25 -999.25 
  5430.500 -999.25 -999.25 -30.488  3.6590  3.4060 -8.4105  3.6590  3.4060 -999.25 -999.25 
  5431.000 -999.25 -999.25 -30.306  3.6590  3.4060 -8.2252  3.6590  3.4060 -999.25 -999.25 
  5431.500 -999.25 -999.25 -30.305  3.6590  3.4060 -8.2210  3.6590  3.4060 -999.25 -999.25 
  5432.000 -999.25 -999.25 -30.304  3.6590  3.4070 -8.2168  3.6590  3.4070 -999.25 -999.25 
  5432.500 -999.25 -999.25 -30.304  3.6600  3.4070 -8.2135  3.6600  3.4070 -999.25 -999.25 
  5433.000 -999.25 -999.25 -30.304  3.6600  3.4070 -8.2103  3.6600  3.4070 -999.25 -999.25 
  5433.500 -999.25 -999.25 -30.302  3.6600  3.3710 -8.2051  3.6600  3.3710 -999.25 -999.25 
  5434.000 -999.25 -999.25 -30.482  3.6600  3.3710 -8.3818  3.6600  3.3710 -999.25 -999.25 
  5434.500 -999.25 -999.25 -30.481  3.6600  3.3710 -8.3776  3.6600  3.3710 -999.25 -999.25 
  5435.000 -999.25 -999.25 -30.662  3.6610  3.3710 -8.5554  3.6610  3.3710 -999.25 -999.25 
  5435.500 -999.25 -999.25 -30.661  3.6610  3.3720 -8.5511  3.6610  3.3720 -999.25 -999.25 
  5436.000 -999.25 -999.25 -30.660  3.6610  3.3720 -8.5469  3.6610  3.3720 -999.25 -999.25 
  5436.500 -999.25 -999.25 -30.659  3.6970  3.3720 -8.5427  3.6970  3.3720 -999.25 -999.25 
  5437.000 -999.25 -999.25 -30.658  3.7330  3.3720 -8.5385  3.7330  3.3720 -999.25 -999.25 
  5437.500 -999.25 -999.25 -30.838  3.8060  3.3720 -8.7152  3.8060  3.3720 -999.25 -999.25 
  5438.000 -999.25 -999.25 -31.019  3.8420  3.4090 -8.8930  3.8420  3.4090 -999.25 -999.25 
  5438.500 -999.25 -999.25 -31.743  3.8600  3.4090 -9.6138  3.8600  3.4090 -999.25 -999.25 
  5439.000 -999.25 -999.25 -32.196  3.8790  3.4090 -10.064  3.8790  3.4090 -999.25 -999.25 
  5439.500 -999.25 -999.25 -32.648  3.9150  3.4090 -10.512  3.9150  3.4090 -999.25 -999.25 
  5440.000 -999.25 -999.25 -32.465  3.8790  3.3370 -10.326  3.8790  3.3370 -999.25 -999.25 
  5440.500 -999.25 -999.25 -31.195  3.6990  3.2650 -9.0528  3.6990  3.2650 -999.25 -999.25 
  5441.000 -999.25 -999.25 -31.557  3.6270  3.2290 -9.4116  3.6270  3.2290 -999.25 -999.25 
  5441.500 -999.25 -999.25 -32.100  3.5540  3.2300 -9.9514  3.5540  3.2300 -999.25 -999.25 
  5442.000 -999.25 -999.25 -32.280  3.5370  3.2300 -10.128  3.5370  3.2300 -999.25 -999.25 
  5442.500 -999.25 -999.25 -31.917  3.5190  3.3020 -9.7619  3.5190  3.3020 -999.25 -999.25 
  5443.000 -999.25 -999.25 -31.554  3.5730  3.3380 -9.3957  3.5730  3.3380 -999.25 -999.25 
  5443.500 -999.25 -999.25 -30.465  3.6270  3.3750 -8.3034  3.6270  3.3750 -999.25 -999.25 
  5444.000 -999.25 -999.25 -30.645  3.7900  3.5920 -8.4802  3.7900  3.5920 -999.25 -999.25 
  5444.500 -999.25 -999.25 -31.188  3.9530  3.7720 -9.0200  3.9530  3.7720 -999.25 -999.25 
  5445.000 -999.25 -999.25 -32.275  4.2780  3.8810 -10.104  4.2780  3.8810 -999.25 -999.25 
  5445.500 -999.25 -999.25 -33.905  4.4590  3.9890 -11.731  4.4590  3.9890 -999.25 -999.25 
  5446.000 -999.25 -999.25 -34.992  4.6400  4.0260 -12.814  4.6400  4.0260 -999.25 -999.25 
  5446.500 -999.25 -999.25 -36.260  5.0370  4.0260 -14.079  5.0370  4.0260 -999.25 -999.25 
  5447.000 -999.25 -999.25 -37.528  5.1460  4.0620 -15.344  5.1460  4.0620 -999.25 -999.25 
  5447.500 -999.25 -999.25 -36.983  5.1460  4.0440 -14.796  5.1460  4.0440 -999.25 -999.25 
  5448.000 -999.25 -999.25 -36.076  5.1100  4.0260 -13.885  5.1100  4.0260 -999.25 -999.25 
  5448.500 -999.25 -999.25 -36.256  5.0020  4.0270 -14.062  5.0020  4.0270 -999.25 -999.25 
  5449.000 -999.25 -999.25 -36.618  4.9660  3.8820 -14.421  4.9660  3.8820 -999.25 -999.25 
