~Version Information
VERS.                     2.0: CWLS log ASCII Standard Version 2.00
WRAP.                      NO: One line per depth step
~Well Information Block
#MNEM.UNIT                               Data Type  Information
#---------                               ---------  -----------
STRT.FT                                   370.0000:
STOP.FT                                  6980.0000:
STEP.FT                                     0.5000:
NULL.                 -999.25                     :
COMP.                                             :COMPANY            
WELL.     KCL 13-X                                :WELL               
FLD .                                             :FIELD              
CTRY.                                             :COUNTRY            
STAT.                                             :STATE              
LOC .                                             :LOCATION           
UWI .                                             :UNIQUE WELL ID     
SRVC.                                             :Service company    
DATE.                                             :LOG DATE           
~Curve Information
#MNEM.UNIT           API CODE  Curve Description
#---------           --------  -----------------
DEPT.FT                      :   1 DEPTH
SP  .MV                      :   2
SN  .OHMM                    :   3
ILD .OHMM                    :   4
SBL .MV                      :   5
RS  .OHMM                    :   6
RD  .OHMM                    :   7
~A
   370.000 -999.25  32.990  17.720 -999.25  32.990  17.720 
   370.500 -999.25  52.447  25.977 -999.25  52.447  25.977 
   371.000 -999.25  55.724  34.044 -999.25  55.724  34.044 
   371.500 -2.8170  58.203  39.472  31.183  58.203  39.472 
   372.000 -4.5730  60.682  172.44  29.427  60.682  172.44 
   372.500 -6.3290  69.466  183.85  27.671  69.466  183.85 
   373.000 -16.451  74.176  182.59  17.549  74.176  182.59 
   373.500 -18.565  78.732  167.69  15.435  78.732  167.69 
   374.000 -22.512  80.572  127.68  11.488  80.572  127.68 
   374.500 -26.619  81.857  118.44  7.3810  81.857  118.44 
   375.000 -28.733  82.667  98.210  5.2670  82.667  98.210 
   375.500 -30.848  82.553  90.326  3.1520  82.553  90.326 
   376.000 -35.593  82.439  78.857 -1.5930  82.439  78.857 
   376.500 -37.947  81.738  46.264 -3.9470  81.738  46.264 
   377.000 -40.500  81.306  37.426 -6.5000  81.306  37.426 
   377.500 -43.133  80.874  28.667 -9.1330  80.874  28.667 
   378.000 -45.626  80.007  27.676 -11.626  80.007  27.676 
   378.500 -48.118  79.140  26.686 -14.118  79.140  26.686 
   379.000 -50.154  77.673  50.615 -16.154  77.673  50.615 
   379.500 -52.190  76.207  63.379 -18.190  76.207  63.379 
   380.000 -54.266  73.118  82.680 -20.266  73.118  82.680 
   380.500 -56.023  72.007  91.141 -22.023  72.007  91.141 
   381.000 -56.823  70.896  83.976 -22.823  70.896  83.976 
   381.500 -57.624  67.564  76.330 -23.624  67.564  76.330 
   382.000 -58.544  65.342  67.414 -24.544  65.342  67.414 
   382.500 -59.465  62.801  63.235 -25.465  62.801  63.235 
   383.000 -60.226  60.737  59.056 -26.226  60.737  59.056 
   383.500 -60.987  58.755  66.007 -26.987  58.755  66.007 
   384.000 -61.508  57.289  67.772 -27.508  57.289  67.772 
   384.500 -62.030  55.824  65.470 -28.030  55.824  65.470 
   385.000 -62.552  55.515  69.866 -28.552  55.515  69.866 
   385.500 -63.074  55.206  74.176 -29.074  55.206  74.176 
   386.000 -64.035  55.293  76.818 -30.035  55.293  76.818 
   386.500 -64.637  55.380  76.671 -30.637  55.380  76.671 
   387.000 -64.960  55.472  76.040 -30.960  55.472  76.040 
   387.500 -65.283  55.401  74.457 -31.283  55.401  74.457 
   388.000 -65.506  54.538  71.991 -31.506  54.538  71.991 
   388.500 -65.729  53.347  58.530 -31.729  53.347  58.530 
   389.000 -66.092  49.852  48.339 -32.092  49.852  48.339 
   389.500 -66.236  47.828  44.125 -32.236  47.828  44.125 
   390.000 -66.380  45.804  42.139 -32.380  45.804  42.139 
   390.500 -66.265  43.426  40.396 -32.265  43.426  40.396 
   391.000 -66.189  42.795  40.083 -32.189  42.795  40.083 
   391.500 -66.113  42.168  39.770 -32.113  42.168  39.770 
   392.000 -66.159  41.895  39.860 -32.159  41.895  39.860 
   392.500 -66.403  41.621  39.949 -32.403  41.621  39.949 
   393.000 -66.845  41.235  40.038 -32.845  41.235  40.038 
   393.500 -67.248  40.849  40.373 -33.248  40.849  40.373 
   394.000 -67.691  40.724  40.341 -33.691  40.724  40.341 
   394.500 -67.614  40.600  40.309 -33.614  40.600  40.309 
   395.000 -67.538  40.475  40.401 -33.538  40.475  40.401 
   395.500 -66.987  40.252  40.492 -32.987  40.252  40.492 
   396.000 -66.811  40.379  41.299 -32.811  40.379  41.299 
   396.500 -66.635  40.506  42.107 -32.635  40.506  42.107 
   397.000 -66.700  40.939  44.348 -32.700  40.939  44.348 
   397.500 -66.764  41.373  46.826 -32.764  41.373  46.826 
   398.000 -67.128  41.807  49.707 -33.128  41.807  49.707 
   398.500 -67.430  42.781  51.870 -33.430  42.781  51.870 
   399.000 -67.733  43.108  53.473 -33.733  43.108  53.473 
   399.500 -67.896  43.394  54.359 -33.896  43.394  54.359 
   400.000 -68.059  43.679  54.646 -34.059  43.679  54.646 
   400.500 -68.161  44.250  54.933 -34.161  44.250  54.933 
   401.000 -68.262  44.821  54.313 -34.262  44.821  54.313 
   401.500 -68.323  45.396  50.733 -34.323  45.396  50.733 
   402.000 -68.385  45.404  47.475 -34.385  45.404  47.475 
   402.500 -68.426  45.179  46.368 -34.426  45.179  46.368 
   403.000 -68.467  45.029  45.261 -34.467  45.029  45.261 
   403.500 -68.509  44.879  46.707 -34.509  44.879  46.707 
   404.000 -68.511  44.811  48.153 -34.511  44.811  48.153 
   404.500 -68.512  44.901  52.952 -34.512  44.901  52.952 
   405.000 -68.594  44.990  55.553 -34.594  44.990  55.553 
   405.500 -68.677  45.565  58.154 -34.677  45.565  58.154 
   406.000 -68.757  45.970  62.074 -34.757  45.970  62.074 
   406.500 -68.837  47.174  66.470 -34.837  47.174  66.470 
   407.000 -69.118  48.378  71.582 -35.118  48.378  71.582 
   407.500 -69.399  50.548  73.503 -35.399  50.548  73.503 
   408.000 -69.560  51.472  75.423 -35.560  51.472  75.423 
   408.500 -69.720  52.396  71.536 -35.720  52.396  71.536 
   409.000 -69.841  53.690  70.347 -35.841  53.690  70.347 
   409.500 -69.961  53.303  69.158 -35.961  53.303  69.158 
   410.000 -70.282  52.555  67.695 -36.282  52.555  67.695 
   410.500 -70.603  51.806  66.232 -36.603  51.806  66.232 
   411.000 -69.729  51.105  66.330 -35.729  51.105  66.330 
   411.500 -69.212  51.195  67.734 -35.212  51.195  67.734 
   412.000 -68.696  53.363  69.139 -34.696  53.363  69.139 
   412.500 -69.135  54.804  89.319 -35.135  54.804  89.319 
   413.000 -69.575  56.207  106.79 -35.575  56.207  106.79 
   413.500 -69.896  57.611  124.42 -35.896  57.611  124.42 
   414.000 -70.216  59.097  136.22 -36.216  59.097  136.22 
   414.500 -70.417  60.584  141.50 -36.417  60.584  141.50 
   415.000 -70.617  62.275  143.50 -36.617  62.275  143.50 
   415.500 -70.978  62.764  134.03 -36.978  62.764  134.03 
   416.000 -71.099  62.853  133.24 -37.099  62.853  133.24 
   416.500 -71.219  62.389  132.46 -37.219  62.389  132.46 
   417.000 -71.340  62.079  131.75 -37.340  62.079  131.75 
   417.500 -71.461  60.659  129.77 -37.461  60.659  129.77 
   418.000 -71.543  59.395  126.27 -37.543  59.395  126.27 
   418.500 -71.625  58.803  123.01 -37.625  58.803  123.01 
   419.000 -71.626  58.212  116.41 -37.626  58.212  116.41 
   419.500 -71.627  56.868  78.477 -37.627  56.868  78.477 
   420.000 -71.608  55.524  72.587 -37.608  55.524  72.587 
   420.500 -71.590  54.219  64.867 -37.590  54.219  64.867 
   421.000 -71.512  52.914  60.414 -37.512  52.914  60.414 
   421.500 -71.434  51.332  56.200 -37.434  51.332  56.200 
   422.000 -71.382  49.750  52.150 -37.382  49.750  52.150 
   422.500 -71.331  46.340  50.165 -37.331  46.340  50.165 
   423.000 -71.279  44.198  47.629 -37.279  44.198  47.629 
   423.500 -71.214  42.216  46.998 -37.214  42.216  46.998 
   424.000 -71.149  40.791  46.902 -37.149  40.791  46.902 
   424.500 -71.085  40.085  46.807 -37.085  40.085  46.807 
   425.000 -71.049  39.696  46.711 -37.049  39.696  46.711 
   425.500 -71.089  39.306  47.605 -37.089  39.306  47.605 
   426.000 -71.130  38.880  48.254 -37.130  38.880  48.254 
   426.500 -71.212  38.454  48.981 -37.212  38.454  48.981 
   427.000 -71.133  38.228  49.149 -37.133  38.228  49.149 
   427.500 -71.055  38.002  48.203 -37.055  38.002  48.203 
   428.000 -70.917  38.052  47.256 -36.917  38.052  47.256 
   428.500 -70.779  38.102  47.532 -36.779  38.102  47.532 
   429.000 -70.681  38.193  47.808 -36.681  38.193  47.808 
   429.500 -70.583  38.284  48.084 -36.583  38.284  48.084 
   430.000 -70.843  38.427  48.973 -36.843  38.427  48.973 
   430.500 -71.104  38.570  49.861 -37.104  38.570  49.861 
   431.000 -71.505  38.714  50.750 -37.505  38.714  50.750 
   431.500 -71.586  39.083  51.798 -37.586  39.083  51.798 
   432.000 -71.508  39.451  52.846 -37.508  39.451  52.846 
   432.500 -71.430  39.820  54.537 -37.430  39.820  54.537 
   433.000 -71.392  40.189  55.182 -37.392  40.189  55.182 
   433.500 -71.354  40.718  56.066 -37.354  40.718  56.066 
   434.000 -71.356  41.248  56.951 -37.356  41.248  56.951 
   434.500 -71.456  42.620  58.278 -37.456  42.620  58.278 
   435.000 -71.557  43.909  59.605 -37.557  43.909  59.605 
   435.500 -71.878  45.834  65.361 -37.878  45.834  65.361 
   436.000 -72.198  48.154  71.910 -38.198  48.154  71.910 
   436.500 -72.399  52.235  85.633 -38.399  52.235  85.633 
