~Version Information
VERS.                     2.0: CWLS log ASCII Standard Version 2.00
WRAP.                      NO: One line per depth step
~Well Information Block
#MNEM.UNIT                               Data Type  Information
#---------                               ---------  -----------
STRT.FT                                   360.0000:
STOP.FT                                  7920.0000:
STEP.FT                                     0.5000:
NULL.                 -999.25                     :
COMP.                                             :COMPANY            
WELL.     KCL 12-27                               :WELL               
FLD .                                             :FIELD              
CTRY.                                             :COUNTRY            
STAT.                                             :STATE              
LOC .                                             :LOCATION           
UWI .                                             :UNIQUE WELL ID     
SRVC.                                             :Service company    
DATE.                                             :LOG DATE           
~Curve Information
#MNEM.UNIT           API CODE  Curve Description
#---------           --------  -----------------
DEPT.FT                      :   1 DEPTH
SP  .MV                      :   2
DT  .US/F                    :   3
SP  .MV                      :   4
SN  .OHMM                    :   5
LN  .OHMM                    :   6
SBL .MV                      :   7
RS  .OHMM                    :   8
RD  .OHMM                    :   9
DTS .US/F                    :  10
SPS .MV                      :  11
~A
# ...
  7885.500 -84.191  89.766 -102.30  4.7660  1.8810 -94.298  4.7660  1.8810  89.545 -83.897 
  7886.000 -83.830  89.495 -100.67  4.9460  1.8810 -92.673  4.9460  1.8810  89.495 -80.953 
  7886.500 -80.397  89.495 -99.544  5.0540  1.8810 -91.544  5.0540  1.8810  89.573 -79.775 
  7887.000 -79.675  89.585 -98.416  5.5590  2.0610 -90.416  5.5590  2.0610  89.186 -79.516 
  7887.500 -79.495  89.134 -97.287  6.2800  2.1150 -89.287  6.2800  2.1150  88.562 -79.333 
  7888.000 -79.316  88.503 -96.159  6.8210  2.1690 -88.159  6.8210  2.1690  82.968 -79.317 
  7888.500 -79.317  82.552 -96.161  7.9390  2.3850 -88.161  7.9390  2.3850  78.599 -79.835 
  7889.000 -79.860  78.404 -96.705  8.7330  2.3840 -88.705  8.7330  2.3840  74.003 -81.096 
  7889.500 -81.126  73.895 -97.792  8.7860  2.3840 -89.792  8.7860  2.3840  72.004 -83.112 
  7890.000 -83.114  72.002 -98.517  8.8400  2.3840 -90.517  8.8400  2.3840  72.994 -85.103 
  7890.500 -85.103  72.994 -99.242  8.2630  2.3300 -91.242  8.2630  2.3300  73.895 -84.381 
  7891.000 -84.381  73.895 -101.96  5.8820  2.2760 -93.957  5.8820  2.2760  84.806 -84.382 
  7891.500 -84.382  84.806 -102.32  5.2330  2.1670 -94.320  5.2330  2.1670  85.888 -84.383 
  7892.000 -84.383  85.888 -102.68  5.1970  2.0590 -94.683  5.1970  2.0590  87.151 -84.926 
  7892.500 -84.926  87.151 -103.59  5.1970  1.9860 -95.590  5.1970  1.9860  87.601 -82.578 
  7893.000 -82.578  87.601 -102.51  5.5570  1.9500 -94.506  5.5570  1.9500  83.995 -82.217 
  7893.500 -82.217  83.995 -101.24  6.0980  1.9500 -93.242  6.0980  1.9500  82.642 -82.218 
  7894.000 -82.218  82.642 -101.06  6.6390  1.9500 -93.063  6.6390  1.9500  81.740 -82.219 
  7894.500 -82.219  81.740 -100.70  6.9270  1.9320 -92.704  6.9270  1.9320  80.117 -82.220 
  7895.000 -82.220  80.117 -100.89  6.9450  1.9130 -92.886  6.9450  1.9130  78.765 -82.944 
  7895.500 -82.944  78.765 -101.07  6.9630  1.8410 -93.069  6.9630  1.8410  77.412 -83.667 
  7896.000 -83.667  77.412 -101.61  6.7460  1.7690 -93.613  6.7460  1.7690  76.240 -84.753 
  7896.500 -84.753  76.240 -101.80  6.4210  1.7330 -93.796  6.4210  1.7330  82.732 -84.754 
  7897.000 -84.754  82.732 -102.52  5.8080  1.6960 -94.521  5.8080  1.6960  83.995 -84.754 
  7897.500 -84.754  83.995 -103.79  5.4830  1.6240 -95.788  5.4830  1.6240  85.077 -84.665 
  7898.000 -84.665  85.077 -104.69  5.0860  1.6060 -96.694  5.0860  1.6060  86.790 -84.576 
  7898.500 -84.576  86.790 -105.60  5.1220  1.5880 -97.600  5.1220  1.5880  87.060 -84.215 
  7899.000 -84.215  87.060 -107.41  5.2120  1.5870 -99.411  5.2120  1.5870  86.970 -84.758 
  7899.500 -84.758  86.970 -108.41  5.3020  1.5690 -100.41  5.3020  1.5690 -999.25 -85.663 
  7900.000 -85.663 -999.25 -109.40  5.7350  1.5510 -101.40  5.7350  1.5510 -999.25 -999.25 
  7900.500 -999.25 -999.25 -110.67  6.1310  1.5500 -102.67  6.1310  1.5500 -999.25 -999.25 
  7901.000 -999.25 -999.25 -111.02  6.6350  1.5490 -103.02  6.6350  1.5490 -999.25 -999.25 
  7901.500 -999.25 -999.25 -112.28  7.1030  1.5480 -104.28  7.1030  1.5480 -999.25 -999.25 
  7902.000 -999.25 -999.25 -112.64  7.9310  1.5830 -104.64  7.9310  1.5830 -999.25 -999.25 
  7902.500 -999.25 -999.25 -112.46  8.3990  1.5820 -104.46  8.3990  1.5820 -999.25 -999.25 
  7903.000 -999.25 -999.25 -111.00  8.8310  1.5820 -103.00  8.8310  1.5820 -999.25 -999.25 
  7903.500 -999.25 -999.25 -109.55  8.7220  1.5810 -101.55  8.7220  1.5810 -999.25 -999.25 
  7904.000 -999.25 -999.25 -108.82  8.6130  1.5620 -100.82  8.6130  1.5620 -999.25 -999.25 
  7904.500 -999.25 -999.25 -108.10  8.1430  1.5430 -100.10  8.1430  1.5430 -999.25 -999.25 
  7905.000 -999.25 -999.25 -106.28  7.7820  1.5600 -98.284  7.7820  1.5600 -999.25 -999.25 
  7905.500 -999.25 -999.25 -105.92  7.4920  1.5770 -97.918  7.4920  1.5770 -999.25 -999.25 
  7906.000 -999.25 -999.25 -104.83  7.0230  1.5580 -96.828  7.0230  1.5580 -999.25 -999.25 
  7906.500 -999.25 -999.25 -104.28  6.8770  1.5390 -96.281  6.8770  1.5390 -999.25 -999.25 
  7907.000 -999.25 -999.25 -104.00  6.8040  1.5380 -96.005  6.8040  1.5380 -999.25 -999.25 
  7907.500 -999.25 -999.25 -103.73  6.7310  1.5370 -95.729  6.7310  1.5370 -999.25 -999.25 
  7908.000 -999.25 -999.25 -103.64  6.6580  1.5370 -95.635  6.6580  1.5370 -999.25 -999.25 
  7908.500 -999.25 -999.25 -103.54  6.6210  1.5360 -95.540  6.6210  1.5360 -999.25 -999.25 
  7909.000 -999.25 -999.25 -103.54  6.5840  1.5350 -95.535  6.5840  1.5350 -999.25 -999.25 
  7909.500 -999.25 -999.25 -103.53  6.5830  1.5340 -95.531  6.5830  1.5340 -999.25 -999.25 
  7910.000 -999.25 -999.25 -103.53  6.5820  1.5150 -95.526  6.5820  1.5150 -999.25 -999.25 
  7910.500 -999.25 -999.25 -103.52  6.5820  1.4960 -95.522  6.5820  1.4960 -999.25 -999.25 
  7911.000 -999.25 -999.25 -103.52  6.5810  1.4950 -95.517  6.5810  1.4950 -999.25 -999.25 
  7911.500 -999.25 -999.25 -103.51  6.5800  1.4940 -95.513  6.5800  1.4940 -999.25 -999.25 
  7912.000 -999.25 -999.25 -103.51  6.5790  1.4930 -95.508  6.5790  1.4930 -999.25 -999.25 
  7912.500 -999.25 -999.25 -103.59  6.5780  1.5280 -95.594  6.5780  1.5280 -999.25 -999.25 
  7913.000 -999.25 -999.25 -103.68  6.5770  1.5270 -95.680  6.5770  1.5270 -999.25 -999.25 
  7913.500 -999.25 -999.25 -103.77  6.5760  1.5630 -95.766  6.5760  1.5630 -999.25 -999.25 
  7914.000 -999.25 -999.25 -103.85  6.5750  1.5800 -95.852  6.5750  1.5800 -999.25 -999.25 
  7914.500 -999.25 -999.25 -103.94  6.5740  1.5970 -95.938  6.5740  1.5970 -999.25 -999.25 
  7915.000 -999.25 -999.25 -104.02  6.5740  1.7400 -96.023  6.5740  1.7400 -999.25 -999.25 
  7915.500 -999.25 -999.25 -104.20  6.5730  2.1000 -96.200  6.5730  2.1000 -999.25 -999.25 
  7916.000 -999.25 -999.25 -104.26  6.5720  2.1170 -96.256  6.5720  2.1170 -999.25 -999.25 
  7916.500 -999.25 -999.25 -104.31  6.5890  2.1340 -96.311  6.5890  2.1340 -999.25 -999.25 
  7917.000 -999.25 -999.25 -104.37  6.6060  2.1520 -96.367  6.6060  2.1520 -999.25 -999.25 
  7917.500 -999.25 -999.25 -104.45  6.6050  2.1690 -96.453  6.6050  2.1690 -999.25 -999.25 
  7918.000 -999.25 -999.25 -104.54  6.6040  2.1680 -96.539  6.6040  2.1680 -999.25 -999.25 
  7918.500 -999.25 -999.25 -104.62  6.6030  2.1670 -96.624  6.6030  2.1670 -999.25 -999.25 
  7919.000 -999.25 -999.25 -104.71  6.6020  2.1660 -96.710  6.6020  2.1660 -999.25 -999.25 
  7919.500 -999.25 -999.25 -104.71  6.6010  2.2010 -96.706  6.6010  2.2010 -999.25 -999.25 
  7920.000 -999.25 -999.25 -104.70  6.6010  2.2000 -96.701  6.6010  2.2000 -999.25 -999.25 
