~Version Information
VERS.                     2.0: CWLS log ASCII Standard Version 2.00
WRAP.                      NO: One line per depth step
~Well Information Block
#MNEM.UNIT                               Data Type  Information
#---------                               ---------  -----------
STRT.FT                                   360.0000:
STOP.FT                                  7920.0000:
STEP.FT                                     0.5000:
NULL.                 -999.25                     :
COMP.                                             :COMPANY            
WELL.     KCL 12-27                               :WELL               
FLD .                                             :FIELD              
CTRY.                                             :COUNTRY            
STAT.                                             :STATE              
LOC .                                             :LOCATION           
UWI .                                             :UNIQUE WELL ID     
SRVC.                                             :Service company    
DATE.                                             :LOG DATE           
~Curve Information
#MNEM.UNIT           API CODE  Curve Description
#---------           --------  -----------------
DEPT.FT                      :   1 DEPTH
SP  .MV                      :   2
DT  .US/F                    :   3
SP  .MV                      :   4
SN  .OHMM                    :   5
LN  .OHMM                    :   6
SBL .MV                      :   7
RS  .OHMM                    :   8
RD  .OHMM                    :   9
DTS .US/F                    :  10
SPS .MV                      :  11
~A
# ...
  4405.500 -999.25 -999.25 -20.131  2.8960  2.7510 -3.3946  2.8960  2.7510 -999.25 -999.25 
  4406.000 -999.25 -999.25 -19.858  2.8970  2.7880 -3.1260  2.8970  2.7880 -999.25 -999.25 
  4406.500 -999.25 -999.25 -19.766  2.8970  2.8250 -3.0383  2.8970  2.8250 -999.25 -999.25 
  4407.000 -999.25 -999.25 -19.674  2.8980  2.8980 -2.9507  2.8980  2.8980 -999.25 -999.25 
  4407.500 -999.25 -999.25 -19.490  2.8990  2.8990 -2.7710  2.8990  2.8990 -999.25 -999.25 
  4408.000 -999.25 -999.25 -19.307  2.9000  2.8640 -2.5924  2.9000  2.8640 -999.25 -999.25 
  4408.500 -999.25 -999.25 -19.306  2.9000  2.8460 -2.5958  2.9000  2.8460 -999.25 -999.25 
  4409.000 -999.25 -999.25 -19.305  2.9010  2.8290 -2.5991  2.9010  2.8290 -999.25 -999.25 
  4409.500 -999.25 -999.25 -19.483  2.9020  2.7570 -2.7815  2.9020  2.7570 -999.25 -999.25 
  4410.000 -999.25 -999.25 -19.481  2.9020  2.7580 -2.7838  2.9020  2.7580 -999.25 -999.25 
  4410.500 -999.25 -999.25 -19.479  2.9390  2.7590 -2.7862  2.9390  2.7590 -999.25 -999.25 
  4411.000 -999.25 -999.25 -19.658  2.9760  2.7960 -2.9695  2.9760  2.7960 -999.25 -999.25 
  4411.500 -999.25 -999.25 -19.837  3.0130  2.8320 -3.1529  3.0130  2.8320 -999.25 -999.25 
  4412.000 -999.25 -999.25 -20.196  3.2670  2.9780 -3.5163  3.2670  2.9780 -999.25 -999.25 
  4412.500 -999.25 -999.25 -20.556  3.3760  3.1230 -3.8806  3.3760  3.1230 -999.25 -999.25 
  4413.000 -999.25 -999.25 -20.826  3.4840  3.2320 -4.1550  3.4840  3.2320 -999.25 -999.25 
  4413.500 -999.25 -999.25 -21.096  3.7380  3.2690 -4.4293  3.7380  3.2690 -999.25 -999.25 
  4414.000 -999.25 -999.25 -23.261  3.9550  3.3420 -6.5987  3.9550  3.3420 -999.25 -999.25 
  4414.500 -999.25 -999.25 -25.428  4.2090  3.4150 -8.7700  4.2090  3.4150 -999.25 -999.25 
  4415.000 -999.25 -999.25 -27.054  4.4980  3.4510 -10.400  4.4980  3.4510 -999.25 -999.25 
  4415.500 -999.25 -999.25 -32.293  4.8240  3.4880 -15.644  4.8240  3.4880 -999.25 -999.25 
  4416.000 -999.25 -999.25 -35.725  5.2940  3.5070 -19.080  5.2940  3.5070 -999.25 -999.25 
  4416.500 -999.25 -999.25 -37.530  5.5470  3.5260 -20.889  5.5470  3.5260 -999.25 -999.25 
  4417.000 -999.25 -999.25 -40.781  5.8730  3.5440 -24.145  5.8730  3.5440 -999.25 -999.25 
  4417.500 -999.25 -999.25 -42.948  6.1260  3.5630 -26.316  6.1260  3.5630 -999.25 -999.25 
  4418.000 -999.25 -999.25 -44.573  5.6580  3.5820 -27.946  5.6580  3.5820 -999.25 -999.25 
  4418.500 -999.25 -999.25 -45.836  6.0560  3.6010 -29.213  6.0560  3.6010 -999.25 -999.25 
  4419.000 -999.25 -999.25 -47.280  6.3450  3.6380 -30.661  6.3450  3.6380 -999.25 -999.25 
  4419.500 -999.25 -999.25 -48.904  6.6710  3.6380 -32.290  6.6710  3.6380 -999.25 -999.25 
  4420.000 -999.25 -999.25 -50.348  6.8520  3.6390 -33.738  6.8520  3.6390 -999.25 -999.25 
  4420.500 -999.25 -999.25 -52.154  7.0700  3.6400 -35.548  7.0700  3.6400 -999.25 -999.25 
  4421.000 -999.25 -999.25 -53.598  7.1420  3.6220 -36.997  7.1420  3.6220 -999.25 -999.25 
  4421.500 -999.25 -999.25 -55.584  7.0710  3.6050 -38.987  7.0710  3.6050 -999.25 -999.25 
  4422.000 -999.25 -999.25 -55.763  7.0360  3.5700 -39.170  7.0360  3.5700 -999.25 -999.25 
  4422.500 -999.25 -999.25 -55.580  7.0360  3.5700 -38.992  7.0360  3.5700 -999.25 -999.25 
  4423.000 -999.25 -999.25 -55.489  7.1090  3.5710 -38.905  7.1090  3.5710 -999.25 -999.25 
  4423.500 -999.25 -999.25 -55.397  7.2540  3.5540 -38.817  7.2540  3.5540 -999.25 -999.25 
  4424.000 -999.25 -999.25 -55.213  7.3270  3.5360 -38.638  7.3270  3.5360 -999.25 -999.25 
  4424.500 -999.25 -999.25 -54.127  7.2560  3.5370 -37.556  7.2560  3.5370 -999.25 -999.25 
  4425.000 -999.25 -999.25 -53.222  7.1120  3.5380 -36.656  7.1120  3.5380 -999.25 -999.25 
  4425.500 -999.25 -999.25 -51.955  6.7160  3.5390 -35.393  6.7160  3.5390 -999.25 -999.25 
  4426.000 -999.25 -999.25 -48.339  6.3550  3.5390 -31.781  6.3550  3.5390 -999.25 -999.25 
  4426.500 -999.25 -999.25 -45.265  6.0310  3.5040 -28.712  6.0310  3.5040 -999.25 -999.25 
  4427.000 -999.25 -999.25 -42.914  5.5990  3.5050 -26.365  5.5990  3.5050 -999.25 -999.25 
  4427.500 -999.25 -999.25 -41.828  5.4550  3.4690 -25.283  5.4550  3.4690 -999.25 -999.25 
  4428.000 -999.25 -999.25 -40.742  5.3830  3.4700 -24.202  5.3830  3.4700 -999.25 -999.25 
  4428.500 -999.25 -999.25 -41.644  5.4930  3.4710 -25.108  5.4930  3.4710 -999.25 -999.25 
  4429.000 -999.25 -999.25 -42.545  5.6020  3.4720 -26.013  5.6020  3.4720 -999.25 -999.25 
  4429.500 -999.25 -999.25 -43.809  5.6390  3.4720 -27.282  5.6390  3.4720 -999.25 -999.25 
  4430.000 -999.25 -999.25 -45.072  5.5670  3.5090 -28.549  5.5670  3.5090 -999.25 -999.25 
  4430.500 -999.25 -999.25 -45.071  5.4960  3.5100 -28.552  5.4960  3.5100 -999.25 -999.25 
  4431.000 -999.25 -999.25 -45.070  5.5140  3.5470 -28.556  5.5140  3.5470 -999.25 -999.25 
  4431.500 -999.25 -999.25 -45.609  5.5330  3.5830 -29.099  5.5330  3.5830 -999.25 -999.25 
  4432.000 -999.25 -999.25 -46.330  5.7500  3.6560 -29.825  5.7500  3.6560 -999.25 -999.25 
  4432.500 -999.25 -999.25 -47.412  6.0760  3.6930 -30.911  6.0760  3.6930 -999.25 -999.25 
  4433.000 -999.25 -999.25 -48.133  6.4020  3.7300 -31.636  6.4020  3.7300 -999.25 -999.25 
  4433.500 -999.25 -999.25 -49.758  6.9800  3.8030 -33.266  6.9800  3.8030 -999.25 -999.25 
  4434.000 -999.25 -999.25 -50.840  7.7390  3.8400 -34.352  7.7390  3.8400 -999.25 -999.25 
  4434.500 -999.25 -999.25 -53.188  8.1370  3.9130 -36.704  8.1370  3.9130 -999.25 -999.25 
  4435.000 -999.25 -999.25 -53.909  8.2630  3.9500 -37.430  8.2630  3.9500 -999.25 -999.25 
  4435.500 -999.25 -999.25 -55.172  8.3900  3.9500 -38.697  8.3900  3.9500 -999.25 -999.25 
  4436.000 -999.25 -999.25 -55.170  8.2830  3.9150 -38.699  8.2830  3.9150 -999.25 -999.25 
  4436.500 -999.25 -999.25 -54.898  8.0670  3.9160 -38.432  8.0670  3.9160 -999.25 -999.25 
  4437.000 -999.25 -999.25 -54.626  7.2380  3.8800 -38.164  7.2380  3.8800 -999.25 -999.25 
  4437.500 -999.25 -999.25 -53.539  6.8770  3.8450 -37.081  6.8770  3.8450 -999.25 -999.25 
  4438.000 -999.25 -999.25 -53.175  6.6980  3.8270 -36.722  6.6980  3.8270 -999.25 -999.25 
  4438.500 -999.25 -999.25 -51.909  6.5180  3.8100 -35.460  6.5180  3.8100 -999.25 -999.25 
  4439.000 -999.25 -999.25 -51.365  6.5190  3.7930 -34.921  6.5190  3.7930 -999.25 -999.25 
  4439.500 -999.25 -999.25 -51.905  6.6270  3.7760 -35.465  6.6270  3.7760 -999.25 -999.25 
  4440.000 -999.25 -999.25 -52.445  6.7360  3.7400 -36.009  6.7360  3.7400 -999.25 -999.25 
  4440.500 -999.25 -999.25 -52.624  6.9180  3.7050 -36.193  6.9180  3.7050 -999.25 -999.25 
  4441.000 -999.25 -999.25 -52.261  6.9190  3.7060 -35.834  6.9190  3.7060 -999.25 -999.25 
  4441.500 -999.25 -999.25 -51.808  6.9190  3.7060 -35.385  6.9190  3.7060 -999.25 -999.25 
  4442.000 -999.25 -999.25 -51.355  6.8840  3.7070 -34.937  6.8840  3.7070 -999.25 -999.25 
  4442.500 -999.25 -999.25 -50.811  6.7760  3.7080 -34.397  6.7760  3.7080 -999.25 -999.25 
  4443.000 -999.25 -999.25 -50.267  6.6330  3.7090 -33.857  6.6330  3.7090 -999.25 -999.25 
  4443.500 -999.25 -999.25 -49.361  6.3810  3.7090 -32.956  6.3810  3.7090 -999.25 -999.25 
  4444.000 -999.25 -999.25 -49.358  6.2370  3.7100 -32.957  6.2370  3.7100 -999.25 -999.25 
  4444.500 -999.25 -999.25 -49.356  6.2020  3.6750 -32.959  6.2020  3.6750 -999.25 -999.25 
  4445.000 -999.25 -999.25 -49.354  6.4190  3.6930 -32.962  6.4190  3.6930 -999.25 -999.25 
  4445.500 -999.25 -999.25 -49.714  6.6000  3.7120 -33.326  6.6000  3.7120 -999.25 -999.25 
  4446.000 -999.25 -999.25 -50.796  6.9620  3.7310 -34.413  6.9620  3.7310 -999.25 -999.25 
  4446.500 -999.25 -999.25 -51.248  7.2150  3.7490 -34.869  7.2150  3.7490 -999.25 -999.25 
  4447.000 -999.25 -999.25 -51.699  7.3240  3.8230 -35.324  7.3240  3.8230 -999.25 -999.25 
  4447.500 -999.25 -999.25 -53.864  7.5420  3.8230 -37.494  7.5420  3.8230 -999.25 -999.25 
  4448.000 -999.25 -999.25 -54.225  7.6510  3.8060 -37.859  7.6510  3.8060 -999.25 -999.25 
  4448.500 -999.25 -999.25 -53.862  7.6520  3.7880 -37.500  7.6520  3.7880 -999.25 -999.25 
