~Version Information
VERS.                     2.0: CWLS log ASCII Standard Version 2.00
WRAP.                      NO: One line per depth step
~Well Information Block
#MNEM.UNIT                               Data Type  Information
#---------                               ---------  -----------
STRT.FT                                   360.0000:
STOP.FT                                  7920.0000:
STEP.FT                                     0.5000:
NULL.                 -999.25                     :
COMP.                                             :COMPANY            
WELL.     KCL 12-27                               :WELL               
FLD .                                             :FIELD              
CTRY.                                             :COUNTRY            
STAT.                                             :STATE              
LOC .                                             :LOCATION           
UWI .                                             :UNIQUE WELL ID     
SRVC.                                             :Service company    
DATE.                                             :LOG DATE           
~Curve Information
#MNEM.UNIT           API CODE  Curve Description
#---------           --------  -----------------
DEPT.FT                      :   1 DEPTH
SP  .MV                      :   2
DT  .US/F                    :   3
SP  .MV                      :   4
SN  .OHMM                    :   5
LN  .OHMM                    :   6
SBL .MV                      :   7
RS  .OHMM                    :   8
RD  .OHMM                    :   9
DTS .US/F                    :  10
SPS .MV                      :  11
~A
# ...
  4884.000 -999.25 -999.25 -27.556  3.6590  3.0820 -9.0100  3.6590  3.0820 -999.25 -999.25 
  4884.500 -999.25 -999.25 -31.168  3.9130  3.1540 -12.619  3.9130  3.1540 -999.25 -999.25 
  4885.000 -999.25 -999.25 -32.791  4.3110  3.2270 -14.238  4.3110  3.2270 -999.25 -999.25 
  4885.500 -999.25 -999.25 -34.957  4.6000  3.4090 -16.401  4.6000  3.4090 -999.25 -999.25 
  4886.000 -999.25 -999.25 -37.124  4.8900  3.5000 -18.565  4.8900  3.5000 -999.25 -999.25 
  4886.500 -999.25 -999.25 -39.291  5.1430  3.5910 -20.729  5.1430  3.5910 -999.25 -999.25 
  4887.000 -999.25 -999.25 -42.540  5.5050  3.7000 -23.975  5.5050  3.7000 -999.25 -999.25 
  4887.500 -999.25 -999.25 -45.429  6.2280  3.7730 -26.860  6.2280  3.7730 -999.25 -999.25 
  4888.000 -999.25 -999.25 -49.583  6.6620  3.7730 -31.011  6.6620  3.7730 -999.25 -999.25 
  4888.500 -999.25 -999.25 -50.845  6.7160  3.7740 -32.270  6.7160  3.7740 -999.25 -999.25 
  4889.000 -999.25 -999.25 -51.384  6.7710  3.8110 -32.806  6.7710  3.8110 -999.25 -999.25 
  4889.500 -999.25 -999.25 -51.562  6.7720  3.8120 -32.980  6.7720  3.8120 -999.25 -999.25 
  4890.000 -999.25 -999.25 -51.740  6.7720  3.8480 -33.155  6.7720  3.8480 -999.25 -999.25 
  4890.500 -999.25 -999.25 -51.738  6.7190  3.8130 -33.150  6.7190  3.8130 -999.25 -999.25 
  4891.000 -999.25 -999.25 -51.193  6.6660  3.8140 -32.602  6.6660  3.8140 -999.25 -999.25 
  4891.500 -999.25 -999.25 -50.649  6.5580  3.7420 -32.054  6.5580  3.7420 -999.25 -999.25 
  4892.000 -999.25 -999.25 -49.380  6.3790  3.5630 -30.782  6.3790  3.5630 -999.25 -999.25 
  4892.500 -999.25 -999.25 -48.113  6.0900  3.4910 -29.512  6.0900  3.4910 -999.25 -999.25 
  4893.000 -999.25 -999.25 -45.941  5.8020  3.4190 -27.337  5.8020  3.4190 -999.25 -999.25 
  4893.500 -999.25 -999.25 -43.951  5.2980  3.0950 -25.344  5.2980  3.0950 -999.25 -999.25 
  4894.000 -999.25 -999.25 -41.961  3.8900  2.7710 -23.350  3.8900  2.7710 -999.25 -999.25 
  4894.500 -999.25 -999.25 -36.896  3.2410  2.6640 -18.282  3.2410  2.6640 -999.25 -999.25 
  4895.000 -999.25 -999.25 -33.641  2.8810  2.4840 -15.024  2.8810  2.4840 -999.25 -999.25 
  4895.500 -999.25 -999.25 -29.662  2.7370  2.3040 -11.042  2.7370  2.3040 -999.25 -999.25 
  4896.000 -999.25 -999.25 -28.394  2.6480  2.1240 -9.7704  2.6480  2.1240 -999.25 -999.25 
  4896.500 -999.25 -999.25 -27.307  2.5580  2.0170 -8.6802  2.5580  2.0170 -999.25 -999.25 
  4897.000 -999.25 -999.25 -26.582  2.4150  1.9810 -7.9520  2.4150  1.9810 -999.25 -999.25 
  4897.500 -999.25 -999.25 -26.580  2.4150  1.9460 -7.9467  2.4150  1.9460 -999.25 -999.25 
  4898.000 -999.25 -999.25 -26.578  2.4160  1.9470 -7.9415  2.4160  1.9470 -999.25 -999.25 
  4898.500 -999.25 -999.25 -26.574  2.4170  1.9470 -7.9343  2.4170  1.9470 -999.25 -999.25 
  4899.000 -999.25 -999.25 -26.572  2.6620  1.9480 -7.9290  2.6620  1.9480 -999.25 -999.25 
  4899.500 -999.25 -999.25 -26.570  2.9070  2.0210 -7.9238  2.9070  2.0210 -999.25 -999.25 
  4900.000 -999.25 -999.25 -27.831  3.1520  2.2020 -9.1816  3.1520  2.2020 -999.25 -999.25 
  4900.500 -999.25 -999.25 -28.910  3.3970  2.2930 -10.257  3.3970  2.2930 -999.25 -999.25 
  4901.000 -999.25 -999.25 -29.810  3.6420  2.3830 -11.154  3.6420  2.3830 -999.25 -999.25 
  4901.500 -999.25 -999.25 -31.251  3.8880  2.6370 -12.592  3.8880  2.6370 -999.25 -999.25 
  4902.000 -999.25 -999.25 -33.596  4.1330  2.7810 -14.934  4.1330  2.7810 -999.25 -999.25 
  4902.500 -999.25 -999.25 -37.025  4.3780  2.9260 -18.359  4.3780  2.9260 -999.25 -999.25 
  4903.000 -999.25 -999.25 -42.622  4.6230  3.1790 -23.953  4.6230  3.1790 -999.25 -999.25 
  4903.500 -999.25 -999.25 -43.523  5.1290  3.1970 -24.851  5.1290  3.1970 -999.25 -999.25 
  4904.000 -999.25 -999.25 -45.867  5.5270  3.2160 -27.192  5.5270  3.2160 -999.25 -999.25 
  4904.500 -999.25 -999.25 -50.200  5.8880  3.2880 -31.521  5.8880  3.2880 -999.25 -999.25 
  4905.000 -999.25 -999.25 -51.822  6.3580  3.3070 -33.140  6.3580  3.3070 -999.25 -999.25 
  4905.500 -999.25 -999.25 -55.251  6.5740  3.3250 -36.566  6.5740  3.3250 -999.25 -999.25 
  4906.000 -999.25 -999.25 -55.789  6.4670  3.3260 -37.101  6.4670  3.3260 -999.25 -999.25 
  4906.500 -999.25 -999.25 -55.603  6.3220  3.3080 -36.912  6.3220  3.3080 -999.25 -999.25 
  4907.000 -999.25 -999.25 -55.418  6.2510  3.2900 -36.723  6.2510  3.2900 -999.25 -999.25 
  4907.500 -999.25 -999.25 -55.233  6.1430  3.2910 -36.535  6.1430  3.2910 -999.25 -999.25 
  4908.000 -999.25 -999.25 -54.777  6.1430  3.2910 -36.076  6.1430  3.2910 -999.25 -999.25 
  4908.500 -999.25 -999.25 -54.322  6.1790  3.2190 -35.618  6.1790  3.2190 -999.25 -999.25 
  4909.000 -999.25 -999.25 -53.051  6.2160  3.1840 -34.343  6.2160  3.1840 -999.25 -999.25 
  4909.500 -999.25 -999.25 -51.420  6.1800  3.1120 -32.709  6.1800  3.1120 -999.25 -999.25 
  4910.000 -999.25 -999.25 -50.512  5.8200  3.0400 -31.798  5.8200  3.0400 -999.25 -999.25 
  4910.500 -999.25 -999.25 -46.169  5.0620  2.9680 -27.452  5.0620  2.9680 -999.25 -999.25 
  4911.000 -999.25 -999.25 -43.454  4.3400  2.6440 -24.733  4.3400  2.6440 -999.25 -999.25 
  4911.500 -999.25 -999.25 -40.377  3.7630  2.5360 -21.653  3.7630  2.5360 -999.25 -999.25 
  4912.000 -999.25 -999.25 -38.024  2.8610  2.3920 -19.297  2.8610  2.3920 -999.25 -999.25 
  4912.500 -999.25 -999.25 -32.959  2.7170  2.2480 -14.229  2.7170  2.2480 -999.25 -999.25 
  4913.000 -999.25 -999.25 -30.063  2.6810  2.1400 -11.330  2.6810  2.1400 -999.25 -999.25 
  4913.500 -999.25 -999.25 -30.239  2.6810  2.1400 -11.502  2.6810  2.1400 -999.25 -999.25 
  4914.000 -999.25 -999.25 -30.868  2.7900  2.3570 -12.128  2.7900  2.3570 -999.25 -999.25 
  4914.500 -999.25 -999.25 -31.497  2.8990  2.4290 -12.754  2.8990  2.4290 -999.25 -999.25 
  4915.000 -999.25 -999.25 -32.667  3.0070  2.5020 -13.921  3.0070  2.5020 -999.25 -999.25 
  4915.500 -999.25 -999.25 -33.837  3.2600  2.6110 -15.087  3.2600  2.6110 -999.25 -999.25 
  4916.000 -999.25 -999.25 -39.072  3.5500  2.6830 -20.319  3.5500  2.6830 -999.25 -999.25 
  4916.500 -999.25 -999.25 -43.224  3.9110  2.7550 -24.468  3.9110  2.7550 -999.25 -999.25 
  4917.000 -999.25 -999.25 -44.484  4.4170  2.7920 -25.725  4.4170  2.7920 -999.25 -999.25 
  4917.500 -999.25 -999.25 -44.480  4.3450  2.7200 -25.717  4.3450  2.7200 -999.25 -999.25 
  4918.000 -999.25 -999.25 -43.752  3.9840  2.6480 -24.986  3.9840  2.6480 -999.25 -999.25 
  4918.500 -999.25 -999.25 -42.302  3.4790  2.5410 -23.533  3.4790  2.5410 -999.25 -999.25 
  4919.000 -999.25 -999.25 -40.129  3.0460  2.4690 -21.357  3.0460  2.4690 -999.25 -999.25 
  4919.500 -999.25 -999.25 -34.703  3.0470  2.4330 -15.928  3.0470  2.4330 -999.25 -999.25 
  4920.000 -999.25 -999.25 -31.445  3.0650  2.4690 -12.666  3.0650  2.4690 -999.25 -999.25 
  4920.500 -999.25 -999.25 -30.175  3.0830  2.6140 -11.393  3.0830  2.6140 -999.25 -999.25 
  4921.000 -999.25 -999.25 -30.894  3.2640  2.7590 -12.109  3.2640  2.7590 -999.25 -999.25 
  4921.500 -999.25 -999.25 -31.431  3.4810  2.9760 -12.643  3.4810  2.9760 -999.25 -999.25 
  4922.000 -999.25 -999.25 -32.872  4.0960  3.0480 -14.080  4.0960  3.0480 -999.25 -999.25 
  4922.500 -999.25 -999.25 -34.856  4.6010  3.0310 -16.061  4.6010  3.0310 -999.25 -999.25 
  4923.000 -999.25 -999.25 -37.744  4.8180  3.0130 -18.946  4.8180  3.0130 -999.25 -999.25 
  4923.500 -999.25 -999.25 -39.727  4.6740  2.9230 -20.926  4.6740  2.9230 -999.25 -999.25 
  4924.000 -999.25 -999.25 -39.723  4.3140  2.8330 -20.918  4.3140  2.8330 -999.25 -999.25 
  4924.500 -999.25 -999.25 -37.729  3.7000  2.7070 -18.921  3.7000  2.7070 -999.25 -999.25 
  4925.000 -999.25 -999.25 -35.195  3.1950  2.5810 -16.384  3.1950  2.5810 -999.25 -999.25 
  4925.500 -999.25 -999.25 -32.299  2.9430  2.3650 -13.485  2.9430  2.3650 -999.25 -999.25 
  4926.000 -999.25 -999.25 -29.222  2.7270  2.2930 -10.405  2.7270  2.2930 -999.25 -999.25 
  4926.500 -999.25 -999.25 -27.230  2.7630  2.2570 -8.4093  2.7630  2.2570 -999.25 -999.25 
  4927.000 -999.25 -999.25 -26.322  2.8360  2.2760 -7.4981  2.8360  2.2760 -999.25 -999.25 
