~Version Information
VERS.                     2.0: CWLS log ASCII Standard Version 2.00
WRAP.                      NO: One line per depth step
~Well Information Block
#MNEM.UNIT                               Data Type  Information
#---------                               ---------  -----------
STRT.FT                                   360.0000:
STOP.FT                                  7920.0000:
STEP.FT                                     0.5000:
NULL.                 -999.25                     :
COMP.                                             :COMPANY            
WELL.     KCL 12-27                               :WELL               
FLD .                                             :FIELD              
CTRY.                                             :COUNTRY            
STAT.                                             :STATE              
LOC .                                             :LOCATION           
UWI .                                             :UNIQUE WELL ID     
SRVC.                                             :Service company    
DATE.                                             :LOG DATE           
~Curve Information
#MNEM.UNIT           API CODE  Curve Description
#---------           --------  -----------------
DEPT.FT                      :   1 DEPTH
SP  .MV                      :   2
DT  .US/F                    :   3
SP  .MV                      :   4
SN  .OHMM                    :   5
LN  .OHMM                    :   6
SBL .MV                      :   7
RS  .OHMM                    :   8
RD  .OHMM                    :   9
DTS .US/F                    :  10
SPS .MV                      :  11
~A
# ...
   403.500 -999.25 -999.25 -56.611  84.918  76.232 -36.611  84.918  76.232 -999.25 -999.25 
   404.000 -999.25 -999.25 -57.340  83.828  74.781 -37.340  83.828  74.781 -999.25 -999.25 
   404.500 -999.25 -999.25 -58.068  82.737  73.331 -38.068  82.737  73.331 -999.25 -999.25 
   405.000 -999.25 -999.25 -59.524  81.646  68.256 -39.524  81.646  68.256 -999.25 -999.25 
   405.500 -999.25 -999.25 -60.435  80.194  64.633 -40.435  80.194  64.633 -999.25 -999.25 
   406.000 -999.25 -999.25 -61.164  78.741  62.457 -41.164  78.741  62.457 -999.25 -999.25 
   406.500 -999.25 -999.25 -61.892  75.114  57.386 -41.892  75.114  57.386 -999.25 -999.25 
   407.000 -999.25 -999.25 -62.531  72.576  54.125 -42.531  72.576  54.125 -999.25 -999.25 
   407.500 -999.25 -999.25 -63.170  70.400  47.242 -43.170  70.400  47.242 -999.25 -999.25 
   408.000 -999.25 -999.25 -63.719  67.138  43.980 -43.719  67.138  43.980 -999.25 -999.25 
   408.500 -999.25 -999.25 -64.268  64.600  39.995 -44.268  64.600  39.995 -999.25 -999.25 
   409.000 -999.25 -999.25 -64.726  62.062  38.725 -44.726  62.062  38.725 -999.25 -999.25 
   409.500 -999.25 -999.25 -65.184  58.077  37.456 -45.184  58.077  37.456 -999.25 -999.25 
   410.000 -999.25 -999.25 -66.278  54.454  34.552 -46.278  54.454  34.552 -999.25 -999.25 
   410.500 -999.25 -999.25 -66.464  50.831  33.099 -46.464  50.831  33.099 -999.25 -999.25 
   411.000 -999.25 -999.25 -67.013  48.289  32.732 -47.013  48.289  32.732 -999.25 -999.25 
   411.500 -999.25 -999.25 -67.381  48.283  32.003 -47.381  48.283  32.003 -999.25 -999.25 
   412.000 -999.25 -999.25 -67.748  48.278  33.807 -47.748  48.278  33.807 -999.25 -999.25 
   412.500 -999.25 -999.25 -67.934  48.996  35.972 -47.934  48.996  35.972 -999.25 -999.25 
   413.000 -999.25 -999.25 -68.119  49.356  37.958 -48.119  49.356  37.958 -999.25 -999.25 
   413.500 -999.25 -999.25 -68.489  50.436  39.945 -48.489  50.436  39.945 -999.25 -999.25 
   414.000 -999.25 -999.25 -68.584  50.793  43.915 -48.584  50.793  43.915 -999.25 -999.25 
   414.500 -999.25 -999.25 -68.678  51.151  44.633 -48.678  51.151  44.633 -999.25 -999.25 
   415.000 -999.25 -999.25 -68.774  51.509  45.351 -48.774  51.509  45.351 -999.25 -999.25 
   415.500 -999.25 -999.25 -68.870  52.047  45.707 -48.870  52.047  45.707 -999.25 -999.25 
   416.000 -999.25 -999.25 -68.966  52.584  45.702 -48.966  52.584  45.702 -999.25 -999.25 
   416.500 -999.25 -999.25 -69.062  53.298  44.611 -49.062  53.298  44.611 -999.25 -999.25 
   417.000 -999.25 -999.25 -69.158  52.569  42.073 -49.158  52.569  42.073 -999.25 -999.25 
   417.500 -999.25 -999.25 -69.254  51.118  39.897 -49.254  51.118  39.897 -999.25 -999.25 
   418.000 -999.25 -999.25 -69.531  49.668  38.083 -49.531  49.668  38.083 -999.25 -999.25 
   418.500 -999.25 -999.25 -69.808  45.313  36.268 -49.808  45.313  36.268 -999.25 -999.25 
   419.000 -999.25 -999.25 -70.086  43.137  34.454 -50.086  43.137  34.454 -999.25 -999.25 
   419.500 -999.25 -999.25 -70.365  41.322  33.363 -50.365  41.322  33.363 -999.25 -999.25 
   420.000 -999.25 -999.25 -70.642  40.955  31.549 -50.642  40.955  31.549 -999.25 -999.25 
   420.500 -999.25 -999.25 -70.919  40.952  31.545 -50.919  40.952  31.545 -999.25 -999.25 
   421.000 -999.25 -999.25 -71.107  40.948  31.542 -51.107  40.948  31.542 -999.25 -999.25 
   421.500 -999.25 -999.25 -71.113  40.939  31.532 -51.113  40.939  31.532 -999.25 -999.25 
   422.000 -999.25 -999.25 -71.027  41.295  31.891 -51.027  41.295  31.891 -999.25 -999.25 
   422.500 -999.25 -999.25 -70.940  41.651  32.249 -50.940  41.651  32.249 -999.25 -999.25 
   423.000 -999.25 -999.25 -70.824  41.829  32.963 -50.824  41.829  32.963 -999.25 -999.25 
   423.500 -999.25 -999.25 -70.708  42.006  33.320 -50.708  42.006  33.320 -999.25 -999.25 
   424.000 -999.25 -999.25 -70.592  42.001  34.038 -50.592  42.001  34.038 -999.25 -999.25 
   424.500 -999.25 -999.25 -70.419  41.996  34.034 -50.419  41.996  34.034 -999.25 -999.25 
   425.000 -999.25 -999.25 -70.423  42.533  34.031 -50.423  42.533  34.031 -999.25 -999.25 
   425.500 -999.25 -999.25 -70.428  43.070  34.021 -50.428  43.070  34.021 -999.25 -999.25 
   426.000 -999.25 -999.25 -70.435  43.422  34.739 -50.435  43.422  34.739 -999.25 -999.25 
   426.500 -999.25 -999.25 -70.440  43.961  35.096 -50.440  43.961  35.096 -999.25 -999.25 
   427.000 -999.25 -999.25 -70.444  44.501  36.176 -50.444  44.501  36.176 -999.25 -999.25 
   427.500 -999.25 -999.25 -70.449  45.219  37.256 -50.449  45.219  37.256 -999.25 -999.25 
   428.000 -999.25 -999.25 -70.455  45.577  37.795 -50.455  45.577  37.795 -999.25 -999.25 
   428.500 -999.25 -999.25 -70.551  45.936  38.334 -50.551  45.936  38.334 -999.25 -999.25 
   429.000 -999.25 -999.25 -70.647  48.459  39.776 -50.647  48.459  39.776 -999.25 -999.25 
   429.500 -999.25 -999.25 -70.833  52.071  41.218 -50.833  52.071  41.218 -999.25 -999.25 
   430.000 -999.25 -999.25 -71.020  56.407  43.745 -51.020  56.407  43.745 -999.25 -999.25 
   430.500 -999.25 -999.25 -71.209  62.190  46.633 -51.209  62.190  46.633 -999.25 -999.25 
   431.000 -999.25 -999.25 -71.395  66.526  49.160 -51.395  66.526  49.160 -999.25 -999.25 
   431.500 -999.25 -999.25 -71.583  68.512  51.326 -51.583  68.512  51.326 -999.25 -999.25 
   432.000 -999.25 -999.25 -71.770  70.499  54.214 -51.770  70.499  54.214 -999.25 -999.25 
   432.500 -999.25 -999.25 -72.138  72.304  58.912 -52.138  72.304  58.912 -999.25 -999.25 
   433.000 -999.25 -999.25 -72.324  74.110  67.228 -52.324  74.110  67.228 -999.25 -999.25 
   433.500 -999.25 -999.25 -72.511  78.080  73.738 -52.511  78.080  73.738 -999.25 -999.25 
   434.000 -999.25 -999.25 -72.878  80.245  77.351 -52.878  80.245  77.351 -999.25 -999.25 
   434.500 -999.25 -999.25 -73.065  80.963  79.878 -53.065  80.963  79.878 -999.25 -999.25 
   435.000 -999.25 -999.25 -73.250  80.957  80.957 -53.250  80.957  80.957 -999.25 -999.25 
   435.500 -999.25 -999.25 -73.436  79.505  81.314 -53.436  79.505  81.314 -999.25 -999.25 
   436.000 -999.25 -999.25 -73.622  77.329  80.585 -53.622  77.329  80.585 -999.25 -999.25 
   436.500 -999.25 -999.25 -73.809  75.878  78.409 -53.809  75.878  78.409 -999.25 -999.25 
   437.000 -999.25 -999.25 -74.178  74.428  74.424 -54.178  74.428  74.424 -999.25 -999.25 
   437.500 -999.25 -999.25 -74.365  68.626  63.561 -54.365  68.626  63.561 -999.25 -999.25 
   438.000 -999.25 -999.25 -74.370  65.002  59.214 -54.370  65.002  59.214 -999.25 -999.25 
   438.500 -999.25 -999.25 -74.556  61.741  53.420 -54.556  61.741  53.420 -999.25 -999.25 
   439.000 -999.25 -999.25 -74.741  56.671  45.455 -54.741  56.671  45.455 -999.25 -999.25 
   439.500 -999.25 -999.25 -74.837  53.409  41.109 -54.837  53.409  41.109 -999.25 -999.25 
   440.000 -999.25 -999.25 -74.933  49.786  34.587 -54.933  49.786  34.587 -999.25 -999.25 
   440.500 -999.25 -999.25 -75.029  46.886  31.325 -55.029  46.886  31.325 -999.25 -999.25 
   441.000 -999.25 -999.25 -75.125  45.434  30.596 -55.125  45.434  30.596 -999.25 -999.25 
   441.500 -999.25 -999.25 -75.314  45.792  30.955 -55.314  45.792  30.955 -999.25 -999.25 
   442.000 -999.25 -999.25 -75.500  46.150  31.313 -55.500  46.150  31.313 -999.25 -999.25 
   442.500 -999.25 -999.25 -75.505  47.950  32.031 -55.505  47.950  32.031 -999.25 -999.25 
   443.000 -999.25 -999.25 -75.509  49.391  32.750 -55.509  49.391  32.750 -999.25 -999.25 
   443.500 -999.25 -999.25 -75.606  51.197  37.081 -55.606  51.197  37.081 -999.25 -999.25 
   444.000 -999.25 -999.25 -75.703  53.002  38.889 -55.703  53.002  38.889 -999.25 -999.25 
   444.500 -999.25 -999.25 -75.709  55.710  40.331 -55.709  55.710  40.331 -999.25 -999.25 
   445.000 -999.25 -999.25 -75.803  58.418  42.136 -55.803  58.418  42.136 -999.25 -999.25 
   445.500 -999.25 -999.25 -75.898  64.559  43.942 -55.898  64.559  43.942 -999.25 -999.25 
   446.000 -999.25 -999.25 -75.906  66.003  46.288 -55.906  66.003  46.288 -999.25 -999.25 
   446.500 -999.25 -999.25 -76.002  67.446  48.634 -56.002  67.446  48.634 -999.25 -999.25 
