~Version Information
VERS.                     2.0: CWLS log ASCII Standard Version 2.00
WRAP.                      NO: One line per depth step
~Well Information Block
#MNEM.UNIT                               Data Type  Information
#---------                               ---------  -----------
STRT.FT                                   370.0000:
STOP.FT                                  6980.0000:
STEP.FT                                     0.5000:
NULL.                 -999.25                     :
COMP.                                             :COMPANY            
WELL.     KCL 13-X                                :WELL               
FLD .                                             :FIELD              
CTRY.                                             :COUNTRY            
STAT.                                             :STATE              
LOC .                                             :LOCATION           
UWI .                                             :UNIQUE WELL ID     
SRVC.                                             :Service company    
DATE.                                             :LOG DATE           
~Curve Information
#MNEM.UNIT           API CODE  Curve Description
#---------           --------  -----------------
DEPT.FT                      :   1 DEPTH
SP  .MV                      :   2
SN  .OHMM                    :   3
ILD .OHMM                    :   4
SBL .MV                      :   5
RS  .OHMM                    :   6
RD  .OHMM                    :   7
~A
# ...
  2581.000 -49.077  11.789  8.3670 -22.264  11.789  8.3670 
  2581.500 -49.950  11.977  8.3820 -23.134  11.977  8.3820 
  2582.000 -50.280  11.967  8.3240 -23.460  11.967  8.3240 
  2582.500 -49.508  11.739  8.2660 -22.684  11.739  8.2660 
  2583.000 -48.885  11.510  8.2040 -22.058  11.510  8.2040 
  2583.500 -48.335  11.214  8.1430 -21.504  11.214  8.1430 
  2584.000 -47.900  10.918  7.9740 -21.065  10.918  7.9740 
  2584.500 -47.586  10.594  7.8570 -20.747  10.594  7.8570 
  2585.000 -47.271  10.270  7.7400 -20.429  10.270  7.7400 
  2585.500 -46.957  9.8980  7.4270 -20.111  9.8980  7.4270 
  2586.000 -46.681  9.5260  7.2780 -19.832  9.5260  7.2780 
  2586.500 -46.376  9.2500  7.1300 -19.523  9.2500  7.1300 
  2587.000 -46.196  8.9740  6.8170 -19.340  8.9740  6.8170 
  2587.500 -46.017  8.5540  6.6490 -19.156  8.5540  6.6490 
  2588.000 -45.837  8.1340  6.4810 -18.973  8.1340  6.4810 
  2588.500 -45.663  7.6590  5.9100 -18.795  7.6590  5.9100 
  2589.000 -45.059  7.1850  5.3390 -18.188  7.1850  5.3390 
  2589.500 -44.078  6.1720  4.7800 -17.203  6.1720  4.7800 
  2590.000 -41.634  4.9920  4.2220 -14.756  4.9920  4.2220 
  2590.500 -37.929  4.2350  3.8660 -11.046  4.2350  3.8660 
  2591.000 -33.693  3.8670  3.5100 -6.8068  3.8670  3.5100 
  2591.500 -31.052  3.6830  3.2290 -4.1626  3.6830  3.2290 
  2592.000 -29.509  3.4980  3.0840 -2.6163  3.4980  3.0840 
  2592.500 -28.643  3.2770  2.9400 -1.7465  3.2770  2.9400 
  2593.000 -28.188  3.0560  2.8110 -1.2871  3.0560  2.8110 
  2593.500 -28.004  2.9790  2.6820 -1.1000  2.9790  2.6820 
  2594.000 -27.950  2.9030  2.5840 -1.0419  2.9030  2.5840 
  2594.500 -28.054  2.7570  2.4870 -1.1428  2.7570  2.4870 
  2595.000 -28.642  2.6120  2.4130 -1.7267  2.6120  2.4130 
  2595.500 -29.291  2.5060  2.3550 -2.3723  2.5060  2.3550 
  2596.000 -30.384  2.4170  2.3850 -3.4615  2.4170  2.3850 
  2596.500 -31.216  2.4070  2.4150 -4.2904  2.4070  2.4150 
  2597.000 -31.800  2.3980  2.4370 -4.8704  2.3980  2.4370 
  2597.500 -32.521  2.4120  2.4600 -5.5881  2.4120  2.4600 
  2598.000 -32.967  2.4260  2.4820 -6.0300  2.4260  2.4820 
  2598.500 -33.102  2.4640  2.5000 -6.1618  2.4640  2.5000 
  2599.000 -33.140  2.5010  2.5180 -6.1956  2.5010  2.5180 
  2599.500 -32.011  2.5230  2.5350 -5.0632  2.5230  2.5350 
  2600.000 -32.976  2.5450  2.5510 -6.0243  2.5450  2.5510 
  2600.500 -30.188  2.5500  2.5680 -3.2327  2.5500  2.5680 
  2601.000 -30.705  2.5540  2.5660 -3.7464  2.5540  2.5660 
  2601.500 -31.505  2.5580  2.5640 -4.5420  2.5580  2.5640 
  2602.000 -31.900  2.5130  2.5430 -4.9337  2.5130  2.5430 
  2602.500 -31.761  2.4690  2.5220 -4.7911  2.4690  2.5220 
  2603.000 -31.494  2.4240  2.4960 -4.5200  2.4240  2.4960 
  2603.500 -31.107  2.4440  2.4710 -4.1302  2.4440  2.4710 
  2604.000 -30.784  2.4630  2.4820 -3.8032  2.4630  2.4820 
  2604.500 -32.484  2.4830  2.4920 -5.4995  2.4830  2.4920 
  2605.000 -33.930  2.5130  2.5380 -6.9415  2.5130  2.5380 
  2605.500 -33.728  2.5430  2.5840 -6.7361  2.5430  2.5840 
  2606.000 -33.141  2.5660  2.6460 -6.1451  2.5660  2.6460 
  2606.500 -32.375  2.6240  2.7080 -5.3763  2.6240  2.7080 
  2607.000 -31.683  2.6820  2.7570 -4.6798  2.6820  2.7570 
  2607.500 -31.005  2.7390  2.8060 -3.9990  2.7390  2.8060 
  2608.000 -30.431  2.7960  2.8550 -3.4205  2.7960  2.8550 
  2608.500 -30.225  2.8530  2.9440 -3.2111  2.8530  2.9440 
  2609.000 -30.825  2.9380  3.0330 -3.8076  2.9380  3.0330 
  2609.500 -31.299  2.9810  3.0600 -4.2784  2.9810  3.0600 
  2610.000 -31.151  3.0230  3.0860 -4.1263  3.0230  3.0860 
  2610.500 -30.560  3.0730  3.1010 -3.5315  3.0730  3.1010 
  2611.000 -29.791  3.1230  3.1160 -2.7588  3.1230  3.1160 
  2611.500 -29.072  3.1480  3.1300 -2.0360  3.1480  3.1300 
  2612.000 -28.640  3.1730  3.1440 -1.6008  3.1730  3.1440 
  2612.500 -28.511  3.1980  3.1450 -1.4677  3.1980  3.1450 
  2613.000 -28.510  3.2150  3.1470 -1.4639  3.2150  3.1470 
  2613.500 -28.808  3.2330  3.1480 -1.7575  3.2330  3.1480 
  2614.000 -29.313  3.2500  3.1660 -2.2588  3.2500  3.1660 
  2614.500 -29.607  3.2440  3.1840 -2.5497  3.2440  3.1840 
  2615.000 -29.824  3.2380  3.2220 -2.7627  3.2380  3.2220 
  2615.500 -29.824  3.2320  3.2600 -2.7588  3.2320  3.2600 
  2616.000 -29.803  3.2260  3.4060 -2.7350  3.2260  3.4060 
  2616.500 -29.782  3.2480  3.5520 -2.7103  3.2480  3.5520 
  2617.000 -29.688  3.2710  3.7880 -2.6121  3.2710  3.7880 
  2617.500 -29.559  3.3450  3.9940 -2.4797  3.3450  3.9940 
  2618.000 -29.358  3.4190  4.1990 -2.2754  3.4190  4.1990 
  2618.500 -29.219  3.6920  4.8090 -2.1322  3.6920  4.8090 
  2619.000 -29.126  3.9650  5.2930 -2.0356  3.9650  5.2930 
  2619.500 -28.995  4.6630  6.3660 -1.9014  4.6630  6.3660 
  2620.000 -28.906  5.2190  7.1760 -1.8082  5.2190  7.1760 
  2620.500 -29.917  7.8260  7.4680 -2.8154  7.8260  7.4680 
  2621.000 -33.216  8.6280  7.5350 -6.1105  8.6280  7.5350 
  2621.500 -42.780  9.6450  7.6010 -15.672  9.6450  7.6010 
  2622.000 -46.035  10.693  7.5910 -18.923  10.693  7.5910 
  2622.500 -48.757  11.297  7.5810 -21.641  11.297  7.5810 
  2623.000 -50.163  12.233  7.5080 -23.043  12.233  7.5080 
  2623.500 -50.960  12.391  7.4770 -23.836  12.391  7.4770 
  2624.000 -51.583  12.477  7.4470 -24.456  12.477  7.4470 
  2624.500 -52.042  12.460  7.4160 -24.911  12.460  7.4160 
  2625.000 -51.685  12.354  7.3900 -24.550  12.354  7.3900 
  2625.500 -50.976  12.059  7.2060 -23.838  12.059  7.2060 
  2626.000 -50.119  11.764  6.9570 -22.978  11.764  6.9570 
  2626.500 -49.317  10.536  6.7250 -22.171  10.536  6.7250 
  2627.000 -47.930  8.8390  6.4770 -20.782  8.8390  6.4770 
  2627.500 -45.935  7.7480  5.8550 -18.782  7.7480  5.8550 
  2628.000 -42.003  6.4820  5.2730 -14.846  6.4820  5.2730 
  2628.500 -37.966  5.4300  4.8170 -10.806  5.4300  4.8170 
  2629.000 -35.102  4.6330  4.6010 -7.9388  4.6330  4.6010 
  2629.500 -32.567  4.1940  4.3610 -5.4000  4.1940  4.3610 
  2630.000 -30.916  3.9300  4.2560 -3.7451  3.9300  4.2560 
  2630.500 -29.663  3.8680  4.1520 -2.4888  3.8680  4.1520 
  2631.000 -28.942  3.8070  3.9630 -1.7636  3.8070  3.9630 
  2631.500 -28.355  3.7980  3.7750 -1.1733  3.7980  3.7750 
  2632.000 -27.866  3.8120  3.6530 -0.6802  3.8120  3.6530 
  2632.500 -28.326  3.8260  3.6440 -1.1369  3.8260  3.6440 
  2633.000 -28.940  3.8290  3.6350 -1.7475  3.8290  3.6350 
  2633.500 -29.339  3.8310  3.6000 -2.1423  3.8310  3.6000 
  2634.000 -29.279  3.7980  3.5500 -2.0788  3.7980  3.5500 
  2634.500 -29.208  3.7650  3.5090 -2.0043  3.7650  3.5090 
  2635.000 -29.007  3.6590  3.4680 -1.7999  3.6590  3.4680 
  2635.500 -28.713  3.5780  3.4180 -1.5024  3.5780  3.4180 
  2636.000 -28.422  3.4970  3.3690 -1.2069  3.4970  3.3690 
  2636.500 -28.421  3.3930  3.3200 -1.2032  3.3930  3.3200 
  2637.000 -29.206  3.2880  3.2710 -1.9838  3.2880  3.2710 
  2637.500 -30.004  3.1500  3.1980 -2.7785  3.1500  3.1980 
  2638.000 -30.651  3.1170  3.1640 -3.4215  3.1170  3.1640 
  2638.500 -31.089  3.0840  3.1470 -3.8559  3.0840  3.1470 
  2639.000 -30.987  3.0500  3.1690 -3.7502  3.0500  3.1690 
  2639.500 -30.692  3.0640  3.2200 -3.4522  3.0640  3.2200 
  2640.000 -30.342  3.0860  3.2700 -3.0977  3.0860  3.2700 
  2640.500 -29.926  3.1090  3.4000 -2.6787  3.1090  3.4000 
  2641.000 -29.438  3.2020  3.5290 -2.1874  3.2020  3.5290 
  2641.500 -29.059  3.2720  3.6700 -1.8047  3.2720  3.6700 
  2642.000 -28.809  3.3820  3.7480 -1.5502  3.3820  3.7480 
  2642.500 -28.618  3.4850  3.8270 -1.3560  3.4850  3.8270 
  2643.000 -28.656  3.5870  3.8890 -1.3903  3.5870  3.8890 
  2643.500 -28.852  4.0140  3.9510 -1.5825  4.0140  3.9510 
  2644.000 -28.976  4.1120  4.0490 -1.7030  4.1120  4.0490 
  2644.500 -28.611  4.2110  4.1460 -1.3343  4.2110  4.1460 
  2645.000 -27.863  4.2920  4.1850 -0.5822  4.2920  4.1850 
  2645.500 -27.343  4.3740  4.2240 -0.0585  4.3740  4.2240 
  2646.000 -27.586  4.3730  4.2730 -0.2981  4.3730  4.2730 
  2646.500 -28.028  4.3710  4.3230 -0.7371  4.3710  4.3230 
  2647.000 -28.497  4.3660  4.3530 -1.2019  4.3660  4.3530 
  2647.500 -27.708  4.3600  4.3990 -0.4091  4.3600  4.3990 
