~Version Information
VERS.                     2.0: CWLS log ASCII Standard Version 2.00
WRAP.                      NO: One line per depth step
~Well Information Block
#MNEM.UNIT                               Data Type  Information
#---------                               ---------  -----------
STRT.FT                                   360.0000:
STOP.FT                                  7920.0000:
STEP.FT                                     0.5000:
NULL.                 -999.25                     :
COMP.                                             :COMPANY            
WELL.     KCL 12-27                               :WELL               
FLD .                                             :FIELD              
CTRY.                                             :COUNTRY            
STAT.                                             :STATE              
LOC .                                             :LOCATION           
UWI .                                             :UNIQUE WELL ID     
SRVC.                                             :Service company    
DATE.                                             :LOG DATE           
~Curve Information
#MNEM.UNIT           API CODE  Curve Description
#---------           --------  -----------------
DEPT.FT                      :   1 DEPTH
SP  .MV                      :   2
DT  .US/F                    :   3
SP  .MV                      :   4
SN  .OHMM                    :   5
LN  .OHMM                    :   6
SBL .MV                      :   7
RS  .OHMM                    :   8
RD  .OHMM                    :   9
DTS .US/F                    :  10
SPS .MV                      :  11
~A
# ...
  6406.500 -999.25 -999.25 -34.110  1.7010  1.5210 -9.8777  1.7010  1.5210 -999.25 -999.25 
  6407.000 -999.25 -999.25 -33.563  1.7010  1.5390 -9.3331  1.7010  1.5390 -999.25 -999.25 
  6407.500 -999.25 -999.25 -33.198  1.7010  1.5570 -8.9705  1.7010  1.5570 -999.25 -999.25 
  6408.000 -999.25 -999.25 -33.013  1.7020  1.5580 -8.7879  1.7020  1.5580 -999.25 -999.25 
  6408.500 -999.25 -999.25 -33.010  1.7020  1.5580 -8.7872  1.7020  1.5580 -999.25 -999.25 
  6409.000 -999.25 -999.25 -33.368  1.7210  1.5580 -9.1476  1.7210  1.5580 -999.25 -999.25 
  6409.500 -999.25 -999.25 -33.545  1.7390  1.5590 -9.3270  1.7390  1.5590 -999.25 -999.25 
  6410.000 -999.25 -999.25 -33.541  1.7390  1.5590 -9.3254  1.7390  1.5590 -999.25 -999.25 
  6410.500 -999.25 -999.25 -33.538  1.7400  1.5770 -9.3248  1.7400  1.5770 -999.25 -999.25 
  6411.000 -999.25 -999.25 -33.353  1.7220  1.5960 -9.1422  1.7220  1.5960 -999.25 -999.25 
  6411.500 -999.25 -999.25 -32.988  1.7040  1.5960 -8.7796  1.7040  1.5960 -999.25 -999.25 
  6412.000 -999.25 -999.25 -32.804  1.7050  1.5960 -8.5980  1.7050  1.5960 -999.25 -999.25 
  6412.500 -999.25 -999.25 -32.620  1.7050  1.5970 -8.4164  1.7050  1.5970 -999.25 -999.25 
  6413.000 -999.25 -999.25 -32.616  1.7050  1.5610 -8.4148  1.7050  1.5610 -999.25 -999.25 
  6413.500 -999.25 -999.25 -32.612  1.7060  1.5620 -8.4132  1.7060  1.5620 -999.25 -999.25 
  6414.000 -999.25 -999.25 -32.789  1.6700  1.5620 -8.5926  1.6700  1.5620 -999.25 -999.25 
  6414.500 -999.25 -999.25 -32.967  1.6710  1.5440 -8.7730  1.6710  1.5440 -999.25 -999.25 
  6415.000 -999.25 -999.25 -32.963  1.6710  1.5260 -8.7714  1.6710  1.5260 -999.25 -999.25 
  6415.500 -999.25 -999.25 -32.959  1.6530  1.5270 -8.7698  1.6530  1.5270 -999.25 -999.25 
  6416.000 -999.25 -999.25 -32.956  1.6360  1.5270 -8.7692  1.6360  1.5270 -999.25 -999.25 
  6416.500 -999.25 -999.25 -32.410  1.6360  1.5090 -8.2256  1.6360  1.5090 -999.25 -999.25 
  6417.000 -999.25 -999.25 -31.684  1.6360  1.4920 -7.5020  1.6360  1.4920 -999.25 -999.25 
  6417.500 -999.25 -999.25 -31.680  1.6370  1.4920 -7.5004  1.6370  1.4920 -999.25 -999.25 
  6418.000 -999.25 -999.25 -31.676  1.6370  1.4930 -7.4988  1.6370  1.4930 -999.25 -999.25 
  6418.500 -999.25 -999.25 -31.673  1.6370  1.4930 -7.4981  1.6370  1.4930 -999.25 -999.25 
  6419.000 -999.25 -999.25 -32.031  1.6380  1.4930 -7.8585  1.6380  1.4930 -999.25 -999.25 
  6419.500 -999.25 -999.25 -32.208  1.6740  1.4940 -8.0379  1.6740  1.4940 -999.25 -999.25 
  6420.000 -999.25 -999.25 -32.385  1.6750  1.4940 -8.2173  1.6750  1.4940 -999.25 -999.25 
  6420.500 -999.25 -999.25 -32.381  1.6750  1.4580 -8.2157  1.6750  1.4580 -999.25 -999.25 
  6421.000 -999.25 -999.25 -32.378  1.6750  1.4590 -8.2151  1.6750  1.4590 -999.25 -999.25 
  6421.500 -999.25 -999.25 -32.375  1.6760  1.4590 -8.2145  1.6760  1.4590 -999.25 -999.25 
  6422.000 -999.25 -999.25 -32.190  1.6760  1.4590 -8.0319  1.6760  1.4590 -999.25 -999.25 
  6422.500 -999.25 -999.25 -31.644  1.6760  1.4600 -7.4883  1.6760  1.4600 -999.25 -999.25 
  6423.000 -999.25 -999.25 -31.640  1.6760  1.4600 -7.4867  1.6760  1.4600 -999.25 -999.25 
  6423.500 -999.25 -999.25 -31.637  1.6770  1.4600 -7.4861  1.6770  1.4600 -999.25 -999.25 
  6424.000 -999.25 -999.25 -31.633  1.6770  1.4610 -7.4845  1.6770  1.4610 -999.25 -999.25 
  6424.500 -999.25 -999.25 -31.629  1.6420  1.4430 -7.4829  1.6420  1.4430 -999.25 -999.25 
  6425.000 -999.25 -999.25 -31.626  1.6420  1.4250 -7.4823  1.6420  1.4250 -999.25 -999.25 
  6425.500 -999.25 -999.25 -31.441  1.6420  1.4260 -7.2997  1.6420  1.4260 -999.25 -999.25 
  6426.000 -999.25 -999.25 -31.438  1.6430  1.4260 -7.2991  1.6430  1.4260 -999.25 -999.25 
  6426.500 -999.25 -999.25 -31.345  1.6430  1.4260 -7.2085  1.6430  1.4260 -999.25 -999.25 
  6427.000 -999.25 -999.25 -31.251  1.6430  1.4270 -7.1169  1.6430  1.4270 -999.25 -999.25 
  6427.500 -999.25 -999.25 -31.157  1.6440  1.4270 -7.0253  1.6440  1.4270 -999.25 -999.25 
  6428.000 -999.25 -999.25 -31.063  1.6440  1.4280 -6.9337  1.6440  1.4280 -999.25 -999.25 
  6428.500 -999.25 -999.25 -31.239  1.6270  1.4280 -7.1121  1.6270  1.4280 -999.25 -999.25 
  6429.000 -999.25 -999.25 -31.236  1.6090  1.4280 -7.1114  1.6090  1.4280 -999.25 -999.25 
  6429.500 -999.25 -999.25 -31.233  1.6090  1.4290 -7.1108  1.6090  1.4290 -999.25 -999.25 
  6430.000 -999.25 -999.25 -31.230  1.6090  1.4290 -7.1102  1.6090  1.4290 -999.25 -999.25 
  6430.500 -999.25 -999.25 -31.226  1.5920  1.4290 -7.1086  1.5920  1.4290 -999.25 -999.25 
  6431.000 -999.25 -999.25 -31.221  1.5740  1.4300 -7.1060  1.5740  1.4300 -999.25 -999.25 
  6431.500 -999.25 -999.25 -31.037  1.5750  1.3940 -6.9244  1.5750  1.3940 -999.25 -999.25 
  6432.000 -999.25 -999.25 -30.852  1.5750  1.3940 -6.7418  1.5750  1.3940 -999.25 -999.25 
  6432.500 -999.25 -999.25 -30.849  1.5750  1.3950 -6.7412  1.5750  1.3950 -999.25 -999.25 
  6433.000 -999.25 -999.25 -30.755  1.5760  1.3950 -6.6496  1.5760  1.3950 -999.25 -999.25 
  6433.500 -999.25 -999.25 -30.662  1.5580  1.3950 -6.5590  1.5580  1.3950 -999.25 -999.25 
  6434.000 -999.25 -999.25 -30.657  1.5400  1.3960 -6.5564  1.5400  1.3960 -999.25 -999.25 
  6434.500 -999.25 -999.25 -30.564  1.5410  1.3960 -6.4658  1.5410  1.3960 -999.25 -999.25 
  6435.000 -999.25 -999.25 -30.471  1.5410  1.3780 -6.3752  1.5410  1.3780 -999.25 -999.25 
  6435.500 -999.25 -999.25 -30.467  1.5410  1.3610 -6.3736  1.5410  1.3610 -999.25 -999.25 
  6436.000 -999.25 -999.25 -30.463  1.5420  1.3610 -6.3720  1.5420  1.3610 -999.25 -999.25 
  6436.500 -999.25 -999.25 -30.460  1.5600  1.3620 -6.3714  1.5600  1.3620 -999.25 -999.25 
  6437.000 -999.25 -999.25 -30.456  1.5780  1.3620 -6.3698  1.5780  1.3620 -999.25 -999.25 
  6437.500 -999.25 -999.25 -30.632  1.5790  1.3620 -6.5482  1.5790  1.3620 -999.25 -999.25 
  6438.000 -999.25 -999.25 -30.628  1.5790  1.3630 -6.5466  1.5790  1.3630 -999.25 -999.25 
  6438.500 -999.25 -999.25 -30.986  1.5790  1.3630 -6.9070  1.5790  1.3630 -999.25 -999.25 
  6439.000 -999.25 -999.25 -31.345  1.5800  1.3630 -7.2684  1.5800  1.3630 -999.25 -999.25 
  6439.500 -999.25 -999.25 -31.703  1.5800  1.3640 -7.6287  1.5800  1.3640 -999.25 -999.25 
  6440.000 -999.25 -999.25 -33.686  1.6170  1.3640 -9.6141  1.6170  1.3640 -999.25 -999.25 
  6440.500 -999.25 -999.25 -34.586  1.6170  1.3650 -10.517  1.6170  1.3650 -999.25 -999.25 
  6441.000 -999.25 -999.25 -35.125  1.6170  1.3830 -11.058  1.6170  1.3830 -999.25 -999.25 
  6441.500 -999.25 -999.25 -35.482  1.6180  1.4010 -11.417  1.6180  1.4010 -999.25 -999.25 
  6442.000 -999.25 -999.25 -35.299  1.6180  1.4020 -11.237  1.6180  1.4020 -999.25 -999.25 
  6442.500 -999.25 -999.25 -35.115  1.6190  1.4020 -11.055  1.6190  1.4020 -999.25 -999.25 
  6443.000 -999.25 -999.25 -34.749  1.6190  1.4200 -10.692  1.6190  1.4200 -999.25 -999.25 
  6443.500 -999.25 -999.25 -34.564  1.6190  1.4390 -10.509  1.6190  1.4390 -999.25 -999.25 
  6444.000 -999.25 -999.25 -34.471  1.6200  1.4390 -10.418  1.6200  1.4390 -999.25 -999.25 
  6444.500 -999.25 -999.25 -34.378  1.6200  1.4400 -10.328  1.6200  1.4400 -999.25 -999.25 
  6445.000 -999.25 -999.25 -34.193  1.6200  1.4400 -10.145  1.6200  1.4400 -999.25 -999.25 
  6445.500 -999.25 -999.25 -34.009  1.6210  1.4400 -9.9635  1.6210  1.4400 -999.25 -999.25 
  6446.000 -999.25 -999.25 -33.824  1.6210  1.4410 -9.7809  1.6210  1.4410 -999.25 -999.25 
  6446.500 -999.25 -999.25 -33.820  1.6210  1.4410 -9.7793  1.6210  1.4410 -999.25 -999.25 
  6447.000 -999.25 -999.25 -33.816  1.6220  1.4410 -9.7777  1.6220  1.4410 -999.25 -999.25 
  6447.500 -999.25 -999.25 -33.993  1.6220  1.4410 -9.9571  1.6220  1.4410 -999.25 -999.25 
  6448.000 -999.25 -999.25 -34.080  1.6220  1.4420 -10.046  1.6220  1.4420 -999.25 -999.25 
  6448.500 -999.25 -999.25 -34.167  1.6230  1.4790 -10.136  1.6230  1.4790 -999.25 -999.25 
  6449.000 -999.25 -999.25 -34.344  1.6230  1.4790 -10.315  1.6230  1.4790 -999.25 -999.25 
  6449.500 -999.25 -999.25 -34.521  1.6240  1.4790 -10.495  1.6240  1.4790 -999.25 -999.25 
