~Version Information
VERS.                     2.0: CWLS log ASCII Standard Version 2.00
WRAP.                      NO: One line per depth step
~Well Information Block
#MNEM.UNIT                               Data Type  Information
#---------                               ---------  -----------
STRT.FT                                   360.0000:
STOP.FT                                  7920.0000:
STEP.FT                                     0.5000:
NULL.                 -999.25                     :
COMP.                                             :COMPANY            
WELL.     KCL 12-27                               :WELL               
FLD .                                             :FIELD              
CTRY.                                             :COUNTRY            
STAT.                                             :STATE              
LOC .                                             :LOCATION           
UWI .                                             :UNIQUE WELL ID     
SRVC.                                             :Service company    
DATE.                                             :LOG DATE           
~Curve Information
#MNEM.UNIT           API CODE  Curve Description
#---------           --------  -----------------
DEPT.FT                      :   1 DEPTH
SP  .MV                      :   2
DT  .US/F                    :   3
SP  .MV                      :   4
SN  .OHMM                    :   5
LN  .OHMM                    :   6
SBL .MV                      :   7
RS  .OHMM                    :   8
RD  .OHMM                    :   9
DTS .US/F                    :  10
SPS .MV                      :  11
~A
# ...
  2404.500 -999.25 -999.25 -28.492  3.3920  3.1760 -6.5120  3.3920  3.1760 -999.25 -999.25 
  2405.000 -999.25 -999.25 -28.312  3.3560  3.1400 -6.3299  3.3560  3.1400 -999.25 -999.25 
  2405.500 -999.25 -999.25 -28.311  3.2480  3.1040 -6.3267  3.2480  3.1040 -999.25 -999.25 
  2406.000 -999.25 -999.25 -28.492  3.2120  3.0680 -6.5056  3.2120  3.0680 -999.25 -999.25 
  2406.500 -999.25 -999.25 -28.673  3.2120  3.0320 -6.6844  3.2120  3.0320 -999.25 -999.25 
  2407.000 -999.25 -999.25 -28.854  3.2130  2.9960 -6.8633  3.2130  2.9960 -999.25 -999.25 
  2407.500 -999.25 -999.25 -29.577  3.2490  2.9960 -7.5841  3.2490  2.9960 -999.25 -999.25 
  2408.000 -999.25 -999.25 -29.758  3.2850  3.0330 -7.7630  3.2850  3.0330 -999.25 -999.25 
  2408.500 -999.25 -999.25 -30.120  3.3210  3.1410 -8.1229  3.3210  3.1410 -999.25 -999.25 
  2409.000 -999.25 -999.25 -30.482  3.3580  3.2130 -8.4827  3.3580  3.2130 -999.25 -999.25 
  2409.500 -999.25 -999.25 -30.754  3.4300  3.3220 -8.7526  3.4300  3.3220 -999.25 -999.25 
  2410.000 -999.25 -999.25 -31.025  3.4660  3.3220 -9.0214  3.4660  3.3220 -999.25 -999.25 
  2410.500 -999.25 -999.25 -31.206  3.5030  3.3220 -9.2003  3.5030  3.3220 -999.25 -999.25 
  2411.000 -999.25 -999.25 -31.206  3.3940  3.3040 -9.1981  3.3940  3.3040 -999.25 -999.25 
  2411.500 -999.25 -999.25 -30.844  3.3230  3.2860 -8.8340  3.3230  3.2860 -999.25 -999.25 
  2412.000 -999.25 -999.25 -30.663  3.1780  3.2510 -8.6509  3.1780  3.2510 -999.25 -999.25 
  2412.500 -999.25 -999.25 -30.482  3.1060  3.2510 -8.4677  3.1060  3.2510 -999.25 -999.25 
  2413.000 -999.25 -999.25 -29.939  2.9980  3.1970 -7.9226  2.9980  3.1970 -999.25 -999.25 
  2413.500 -999.25 -999.25 -29.849  3.0350  3.1430 -7.8304  3.0350  3.1430 -999.25 -999.25 
  2414.000 -999.25 -999.25 -29.759  3.1070  3.1250 -7.7383  3.1070  3.1250 -999.25 -999.25 
  2414.500 -999.25 -999.25 -29.758  3.2510  3.1070 -7.7351  3.2510  3.1070 -999.25 -999.25 
  2415.000 -999.25 -999.25 -29.758  3.3780  3.1430 -7.7330  3.3780  3.1430 -999.25 -999.25 
  2415.500 -999.25 -999.25 -30.120  3.5040  3.1800 -8.0929  3.5040  3.1800 -999.25 -999.25 
  2416.000 -999.25 -999.25 -30.663  3.9010  3.3240 -8.6337  3.9010  3.3240 -999.25 -999.25 
  2416.500 -999.25 -999.25 -31.115  4.1180  3.4330 -9.0836  4.1180  3.4330 -999.25 -999.25 
  2417.000 -999.25 -999.25 -31.568  4.3340  3.6490 -9.5344  4.3340  3.6490 -999.25 -999.25 
  2417.500 -999.25 -999.25 -33.196  4.6950  3.9740 -11.160  4.6950  3.9740 -999.25 -999.25 
  2418.000 -999.25 -999.25 -34.462  4.8040  4.0460 -12.424  4.8040  4.0460 -999.25 -999.25 
  2418.500 -999.25 -999.25 -35.728  4.9120  4.0820 -13.688  4.9120  4.0820 -999.25 -999.25 
  2419.000 -999.25 -999.25 -38.804  5.0020  4.1190 -16.762  5.0020  4.1190 -999.25 -999.25 
  2419.500 -999.25 -999.25 -40.432  5.0930  4.1910 -18.388  5.0930  4.1910 -999.25 -999.25 
  2420.000 -999.25 -999.25 -39.889  5.2370  4.2270 -17.843  5.2370  4.2270 -999.25 -999.25 
  2420.500 -999.25 -999.25 -37.718  5.3460  4.3000 -15.669  5.3460  4.3000 -999.25 -999.25 
  2421.000 -999.25 -999.25 -36.995  5.5260  4.3720 -14.944  5.5260  4.3720 -999.25 -999.25 
  2421.500 -999.25 -999.25 -36.723  5.9950  4.4440 -14.670  5.9950  4.4440 -999.25 -999.25 
  2422.000 -999.25 -999.25 -36.452  6.8970  4.5160 -14.397  6.8970  4.5160 -999.25 -999.25 
  2422.500 -999.25 -999.25 -40.613  7.2220  4.7690 -18.556  7.2220  4.7690 -999.25 -999.25 
  2423.000 -999.25 -999.25 -45.678  7.4020  5.0940 -23.619  7.4020  5.0940 -999.25 -999.25 
  2423.500 -999.25 -999.25 -48.392  7.8710  5.2750 -26.331  7.8710  5.2750 -999.25 -999.25 
  2424.000 -999.25 -999.25 -48.934  8.2680  5.3830 -26.870  8.2680  5.3830 -999.25 -999.25 
  2424.500 -999.25 -999.25 -49.115  8.3050  5.4910 -27.049  8.3050  5.4910 -999.25 -999.25 
  2425.000 -999.25 -999.25 -49.115  8.3410  5.6000 -27.047  8.3410  5.6000 -999.25 -999.25 
  2425.500 -999.25 -999.25 -48.572  8.6660  5.7080 -26.502  8.6660  5.7080 -999.25 -999.25 
  2426.000 -999.25 -999.25 -48.754  8.9180  5.6720 -26.682  8.9180  5.6720 -999.25 -999.25 
  2426.500 -999.25 -999.25 -48.935  9.1710  5.5640 -26.861  9.1710  5.5640 -999.25 -999.25 
  2427.000 -999.25 -999.25 -49.477  8.9550  5.0050 -27.401  8.9550  5.0050 -999.25 -999.25 
  2427.500 -999.25 -999.25 -49.296  8.7020  4.4460 -27.217  8.7020  4.4460 -999.25 -999.25 
  2428.000 -999.25 -999.25 -49.116  8.2700  4.2660 -27.035  8.2700  4.2660 -999.25 -999.25 
  2428.500 -999.25 -999.25 -48.030  7.1880  3.9780 -25.947  7.1880  3.9780 -999.25 -999.25 
  2429.000 -999.25 -999.25 -46.040  6.3590  3.8340 -23.955  6.3590  3.8340 -999.25 -999.25 
  2429.500 -999.25 -999.25 -40.251  5.5290  3.5450 -18.164  5.5290  3.5450 -999.25 -999.25 
  2430.000 -999.25 -999.25 -31.929  4.7000  3.2570 -9.8397  4.7000  3.2570 -999.25 -999.25 
  2430.500 -999.25 -999.25 -30.844  3.6900  2.7880 -8.7526  3.6900  2.7880 -999.25 -999.25 
  2431.000 -999.25 -999.25 -30.120  3.2210  2.4640 -8.0264  3.2210  2.4640 -999.25 -999.25 
  2431.500 -999.25 -999.25 -29.759  3.0410  2.4280 -7.6633  3.0410  2.4280 -999.25 -999.25 
  2432.000 -999.25 -999.25 -29.397  2.9690  2.4640 -7.2991  2.9690  2.4640 -999.25 -999.25 
  2432.500 -999.25 -999.25 -29.397  3.0050  2.5000 -7.2970  3.0050  2.5000 -999.25 -999.25 
  2433.000 -999.25 -999.25 -29.397  3.0780  2.7890 -7.2949  3.0780  2.7890 -999.25 -999.25 
  2433.500 -999.25 -999.25 -29.759  3.2220  3.0420 -7.6547  3.2220  3.0420 -999.25 -999.25 
  2434.000 -999.25 -999.25 -30.121  3.3310  3.2580 -8.0146  3.3310  3.2580 -999.25 -999.25 
  2434.500 -999.25 -999.25 -31.387  3.5830  3.3670 -9.2784  3.5830  3.3670 -999.25 -999.25 
  2435.000 -999.25 -999.25 -33.196  3.7640  3.3670 -11.085  3.7640  3.3670 -999.25 -999.25 
  2435.500 -999.25 -999.25 -34.824  3.9440  3.3670 -12.711  3.9440  3.3670 -999.25 -999.25 
  2436.000 -999.25 -999.25 -35.909  3.9440  3.3670 -13.794  3.9440  3.3670 -999.25 -999.25 
  2436.500 -999.25 -999.25 -36.995  3.8540  3.3310 -14.878  3.8540  3.3310 -999.25 -999.25 
  2437.000 -999.25 -999.25 -37.176  3.7640  3.2960 -15.057  3.7640  3.2960 -999.25 -999.25 
  2437.500 -999.25 -999.25 -35.186  3.5660  3.1880 -13.065  3.5660  3.1880 -999.25 -999.25 
  2438.000 -999.25 -999.25 -33.558  3.3680  3.0070 -11.434  3.3680  3.0070 -999.25 -999.25 
  2438.500 -999.25 -999.25 -31.929  3.0080  2.7190 -9.8033  3.0080  2.7190 -999.25 -999.25 
  2439.000 -999.25 -999.25 -31.206  2.7910  2.5750 -9.0781  2.7910  2.5750 -999.25 -999.25 
  2439.500 -999.25 -999.25 -30.301  2.7010  2.2510 -8.1710  2.7010  2.2510 -999.25 -999.25 
  2440.000 -999.25 -999.25 -30.030  2.6110  2.0700 -7.8979  2.6110  2.0700 -999.25 -999.25 
  2440.500 -999.25 -999.25 -29.759  2.4670  1.9980 -7.6247  2.4670  1.9980 -999.25 -999.25 
  2441.000 -999.25 -999.25 -29.849  2.4670  1.9990 -7.7126  2.4670  1.9990 -999.25 -999.25 
  2441.500 -999.25 -999.25 -29.940  2.4500  2.0710 -7.8014  2.4500  2.0710 -999.25 -999.25 
  2442.000 -999.25 -999.25 -29.940  2.4320  2.0710 -7.7993  2.4320  2.0710 -999.25 -999.25 
  2442.500 -999.25 -999.25 -30.120  2.3960  2.1430 -7.9771  2.3960  2.1430 -999.25 -999.25 
  2443.000 -999.25 -999.25 -30.211  2.4320  2.2160 -8.0660  2.4320  2.2160 -999.25 -999.25 
  2443.500 -999.25 -999.25 -30.302  2.5040  2.3600 -8.1549  2.5040  2.3600 -999.25 -999.25 
  2444.000 -999.25 -999.25 -30.120  2.5590  2.5050 -7.9707  2.5590  2.5050 -999.25 -999.25 
  2444.500 -999.25 -999.25 -29.397  2.6130  2.7210 -7.2456  2.6130  2.7210 -999.25 -999.25 
  2445.000 -999.25 -999.25 -29.216  2.9020  2.8660 -7.0624  2.9020  2.8660 -999.25 -999.25 
  2445.500 -999.25 -999.25 -29.216  3.1540  3.1180 -7.0603  3.1540  3.1180 -999.25 -999.25 
  2446.000 -999.25 -999.25 -29.397  3.5150  3.3350 -7.2391  3.5150  3.3350 -999.25 -999.25 
  2446.500 -999.25 -999.25 -29.578  3.6240  3.5150 -7.4180  3.6240  3.5150 -999.25 -999.25 
  2447.000 -999.25 -999.25 -29.940  3.8760  3.6960 -7.7779  3.8760  3.6960 -999.25 -999.25 
  2447.500 -999.25 -999.25 -30.482  4.3090  4.0210 -8.3177  4.3090  4.0210 -999.25 -999.25 
