~Version Information
VERS.                     2.0: CWLS log ASCII Standard Version 2.00
WRAP.                      NO: One line per depth step
~Well Information Block
#MNEM.UNIT                               Data Type  Information
#---------                               ---------  -----------
STRT.FT                                   360.0000:
STOP.FT                                  7920.0000:
STEP.FT                                     0.5000:
NULL.                 -999.25                     :
COMP.                                             :COMPANY            
WELL.     KCL 12-27                               :WELL               
FLD .                                             :FIELD              
CTRY.                                             :COUNTRY            
STAT.                                             :STATE              
LOC .                                             :LOCATION           
UWI .                                             :UNIQUE WELL ID     
SRVC.                                             :Service company    
DATE.                                             :LOG DATE           
~Curve Information
#MNEM.UNIT           API CODE  Curve Description
#---------           --------  -----------------
DEPT.FT                      :   1 DEPTH
SP  .MV                      :   2
DT  .US/F                    :   3
SP  .MV                      :   4
SN  .OHMM                    :   5
LN  .OHMM                    :   6
SBL .MV                      :   7
RS  .OHMM                    :   8
RD  .OHMM                    :   9
DTS .US/F                    :  10
SPS .MV                      :  11
~A
# ...
  5884.500 -999.25 -999.25 -32.349  3.2390  3.1310 -7.3377  3.2390  3.1310 -999.25 -999.25 
  5885.000 -999.25 -999.25 -32.800  3.2760  3.1130 -7.7855  3.2760  3.1130 -999.25 -999.25 
  5885.500 -999.25 -999.25 -33.160  3.2400  3.0960 -8.1422  3.2400  3.0960 -999.25 -999.25 
  5886.000 -999.25 -999.25 -33.519  3.2040  3.0600 -8.4980  3.2040  3.0600 -999.25 -999.25 
  5886.500 -999.25 -999.25 -33.698  3.1690  3.0060 -8.6738  3.1690  3.0060 -999.25 -999.25 
  5887.000 -999.25 -999.25 -33.152  3.1330  2.9520 -8.1245  3.1330  2.9520 -999.25 -999.25 
  5887.500 -999.25 -999.25 -32.605  3.0970  2.8440 -7.5743  3.0970  2.8440 -999.25 -999.25 
  5888.000 -999.25 -999.25 -31.333  3.0610  2.8090 -6.2991  3.0610  2.8090 -999.25 -999.25 
  5888.500 -999.25 -999.25 -30.606  2.9900  2.7730 -5.5688  2.9900  2.7730 -999.25 -999.25 
  5889.000 -999.25 -999.25 -30.240  2.9720  2.7370 -5.1996  2.9720  2.7370 -999.25 -999.25 
  5889.500 -999.25 -999.25 -30.238  2.9540  2.7010 -5.1944  2.9540  2.7010 -999.25 -999.25 
  5890.000 -999.25 -999.25 -30.326  2.9550  2.7200 -5.2792  2.9550  2.7200 -999.25 -999.25 
  5890.500 -999.25 -999.25 -30.414  2.9550  2.7380 -5.3639  2.9550  2.7380 -999.25 -999.25 
  5891.000 -999.25 -999.25 -30.592  2.9910  2.8110 -5.5387  2.9910  2.8110 -999.25 -999.25 
  5891.500 -999.25 -999.25 -30.771  3.0640  2.9190 -5.7145  3.0640  2.9190 -999.25 -999.25 
  5892.000 -999.25 -999.25 -30.950  3.1730  3.0280 -5.8902  3.1730  3.0280 -999.25 -999.25 
  5892.500 -999.25 -999.25 -35.659  3.2450  3.0830 -10.596  3.2450  3.0830 -999.25 -999.25 
  5893.000 -999.25 -999.25 -37.288  3.3180  3.1370 -12.222  3.3180  3.1370 -999.25 -999.25 
  5893.500 -999.25 -999.25 -38.917  3.5350  3.1560 -13.848  3.5350  3.1560 -999.25 -999.25 
  5894.000 -999.25 -999.25 -39.277  3.6800  3.1740 -14.204  3.6800  3.1740 -999.25 -999.25 
  5894.500 -999.25 -999.25 -39.637  3.6800  3.1740 -14.561  3.6800  3.1740 -999.25 -999.25 
  5895.000 -999.25 -999.25 -38.365  3.6440  3.1750 -13.286  3.6440  3.1750 -999.25 -999.25 
  5895.500 -999.25 -999.25 -35.643  3.5360  3.1750 -10.561  3.5360  3.1750 -999.25 -999.25 
  5896.000 -999.25 -999.25 -35.097  3.3560  3.1760 -10.011  3.3560  3.1760 -999.25 -999.25 
  5896.500 -999.25 -999.25 -33.825  3.1400  2.9950 -8.7361  3.1400  2.9950 -999.25 -999.25 
  5897.000 -999.25 -999.25 -32.735  2.9960  2.9050 -7.6429  2.9960  2.9050 -999.25 -999.25 
  5897.500 -999.25 -999.25 -32.188  2.9060  2.8150 -7.0927  2.9060  2.8150 -999.25 -999.25 
  5898.000 -999.25 -999.25 -31.279  2.8160  2.6710 -6.1805  2.8160  2.6710 -999.25 -999.25 
  5898.500 -999.25 -999.25 -30.824  2.7800  2.5270 -5.7222  2.7800  2.5270 -999.25 -999.25 
  5899.000 -999.25 -999.25 -30.368  2.7440  2.4910 -5.2630  2.7440  2.4910 -999.25 -999.25 
  5899.500 -999.25 -999.25 -30.003  2.7450  2.4560 -4.8948  2.7450  2.4560 -999.25 -999.25 
  5900.000 -999.25 -999.25 -29.638  2.7630  2.4920 -4.5265  2.7630  2.4920 -999.25 -999.25 
  5900.500 -999.25 -999.25 -29.274  2.7810  2.5110 -4.1593  2.7810  2.5110 -999.25 -999.25 
  5901.000 -999.25 -999.25 -29.999  2.8180  2.5290 -4.8811  2.8180  2.5290 -999.25 -999.25 
  5901.500 -999.25 -999.25 -30.542  2.8550  2.5480 -5.4208  2.8550  2.5480 -999.25 -999.25 
  5902.000 -999.25 -999.25 -33.804  2.8730  2.5660 -8.6796  2.8730  2.5660 -999.25 -999.25 
  5902.500 -999.25 -999.25 -34.892  2.8920  2.5660 -9.7644  2.8920  2.5660 -999.25 -999.25 
  5903.000 -999.25 -999.25 -35.798  2.9280  2.5670 -10.667  2.9280  2.5670 -999.25 -999.25 
  5903.500 -999.25 -999.25 -35.797  2.9650  2.5670 -10.663  2.9650  2.5670 -999.25 -999.25 
  5904.000 -999.25 -999.25 -35.072  2.9650  2.5680 -9.9347  2.9650  2.5680 -999.25 -999.25 
  5904.500 -999.25 -999.25 -34.346  2.9660  2.5500 -9.2055  2.9660  2.5500 -999.25 -999.25 
  5905.000 -999.25 -999.25 -34.164  2.9840  2.5330 -9.0202  2.9840  2.5330 -999.25 -999.25 
  5905.500 -999.25 -999.25 -34.526  3.0030  2.4970 -9.3790  3.0030  2.4970 -999.25 -999.25 
  5906.000 -999.25 -999.25 -37.789  3.0750  2.4980 -12.639  3.0750  2.4980 -999.25 -999.25 
  5906.500 -999.25 -999.25 -40.870  3.1120  2.5340 -15.717  3.1120  2.5340 -999.25 -999.25 
  5907.000 -999.25 -999.25 -43.045  3.3290  2.5710 -17.888  3.3290  2.5710 -999.25 -999.25 
  5907.500 -999.25 -999.25 -43.860  3.4020  2.5710 -18.700  3.4020  2.5710 -999.25 -999.25 
  5908.000 -999.25 -999.25 -44.313  3.4740  2.5350 -19.150  3.4740  2.5350 -999.25 -999.25 
  5908.500 -999.25 -999.25 -43.587  3.4750  2.5000 -18.421  3.4750  2.5000 -999.25 -999.25 
  5909.000 -999.25 -999.25 -42.771  3.3670  2.4280 -17.601  3.3670  2.4280 -999.25 -999.25 
  5909.500 -999.25 -999.25 -41.956  3.2410  2.3920 -16.783  3.2410  2.3920 -999.25 -999.25 
  5910.000 -999.25 -999.25 -38.329  3.1150  2.3570 -13.153  3.1150  2.3570 -999.25 -999.25 
  5910.500 -999.25 -999.25 -35.066  2.8270  2.2310 -9.8867  2.8270  2.2310 -999.25 -999.25 
  5911.000 -999.25 -999.25 -32.165  2.7190  2.1050 -6.9824  2.7190  2.1050 -999.25 -999.25 
  5911.500 -999.25 -999.25 -30.533  2.4840  1.9610 -5.3472  2.4840  1.9610 -999.25 -999.25 
  5912.000 -999.25 -999.25 -29.807  2.2500  1.9070 -4.6180  2.2500  1.9070 -999.25 -999.25 
  5912.500 -999.25 -999.25 -29.445  2.1600  1.8530 -4.2528  2.1600  1.8530 -999.25 -999.25 
  5913.000 -999.25 -999.25 -29.082  2.0700  1.7820 -3.8865  2.0700  1.7820 -999.25 -999.25 
  5913.500 -999.25 -999.25 -28.719  1.9990  1.7820 -3.5203  1.9990  1.7820 -999.25 -999.25 
  5914.000 -999.25 -999.25 -28.356  1.9990  1.8190 -3.1541  1.9990  1.8190 -999.25 -999.25 
  5914.500 -999.25 -999.25 -28.355  2.0000  1.8550 -3.1498  2.0000  1.8550 -999.25 -999.25 
  5915.000 -999.25 -999.25 -28.717  2.0360  1.9280 -3.5086  2.0360  1.9280 -999.25 -999.25 
  5915.500 -999.25 -999.25 -29.079  2.0730  2.0000 -3.8674  2.0730  2.0000 -999.25 -999.25 
  5916.000 -999.25 -999.25 -30.710  2.2180  2.1090 -5.4951  2.2180  2.1090 -999.25 -999.25 
  5916.500 -999.25 -999.25 -31.797  2.4350  2.2900 -6.5789  2.4350  2.2900 -999.25 -999.25 
  5917.000 -999.25 -999.25 -33.609  2.6160  2.4350 -8.3877  2.6160  2.4350 -999.25 -999.25 
  5917.500 -999.25 -999.25 -34.515  2.8330  2.4180 -9.2904  2.8330  2.4180 -999.25 -999.25 
  5918.000 -999.25 -999.25 -40.315  3.1590  2.4000 -15.087  3.1590  2.4000 -999.25 -999.25 
  5918.500 -999.25 -999.25 -43.396  3.5560  2.3650 -18.165  3.5560  2.3650 -999.25 -999.25 
  5919.000 -999.25 -999.25 -46.478  3.6290  2.3290 -21.244  3.6290  2.3290 -999.25 -999.25 
  5919.500 -999.25 -999.25 -50.284  3.7020  2.2930 -25.047  3.7020  2.2930 -999.25 -999.25 
  5920.000 -999.25 -999.25 -53.003  3.6840  2.2940 -27.762  3.6840  2.2940 -999.25 -999.25 
  5920.500 -999.25 -999.25 -53.365  3.6660  2.2580 -28.121  3.6660  2.2580 -999.25 -999.25 
  5921.000 -999.25 -999.25 -52.639  3.5590  2.2220 -27.392  3.5590  2.2220 -999.25 -999.25 
  5921.500 -999.25 -999.25 -50.645  3.4150  2.2040 -25.395  3.4150  2.2040 -999.25 -999.25 
  5922.000 -999.25 -999.25 -49.013  3.3070  2.1870 -23.759  3.3070  2.1870 -999.25 -999.25 
  5922.500 -999.25 -999.25 -46.837  3.1990  2.1870 -21.580  3.1990  2.1870 -999.25 -999.25 
  5923.000 -999.25 -999.25 -43.755  3.1810  2.1880 -18.495  3.1810  2.1880 -999.25 -999.25 
  5923.500 -999.25 -999.25 -43.120  3.1630  2.1880 -17.857  3.1630  2.1880 -999.25 -999.25 
  5924.000 -999.25 -999.25 -42.486  3.1640  2.1890 -17.219  3.1640  2.1890 -999.25 -999.25 
  5924.500 -999.25 -999.25 -45.385  3.1820  2.2250 -20.115  3.1820  2.2250 -999.25 -999.25 
  5925.000 -999.25 -999.25 -46.653  3.2010  2.2620 -21.380  3.2010  2.2620 -999.25 -999.25 
  5925.500 -999.25 -999.25 -47.740  3.3460  2.2620 -22.464  3.3460  2.2620 -999.25 -999.25 
  5926.000 -999.25 -999.25 -47.740  3.3820  2.2450 -22.461  3.3820  2.2450 -999.25 -999.25 
  5926.500 -999.25 -999.25 -47.015  3.4190  2.2990 -21.732  3.4190  2.2990 -999.25 -999.25 
  5927.000 -999.25 -999.25 -45.927  3.3470  2.2640 -20.641  3.3470  2.2640 -999.25 -999.25 
  5927.500 -999.25 -999.25 -44.113  3.2390  2.2280 -18.824  3.2390  2.2280 -999.25 -999.25 
