~Version Information
VERS.                     2.0: CWLS log ASCII Standard Version 2.00
WRAP.                      NO: One line per depth step
~Well Information Block
#MNEM.UNIT                               Data Type  Information
#---------                               ---------  -----------
STRT.FT                                   360.0000:
STOP.FT                                  7920.0000:
STEP.FT                                     0.5000:
NULL.                 -999.25                     :
COMP.                                             :COMPANY            
WELL.     KCL 12-27                               :WELL               
FLD .                                             :FIELD              
CTRY.                                             :COUNTRY            
STAT.                                             :STATE              
LOC .                                             :LOCATION           
UWI .                                             :UNIQUE WELL ID     
SRVC.                                             :Service company    
DATE.                                             :LOG DATE           
~Curve Information
#MNEM.UNIT           API CODE  Curve Description
#---------           --------  -----------------
DEPT.FT                      :   1 DEPTH
SP  .MV                      :   2
DT  .US/F                    :   3
SP  .MV                      :   4
SN  .OHMM                    :   5
LN  .OHMM                    :   6
SBL .MV                      :   7
RS  .OHMM                    :   8
RD  .OHMM                    :   9
DTS .US/F                    :  10
SPS .MV                      :  11
~A
# ...
  3883.500 -999.25 -999.25 -28.915  3.8240  3.5350 -7.6296  3.8240  3.5350 -999.25 -999.25 
  3884.000 -999.25 -999.25 -28.373  3.7880  3.5530 -7.0920  3.7880  3.5530 -999.25 -999.25 
  3884.500 -999.25 -999.25 -27.469  3.7520  3.5720 -6.1923  3.7520  3.5720 -999.25 -999.25 
  3885.000 -999.25 -999.25 -26.385  3.7890  3.6440 -5.1127  3.7890  3.6440 -999.25 -999.25 
  3885.500 -999.25 -999.25 -25.572  3.8250  3.6800 -4.3040  3.8250  3.6800 -999.25 -999.25 
  3886.000 -999.25 -999.25 -24.760  3.8610  3.7170 -3.4964  3.8610  3.7170 -999.25 -999.25 
  3886.500 -999.25 -999.25 -24.036  3.8980  3.8980 -2.7767  3.8980  3.8980 -999.25 -999.25 
  3887.000 -999.25 -999.25 -24.036  3.9700  3.9700 -2.7811  3.9700  3.9700 -999.25 -999.25 
  3887.500 -999.25 -999.25 -24.036  4.1510  4.0060 -2.7855  4.1510  4.0060 -999.25 -999.25 
  3888.000 -999.25 -999.25 -24.036  4.2230  4.0070 -2.7898  4.2230  4.0070 -999.25 -999.25 
  3888.500 -999.25 -999.25 -24.217  4.2230  4.0070 -2.9752  4.2230  4.0070 -999.25 -999.25 
  3889.000 -999.25 -999.25 -24.307  4.2240  3.9710 -3.0695  4.2240  3.9710 -999.25 -999.25 
  3889.500 -999.25 -999.25 -24.398  4.1160  3.8810 -3.1649  4.1160  3.8810 -999.25 -999.25 
  3890.000 -999.25 -999.25 -24.398  3.9530  3.7900 -3.1692  3.9530  3.7900 -999.25 -999.25 
  3890.500 -999.25 -999.25 -24.398  3.7910  3.6460 -3.1736  3.7910  3.6460 -999.25 -999.25 
  3891.000 -999.25 -999.25 -24.489  3.6100  3.5380 -3.2690  3.6100  3.5380 -999.25 -999.25 
  3891.500 -999.25 -999.25 -24.579  3.4300  3.5020 -3.3633  3.4300  3.5020 -999.25 -999.25 
  3892.000 -999.25 -999.25 -24.759  3.4120  3.4660 -3.5477  3.4120  3.4660 -999.25 -999.25 
  3892.500 -999.25 -999.25 -24.759  3.3940  3.4300 -3.5520  3.3940  3.4300 -999.25 -999.25 
  3893.000 -999.25 -999.25 -24.940  3.4480  3.4300 -3.7374  3.4480  3.4300 -999.25 -999.25 
  3893.500 -999.25 -999.25 -25.121  3.5030  3.4480 -3.9227  3.5030  3.4480 -999.25 -999.25 
  3894.000 -999.25 -999.25 -25.662  3.6840  3.4670 -4.4681  3.6840  3.4670 -999.25 -999.25 
  3894.500 -999.25 -999.25 -25.844  3.9010  3.6840 -4.6545  3.9010  3.6840 -999.25 -999.25 
  3895.000 -999.25 -999.25 -26.025  3.9550  3.7560 -4.8398  3.9550  3.7560 -999.25 -999.25 
  3895.500 -999.25 -999.25 -26.748  4.0090  3.8290 -5.5672  4.0090  3.8290 -999.25 -999.25 
  3896.000 -999.25 -999.25 -27.470  4.1180  3.9010 -6.2935  4.1180  3.9010 -999.25 -999.25 
  3896.500 -999.25 -999.25 -29.097  4.2260  3.8650 -7.9249  4.2260  3.8650 -999.25 -999.25 
  3897.000 -999.25 -999.25 -30.723  4.2990  3.8470 -9.5552  4.2990  3.8470 -999.25 -999.25 
  3897.500 -999.25 -999.25 -31.717  4.2630  3.8290 -10.554  4.2630  3.8290 -999.25 -999.25 
  3898.000 -999.25 -999.25 -32.711  4.2270  3.7930 -11.552  4.2270  3.7930 -999.25 -999.25 
  3898.500 -999.25 -999.25 -31.084  4.1550  3.7570 -9.9293  4.1550  3.7570 -999.25 -999.25 
  3899.000 -999.25 -999.25 -30.361  4.1190  3.7760 -9.2107  4.1190  3.7760 -999.25 -999.25 
  3899.500 -999.25 -999.25 -29.638  4.1190  3.7940 -8.4920  4.1190  3.7940 -999.25 -999.25 
  3900.000 -999.25 -999.25 -29.277  4.2640  3.8660 -8.1354  4.2640  3.8660 -999.25 -999.25 
  3900.500 -999.25 -999.25 -30.177  4.3360  3.9390 -9.0397  4.3360  3.9390 -999.25 -999.25 
  3901.000 -999.25 -999.25 -30.896  4.7700  4.0110 -9.7631  4.7700  4.0110 -999.25 -999.25 
  3901.500 -999.25 -999.25 -35.049  5.0960  4.1200 -13.920  5.0960  4.1200 -999.25 -999.25 
  3902.000 -999.25 -999.25 -37.575  5.3490  4.2290 -16.451  5.3490  4.2290 -999.25 -999.25 
  3902.500 -999.25 -999.25 -38.928  5.4760  4.3380 -17.808  5.4760  4.3380 -999.25 -999.25 
  3903.000 -999.25 -999.25 -40.280  5.6030  4.4110 -19.165  5.6030  4.4110 -999.25 -999.25 
  3903.500 -999.25 -999.25 -41.180  5.9650  4.5190 -20.069  5.9650  4.5190 -999.25 -999.25 
  3904.000 -999.25 -999.25 -42.080  6.1460  4.5560 -20.973  6.1460  4.5560 -999.25 -999.25 
  3904.500 -999.25 -999.25 -42.979  6.3990  4.5740 -21.877  6.3990  4.5740 -999.25 -999.25 
  3905.000 -999.25 -999.25 -43.879  6.5440  4.5920 -22.781  6.5440  4.5920 -999.25 -999.25 
  3905.500 -999.25 -999.25 -44.508  6.9060  4.6110 -23.414  6.9060  4.6110 -999.25 -999.25 
  3906.000 -999.25 -999.25 -45.138  7.1950  4.6290 -24.049  7.1950  4.6290 -999.25 -999.25 
  3906.500 -999.25 -999.25 -45.857  7.2500  4.6300 -24.772  7.2500  4.6300 -999.25 -999.25 
  3907.000 -999.25 -999.25 -46.576  7.3040  4.6300 -25.495  7.3040  4.6300 -999.25 -999.25 
  3907.500 -999.25 -999.25 -47.114  7.3050  4.6480 -26.038  7.3050  4.6480 -999.25 -999.25 
  3908.000 -999.25 -999.25 -47.110  7.1600  4.6670 -26.038  7.1600  4.6670 -999.25 -999.25 
  3908.500 -999.25 -999.25 -46.926  6.9440  4.6850 -25.858  6.9440  4.6850 -999.25 -999.25 
  3909.000 -999.25 -999.25 -46.019  6.6910  4.7040 -24.956  6.6910  4.7040 -999.25 -999.25 
  3909.500 -999.25 -999.25 -46.015  6.7100  4.7040 -24.956  6.7100  4.7040 -999.25 -999.25 
  3910.000 -999.25 -999.25 -46.012  6.7280  4.7040 -24.958  6.7280  4.7040 -999.25 -999.25 
  3910.500 -999.25 -999.25 -46.280  7.0900  4.7230 -25.230  7.0900  4.7230 -999.25 -999.25 
  3911.000 -999.25 -999.25 -46.547  7.2170  4.7410 -25.501  7.2170  4.7410 -999.25 -999.25 
  3911.500 -999.25 -999.25 -47.085  7.3430  4.7060 -26.044  7.3430  4.7060 -999.25 -999.25 
  3912.000 -999.25 -999.25 -46.358  7.5250  4.5250 -25.321  7.5250  4.5250 -999.25 -999.25 
  3912.500 -999.25 -999.25 -45.270  7.2720  4.2010 -24.237  7.2720  4.2010 -999.25 -999.25 
  3913.000 -999.25 -999.25 -42.737  6.5860  3.9840 -21.709  6.5860  3.9840 -999.25 -999.25 
  3913.500 -999.25 -999.25 -42.010  6.2250  3.7680 -20.986  6.2250  3.7680 -999.25 -999.25 
  3914.000 -999.25 -999.25 -38.754  5.4300  3.5870 -17.734  5.4300  3.5870 -999.25 -999.25 
  3914.500 -999.25 -999.25 -35.497  4.9250  3.1180 -14.482  4.9250  3.1180 -999.25 -999.25 
  3915.000 -999.25 -999.25 -33.686  3.8050  2.7930 -12.675  3.8050  2.7930 -999.25 -999.25 
  3915.500 -999.25 -999.25 -29.526  3.2990  2.6490 -8.5195  3.2990  2.6490 -999.25 -999.25 
  3916.000 -999.25 -999.25 -26.812  3.1190  2.6130 -5.8098  3.1190  2.6130 -999.25 -999.25 
  3916.500 -999.25 -999.25 -26.085  3.0650  2.6500 -5.0872  3.0650  2.6500 -999.25 -999.25 
  3917.000 -999.25 -999.25 -26.262  3.0110  2.7580 -5.2685  3.0110  2.7580 -999.25 -999.25 
  3917.500 -999.25 -999.25 -26.530  3.0300  2.9760 -5.5409  3.0300  2.9760 -999.25 -999.25 
  3918.000 -999.25 -999.25 -26.798  3.0480  3.1210 -5.8133  3.0480  3.1210 -999.25 -999.25 
  3918.500 -999.25 -999.25 -27.518  3.7710  3.3380 -6.5376  3.7710  3.3380 -999.25 -999.25 
  3919.000 -999.25 -999.25 -28.237  4.0610  3.5190 -7.2610  4.0610  3.5190 -999.25 -999.25 
  3919.500 -999.25 -999.25 -30.039  4.2420  3.9170 -9.0673  4.2420  3.9170 -999.25 -999.25 
  3920.000 -999.25 -999.25 -31.120  4.4590  4.0980 -10.153  4.4590  4.0980 -999.25 -999.25 
  3920.500 -999.25 -999.25 -32.834  4.6760  4.1700 -11.871  4.6760  4.1700 -999.25 -999.25 
  3921.000 -999.25 -999.25 -34.547  5.1460  4.2430 -13.588  5.1460  4.2430 -999.25 -999.25 
  3921.500 -999.25 -999.25 -37.254  5.6530  4.3880 -16.300  5.6530  4.3880 -999.25 -999.25 
  3922.000 -999.25 -999.25 -40.864  5.8340  4.3880 -19.914  5.8340  4.3880 -999.25 -999.25 
  3922.500 -999.25 -999.25 -41.584  6.1410  4.3890 -20.638  6.1410  4.3890 -999.25 -999.25 
  3923.000 -999.25 -999.25 -41.852  6.4480  4.3890 -20.911  6.4480  4.3890 -999.25 -999.25 
  3923.500 -999.25 -999.25 -42.120  6.4490  4.2810 -21.183  6.4490  4.2810 -999.25 -999.25 
  3924.000 -999.25 -999.25 -42.115  6.4490  4.1730 -21.183  6.4490  4.1730 -999.25 -999.25 
  3924.500 -999.25 -999.25 -41.208  6.1610  3.8480 -20.280  6.1610  3.8480 -999.25 -999.25 
  3925.000 -999.25 -999.25 -39.758  5.7630  3.7040 -18.834  5.7630  3.7040 -999.25 -999.25 
  3925.500 -999.25 -999.25 -38.490  5.3300  3.5960 -17.571  5.3300  3.5960 -999.25 -999.25 
  3926.000 -999.25 -999.25 -36.498  4.6440  3.4150 -15.583  4.6440  3.4150 -999.25 -999.25 
  3926.500 -999.25 -999.25 -27.459  3.9940  3.1990 -6.5483  3.9940  3.1990 -999.25 -999.25 
