~Version Information
VERS.                     2.0: CWLS log ASCII Standard Version 2.00
WRAP.                      NO: One line per depth step
~Well Information Block
#MNEM.UNIT                               Data Type  Information
#---------                               ---------  -----------
STRT.FT                                   360.0000:
STOP.FT                                  7920.0000:
STEP.FT                                     0.5000:
NULL.                 -999.25                     :
COMP.                                             :COMPANY            
WELL.     KCL 12-27                               :WELL               
FLD .                                             :FIELD              
CTRY.                                             :COUNTRY            
STAT.                                             :STATE              
LOC .                                             :LOCATION           
UWI .                                             :UNIQUE WELL ID     
SRVC.                                             :Service company    
DATE.                                             :LOG DATE           
~Curve Information
#MNEM.UNIT           API CODE  Curve Description
#---------           --------  -----------------
DEPT.FT                      :   1 DEPTH
SP  .MV                      :   2
DT  .US/F                    :   3
SP  .MV                      :   4
SN  .OHMM                    :   5
LN  .OHMM                    :   6
SBL .MV                      :   7
RS  .OHMM                    :   8
RD  .OHMM                    :   9
DTS .US/F                    :  10
SPS .MV                      :  11
~A
# ...
  2883.000 -999.25 -999.25 -33.738  3.7090  3.3840 -9.7073  3.7090  3.3840 -999.25 -999.25 
  2883.500 -999.25 -999.25 -36.271  4.1420  3.6730 -12.238  4.1420  3.6730 -999.25 -999.25 
  2884.000 -999.25 -999.25 -37.718  4.6830  3.9620 -13.683  4.6830  3.9620 -999.25 -999.25 
  2884.500 -999.25 -999.25 -39.166  5.2970  4.1420 -15.129  5.2970  4.1420 -999.25 -999.25 
  2885.000 -999.25 -999.25 -41.517  5.7300  4.3230 -17.478  5.7300  4.3230 -999.25 -999.25 
  2885.500 -999.25 -999.25 -42.783  6.2710  4.7560 -18.742  6.2710  4.7560 -999.25 -999.25 
  2886.000 -999.25 -999.25 -44.050  6.7400  4.9360 -20.006  6.7400  4.9360 -999.25 -999.25 
  2886.500 -999.25 -999.25 -44.593  7.2810  5.1170 -20.547  7.2810  5.1170 -999.25 -999.25 
  2887.000 -999.25 -999.25 -45.135  7.4980  5.4780 -21.087  7.4980  5.4780 -999.25 -999.25 
  2887.500 -999.25 -999.25 -46.040  7.7140  5.6400 -21.990  7.7140  5.6400 -999.25 -999.25 
  2888.000 -999.25 -999.25 -46.402  8.1470  5.8030 -22.350  8.1470  5.8030 -999.25 -999.25 
  2888.500 -999.25 -999.25 -47.487  8.4000  5.9470 -23.433  8.4000  5.9470 -999.25 -999.25 
  2889.000 -999.25 -999.25 -48.211  8.8690  6.0920 -24.155  8.8690  6.0920 -999.25 -999.25 
  2889.500 -999.25 -999.25 -48.935  9.3380  6.3440 -24.876  9.3380  6.3440 -999.25 -999.25 
  2890.000 -999.25 -999.25 -51.286  9.5550  6.4170 -27.225  9.5550  6.4170 -999.25 -999.25 
  2890.500 -999.25 -999.25 -54.180  11.466  6.4530 -30.117  11.466  6.4530 -999.25 -999.25 
  2891.000 -999.25 -999.25 -56.532  11.755  6.4170 -32.467  11.755  6.4170 -999.25 -999.25 
  2891.500 -999.25 -999.25 -57.437  12.044  6.3810 -33.370  12.044  6.3810 -999.25 -999.25 
  2892.000 -999.25 -999.25 -57.618  12.116  6.3450 -33.549  12.116  6.3450 -999.25 -999.25 
  2892.500 -999.25 -999.25 -57.980  12.008  6.3090 -33.909  12.008  6.3090 -999.25 -999.25 
  2893.000 -999.25 -999.25 -57.322  11.756  6.2550 -33.248  11.756  6.2550 -999.25 -999.25 
  2893.500 -999.25 -999.25 -56.664  11.467  6.2010 -32.588  11.467  6.2010 -999.25 -999.25 
  2894.000 -999.25 -999.25 -56.006  11.143  6.1300 -31.928  11.143  6.1300 -999.25 -999.25 
  2894.500 -999.25 -999.25 -55.348  10.963  6.0940 -31.268  10.963  6.0940 -999.25 -999.25 
  2895.000 -999.25 -999.25 -54.690  10.675  6.0580 -30.608  10.675  6.0580 -999.25 -999.25 
  2895.500 -999.25 -999.25 -54.033  10.278  6.0220 -29.949  10.278  6.0220 -999.25 -999.25 
  2896.000 -999.25 -999.25 -53.375  10.062  5.9860 -29.289  10.062  5.9860 -999.25 -999.25 
  2896.500 -999.25 -999.25 -52.717  9.7010  5.9860 -28.628  9.7010  5.9860 -999.25 -999.25 
  2897.000 -999.25 -999.25 -52.059  9.3770  5.9500 -27.968  9.3770  5.9500 -999.25 -999.25 
  2897.500 -999.25 -999.25 -51.401  9.0160  5.9500 -27.308  9.0160  5.9500 -999.25 -999.25 
  2898.000 -999.25 -999.25 -50.743  8.8360  5.9150 -26.648  8.8360  5.9150 -999.25 -999.25 
  2898.500 -999.25 -999.25 -50.201  8.6560  5.8430 -26.104  8.6560  5.8430 -999.25 -999.25 
  2899.000 -999.25 -999.25 -49.659  7.9710  5.7890 -25.560  7.9710  5.7890 -999.25 -999.25 
  2899.500 -999.25 -999.25 -46.764  7.2860  5.8430 -22.663  7.2860  5.8430 -999.25 -999.25 
  2900.000 -999.25 -999.25 -44.412  6.8530  5.1940 -20.308  6.8530  5.1940 -999.25 -999.25 
  2900.500 -999.25 -999.25 -42.782  6.4560  4.8690 -18.676  6.4560  4.8690 -999.25 -999.25 
  2901.000 -999.25 -999.25 -40.066  5.7350  4.5090 -15.958  5.7350  4.5090 -999.25 -999.25 
  2901.500 -999.25 -999.25 -37.350  5.0500  4.2560 -13.240  5.0500  4.2560 -999.25 -999.25 
  2902.000 -999.25 -999.25 -35.177  4.8330  4.0760 -11.065  4.8330  4.0760 -999.25 -999.25 
  2902.500 -999.25 -999.25 -32.642  4.0760  3.8230 -8.5277  4.0760  3.8230 -999.25 -999.25 
  2903.000 -999.25 -999.25 -31.192  3.6790  3.7330 -7.0756  3.6790  3.7330 -999.25 -999.25 
  2903.500 -999.25 -999.25 -28.658  3.5710  3.6430 -4.5394  3.5710  3.6430 -999.25 -999.25 
  2904.000 -999.25 -999.25 -28.293  3.4270  3.4270 -4.1723  3.4270  3.4270 -999.25 -999.25 
  2904.500 -999.25 -999.25 -27.748  3.3900  3.3180 -3.6251  3.3900  3.3180 -999.25 -999.25 
  2905.000 -999.25 -999.25 -27.656  3.2820  3.2460 -3.5310  3.2820  3.2460 -999.25 -999.25 
  2905.500 -999.25 -999.25 -27.564  3.2100  3.1740 -3.4369  3.2100  3.1740 -999.25 -999.25 
  2906.000 -999.25 -999.25 -27.742  3.1920  3.0660 -3.6127  3.1920  3.0660 -999.25 -999.25 
  2906.500 -999.25 -999.25 -27.921  3.1740  2.9940 -3.7896  3.1740  2.9940 -999.25 -999.25 
  2907.000 -999.25 -999.25 -28.099  3.1200  2.9220 -3.9654  3.1200  2.9220 -999.25 -999.25 
  2907.500 -999.25 -999.25 -28.278  3.0660  2.8490 -4.1423  3.0660  2.8490 -999.25 -999.25 
  2908.000 -999.25 -999.25 -28.457  3.0300  2.8130 -4.3191  3.0300  2.8130 -999.25 -999.25 
  2908.500 -999.25 -999.25 -28.635  2.9940  2.8310 -4.4950  2.9940  2.8310 -999.25 -999.25 
  2909.000 -999.25 -999.25 -28.814  3.0300  2.8490 -4.6719  3.0300  2.8490 -999.25 -999.25 
  2909.500 -999.25 -999.25 -28.811  3.0660  2.9940 -4.6667  3.0660  2.9940 -999.25 -999.25 
  2910.000 -999.25 -999.25 -28.989  3.1020  3.0660 -4.8426  3.1020  3.0660 -999.25 -999.25 
  2910.500 -999.25 -999.25 -29.349  3.1380  3.2820 -5.2004  3.1380  3.2820 -999.25 -999.25 
  2911.000 -999.25 -999.25 -29.889  3.4270  3.5350 -5.7383  3.4270  3.5350 -999.25 -999.25 
  2911.500 -999.25 -999.25 -30.973  3.6430  3.6070 -6.8201  3.6430  3.6070 -999.25 -999.25 
  2912.000 -999.25 -999.25 -32.418  3.8590  3.7870 -8.2630  3.8590  3.7870 -999.25 -999.25 
  2912.500 -999.25 -999.25 -33.320  4.1480  3.9320 -9.1629  4.1480  3.9320 -999.25 -999.25 
  2913.000 -999.25 -999.25 -34.946  4.2920  4.0760 -10.787  4.2920  4.0760 -999.25 -999.25 
  2913.500 -999.25 -999.25 -36.753  4.4360  4.2560 -12.592  4.4360  4.2560 -999.25 -999.25 
  2914.000 -999.25 -999.25 -41.273  5.0860  4.4360 -17.109  5.0860  4.4360 -999.25 -999.25 
  2914.500 -999.25 -999.25 -44.527  5.9870  4.7430 -20.361  5.9870  4.7430 -999.25 -999.25 
  2915.000 -999.25 -999.25 -49.048  6.8530  5.0500 -24.880  6.8530  5.0500 -999.25 -999.25 
  2915.500 -999.25 -999.25 -51.578  7.2860  5.3020 -27.408  7.2860  5.3020 -999.25 -999.25 
  2916.000 -999.25 -999.25 -54.289  7.7190  5.3740 -30.117  7.7190  5.3740 -999.25 -999.25 
  2916.500 -999.25 -999.25 -55.192  8.0430  5.4460 -31.018  8.0430  5.4460 -999.25 -999.25 
  2917.000 -999.25 -999.25 -56.456  8.2240  5.4820 -32.280  8.2240  5.4820 -999.25 -999.25 
  2917.500 -999.25 -999.25 -56.634  8.4040  5.4100 -32.455  8.4040  5.4100 -999.25 -999.25 
  2918.000 -999.25 -999.25 -56.089  8.4760  5.3740 -31.908  8.4760  5.3740 -999.25 -999.25 
  2918.500 -999.25 -999.25 -55.544  8.0070  5.3020 -31.361  8.0070  5.3020 -999.25 -999.25 
  2919.000 -999.25 -999.25 -54.457  7.8630  5.2660 -30.272  7.8630  5.2660 -999.25 -999.25 
  2919.500 -999.25 -999.25 -52.826  7.7190  5.2660 -28.639  7.7190  5.2660 -999.25 -999.25 
  2920.000 -999.25 -999.25 -52.100  7.7550  5.2660 -27.911  7.7550  5.2660 -999.25 -999.25 
  2920.500 -999.25 -999.25 -52.641  7.8630  5.3020 -28.450  7.8630  5.3020 -999.25 -999.25 
  2921.000 -999.25 -999.25 -53.905  8.2600  5.3740 -29.711  8.2600  5.3740 -999.25 -999.25 
  2921.500 -999.25 -999.25 -55.712  8.7650  5.4460 -31.516  8.7650  5.4460 -999.25 -999.25 
  2922.000 -999.25 -999.25 -56.252  9.1610  5.5180 -32.054  9.1610  5.5180 -999.25 -999.25 
  2922.500 -999.25 -999.25 -56.612  9.5940  5.5550 -32.412  9.5940  5.5550 -999.25 -999.25 
  2923.000 -999.25 -999.25 -56.338  9.9190  5.5550 -32.136  9.9190  5.5550 -999.25 -999.25 
  2923.500 -999.25 -999.25 -56.065  9.9190  5.5550 -31.861  9.9190  5.5550 -999.25 -999.25 
  2924.000 -999.25 -999.25 -55.610  9.8830  5.5190 -31.404  9.8830  5.5190 -999.25 -999.25 
  2924.500 -999.25 -999.25 -55.156  9.7200  5.5190 -30.947  9.7200  5.5190 -999.25 -999.25 
  2925.000 -999.25 -999.25 -54.610  9.5580  5.5180 -30.399  9.5580  5.5180 -999.25 -999.25 
  2925.500 -999.25 -999.25 -54.427  9.3780  5.5180 -30.214  9.3780  5.5180 -999.25 -999.25 
  2926.000 -999.25 -999.25 -55.149  9.1970  5.5000 -30.934  9.1970  5.5000 -999.25 -999.25 
