~Version Information
VERS.                     2.0: CWLS log ASCII Standard Version 2.00
WRAP.                      NO: One line per depth step
~Well Information Block
#MNEM.UNIT                               Data Type  Information
#---------                               ---------  -----------
STRT.FT                                   370.0000:
STOP.FT                                  6980.0000:
STEP.FT                                     0.5000:
NULL.                 -999.25                     :
COMP.                                             :COMPANY            
WELL.     KCL 13-X                                :WELL               
FLD .                                             :FIELD              
CTRY.                                             :COUNTRY            
STAT.                                             :STATE              
LOC .                                             :LOCATION           
UWI .                                             :UNIQUE WELL ID     
SRVC.                                             :Service company    
DATE.                                             :LOG DATE           
~Curve Information
#MNEM.UNIT           API CODE  Curve Description
#---------           --------  -----------------
DEPT.FT                      :   1 DEPTH
SP  .MV                      :   2
SN  .OHMM                    :   3
ILD .OHMM                    :   4
SBL .MV                      :   5
RS  .OHMM                    :   6
RD  .OHMM                    :   7
~A
# ...
  2112.000 -31.472  4.4100  4.3080 -6.8872  4.4100  4.3080 
  2112.500 -31.950  4.4970  4.3530 -7.3687  4.4970  4.3530 
  2113.000 -32.428  4.5710  4.2890 -7.8502  4.5710  4.2890 
  2113.500 -31.719  4.6450  4.2070 -7.1447  4.6450  4.2070 
  2114.000 -31.486  4.6000  4.1830 -6.9152  4.6000  4.1830 
  2114.500 -32.167  4.5550  4.1740 -7.5996  4.5550  4.1740 
  2115.000 -32.764  4.5070  4.1650 -8.2001  4.5070  4.1650 
  2115.500 -33.645  4.4580  4.1950 -9.0846  4.4580  4.1950 
  2116.000 -33.966  4.4050  4.2490 -9.4091  4.4050  4.2490 
  2116.500 -33.071  4.3530  4.2880 -8.5176  4.3530  4.2880 
  2117.000 -32.176  4.3030  4.3270 -7.6261  4.3030  4.3270 
  2117.500 -31.244  4.3580  4.4210 -6.6975  4.3580  4.4210 
  2118.000 -30.313  4.4440  4.5150 -5.7700  4.4440  4.5150 
  2118.500 -30.084  4.5310  4.6010 -5.5445  4.5310  4.6010 
  2119.000 -30.722  4.7450  4.6950 -6.1860  4.7450  4.6950 
  2119.500 -32.317  4.9580  4.7580 -7.7845  4.9580  4.7580 
  2120.000 -34.072  5.1240  4.8130 -9.5429  5.1240  4.8130 
  2120.500 -34.748  5.2890  4.8520 -10.222  5.2890  4.8520 
  2121.000 -35.425  5.3600  4.8740 -10.903  5.3600  4.8740 
  2121.500 -35.949  5.4300  4.8650 -11.430  5.4300  4.8650 
  2122.000 -36.631  5.4650  4.8240 -12.116  5.4650  4.8240 
  2122.500 -38.345  5.5000  4.7830 -13.833  5.5000  4.7830 
  2123.000 -39.781  5.3620  4.7390 -15.273  5.3620  4.7390 
  2123.500 -40.258  5.3570  4.6940 -15.753  5.3570  4.6940 
  2124.000 -38.356  5.3520  4.6280 -13.855  5.3520  4.6280 
  2124.500 -37.520  5.3670  4.5960 -13.022  5.3670  4.5960 
  2125.000 -36.685  5.3820  4.5630 -12.191  5.3820  4.5630 
  2125.500 -35.062  5.3450  4.5210 -10.571  5.3450  4.5210 
  2126.000 -36.222  5.3080  4.4880 -11.735  5.3080  4.4880 
  2126.500 -36.740  5.2200  4.4630 -12.256  5.2200  4.4630 
  2127.000 -36.622  5.1310  4.4580 -12.142  5.1310  4.4580 
  2127.500 -35.237  4.9940  4.4530 -10.760  4.9940  4.4530 
  2128.000 -34.362  4.9370  4.4600 -9.8886  4.9370  4.4600 
  2128.500 -32.973  4.8810  4.4900 -8.5031  4.8810  4.4900 
  2129.000 -32.022  4.9150  4.5440 -7.5556  4.9150  4.5440 
  2129.500 -31.192  4.9500  4.5830 -6.7291  4.9500  4.5830 
  2130.000 -31.988  5.1390  4.6230 -7.5286  5.1390  4.6230 
  2130.500 -32.784  5.4080  4.6930 -8.3280  5.4080  4.6930 
  2131.000 -34.022  5.6300  4.7630 -9.5695  5.6300  4.7630 
  2131.500 -35.259  5.6610  4.8570 -10.810  5.6610  4.8570 
  2132.000 -34.923  5.6350  4.8790 -10.477  5.6350  4.8790 
  2132.500 -34.587  5.5670  4.8300 -10.145  5.5670  4.8300 
  2133.000 -33.601  5.4980  4.7730 -9.1624  5.4980  4.7730 
  2133.500 -34.400  5.3370  4.7320 -9.9649  5.3370  4.7320 
  2134.000 -35.399  5.2410  4.7320 -10.967  5.2410  4.7320 
  2134.500 -34.961  5.2000  4.7540 -10.533  5.2000  4.7540 
  2135.000 -34.524  5.2140  4.8080 -10.099  5.2140  4.8080 
  2135.500 -32.027  5.2650  4.8400 -7.6058  5.2650  4.8400 
  2136.000 -31.156  5.3150  4.8710 -6.7383  5.3150  4.8710 
  2136.500 -31.595  5.4220  4.9150 -7.1808  5.4220  4.9150 
  2137.000 -32.116  5.5280  4.9590 -7.7053  5.5280  4.9590 
  2137.500 -31.919  5.8130  5.0020 -7.5118  5.8130  5.0020 
  2138.000 -31.722  6.0180  5.0400 -7.3182  6.0180  5.0400 
  2138.500 -32.482  6.1210  5.0540 -8.0817  6.1210  5.0540 
  2139.000 -34.874  6.1750  5.0450 -10.477  6.1750  5.0450 
  2139.500 -36.707  6.1860  5.0370 -12.314  6.1860  5.0370 
  2140.000 -37.563  6.1970  5.0040 -13.173  6.1970  5.0040 
  2140.500 -38.418  6.1870  4.9710 -14.032  6.1870  4.9710 
  2141.000 -39.859  6.1590  4.9100 -15.476  6.1590  4.9100 
  2141.500 -39.860  6.1300  4.8490 -15.481  6.1300  4.8490 
  2142.000 -39.861  6.0380  4.7790 -15.485  6.0380  4.7790 
  2142.500 -39.030  5.9450  4.7090 -14.658  5.9450  4.7090 
  2143.000 -38.198  5.6330  4.6400 -13.829  5.6330  4.6400 
  2143.500 -37.683  5.3050  4.4860 -13.318  5.3050  4.4860 
  2144.000 -37.168  5.0020  4.4180 -12.806  5.0020  4.4180 
  2144.500 -36.341  4.6670  4.3500 -11.982  4.6670  4.3500 
  2145.000 -35.393  4.4750  4.0920 -11.038  4.4750  4.0920 
  2145.500 -34.478  4.3660  3.9800 -10.126  4.3660  3.9800 
  2146.000 -33.562  4.2580  3.9470 -9.2139  4.2580  3.9470 
  2146.500 -31.264  4.2170  3.9330 -6.9194  4.2170  3.9330 
  2147.000 -30.314  4.1760  3.9190 -5.9729  4.1760  3.9190 
  2147.500 -29.998  4.2140  3.9050 -5.6604  4.2140  3.9050 
  2148.000 -30.517  4.2530  3.8870 -6.1829  4.2530  3.8870 
  2148.500 -31.135  4.3230  3.8770 -6.8043  4.3230  3.8770 
  2149.000 -31.753  4.3610  3.8760 -7.4258  4.3610  3.8760 
  2149.500 -33.113  4.3680  3.8750 -8.7893  4.3680  3.8750 
  2150.000 -34.072  4.3360  3.8610 -9.7518  4.3360  3.8610 
  2150.500 -33.199  4.3040  3.8470 -8.8823  4.3040  3.8470 
  2151.000 -31.967  3.8960  3.8330 -7.6537  3.8960  3.8330 
  2151.500 -29.861  3.6160  3.6600 -5.5512  3.6160  3.6600 
  2152.000 -28.788  3.4010  3.4880 -4.4817  3.4010  3.4880 
  2152.500 -28.512  3.2240  3.4000 -4.2092  3.2240  3.4000 
  2153.000 -28.235  3.1360  3.3120 -3.9357  3.1360  3.3120 
  2153.500 -28.115  3.0470  3.1950 -3.8191  3.0470  3.1950 
  2154.000 -27.995  2.9990  3.0790 -3.7026  2.9990  3.0790 
  2154.500 -27.799  2.9940  3.0210 -3.5101  2.9940  3.0210 
  2155.000 -27.603  2.9890  3.0360 -3.3176  2.9890  3.0360 
  2155.500 -27.625  3.0120  3.0510 -3.3431  3.0120  3.0510 
  2156.000 -27.647  3.0350  3.0830 -3.3685  3.0350  3.0830 
  2156.500 -27.889  3.0710  3.1150 -3.6140  3.0710  3.1150 
  2157.000 -28.048  3.1070  3.1470 -3.7765  3.1070  3.1470 
  2157.500 -28.206  3.1430  3.1790 -3.9380  3.1430  3.1790 
  2158.000 -27.818  3.2140  3.2110 -3.5535  3.2140  3.2110 
  2158.500 -27.600  3.2840  3.2440 -3.3389  3.2840  3.2440 
  2159.000 -27.383  3.3230  3.2630 -3.1254  3.3230  3.2630 
  2159.500 -27.224  3.3620  3.2830 -2.9699  3.3620  3.2830 
  2160.000 -27.065  3.4010  3.3440 -2.8144  3.4010  3.3440 
  2160.500 -26.909  3.4700  3.3630 -2.6619  3.4700  3.3630 
  2161.000 -26.988  3.4810  3.3830 -2.7444  3.4810  3.3830 
  2161.500 -27.067  3.4920  3.3890 -2.8268  3.4920  3.3890 
  2162.000 -27.632  3.4790  3.3960 -3.3953  3.4790  3.3960 
  2162.500 -27.871  3.4660  3.3980 -3.6378  3.4660  3.3980 
  2163.000 -28.111  3.4460  3.4010 -3.8813  3.4460  3.4010 
  2163.500 -28.471  3.4270  3.4010 -4.2448  3.4270  3.4010 
  2164.000 -28.174  3.4080  3.4000 -3.9512  3.4080  3.4000 
  2164.500 -27.877  3.3980  3.3990 -3.6577  3.3980  3.3990 
  2165.000 -27.247  3.3890  3.3950 -3.0312  3.3890  3.3950 
  2165.500 -27.046  3.3800  3.3920 -2.8337  3.3800  3.3920 
  2166.000 -26.846  3.3850  3.3880 -2.6372  3.3850  3.3880 
  2166.500 -26.689  3.3890  3.4070 -2.4836  3.3890  3.4070 
  2167.000 -26.531  3.3940  3.4250 -2.3291  3.3940  3.4250 
  2167.500 -26.855  3.4130  3.4450 -2.6566  3.4130  3.4450 
  2168.000 -27.033  3.4320  3.4640 -2.8381  3.4320  3.4640 
  2168.500 -27.212  3.5570  3.5730 -3.0206  3.5570  3.5730 
  2169.000 -27.220  3.6360  3.6200 -3.0320  3.6360  3.6200 
  2169.500 -28.217  3.7150  3.6670 -4.0325  3.7150  3.6670 
  2170.000 -28.693  3.8410  3.7690 -4.5120  3.8410  3.7690 
  2170.500 -29.168  3.9830  3.8040 -4.9905  3.9830  3.8040 
  2171.000 -28.698  4.1090  3.8400 -4.5240  4.1090  3.8400 
  2171.500 -28.519  4.1800  3.9010 -4.3484  4.1800  3.9010 
  2172.000 -28.339  4.2510  3.9160 -4.1719  4.2510  3.9160 
  2172.500 -29.460  4.3930  3.9150 -5.2964  4.3930  3.9150 
  2173.000 -31.130  4.3670  3.8900 -6.9699  4.3670  3.8900 
  2173.500 -33.360  4.3190  3.8050 -9.2034  4.3190  3.8050 
  2174.000 -34.197  4.1340  3.7210 -10.044  4.1340  3.7210 
  2174.500 -31.138  4.0340  3.5930 -6.9883  4.0340  3.5930 
  2175.000 -28.635  3.9350  3.4560 -4.4888  3.9350  3.4560 
  2175.500 -28.017  3.4630  3.3200 -3.8743  3.4630  3.3200 
  2176.000 -27.398  3.3230  3.1840 -3.2588  3.3230  3.1840 
  2176.500 -26.768  3.1840  3.1190 -2.6323  3.1840  3.1190 
  2177.000 -26.907  3.0620  3.0780 -2.7747  3.0620  3.0780 
  2177.500 -27.046  3.0850  3.0930 -2.9172  3.0850  3.0930 
  2178.000 -27.267  3.1720  3.1790 -3.1417  3.1720  3.1790 
  2178.500 -27.488  3.2580  3.2430 -3.3662  3.2580  3.2430 
