~Version Information
VERS.                     2.0: CWLS log ASCII Standard Version 2.00
WRAP.                      NO: One line per depth step
~Well Information Block
#MNEM.UNIT                               Data Type  Information
#---------                               ---------  -----------
STRT.FT                                   370.0000:
STOP.FT                                  6980.0000:
STEP.FT                                     0.5000:
NULL.                 -999.25                     :
COMP.                                             :COMPANY            
WELL.     KCL 13-X                                :WELL               
FLD .                                             :FIELD              
CTRY.                                             :COUNTRY            
STAT.                                             :STATE              
LOC .                                             :LOCATION           
UWI .                                             :UNIQUE WELL ID     
SRVC.                                             :Service company    
DATE.                                             :LOG DATE           
~Curve Information
#MNEM.UNIT           API CODE  Curve Description
#---------           --------  -----------------
DEPT.FT                      :   1 DEPTH
SP  .MV                      :   2
SN  .OHMM                    :   3
ILD .OHMM                    :   4
SBL .MV                      :   5
RS  .OHMM                    :   6
RD  .OHMM                    :   7
~A
# ...
  4323.000 -29.720  3.2220  2.9910 -6.1391  3.2220  2.9910 
  4323.500 -29.744  3.3040  3.0250 -6.1649  3.3040  3.0250 
  4324.000 -29.706  3.3870  3.0590 -6.1286  3.3870  3.0590 
  4324.500 -29.668  3.4620  3.0920 -6.0924  3.4620  3.0920 
  4325.000 -29.811  3.5360  3.1620 -6.2372  3.5360  3.1620 
  4325.500 -29.953  3.5630  3.1810 -6.3809  3.5630  3.1810 
  4326.000 -30.314  3.5900  3.2010 -6.7437  3.5900  3.2010 
  4326.500 -30.675  3.5810  3.2030 -7.1065  3.5810  3.2030 
  4327.000 -31.518  3.5720  3.2060 -7.9512  3.5720  3.2060 
  4327.500 -31.760  3.5070  3.0770 -8.1950  3.5070  3.0770 
  4328.000 -31.185  3.4660  3.0130 -7.6218  3.4660  3.0130 
  4328.500 -30.610  3.3780  2.9480 -7.0486  3.3780  2.9480 
  4329.000 -29.862  3.2490  2.9000 -6.3023  3.2490  2.9000 
  4329.500 -29.983  3.1290  2.8510 -6.4251  3.1290  2.8510 
  4330.000 -30.385  3.0160  2.7900 -6.8289  3.0160  2.7900 
  4330.500 -30.786  2.9280  2.7290 -7.2316  2.9280  2.7290 
  4331.000 -31.349  2.8870  2.7120 -7.7964  2.8870  2.7120 
  4331.500 -31.669  2.8470  2.6950 -8.1182  2.8470  2.6950 
  4332.000 -32.230  2.8060  2.7140 -8.6809  2.8060  2.7140 
  4332.500 -31.835  2.8200  2.7340 -8.2877  2.8200  2.7340 
  4333.000 -31.240  2.8590  2.7800 -7.6945  2.8590  2.7800 
  4333.500 -30.645  2.8980  2.8270 -7.1012  2.8980  2.8270 
  4334.000 -30.374  2.9370  2.8740 -6.8320  2.9370  2.8740 
  4334.500 -30.674  2.9760  2.9830 -7.1338  2.9760  2.9830 
  4335.000 -30.975  3.0390  3.0770 -7.4365  3.0390  3.0770 
  4335.500 -31.897  3.1010  3.1280 -8.3603  3.1010  3.1280 
  4336.000 -32.417  3.1720  3.1790 -8.8821  3.1720  3.1790 
  4336.500 -31.585  3.2430  3.2260 -8.0518  3.2430  3.2260 
  4337.000 -31.447  3.5190  3.2450 -7.9156  3.5190  3.2450 
  4337.500 -31.309  3.7720  3.2640 -7.7794  3.7720  3.2640 
  4338.000 -31.796  3.9620  3.3020 -8.2681  3.9620  3.3020 
  4338.500 -33.827  4.0410  3.3170 -10.301  4.0410  3.3170 
  4339.000 -38.727  4.1270  3.3080 -15.203  4.1270  3.3080 
  4339.500 -40.718  4.0950  3.2670 -17.195  4.0950  3.2670 
  4340.000 -41.716  4.0630  3.2430 -18.195  4.0630  3.2430 
  4340.500 -37.024  3.8620  3.2180 -13.505  3.8620  3.2180 
  4341.000 -32.769  3.7970  3.1850 -9.2518  3.7970  3.1850 
  4341.500 -31.580  3.7480  3.1520 -8.0645  3.7480  3.1520 
  4342.000 -31.465  3.7160  3.2520 -7.9513  3.7160  3.2520 
  4342.500 -31.426  3.6830  3.3510 -7.9141  3.6830  3.3510 
  4343.000 -31.387  3.8010  3.4510 -7.8768  3.8010  3.4510 
  4343.500 -32.790  3.9830  3.5620 -9.2816  3.9830  3.5620 
  4344.000 -35.219  4.1650  3.6720 -11.712  4.1650  3.6720 
  4344.500 -37.291  4.4870  3.8070 -13.786  4.4870  3.8070 
  4345.000 -39.063  4.8080  3.9410 -15.560  4.8080  3.9410 
  4345.500 -40.835  5.9120  4.0740 -17.334  5.9120  4.0740 
  4346.000 -46.255  6.6110  4.1440 -22.755  6.6110  4.1440 
  4346.500 -50.318  6.9200  4.1800 -26.820  6.9200  4.1800 
  4347.000 -52.391  7.0860  4.2150 -28.895  7.0860  4.2150 
  4347.500 -54.503  7.1490  4.2370 -31.009  7.1490  4.2370 
  4348.000 -54.626  7.1560  4.2410 -31.134  7.1560  4.2410 
  4348.500 -53.714  6.9880  4.2440 -30.223  6.9880  4.2440 
  4349.000 -49.101  6.7400  4.2310 -25.612  6.7400  4.2310 
  4349.500 -50.737  6.5560  4.2170 -27.250  6.5560  4.2170 
  4350.000 -52.092  6.3240  4.1690 -28.607  6.3240  4.1690 
  4350.500 -52.855  6.2270  4.1200 -29.371  6.2270  4.1200 
  4351.000 -51.272  6.1710  3.7280 -27.790  6.1710  3.7280 
  4351.500 -47.817  6.1140  3.6350 -24.337  6.1140  3.6350 
  4352.000 -43.129  4.4810  3.5420 -19.651  4.4810  3.5420 
  4352.500 -37.804  4.1530  3.4770 -14.327  4.1530  3.4770 
  4353.000 -35.840  3.9370  3.4160 -12.365  3.9370  3.4160 
  4353.500 -33.875  3.8480  3.3560 -10.402  3.8480  3.3560 
  4354.000 -33.884  3.7400  3.2340 -10.413  3.7400  3.2340 
  4354.500 -33.893  3.6310  3.1370 -10.424  3.6310  3.1370 
  4355.000 -33.521  3.4140  3.1200 -10.053  3.4140  3.1200 
  4355.500 -33.150  3.3300  3.0780 -9.6840  3.3300  3.0780 
  4356.000 -32.285  3.2450  3.0530 -8.8208  3.2450  3.0530 
  4356.500 -31.058  3.2030  3.0520 -7.5956  3.2030  3.0520 
  4357.000 -30.032  3.2420  3.1220 -6.5713  3.2420  3.1220 
  4357.500 -30.238  3.3280  3.2720 -6.7791  3.3280  3.2720 
  4358.000 -31.758  3.4370  3.5010 -8.3009  3.4370  3.5010 
  4358.500 -32.043  3.5950  3.8100 -8.5877  3.5950  3.8100 
  4359.000 -32.188  3.7680  4.0470 -8.7344  3.7680  4.0470 
  4359.500 -32.333  4.0060  4.1530 -8.8812  4.0060  4.1530 
  4360.000 -32.600  4.2430  4.2600 -9.1500  4.2430  4.2600 
  4360.500 -32.866  4.8220  4.4240 -9.4177  4.8220  4.4240 
  4361.000 -35.385  5.1240  4.4830 -11.938  5.1240  4.4830 
  4361.500 -39.530  6.1240  4.5420 -16.085  6.1240  4.5420 
  4362.000 -42.959  6.8550  4.6190 -19.516  6.8550  4.6190 
  4362.500 -47.824  7.5290  4.6580 -24.383  7.5290  4.6580 
  4363.000 -51.094  8.1170  4.7040 -27.655  8.1170  4.7040 
  4363.500 -55.757  8.8950  4.7030 -32.319  8.8950  4.7030 
  4364.000 -61.256  9.3310  4.7020 -37.820  9.3310  4.7020 
  4364.500 -64.883  9.7590  4.6680 -41.449  9.7590  4.6680 
  4365.000 -67.836  9.9570  4.6380 -44.404  9.9570  4.6380 
  4365.500 -69.473  9.8760  4.6090 -46.042  9.8760  4.6090 
  4366.000 -69.879  9.7960  4.5920 -46.450  9.7960  4.5920 
  4366.500 -69.887  9.4830  4.5740 -46.460  9.4830  4.5740 
  4367.000 -69.833  9.4420  4.5570 -46.408  9.4420  4.5570 
  4367.500 -69.779  9.6360  4.5880 -46.355  9.6360  4.5880 
  4368.000 -69.592  9.8290  4.6100 -46.170  9.8290  4.6100 
  4368.500 -71.229  10.225  4.6330 -47.809  10.225  4.6330 
  4369.000 -73.585  10.391  4.6550 -50.167  10.391  4.6550 
  4369.500 -74.427  10.524  4.6880 -51.011  10.524  4.6880 
  4370.000 -73.960  10.324  4.7210 -50.545  10.324  4.7210 
  4370.500 -73.726  10.068  4.7540 -50.313  10.068  4.7540 
  4371.000 -73.491  9.9320  4.7930 -50.080  9.9320  4.7930 
  4371.500 -72.941  9.7960  4.8310 -49.532  9.7960  4.8310 
  4372.000 -72.391  9.7770  4.8730 -48.983  9.7770  4.8730 
  4372.500 -71.927  9.9160  4.9150 -48.521  9.9160  4.9150 
  4373.000 -71.634  10.054  4.9480 -48.230  10.054  4.9480 
  4373.500 -71.342  10.537  4.9820 -47.940  10.537  4.9820 
  4374.000 -70.995  10.742  5.0150 -47.594  10.742  5.0150 
  4374.500 -70.882  10.868  5.0690 -47.483  10.868  5.0690 
  4375.000 -70.769  11.145  5.0990 -47.372  11.145  5.0990 
  4375.500 -70.857  11.303  5.1300 -47.462  11.303  5.1300 
  4376.000 -71.501  11.461  5.1600 -48.108  11.461  5.1600 
  4376.500 -72.621  11.682  5.1910 -49.229  11.682  5.1910 
  4377.000 -73.705  11.736  5.2170 -50.315  11.736  5.2170 
  4377.500 -74.108  11.735  5.2440 -50.720  11.735  5.2440 
  4378.000 -74.213  11.725  5.2260 -50.827  11.725  5.2260 
  4378.500 -74.319  11.716  5.1930 -50.934  11.716  5.1930 
  4379.000 -73.377  11.683  5.1600 -49.994  11.683  5.1600 
  4379.500 -71.353  11.236  5.0780 -47.972  11.236  5.0780 
  4380.000 -71.163  11.139  5.0450 -47.784  11.139  5.0450 
  4380.500 -71.488  11.137  5.0120 -48.110  11.137  5.0120 
  4381.000 -72.929  11.256  4.9790 -49.553  11.256  4.9790 
  4381.500 -73.908  11.374  4.9540 -50.534  11.374  4.9540 
  4382.000 -74.888  11.936  4.9280 -51.516  11.936  4.9280 
  4382.500 -75.535  12.039  4.9030 -52.165  12.039  4.9030 
  4383.000 -73.833  12.109  4.6230 -50.464  12.109  4.6230 
  4383.500 -72.329  11.837  4.3270 -48.962  11.837  4.3270 
  4384.000 -68.356  10.340  4.1900 -44.991  10.340  4.1900 
  4384.500 -63.748  8.9230  4.0300 -40.385  8.9230  4.0300 
  4385.000 -60.970  7.2430  3.8850 -37.608  7.2430  3.8850 
  4385.500 -57.514  6.0160  3.7400 -34.154  6.0160  3.7400 
  4386.000 -48.728  5.2580  3.6440 -25.370  5.2580  3.6440 
  4386.500 -42.528  5.0430  3.5390 -19.172  5.0430  3.5390 
  4387.000 -40.983  4.9300  3.5370 -17.628  4.9300  3.5370 
  4387.500 -41.508  4.7930  3.5360 -18.155  4.7930  3.5360 
  4388.000 -42.390  5.1810  3.5340 -19.039  5.1810  3.5340 
  4388.500 -44.586  5.5540  3.5770 -21.237  5.5540  3.5770 
  4389.000 -45.551  5.8310  3.6190 -22.204  5.8310  3.6190 
  4389.500 -45.776  6.1320  3.6570 -22.430  6.1320  3.6570 
