~Version Information
VERS.                     2.0: CWLS log ASCII Standard Version 2.00
WRAP.                      NO: One line per depth step
~Well Information Block
#MNEM.UNIT                               Data Type  Information
#---------                               ---------  -----------
STRT.FT                                   360.0000:
STOP.FT                                  7920.0000:
STEP.FT                                     0.5000:
NULL.                 -999.25                     :
COMP.                                             :COMPANY            
WELL.     KCL 12-27                               :WELL               
FLD .                                             :FIELD              
CTRY.                                             :COUNTRY            
STAT.                                             :STATE              
LOC .                                             :LOCATION           
UWI .                                             :UNIQUE WELL ID     
SRVC.                                             :Service company    
DATE.                                             :LOG DATE           
~Curve Information
#MNEM.UNIT           API CODE  Curve Description
#---------           --------  -----------------
DEPT.FT                      :   1 DEPTH
SP  .MV                      :   2
DT  .US/F                    :   3
SP  .MV                      :   4
SN  .OHMM                    :   5
LN  .OHMM                    :   6
SBL .MV                      :   7
RS  .OHMM                    :   8
RD  .OHMM                    :   9
DTS .US/F                    :  10
SPS .MV                      :  11
~A
# ...
  1882.500 -999.25 -999.25 -28.664  4.7690  4.5880 -8.6640  4.7690  4.5880 -999.25 -999.25 
  1883.000 -999.25 -999.25 -29.756  5.0210  4.6240 -9.7560  5.0210  4.6240 -999.25 -999.25 
  1883.500 -999.25 -999.25 -33.021  5.0930  4.6950 -13.021  5.0930  4.6950 -999.25 -999.25 
  1884.000 -999.25 -999.25 -34.292  5.2730  4.7300 -14.292  5.2730  4.7300 -999.25 -999.25 
  1884.500 -999.25 -999.25 -35.020  5.2720  4.7290 -15.020  5.2720  4.7290 -999.25 -999.25 
  1885.000 -999.25 -999.25 -36.291  5.3070  4.6560 -16.291  5.3070  4.6560 -999.25 -999.25 
  1885.500 -999.25 -999.25 -36.022  5.2160  4.6370 -16.022  5.2160  4.6370 -999.25 -999.25 
  1886.000 -999.25 -999.25 -35.753  5.1250  4.6190 -15.753  5.1250  4.6190 -999.25 -999.25 
  1886.500 -999.25 -999.25 -34.129  5.0330  4.5450 -14.129  5.0330  4.5450 -999.25 -999.25 
  1887.000 -999.25 -999.25 -32.684  4.9420  4.5080 -12.684  4.9420  4.5080 -999.25 -999.25 
  1887.500 -999.25 -999.25 -31.600  4.7960  4.4710 -11.600  4.7960  4.4710 -999.25 -999.25 
  1888.000 -999.25 -999.25 -31.331  4.7950  4.4520 -11.331  4.7950  4.4520 -999.25 -999.25 
  1888.500 -999.25 -999.25 -31.061  4.8310  4.4330 -11.061  4.8310  4.4330 -999.25 -999.25 
  1889.000 -999.25 -999.25 -30.343  4.8300  4.3960 -10.343  4.8300  4.3960 -999.25 -999.25 
  1889.500 -999.25 -999.25 -30.166  4.8650  4.3950 -10.166  4.8650  4.3950 -999.25 -999.25 
  1890.000 -999.25 -999.25 -29.896  4.8820  4.3940 -9.8960  4.8820  4.3940 -999.25 -999.25 
  1890.500 -999.25 -999.25 -29.627  4.9000  4.4110 -9.6270  4.9000  4.4110 -999.25 -999.25 
  1891.000 -999.25 -999.25 -29.633  4.8980  4.4290 -9.6330  4.8980  4.4290 -999.25 -999.25 
  1891.500 -999.25 -999.25 -29.817  4.9700  4.5360 -9.8170  4.9700  4.5360 -999.25 -999.25 
  1892.000 -999.25 -999.25 -30.000  5.0050  4.6430 -10.000  5.0050  4.6430 -999.25 -999.25 
  1892.500 -999.25 -999.25 -31.457  5.0400  4.6970 -11.457  5.0400  4.6970 -999.25 -999.25 
  1893.000 -999.25 -999.25 -34.176  5.1120  4.7510 -14.176  5.1120  4.7510 -999.25 -999.25 
  1893.500 -999.25 -999.25 -35.809  5.1840  4.8940 -15.809  5.1840  4.8940 -999.25 -999.25 
  1894.000 -999.25 -999.25 -36.356  5.4720  4.9470 -16.356  5.4720  4.9470 -999.25 -999.25 
  1894.500 -999.25 -999.25 -36.541  5.5790  5.0010 -16.541  5.5790  5.0010 -999.25 -999.25 
  1895.000 -999.25 -999.25 -36.545  5.6510  5.0720 -16.545  5.6510  5.0720 -999.25 -999.25 
  1895.500 -999.25 -999.25 -36.005  5.7400  5.1070 -16.005  5.7400  5.1070 -999.25 -999.25 
  1896.000 -999.25 -999.25 -35.646  5.8300  5.1430 -15.646  5.8300  5.1430 -999.25 -999.25 
  1896.500 -999.25 -999.25 -35.650  5.8470  5.1420 -15.650  5.8470  5.1420 -999.25 -999.25 
  1897.000 -999.25 -999.25 -34.748  5.8640  5.1410 -14.748  5.8640  5.1410 -999.25 -999.25 
  1897.500 -999.25 -999.25 -33.847  5.8630  5.1400 -13.847  5.8630  5.1400 -999.25 -999.25 
  1898.000 -999.25 -999.25 -33.669  5.8620  5.1390 -13.669  5.8620  5.1390 -999.25 -999.25 
  1898.500 -999.25 -999.25 -34.578  5.8610  5.1380 -14.578  5.8610  5.1380 -999.25 -999.25 
  1899.000 -999.25 -999.25 -35.306  5.8600  5.1730 -15.306  5.8600  5.1730 -999.25 -999.25 
  1899.500 -999.25 -999.25 -34.946  5.8960  5.1720 -14.946  5.8960  5.1720 -999.25 -999.25 
  1900.000 -999.25 -999.25 -34.587  5.9310  5.1720 -14.587  5.9310  5.1720 -999.25 -999.25 
  1900.500 -999.25 -999.25 -34.775  6.0390  5.1710 -14.775  6.0390  5.1710 -999.25 -999.25 
  1901.000 -999.25 -999.25 -35.232  6.1460  5.2060 -15.232  6.1460  5.2060 -999.25 -999.25 
  1901.500 -999.25 -999.25 -35.689  6.2540  5.2060 -15.689  6.2540  5.2060 -999.25 -999.25 
  1902.000 -999.25 -999.25 -38.594  6.2530  5.2050 -18.594  6.2530  5.2050 -999.25 -999.25 
  1902.500 -999.25 -999.25 -39.143  6.1080  5.1140 -19.143  6.1080  5.1140 -999.25 -999.25 
  1903.000 -999.25 -999.25 -38.967  5.8540  5.0230 -18.967  5.8540  5.0230 -999.25 -999.25 
  1903.500 -999.25 -999.25 -38.610  5.5280  4.9130 -18.610  5.5280  4.9130 -999.25 -999.25 
  1904.000 -999.25 -999.25 -38.254  5.3830  4.8590 -18.254  5.3830  4.8590 -999.25 -999.25 
  1904.500 -999.25 -999.25 -37.535  5.2370  4.8040 -17.535  5.2370  4.8040 -999.25 -999.25 
  1905.000 -999.25 -999.25 -35.186  5.1280  4.6940 -15.186  5.1280  4.6940 -999.25 -999.25 
  1905.500 -999.25 -999.25 -35.011  5.0190  4.6210 -15.011  5.0190  4.6210 -999.25 -999.25 
  1906.000 -999.25 -999.25 -34.654  4.9820  4.5840 -14.654  4.9820  4.5840 -999.25 -999.25 
  1906.500 -999.25 -999.25 -34.297  4.9810  4.5840 -14.297  4.9810  4.5840 -999.25 -999.25 
  1907.000 -999.25 -999.25 -32.854  4.9810  4.6190 -12.854  4.9810  4.6190 -999.25 -999.25 
  1907.500 -999.25 -999.25 -30.506  5.0520  4.6550 -10.506  5.0520  4.6550 -999.25 -999.25 
  1908.000 -999.25 -999.25 -29.787  5.1240  4.8710 -9.7870  5.1240  4.8710 -999.25 -999.25 
  1908.500 -999.25 -999.25 -29.792  5.2320  4.9780 -9.7920  5.2320  4.9780 -999.25 -999.25 
  1909.000 -999.25 -999.25 -29.887  5.2670  5.0140 -9.8870  5.2670  5.0140 -999.25 -999.25 
  1909.500 -999.25 -999.25 -29.982  5.3750  5.0680 -9.9820  5.3750  5.0680 -999.25 -999.25 
  1910.000 -999.25 -999.25 -30.531  5.5190  5.1210 -10.531  5.5190  5.1210 -999.25 -999.25 
  1910.500 -999.25 -999.25 -31.079  5.6260  5.1560 -11.079  5.6260  5.1560 -999.25 -999.25 
  1911.000 -999.25 -999.25 -33.622  5.6260  5.1200 -13.622  5.6260  5.1200 -999.25 -999.25 
  1911.500 -999.25 -999.25 -34.714  5.5710  5.0100 -14.714  5.5710  5.0100 -999.25 -999.25 
  1912.000 -999.25 -999.25 -34.719  5.5160  4.8650 -14.719  5.5160  4.8650 -999.25 -999.25 
  1912.500 -999.25 -999.25 -33.638  5.2980  4.7560 -13.638  5.2980  4.7560 -999.25 -999.25 
  1913.000 -999.25 -999.25 -32.738  5.1530  4.6100 -12.738  5.1530  4.6100 -999.25 -999.25 
  1913.500 -999.25 -999.25 -31.838  5.0080  4.5010 -11.838  5.0080  4.5010 -999.25 -999.25 
  1914.000 -999.25 -999.25 -30.576  4.7540  4.4100 -10.576  4.7540  4.4100 -999.25 -999.25 
  1914.500 -999.25 -999.25 -29.133  4.5360  4.3190 -9.1330  4.5360  4.3190 -999.25 -999.25 
  1915.000 -999.25 -999.25 -29.139  4.4630  4.2460 -9.1390  4.4630  4.2460 -999.25 -999.25 
  1915.500 -999.25 -999.25 -29.324  4.4620  4.2270 -9.3240  4.4620  4.2270 -999.25 -999.25 
  1916.000 -999.25 -999.25 -29.510  4.4980  4.2080 -9.5100  4.4980  4.2080 -999.25 -999.25 
  1916.500 -999.25 -999.25 -29.877  4.5330  4.2080 -9.8770  4.5330  4.2080 -999.25 -999.25 
  1917.000 -999.25 -999.25 -30.245  4.5680  4.2070 -10.245  4.5680  4.2070 -999.25 -999.25 
  1917.500 -999.25 -999.25 -30.795  4.5680  4.2070 -10.795  4.5680  4.2070 -999.25 -999.25 
  1918.000 -999.25 -999.25 -30.801  4.5310  4.2060 -10.801  4.5310  4.2060 -999.25 -999.25 
  1918.500 -999.25 -999.25 -30.806  4.4940  4.2050 -10.806  4.4940  4.2050 -999.25 -999.25 
  1919.000 -999.25 -999.25 -30.631  4.4930  4.2040 -10.631  4.4930  4.2040 -999.25 -999.25 
  1919.500 -999.25 -999.25 -30.093  4.5290  4.2030 -10.093  4.5290  4.2030 -999.25 -999.25 
  1920.000 -999.25 -999.25 -29.736  4.5640  4.2210 -9.7360  4.5640  4.2210 -999.25 -999.25 
  1920.500 -999.25 -999.25 -28.836  4.6360  4.2380 -8.8360  4.6360  4.2380 -999.25 -999.25 
  1921.000 -999.25 -999.25 -27.574  4.7080  4.2920 -7.5740  4.7080  4.2920 -999.25 -999.25 
  1921.500 -999.25 -999.25 -27.580  4.7610  4.3450 -7.5800  4.7610  4.3450 -999.25 -999.25 
  1922.000 -999.25 -999.25 -27.585  4.8150  4.4170 -7.5850  4.8150  4.4170 -999.25 -999.25 
  1922.500 -999.25 -999.25 -27.952  4.8680  4.4520 -7.9520  4.8680  4.4520 -999.25 -999.25 
  1923.000 -999.25 -999.25 -28.318  4.9220  4.5240 -8.3180  4.9220  4.5240 -999.25 -999.25 
  1923.500 -999.25 -999.25 -29.050  5.0120  4.5770 -9.0500  5.0120  4.5770 -999.25 -999.25 
  1924.000 -999.25 -999.25 -29.417  5.1010  4.6310 -9.4170  5.1010  4.6310 -999.25 -999.25 
  1924.500 -999.25 -999.25 -30.147  5.2810  4.7380 -10.147  5.2810  4.7380 -999.25 -999.25 
  1925.000 -999.25 -999.25 -30.877  5.3520  4.8100 -10.877  5.3520  4.8100 -999.25 -999.25 
  1925.500 -999.25 -999.25 -31.425  5.4240  4.8820 -11.425  5.4240  4.8820 -999.25 -999.25 
