~Version Information
VERS.                     2.0: CWLS log ASCII Standard Version 2.00
WRAP.                      NO: One line per depth step
~Well Information Block
#MNEM.UNIT                               Data Type  Information
#---------                               ---------  -----------
STRT.FT                                   370.0000:
STOP.FT                                  6980.0000:
STEP.FT                                     0.5000:
NULL.                 -999.25                     :
COMP.                                             :COMPANY            
WELL.     KCL 13-X                                :WELL               
FLD .                                             :FIELD              
CTRY.                                             :COUNTRY            
STAT.                                             :STATE              
LOC .                                             :LOCATION           
UWI .                                             :UNIQUE WELL ID     
SRVC.                                             :Service company    
DATE.                                             :LOG DATE           
~Curve Information
#MNEM.UNIT           API CODE  Curve Description
#---------           --------  -----------------
DEPT.FT                      :   1 DEPTH
SP  .MV                      :   2
SN  .OHMM                    :   3
ILD .OHMM                    :   4
SBL .MV                      :   5
RS  .OHMM                    :   6
RD  .OHMM                    :   7
~A
# ...
  5194.000 -23.111  2.5790  2.4240 -2.6106  2.5790  2.4240 
  5194.500 -22.404  2.7330  2.5170 -1.9053  2.7330  2.5170 
  5195.000 -22.337  3.5420  2.5630 -1.8401  3.5420  2.5630 
  5195.500 -23.819  3.8660  2.5650 -3.3239  3.8660  2.5650 
  5196.000 -32.665  3.9750  2.5670 -12.172  3.9750  2.5670 
  5196.500 -36.712  3.9900  2.5100 -16.220  3.9900  2.5100 
  5197.000 -40.759  3.9880  2.4520 -20.269  3.9880  2.4520 
  5197.500 -47.379  3.8030  2.4110 -26.891  3.8030  2.4110 
  5198.000 -46.792  3.4040  2.3770 -26.306  3.4040  2.3770 
  5198.500 -46.204  3.1550  2.3730 -25.719  3.1550  2.3730 
  5199.000 -45.617  2.9790  2.3690 -25.134  2.9790  2.3690 
  5199.500 -29.237  2.8180  2.3650 -8.7560  2.8180  2.3650 
  5200.000 -30.140  2.8920  2.3780 -9.6608  2.8920  2.3780 
  5200.500 -31.044  2.9660  2.3850 -10.567  2.9660  2.3850 
  5201.000 -30.692  3.0640  2.3920 -10.216  3.0640  2.3920 
  5201.500 -30.340  3.1620  2.4220 -9.8661  3.1620  2.4220 
  5202.000 -28.838  3.0970  2.4360 -8.3659  3.0970  2.4360 
  5202.500 -32.406  3.0320  2.4430 -11.936  3.0320  2.4430 
  5203.000 -35.974  2.8790  2.4250 -15.505  2.8790  2.4250 
  5203.500 -37.652  2.8700  2.4080 -17.185  2.8700  2.4080 
  5204.000 -39.330  2.8680  2.3910 -18.865  2.8680  2.3910 
  5204.500 -32.418  2.8670  2.3740 -11.955  2.8670  2.3740 
  5205.000 -30.197  2.9080  2.3400 -9.7355  2.9080  2.3400 
  5205.500 -30.284  2.9490  2.3710 -9.8242  2.9490  2.3710 
  5206.000 -31.843  2.9910  2.4010 -11.385  2.9910  2.4010 
  5206.500 -32.666  3.1400  2.4320 -12.210  3.1400  2.4320 
  5207.000 -33.488  3.2900  2.4780 -13.034  3.2900  2.4780 
  5207.500 -34.370  3.5910  2.4840 -13.917  3.5910  2.4840 
  5208.000 -35.252  3.8920  2.4910 -14.801  3.8920  2.4910 
  5208.500 -41.311  4.5730  2.4660 -20.862  4.5730  2.4660 
  5209.000 -46.970  5.0730  2.4410 -26.523  5.0730  2.4410 
  5209.500 -49.820  5.6050  2.4150 -29.374  5.6050  2.4150 
  5210.000 -52.671  5.9580  2.3900 -32.227  5.9580  2.3900 
  5210.500 -71.148  6.3110  2.3840 -50.706  6.3110  2.3840 
  5211.000 -75.451  6.4130  2.3790 -55.011  6.4130  2.3790 
  5211.500 -81.469  6.5140  2.3690 -61.030  6.5140  2.3690 
  5212.000 -81.277  6.5720  2.4150 -60.840  6.5720  2.4150 
  5212.500 -79.492  6.6310  2.4380 -59.057  6.6310  2.4380 
  5213.000 -79.741  6.6850  2.4600 -59.308  6.6850  2.4600 
  5213.500 -80.344  6.8030  2.4270 -59.913  6.8030  2.4270 
  5214.000 -81.067  6.9440  2.3940 -60.637  6.9440  2.3940 
  5214.500 -78.785  6.5850  2.3730 -58.357  6.5850  2.3730 
  5215.000 -76.502  4.9610  2.3520 -56.076  4.9610  2.3520 
  5215.500 -72.971  4.5300  2.3020 -52.547  4.5300  2.3020 
  5216.000 -66.334  3.8760  2.2690 -45.911  3.8760  2.2690 
  5216.500 -58.661  3.4130  2.2360 -38.240  3.4130  2.2360 
  5217.000 -54.252  3.0860  2.2150 -33.833  3.0860  2.2150 
  5217.500 -48.329  2.8690  2.1940 -27.912  2.8690  2.1940 
  5218.000 -32.221  2.6770  2.2390 -11.805  2.6770  2.2390 
  5218.500 -27.575  2.6440  2.2900 -7.1612  2.6440  2.2900 
  5219.000 -28.574  2.6780  2.3410 -8.1620  2.6780  2.3410 
  5219.500 -29.573  2.7130  2.4580 -9.1627  2.7130  2.4580 
  5220.000 -26.759  3.0130  2.5160 -6.3505  3.0130  2.5160 
  5220.500 -33.452  3.3460  2.5750 -13.045  3.3460  2.5750 
  5221.000 -34.930  3.4600  2.6920 -14.525  3.4600  2.6920 
  5221.500 -36.408  3.5750  2.7390 -16.005  3.5750  2.7390 
  5222.000 -38.649  3.6520  2.8000 -18.248  3.6520  2.8000 
  5222.500 -39.570  3.5230  2.8310 -19.170  3.5230  2.8310 
  5223.000 -35.361  3.4660  2.8610 -14.963  3.4660  2.8610 
  5223.500 -29.636  3.4330  2.8840 -9.2399  3.4330  2.8840 
  5224.000 -27.455  3.4000  2.8590 -7.0607  3.4000  2.8590 
  5224.500 -32.677  3.4660  2.8340 -12.284  3.4660  2.8340 
  5225.000 -35.272  3.5320  2.8080 -14.881  3.5320  2.8080 
  5225.500 -36.750  3.6420  2.8310 -16.361  3.6420  2.8310 
  5226.000 -37.910  3.7040  2.8540 -17.523  3.7040  2.8540 
  5226.500 -33.861  3.7190  2.8830 -13.476  3.7190  2.8830 
  5227.000 -31.560  3.7330  2.9140 -11.176  3.7330  2.9140 
  5227.500 -29.419  3.7480  2.9280 -9.0370  3.7480  2.9280 
  5228.000 -31.058  3.7780  2.9430 -10.678  3.7780  2.9430 
  5228.500 -32.775  3.8080  2.9490 -12.397  3.8080  2.9490 
  5229.000 -35.050  3.8310  2.9240 -14.673  3.8310  2.9240 
  5229.500 -37.366  3.8610  2.8550 -16.991  3.8610  2.8550 
  5230.000 -38.805  3.4540  2.7860 -18.432  3.4540  2.7860 
  5230.500 -40.646  3.0860  2.7010 -20.275  3.0860  2.7010 
  5231.000 -41.848  2.9820  2.6160 -21.478  2.9820  2.6160 
  5231.500 -39.346  2.8780  2.5270 -18.978  2.8780  2.5270 
  5232.000 -33.821  2.7010  2.4380 -13.455  2.7010  2.4380 
  5232.500 -30.449  2.5240  2.3530 -10.085  2.5240  2.3530 
  5233.000 -31.250  2.4790  2.2680 -10.887  2.4790  2.2680 
  5233.500 -28.911  2.4340  2.2270 -8.5503  2.4340  2.2270 
  5234.000 -27.882  2.3960  2.1300 -7.5230  2.3960  2.1300 
  5234.500 -28.170  2.3570  2.0330 -7.8128  2.3570  2.0330 
  5235.000 -27.501  2.3180  1.9830 -7.1456  2.3180  1.9830 
  5235.500 -27.348  2.2930  1.9500 -6.9943  2.2930  1.9500 
  5236.000 -28.947  2.2680  1.9540 -8.5951  2.2680  1.9540 
  5236.500 -27.166  2.2260  1.9590 -6.8159  2.2260  1.9590 
  5237.000 -25.978  2.2050  1.9630 -5.6296  2.2050  1.9630 
  5237.500 -27.060  2.1840  2.0050 -6.7134  2.1840  2.0050 
  5238.000 -27.743  2.1580  2.0470 -7.3982  2.1580  2.0470 
  5238.500 -27.592  2.1730  2.1250 -7.2489  2.1730  2.1250 
  5239.000 -26.444  2.1870  2.1630 -6.1027  2.1870  2.1630 
  5239.500 -28.323  2.2540  2.2100 -7.9835  2.2540  2.2100 
  5240.000 -29.246  2.3200  2.2560 -8.9082  2.3200  2.2560 
  5240.500 -28.298  2.4180  2.3020 -7.9620  2.4180  2.3020 
  5241.000 -27.391  2.5150  2.3250 -7.0568  2.5150  2.3250 
  5241.500 -28.074  2.6100  2.3480 -7.7416  2.6100  2.3480 
  5242.000 -28.756  2.6620  2.3770 -8.4253  2.6620  2.3770 
  5242.500 -30.874  2.7130  2.3970 -10.545  2.7130  2.3970 
  5243.000 -31.718  2.7650  2.4170 -11.391  2.7650  2.4170 
  5243.500 -30.851  2.7790  2.4370 -10.526  2.7790  2.4370 
  5244.000 -30.181  2.7930  2.4520 -9.8574  2.7930  2.4520 
  5244.500 -30.228  2.8120  2.4670 -9.9062  2.8120  2.4670 
  5245.000 -30.750  2.8310  2.4810 -10.430  2.8310  2.4810 
  5245.500 -31.273  3.0750  2.4950 -10.955  3.0750  2.4950 
  5246.000 -32.995  3.2410  2.5090 -12.678  3.2410  2.5090 
  5246.500 -34.992  3.2880  2.5240 -14.677  3.2880  2.5240 
  5247.000 -38.979  3.3580  2.5260 -18.666  3.3580  2.5260 
  5247.500 -38.829  3.4120  2.5290 -18.518  3.4120  2.5290 
  5248.000 -36.728  3.4150  2.5310 -16.419  3.4150  2.5310 
  5248.500 -35.620  3.4180  2.5340 -15.312  3.4180  2.5340 
  5249.000 -35.785  3.3520  2.5600 -15.479  3.3520  2.5600 
  5249.500 -35.949  3.3270  2.5870 -15.645  3.3270  2.5870 
  5250.000 -37.115  3.3020  2.6130 -16.813  3.3020  2.6130 
  5250.500 -39.193  3.3370  2.6400 -18.892  3.3370  2.6400 
  5251.000 -39.002  3.3720  2.6770 -18.703  3.3720  2.6770 
  5251.500 -35.590  3.4080  2.7150 -15.293  3.4080  2.7150 
  5252.000 -32.973  3.4380  2.7380 -12.678  3.4380  2.7380 
  5252.500 -31.707  3.4450  2.6810 -11.413  3.4450  2.6810 
  5253.000 -29.687  3.3470  2.6230 -9.3952  3.3470  2.6230 
  5253.500 -26.752  3.1830  2.5340 -6.4620  3.1830  2.5340 
  5254.000 -25.606  3.0180  2.4450 -5.3178  3.0180  2.4450 
  5254.500 -24.501  2.8660  2.3560 -4.2145  2.8660  2.3560 
  5255.000 -23.754  2.7130  2.2680 -3.4693  2.7130  2.2680 
  5255.500 -26.867  2.5880  2.1300 -6.5841  2.5880  2.1300 
  5256.000 -29.066  2.4640  2.0490 -8.7848  2.4640  2.0490 
  5256.500 -29.909  2.3590  1.9520 -9.6296  2.3590  1.9520 
  5257.000 -28.446  2.2540  1.9190 -8.1684  2.2540  1.9190 
  5257.500 -24.953  2.1600  1.9060 -4.6771  2.1600  1.9060 
  5258.000 -22.892  2.0670  1.8920 -2.6179  2.0670  1.8920 
  5258.500 -23.021  2.0420  1.8980 -2.7487  2.0420  1.8980 
  5259.000 -24.066  2.0160  1.9040 -3.7954  2.0160  1.9040 
  5259.500 -25.745  1.9910  1.9430 -5.4762  1.9910  1.9430 
  5260.000 -24.560  2.0130  1.9810 -4.2930  2.0130  1.9810 
  5260.500 -23.832  2.0740  2.0310 -3.5667  2.0740  2.0310 
