~Version Information
VERS.                     2.0: CWLS log ASCII Standard Version 2.00
WRAP.                      NO: One line per depth step
~Well Information Block
#MNEM.UNIT                               Data Type  Information
#---------                               ---------  -----------
STRT.FT                                   370.0000:
STOP.FT                                  6980.0000:
STEP.FT                                     0.5000:
NULL.                 -999.25                     :
COMP.                                             :COMPANY            
WELL.     KCL 13-X                                :WELL               
FLD .                                             :FIELD              
CTRY.                                             :COUNTRY            
STAT.                                             :STATE              
LOC .                                             :LOCATION           
UWI .                                             :UNIQUE WELL ID     
SRVC.                                             :Service company    
DATE.                                             :LOG DATE           
~Curve Information
#MNEM.UNIT           API CODE  Curve Description
#---------           --------  -----------------
DEPT.FT                      :   1 DEPTH
SP  .MV                      :   2
SN  .OHMM                    :   3
ILD .OHMM                    :   4
SBL .MV                      :   5
RS  .OHMM                    :   6
RD  .OHMM                    :   7
~A
# ...
  5596.000 -24.458  1.8820  1.8710 -5.3017  1.8820  1.8710 
  5596.500 -23.619  1.8990  1.9320 -4.4643  1.8990  1.9320 
  5597.000 -22.779  1.9190  1.9530 -3.6260  1.9190  1.9530 
  5597.500 -22.372  1.9380  1.9320 -3.2206  1.9380  1.9320 
  5598.000 -21.965  1.9570  1.9100 -2.8152  1.9570  1.9100 
  5598.500 -23.925  1.9710  1.8800 -4.7768  1.9710  1.8800 
  5599.000 -24.866  1.9850  1.8510 -5.7194  1.9850  1.8510 
  5599.500 -25.808  1.9880  1.8250 -6.6631  1.9880  1.8250 
  5600.000 -24.834  1.9900  1.7990 -5.6907  1.9900  1.7990 
  5600.500 -24.247  1.9880  1.7770 -5.1053  1.9880  1.7770 
  5601.000 -23.781  1.9920  1.7550 -4.6409  1.9920  1.7550 
  5601.500 -23.710  1.9970  1.7460 -4.5715  1.9970  1.7460 
  5602.000 -25.305  2.0010  1.7360 -6.1682  2.0010  1.7360 
  5602.500 -26.982  2.0060  1.7260 -7.8468  2.0060  1.7260 
  5603.000 -27.389  2.0080  1.7170 -8.2554  2.0080  1.7170 
  5603.500 -26.919  2.0110  1.7080 -7.7870  2.0110  1.7080 
  5604.000 -25.184  1.9880  1.6980 -6.0536  1.9880  1.6980 
  5604.500 -23.487  1.9650  1.6810 -4.3583  1.9650  1.6810 
  5605.000 -21.989  1.9420  1.6630 -2.8619  1.9420  1.6630 
  5605.500 -22.910  1.9220  1.6460 -3.7845  1.9220  1.6460 
  5606.000 -24.983  1.9010  1.6280 -5.8591  1.9010  1.6280 
  5606.500 -24.952  1.8810  1.6070 -5.8297  1.8810  1.6070 
  5607.000 -24.246  1.8630  1.5850 -5.1254  1.8630  1.5850 
  5607.500 -23.539  1.8480  1.5590 -4.4200  1.8480  1.5590 
  5608.000 -22.004  1.8340  1.5210 -2.8866  1.8340  1.5210 
  5608.500 -22.688  1.8190  1.4830 -3.5722  1.8190  1.4830 
  5609.000 -23.174  1.8060  1.4630 -4.0598  1.8060  1.4630 
  5609.500 -22.470  1.7940  1.4430 -3.3574  1.7940  1.4430 
  5610.000 -20.612  1.7810  1.4230 -1.5011  1.7810  1.4230 
  5610.500 -20.104  1.7640  1.3980 -0.9947  1.7640  1.3980 
  5611.000 -20.196  1.7420  1.3920 -1.0883  1.7420  1.3920 
  5611.500 -21.235  1.7210  1.3860 -2.1289  1.7210  1.3860 
  5612.000 -23.505  1.6990  1.3960 -4.4005  1.6990  1.3960 
  5612.500 -24.983  1.6780  1.4060 -5.8802  1.6780  1.4060 
  5613.000 -24.276  1.6630  1.4180 -5.1748  1.6630  1.4180 
  5613.500 -23.568  1.6480  1.4300 -4.4684  1.6480  1.4300 
  5614.000 -23.543  1.6330  1.4420 -4.4450  1.6330  1.4420 
  5614.500 -22.163  1.6310  1.4520 -3.0666  1.6310  1.4520 
  5615.000 -22.151  1.6610  1.4630 -3.0563  1.6610  1.4630 
  5615.500 -22.139  1.6910  1.4730 -3.0459  1.6910  1.4730 
  5616.000 -22.247  1.7210  1.4830 -3.1555  1.7210  1.4830 
  5616.500 -22.354  1.7520  1.4930 -3.2641  1.7520  1.4930 
  5617.000 -22.566  1.7370  1.5040 -3.4777  1.7370  1.5040 
  5617.500 -23.648  1.7220  1.5100 -4.5614  1.7220  1.5100 
  5618.000 -24.610  1.7080  1.5160 -5.5250  1.7080  1.5160 
  5618.500 -23.070  1.6730  1.5220 -3.9866  1.6730  1.5220 
  5619.000 -22.165  1.6760  1.5290 -3.0832  1.6760  1.5290 
  5619.500 -21.778  1.6800  1.5310 -2.6978  1.6800  1.5310 
  5620.000 -22.560  1.6840  1.5330 -3.4815  1.6840  1.5330 
  5620.500 -23.342  1.6940  1.5400 -4.2651  1.6940  1.5400 
  5621.000 -27.085  1.7050  1.5460 -8.0097  1.7050  1.5460 
  5621.500 -28.837  1.7250  1.5530 -9.7633  1.7250  1.5530 
  5622.000 -31.068  1.7450  1.5590 -11.996  1.7450  1.5590 
  5622.500 -34.848  1.7650  1.5770 -15.778  1.7650  1.5770 
  5623.000 -37.315  1.7860  1.5940 -18.246  1.7860  1.5940 
  5623.500 -38.991  1.7950  1.6050 -19.924  1.7950  1.6050 
  5624.000 -37.930  1.8040  1.6160 -18.864  1.8040  1.6160 
  5624.500 -33.693  1.8130  1.5970 -14.629  1.8130  1.5970 
  5625.000 -32.311  1.8250  1.5920 -13.249  1.8250  1.5920 
  5625.500 -30.930  1.8380  1.5860 -11.869  1.8380  1.5860 
  5626.000 -28.523  1.8510  1.5810 -9.4639  1.8510  1.5810 
  5626.500 -27.582  1.8630  1.5760 -8.5245  1.8630  1.5760 
  5627.000 -27.708  1.8760  1.5730 -8.6521  1.8760  1.5730 
  5627.500 -27.834  1.8860  1.5770 -8.7797  1.8860  1.5770 
  5628.000 -29.513  1.8970  1.5800 -10.460  1.8970  1.5800 
  5628.500 -31.309  1.9070  1.5840 -12.258  1.9070  1.5840 
  5629.000 -32.148  1.9180  1.5930 -13.099  1.9180  1.5930 
  5629.500 -29.262  1.9310  1.6020 -10.214  1.9310  1.6020 
  5630.000 -28.796  1.9450  1.6110 -9.7498  1.9450  1.6110 
  5630.500 -28.606  1.9490  1.6220 -9.5615  1.9490  1.6220 
  5631.000 -27.720  1.9530  1.6320 -8.6771  1.9530  1.6320 
  5631.500 -26.835  1.9570  1.6380 -7.7937  1.9570  1.6380 
  5632.000 -26.580  1.9390  1.6450 -7.5403  1.9390  1.6450 
  5632.500 -26.324  1.9210  1.6270 -7.2859  1.9210  1.6270 
  5633.000 -26.069  1.8840  1.6090 -7.0326  1.8840  1.6090 
  5633.500 -25.052  1.8460  1.5830 -6.0172  1.8460  1.5830 
  5634.000 -26.927  1.7970  1.5570 -7.8938  1.7970  1.5570 
  5634.500 -28.005  1.7480  1.5480 -8.9734  1.7480  1.5480 
  5635.000 -28.491  1.6980  1.5380 -9.4610  1.6980  1.5380 
  5635.500 -27.270  1.6830  1.5410 -8.2417  1.6830  1.5410 
  5636.000 -25.932  1.6690  1.5430 -6.9053  1.6690  1.5430 
  5636.500 -23.996  1.6540  1.5510 -4.9709  1.6540  1.5510 
  5637.000 -25.035  1.6670  1.5600 -6.0115  1.6670  1.5600 
  5637.500 -25.975  1.6810  1.5680 -6.9531  1.6810  1.5680 
  5638.000 -26.916  1.6950  1.5770 -7.8958  1.6950  1.5770 
  5638.500 -23.914  1.7100  1.5860 -4.8954  1.7100  1.5860 
  5639.000 -24.599  1.7240  1.5960 -5.5820  1.7240  1.5960 
  5639.500 -25.081  1.7390  1.5910 -6.0656  1.7390  1.5910 
  5640.000 -24.695  1.7490  1.5860 -5.6812  1.7490  1.5860 
  5640.500 -23.077  1.7590  1.5680 -4.0649  1.7590  1.5680 
  5641.000 -22.570  1.7690  1.5510 -3.5595  1.7690  1.5510 
  5641.500 -23.732  1.7790  1.5330 -4.7231  1.7790  1.5330 
  5642.000 -26.120  1.7830  1.5160 -7.1127  1.7830  1.5160 
  5642.500 -28.192  1.7860  1.5100 -9.1863  1.7860  1.5100 
  5643.000 -28.797  1.7890  1.5040 -9.7930  1.7890  1.5040 
  5643.500 -27.733  1.7920  1.5000 -8.7306  1.7920  1.5000 
  5644.000 -26.000  1.7950  1.4950 -6.9992  1.7950  1.4950 
  5644.500 -25.213  1.7970  1.4910 -6.2138  1.7970  1.4910 
  5645.000 -25.304  1.8000  1.4920 -6.3064  1.8000  1.4920 
  5645.500 -25.330  1.8020  1.4930 -6.3340  1.8020  1.4930 
  5646.000 -25.356  1.8040  1.4940 -6.3617  1.8040  1.4940 
  5646.500 -25.409  1.8130  1.4920 -6.4163  1.8130  1.4920 
  5647.000 -26.011  1.8210  1.4900 -7.0199  1.8210  1.4900 
  5647.500 -26.613  1.8290  1.4810 -7.6235  1.8290  1.4810 
  5648.000 -26.470  1.8380  1.4710 -7.4821  1.8380  1.4710 
  5648.500 -26.280  1.8400  1.4670 -7.2938  1.8400  1.4670 
  5649.000 -26.328  1.8420  1.4630 -7.3434  1.8420  1.4630 
  5649.500 -27.172  1.8000  1.4600 -8.1890  1.8000  1.4600 
  5650.000 -28.647  1.7880  1.4560 -9.6656  1.7880  1.4560 
  5650.500 -30.082  1.7760  1.4560 -11.102  1.7760  1.4560 
  5651.000 -29.773  1.7640  1.4560 -10.795  1.7640  1.4560 
  5651.500 -29.465  1.7690  1.4560 -10.488  1.7690  1.4560 
  5652.000 -28.862  1.7740  1.4560 -9.8871  1.7740  1.4560 
  5652.500 -28.260  1.7790  1.4560 -9.2867  1.7790  1.4560 
  5653.000 -27.657  1.7840  1.4570 -8.6853  1.7840  1.4570 
  5653.500 -26.042  1.7880  1.4580 -7.0720  1.7880  1.4580 
  5654.000 -24.979  1.7950  1.4590 -6.0106  1.7950  1.4590 
  5654.500 -24.191  1.8010  1.4590 -5.2242  1.8010  1.4590 
  5655.000 -25.390  1.8020  1.4540 -6.4248  1.8020  1.4540 
  5655.500 -27.817  1.8030  1.4480 -8.8534  1.8030  1.4480 
  5656.000 -28.736  1.8040  1.4470 -9.7741  1.8040  1.4470 
  5656.500 -29.654  1.8000  1.4450 -10.694  1.8000  1.4450 
  5657.000 -31.848  1.7960  1.4430 -12.889  1.7960  1.4430 
  5657.500 -30.268  1.7920  1.4410 -11.311  1.7920  1.4410 
  5658.000 -30.157  1.7900  1.4400 -11.202  1.7900  1.4400 
  5658.500 -30.323  1.7890  1.4380 -11.369  1.7890  1.4380 
  5659.000 -28.306  1.7870  1.4370 -9.3538  1.7870  1.4370 
  5659.500 -25.618  1.7890  1.4350 -6.6674  1.7890  1.4350 
  5660.000 -25.347  1.7900  1.4340 -6.3980  1.7900  1.4340 
  5660.500 -24.722  1.7910  1.4330 -5.7746  1.7910  1.4330 
  5661.000 -24.230  1.7860  1.4210 -5.2843  1.7860  1.4210 
  5661.500 -23.738  1.7800  1.4100 -4.7939  1.7800  1.4100 
  5662.000 -24.704  1.7710  1.3990 -5.7615  1.7710  1.3990 
  5662.500 -25.900  1.7690  1.3870 -6.9591  1.7690  1.3870 
