~Version Information
VERS.                     2.0: CWLS log ASCII Standard Version 2.00
WRAP.                      NO: One line per depth step
~Well Information Block
#MNEM.UNIT                               Data Type  Information
#---------                               ---------  -----------
STRT.FT                                   360.0000:
STOP.FT                                  7920.0000:
STEP.FT                                     0.5000:
NULL.                 -999.25                     :
COMP.                                             :COMPANY            
WELL.     KCL 12-27                               :WELL               
FLD .                                             :FIELD              
CTRY.                                             :COUNTRY            
STAT.                                             :STATE              
LOC .                                             :LOCATION           
UWI .                                             :UNIQUE WELL ID     
SRVC.                                             :Service company    
DATE.                                             :LOG DATE           
~Curve Information
#MNEM.UNIT           API CODE  Curve Description
#---------           --------  -----------------
DEPT.FT                      :   1 DEPTH
SP  .MV                      :   2
DT  .US/F                    :   3
SP  .MV                      :   4
SN  .OHMM                    :   5
LN  .OHMM                    :   6
SBL .MV                      :   7
RS  .OHMM                    :   8
RD  .OHMM                    :   9
DTS .US/F                    :  10
SPS .MV                      :  11
~A
# ...
  3405.000 -999.25 -999.25 -47.150  13.409  10.518 -21.695  13.409  10.518 -999.25 -999.25 
  3405.500 -999.25 -999.25 -46.877  13.193  10.591 -21.426  13.193  10.591 -999.25 -999.25 
  3406.000 -999.25 -999.25 -46.605  12.940  10.555 -21.158  12.940  10.555 -999.25 -999.25 
  3406.500 -999.25 -999.25 -45.879  12.615  10.231 -20.437  12.615  10.231 -999.25 -999.25 
  3407.000 -999.25 -999.25 -45.336  12.218  9.5810 -19.898  12.218  9.5810 -999.25 -999.25 
  3407.500 -999.25 -999.25 -44.340  11.207  9.3640 -18.906  11.207  9.3640 -999.25 -999.25 
  3408.000 -999.25 -999.25 -43.345  10.701  8.9670 -17.916  10.701  8.9670 -999.25 -999.25 
  3408.500 -999.25 -999.25 -41.535  10.196  8.4980 -16.110  10.196  8.4980 -999.25 -999.25 
  3409.000 -999.25 -999.25 -40.630  8.6790  7.7390 -15.210  8.6790  7.7390 -999.25 -999.25 
  3409.500 -999.25 -999.25 -39.544  7.4140  7.2340 -14.128  7.4140  7.2340 -999.25 -999.25 
  3410.000 -999.25 -999.25 -36.831  7.0170  6.8010 -11.419  7.0170  6.8010 -999.25 -999.25 
  3410.500 -999.25 -999.25 -34.841  6.6560  5.7530 -9.4336  6.6560  5.7530 -999.25 -999.25 
  3411.000 -999.25 -999.25 -35.201  6.4760  5.5360 -9.7979  6.4760  5.5360 -999.25 -999.25 
  3411.500 -999.25 -999.25 -36.283  6.2960  5.4280 -10.884  6.2960  5.4280 -999.25 -999.25 
  3412.000 -999.25 -999.25 -37.547  6.1880  5.3930 -12.153  6.1880  5.3930 -999.25 -999.25 
  3412.500 -999.25 -999.25 -38.991  6.1880  5.4110 -13.601  6.1880  5.4110 -999.25 -999.25 
  3413.000 -999.25 -999.25 -39.531  6.1880  5.4290 -14.145  6.1880  5.4290 -999.25 -999.25 
  3413.500 -999.25 -999.25 -40.613  6.1530  5.4300 -15.232  6.1530  5.4300 -999.25 -999.25 
  3414.000 -999.25 -999.25 -40.792  6.0810  5.3940 -15.415  6.0810  5.3940 -999.25 -999.25 
  3414.500 -999.25 -999.25 -41.152  6.0090  5.3580 -15.779  6.0090  5.3580 -999.25 -999.25 
  3415.000 -999.25 -999.25 -41.331  5.7920  5.2500 -15.963  5.7920  5.2500 -999.25 -999.25 
  3415.500 -999.25 -999.25 -40.064  5.6120  5.1420 -14.700  5.6120  5.1420 -999.25 -999.25 
  3416.000 -999.25 -999.25 -38.074  5.3230  4.9980 -12.715  5.3230  4.9980 -999.25 -999.25 
  3416.500 -999.25 -999.25 -36.265  5.1430  4.9260 -10.910  5.1430  4.9260 -999.25 -999.25 
  3417.000 -999.25 -999.25 -34.456  4.9270  4.8180 -9.1052  4.9270  4.8180 -999.25 -999.25 
  3417.500 -999.25 -999.25 -31.924  4.8190  4.7100 -6.5776  4.8190  4.7100 -999.25 -999.25 
  3418.000 -999.25 -999.25 -30.477  4.7830  4.6380 -5.1350  4.7830  4.6380 -999.25 -999.25 
  3418.500 -999.25 -999.25 -30.294  4.7470  4.5660 -4.9563  4.7470  4.5660 -999.25 -999.25 
  3419.000 -999.25 -999.25 -30.022  4.7290  4.4220 -4.6887  4.7290  4.4220 -999.25 -999.25 
  3419.500 -999.25 -999.25 -29.750  4.7110  4.3860 -4.4210  4.7110  4.3860 -999.25 -999.25 
  3420.000 -999.25 -999.25 -29.928  4.7120  4.3500 -4.6034  4.7120  4.3500 -999.25 -999.25 
  3420.500 -999.25 -999.25 -30.107  4.7480  4.3870 -4.7867  4.7480  4.3870 -999.25 -999.25 
  3421.000 -999.25 -999.25 -30.466  4.7850  4.5680 -5.1501  4.7850  4.5680 -999.25 -999.25 
  3421.500 -999.25 -999.25 -30.645  4.8210  4.6590 -5.3335  4.8210  4.6590 -999.25 -999.25 
  3422.000 -999.25 -999.25 -31.185  4.8580  4.7490 -5.8778  4.8580  4.7490 -999.25 -999.25 
  3422.500 -999.25 -999.25 -31.636  5.1110  5.2200 -6.3332  5.1110  5.2200 -999.25 -999.25 
  3423.000 -999.25 -999.25 -32.086  5.3650  5.4370 -6.7875  5.3650  5.4370 -999.25 -999.25 
  3423.500 -999.25 -999.25 -33.529  5.8350  5.6540 -8.2349  5.8350  5.6540 -999.25 -999.25 
  3424.000 -999.25 -999.25 -34.522  6.2690  5.8710 -9.2322  6.2690  5.8710 -999.25 -999.25 
  3424.500 -999.25 -999.25 -35.515  6.6300  5.9440 -10.230  6.6300  5.9440 -999.25 -999.25 
  3425.000 -999.25 -999.25 -42.018  6.8110  6.1250 -16.737  6.8110  6.1250 -999.25 -999.25 
  3425.500 -999.25 -999.25 -42.739  7.0280  6.1610 -17.462  7.0280  6.1610 -999.25 -999.25 
  3426.000 -999.25 -999.25 -43.098  7.2820  6.1980 -17.826  7.2820  6.1980 -999.25 -999.25 
  3426.500 -999.25 -999.25 -43.097  7.4630  6.2340 -17.829  7.4630  6.2340 -999.25 -999.25 
  3427.000 -999.25 -999.25 -42.914  7.6080  6.2710 -17.650  7.6080  6.2710 -999.25 -999.25 
  3427.500 -999.25 -999.25 -43.997  7.7520  6.3070 -18.738  7.7520  6.3070 -999.25 -999.25 
  3428.000 -999.25 -999.25 -45.621  8.0780  6.3080 -20.366  8.0780  6.3080 -999.25 -999.25 
  3428.500 -999.25 -999.25 -46.342  8.3310  6.3440 -21.091  8.3310  6.3440 -999.25 -999.25 
  3429.000 -999.25 -999.25 -46.341  8.6570  6.3440 -21.095  8.6570  6.3440 -999.25 -999.25 
  3429.500 -999.25 -999.25 -46.339  9.1270  6.3450 -21.097  9.1270  6.3450 -999.25 -999.25 
  3430.000 -999.25 -999.25 -46.338  9.3080  6.3450 -21.101  9.3080  6.3450 -999.25 -999.25 
  3430.500 -999.25 -999.25 -46.336  9.3080  6.3450 -21.103  9.3080  6.3450 -999.25 -999.25 
  3431.000 -999.25 -999.25 -46.334  9.2000  6.2370 -21.105  9.2000  6.2370 -999.25 -999.25 
  3431.500 -999.25 -999.25 -46.061  9.0920  5.9490 -20.837  9.0920  5.9490 -999.25 -999.25 
  3432.000 -999.25 -999.25 -45.788  8.6230  5.5880 -20.568  8.6230  5.5880 -999.25 -999.25 
  3432.500 -999.25 -999.25 -45.063  7.9370  5.1910 -19.847  7.9370  5.1910 -999.25 -999.25 
  3433.000 -999.25 -999.25 -44.339  7.4310  4.9740 -19.128  7.4310  4.9740 -999.25 -999.25 
  3433.500 -999.25 -999.25 -43.614  5.4440  4.8300 -18.407  5.4440  4.8300 -999.25 -999.25 
  3434.000 -999.25 -999.25 -39.455  4.9750  4.6500 -14.252  4.9750  4.6500 -999.25 -999.25 
  3434.500 -999.25 -999.25 -37.104  4.7950  4.3970 -11.906  4.7950  4.3970 -999.25 -999.25 
  3435.000 -999.25 -999.25 -35.295  4.6690  4.2170 -10.101  4.6690  4.2170 -999.25 -999.25 
  3435.500 -999.25 -999.25 -32.402  4.5420  4.0730 -7.2125  4.5420  4.0730 -999.25 -999.25 
  3436.000 -999.25 -999.25 -32.400  4.5430  3.9290 -7.2148  4.5430  3.9290 -999.25 -999.25 
  3436.500 -999.25 -999.25 -32.760  4.3990  3.7840 -7.5792  4.3990  3.7840 -999.25 -999.25 
  3437.000 -999.25 -999.25 -33.120  4.3270  3.7130 -7.9435  4.3270  3.7130 -999.25 -999.25 
  3437.500 -999.25 -999.25 -33.932  4.2550  3.6410 -8.7599  4.2550  3.6410 -999.25 -999.25 
  3438.000 -999.25 -999.25 -34.743  4.0380  3.6410 -9.5752  4.0380  3.6410 -999.25 -999.25 
  3438.500 -999.25 -999.25 -34.198  3.9670  3.6770 -9.0346  3.9670  3.6770 -999.25 -999.25 
  3439.000 -999.25 -999.25 -33.293  3.9310  3.6780 -8.1340  3.9310  3.6780 -999.25 -999.25 
  3439.500 -999.25 -999.25 -32.387  3.9490  3.8230 -7.2323  3.9490  3.8230 -999.25 -999.25 
  3440.000 -999.25 -999.25 -31.301  3.9670  3.9310 -6.1507  3.9670  3.9310 -999.25 -999.25 
  3440.500 -999.25 -999.25 -31.842  4.0400  3.9680 -6.6960  4.0400  3.9680 -999.25 -999.25 
  3441.000 -999.25 -999.25 -33.286  4.2940  4.0410 -8.1444  4.2940  4.0410 -999.25 -999.25 
  3441.500 -999.25 -999.25 -35.633  4.4380  4.0770 -10.496  4.4380  4.0770 -999.25 -999.25 
  3442.000 -999.25 -999.25 -36.716  4.5830  4.1130 -11.583  4.5830  4.1130 -999.25 -999.25 
  3442.500 -999.25 -999.25 -39.063  4.9090  4.0780 -13.934  4.9090  4.0780 -999.25 -999.25 
  3443.000 -999.25 -999.25 -40.507  4.9450  4.0420 -15.383  4.9450  4.0420 -999.25 -999.25 
  3443.500 -999.25 -999.25 -39.602  4.8730  3.9700 -14.482  4.8730  3.9700 -999.25 -999.25 
  3444.000 -999.25 -999.25 -37.793  4.5490  3.8620 -12.678  4.5490  3.8620 -999.25 -999.25 
  3444.500 -999.25 -999.25 -35.622  4.2960  3.5730 -10.511  4.2960  3.5730 -999.25 -999.25 
  3445.000 -999.25 -999.25 -32.368  4.0430  3.4290 -7.2612  4.0430  3.4290 -999.25 -999.25 
  3445.500 -999.25 -999.25 -31.552  3.7370  3.3210 -6.4496  3.7370  3.3210 -999.25 -999.25 
  3446.000 -999.25 -999.25 -30.737  3.4300  3.1050 -5.6390  3.4300  3.1050 -999.25 -999.25 
  3446.500 -999.25 -999.25 -30.193  3.2860  2.9970 -5.0993  3.2860  2.9970 -999.25 -999.25 
  3447.000 -999.25 -999.25 -29.649  3.2680  2.9610 -4.5597  3.2680  2.9610 -999.25 -999.25 
  3447.500 -999.25 -999.25 -29.466  3.2500  2.9610 -4.3810  3.2500  2.9610 -999.25 -999.25 
  3448.000 -999.25 -999.25 -29.284  3.2510  2.9980 -4.2034  3.2510  2.9980 -999.25 -999.25 
