~Version Information
VERS.                     2.0: CWLS log ASCII Standard Version 2.00
WRAP.                      NO: One line per depth step
~Well Information Block
#MNEM.UNIT                               Data Type  Information
#---------                               ---------  -----------
STRT.FT                                   370.0000:
STOP.FT                                  6980.0000:
STEP.FT                                     0.5000:
NULL.                 -999.25                     :
COMP.                                             :COMPANY            
WELL.     KCL 13-X                                :WELL               
FLD .                                             :FIELD              
CTRY.                                             :COUNTRY            
STAT.                                             :STATE              
LOC .                                             :LOCATION           
UWI .                                             :UNIQUE WELL ID     
SRVC.                                             :Service company    
DATE.                                             :LOG DATE           
~Curve Information
#MNEM.UNIT           API CODE  Curve Description
#---------           --------  -----------------
DEPT.FT                      :   1 DEPTH
SP  .MV                      :   2
SN  .OHMM                    :   3
ILD .OHMM                    :   4
SBL .MV                      :   5
RS  .OHMM                    :   6
RD  .OHMM                    :   7
~A
# ...
  3854.000 -38.649  5.1590  4.3400 -16.896  5.1590  4.3400 
  3854.500 -36.709  5.0220  4.3150 -14.953  5.0220  4.3150 
  3855.000 -35.881  4.8150  4.2260 -14.121  4.8150  4.2260 
  3855.500 -35.210  4.7970  4.1570 -13.447  4.7970  4.1570 
  3856.000 -32.631  4.7800  4.0880 -10.865  4.7800  4.0880 
  3856.500 -31.007  4.7380  3.9120 -9.2378  4.7380  3.9120 
  3857.000 -30.855  4.6730  3.7350 -9.0826  4.6730  3.7350 
  3857.500 -31.318  4.2500  3.4150 -9.5424  4.2500  3.4150 
  3858.000 -31.781  3.9460  3.2670 -10.002  3.9460  3.2670 
  3858.500 -32.644  3.8020  3.1190 -10.862  3.8020  3.1190 
  3859.000 -33.508  3.6580  2.8780 -11.723  3.6580  2.8780 
  3859.500 -33.836  3.2980  2.7410 -12.048  3.2980  2.7410 
  3860.000 -29.029  3.1700  2.6520 -7.2373  3.1700  2.6520 
  3860.500 -28.996  3.0410  2.6750 -7.2011  3.0410  2.6750 
  3861.000 -30.119  2.9840  2.8320 -8.3209  2.9840  2.8320 
  3861.500 -31.199  2.9270  2.9300 -9.3977  2.9270  2.9300 
  3862.000 -31.249  2.9960  3.0290 -9.4445  2.9960  3.0290 
  3862.500 -30.500  3.1540  3.4490 -8.6923  3.1540  3.4490 
  3863.000 -30.069  3.5030  3.8130 -8.2581  3.5030  3.8130 
  3863.500 -30.195  3.9070  4.0580 -8.3809  3.9070  4.0580 
  3864.000 -31.357  4.4540  4.2710 -9.5397  4.4540  4.2710 
  3864.500 -33.833  4.9540  4.3100 -12.012  4.9540  4.3100 
  3865.000 -36.823  5.1720  4.3480 -14.999  5.1720  4.3480 
  3865.500 -41.129  5.3900  4.3790 -19.302  5.3900  4.3790 
  3866.000 -43.523  5.6670  4.4090 -21.693  5.6670  4.4090 
  3866.500 -44.766  5.9440  4.4400 -22.933  5.9440  4.4400 
  3867.000 -45.729  6.2360  4.5090 -23.892  6.2360  4.5090 
  3867.500 -47.484  6.3900  4.5680 -25.644  6.3900  4.5680 
  3868.000 -51.153  6.5440  4.6260 -29.310  6.5440  4.6260 
  3868.500 -52.673  6.7530  4.6670 -30.827  6.7530  4.6670 
  3869.000 -53.715  6.9630  4.7080 -31.866  6.9630  4.7080 
  3869.500 -55.633  7.2550  4.7490 -33.780  7.2550  4.7490 
  3870.000 -55.283  7.3890  4.7990 -33.427  7.3890  4.7990 
  3870.500 -54.574  7.6420  4.8500 -32.715  7.6420  4.8500 
  3871.000 -54.223  7.9510  4.9000 -32.361  7.9510  4.9000 
  3871.500 -54.944  8.6650  4.9500 -33.079  8.6650  4.9500 
  3872.000 -55.665  9.1570  4.9810 -33.796  9.1570  4.9810 
  3872.500 -59.020  9.4740  5.0120 -37.148  9.4740  5.0120 
  3873.000 -59.783  9.4770  5.0660 -37.908  9.4770  5.0660 
  3873.500 -59.432  9.4800  5.1200 -37.554  9.4800  5.1200 
  3874.000 -59.042  9.4780  5.1740 -37.161  9.4780  5.1740 
  3874.500 -59.286  9.6350  5.2520 -37.401  9.6350  5.2520 
  3875.000 -59.530  9.8490  5.2860 -37.642  9.8490  5.2860 
  3875.500 -61.368  10.063  5.3210 -39.477  10.063  5.3210 
  3876.000 -63.206  10.546  5.3670 -41.312  10.546  5.3670 
  3876.500 -66.043  10.894  5.3850 -44.146  10.894  5.3850 
  3877.000 -67.483  11.044  5.4040 -45.582  11.044  5.4040 
  3877.500 -67.609  11.210  5.3940 -45.705  11.210  5.3940 
  3878.000 -67.258  11.237  5.3290 -45.351  11.237  5.3290 
  3878.500 -66.949  11.263  5.2560 -45.039  11.263  5.2560 
  3879.000 -66.160  11.261  5.2270 -44.247  11.261  5.2270 
  3879.500 -65.251  10.846  5.1980 -43.334  10.846  5.1980 
  3880.000 -63.070  9.6360  5.1480 -41.150  9.6360  5.1480 
  3880.500 -60.371  8.4960  5.1310 -38.448  8.4960  5.1310 
  3881.000 -56.558  8.0570  5.1130 -34.632  8.0570  5.1130 
  3881.500 -52.706  7.9370  5.0960 -30.777  7.9370  5.0960 
  3882.000 -51.201  8.8180  5.0910 -29.268  8.8180  5.0910 
  3882.500 -51.646  9.8510  5.0860 -29.710  9.8510  5.0860 
  3883.000 -55.952  10.319  5.0680 -34.013  10.319  5.0680 
  3883.500 -58.744  10.524  5.0670 -36.802  10.524  5.0670 
  3884.000 -60.701  10.559  5.0660 -38.755  10.559  5.0660 
  3884.500 -60.628  10.594  5.0640 -38.679  10.594  5.0640 
  3885.000 -60.554  10.584  5.0470 -38.602  10.584  5.0470 
  3885.500 -58.617  9.8820  4.6630 -36.662  9.8820  4.6630 
  3886.000 -57.706  8.6480  4.2800 -35.748  8.6480  4.2800 
  3886.500 -56.795  7.0150  3.8170 -34.833  7.0150  3.8170 
  3887.000 -53.504  6.2020  3.5450 -31.539  6.2020  3.5450 
  3887.500 -50.168  5.4450  3.3450 -28.200  5.4450  3.3450 
  3888.000 -45.561  4.4890  3.1290 -23.590  4.4890  3.1290 
  3888.500 -41.230  3.6200  2.9130 -19.256  3.6200  2.9130 
  3889.000 -37.776  3.2610  2.6810 -15.798  3.2610  2.6810 
  3889.500 -34.601  3.1170  2.5760 -12.620  3.1170  2.5760 
  3890.000 -33.771  2.9720  2.5030 -11.787  2.9720  2.5030 
  3890.500 -32.825  2.9270  2.4770 -10.838  2.9270  2.4770 
  3891.000 -33.448  2.8820  2.7460 -11.458  2.8820  2.7460 
  3891.500 -34.070  2.9360  2.8880 -12.076  2.9360  2.8880 
  3892.000 -35.312  2.9900  3.0610 -13.315  2.9900  3.0610 
  3892.500 -32.973  3.1440  3.1560 -10.973  3.1440  3.1560 
  3893.000 -32.105  3.2970  3.2820 -10.102  3.2970  3.2820 
  3893.500 -31.914  3.6620  3.4080 -9.9076  3.6620  3.4080 
  3894.000 -32.358  4.1460  3.5300 -10.348  4.1460  3.5300 
  3894.500 -34.038  4.7890  3.6520 -12.025  4.7890  3.6520 
  3895.000 -37.109  5.2880  3.7100 -15.093  5.2880  3.7100 
  3895.500 -40.459  5.4860  3.7680 -18.440  5.4860  3.7680 
  3896.000 -43.291  5.5680  3.7950 -21.269  5.5680  3.7950 
  3896.500 -45.845  5.6510  3.8210 -23.819  5.6510  3.8210 
  3897.000 -46.253  5.7210  3.8190 -24.224  5.7210  3.8190 
  3897.500 -46.219  5.6790  3.7500 -24.187  5.6790  3.7500 
  3898.000 -46.265  5.4790  3.6820 -24.230  5.4790  3.6820 
  3898.500 -46.312  5.1430  3.5690 -24.274  5.1430  3.5690 
  3899.000 -44.052  4.7680  3.4550 -22.010  4.7680  3.4550 
  3899.500 -41.114  4.3770  3.4380 -19.069  4.3770  3.4380 
  3900.000 -38.655  4.0010  3.4210 -16.607  4.0010  3.4210 
  3900.500 -36.075  3.9840  3.3960 -14.024  3.9840  3.3960 
  3901.000 -34.529  3.9670  3.3710 -12.475  3.9670  3.3710 
  3901.500 -36.128  4.0610  3.2780 -14.070  4.0610  3.2780 
  3902.000 -39.397  4.0960  3.1850 -17.336  4.0960  3.1850 
  3902.500 -42.986  4.1310  3.0480 -20.922  4.1310  3.0480 
  3903.000 -44.345  4.2160  2.9550 -22.278  4.2160  2.9550 
  3903.500 -44.669  3.8960  2.8630 -22.598  3.8960  2.8630 
  3904.000 -42.647  3.4010  2.7500 -20.573  3.4010  2.7500 
  3904.500 -39.708  3.2180  2.6370 -17.631  3.2180  2.6370 
  3905.000 -37.486  2.9290  2.5640 -15.406  2.9290  2.5640 
  3905.500 -35.027  2.8010  2.5470 -12.944  2.8010  2.5470 
  3906.000 -34.557  2.7600  2.5450 -12.470  2.7600  2.5450 
  3906.500 -34.444  2.7260  2.5830 -12.354  2.7260  2.5830 
  3907.000 -34.013  2.7170  2.6460 -11.920  2.7170  2.6460 
  3907.500 -33.064  2.7080  2.6930 -10.968  2.7080  2.6930 
  3908.000 -32.157  2.7390  2.7390 -10.058  2.7390  2.7390 
  3908.500 -32.001  2.7690  2.8460 -9.8984  2.7690  2.8460 
  3909.000 -32.126  2.8280  2.9520 -10.020  2.8280  2.9520 
  3909.500 -32.251  2.8860  3.1050 -10.142  2.8860  3.1050 
  3910.000 -32.019  2.9800  3.2580 -9.9068  2.9800  3.2580 
  3910.500 -31.787  3.0900  3.3840 -9.6716  3.0900  3.3840 
  3911.000 -31.477  3.2000  3.5100 -9.3584  3.2000  3.5100 
  3911.500 -31.683  3.4060  3.6360 -9.5612  3.4060  3.6360 
  3912.000 -33.719  4.0400  3.7300 -11.594  4.0400  3.7300 
  3912.500 -35.693  4.6510  3.8240 -13.565  4.6510  3.8240 
  3913.000 -37.668  5.0160  3.9260 -15.537  5.0160  3.9260 
  3913.500 -41.819  5.6200  4.0280 -19.684  5.6200  4.0280 
  3914.000 -45.327  6.6130  4.0830 -23.189  6.6130  4.0830 
  3914.500 -49.590  7.4700  4.1380 -27.449  7.4700  4.1380 
  3915.000 -56.640  7.8040  4.2070 -34.496  7.8040  4.2070 
  3915.500 -60.706  8.1370  4.2220 -38.559  8.1370  4.2220 
  3916.000 -65.168  8.7470  4.2290 -43.017  8.7470  4.2290 
  3916.500 -67.164  8.9610  4.2280 -45.010  8.9610  4.2280 
  3917.000 -67.651  9.0470  4.2270 -45.494  9.0470  4.2270 
  3917.500 -65.666  9.0530  4.2250 -43.506  9.0530  4.2250 
  3918.000 -65.394  8.9250  4.2310 -43.231  8.9250  4.2310 
  3918.500 -65.442  8.7970  4.2260 -43.275  8.7970  4.2260 
  3919.000 -65.367  8.6250  4.2210 -43.197  8.6250  4.2210 
  3919.500 -64.896  8.4520  4.1480 -42.723  8.4520  4.1480 
  3920.000 -62.873  8.2560  3.8990 -40.697  8.2560  3.8990 
  3920.500 -62.283  8.0600  3.6670 -40.104  8.0600  3.6670 
