~Version Information
VERS.                     2.0: CWLS log ASCII Standard Version 2.00
WRAP.                      NO: One line per depth step
~Well Information Block
#MNEM.UNIT                               Data Type  Information
#---------                               ---------  -----------
STRT.FT                                   370.0000:
STOP.FT                                  6980.0000:
STEP.FT                                     0.5000:
NULL.                 -999.25                     :
COMP.                                             :COMPANY            
WELL.     KCL 13-X                                :WELL               
FLD .                                             :FIELD              
CTRY.                                             :COUNTRY            
STAT.                                             :STATE              
LOC .                                             :LOCATION           
UWI .                                             :UNIQUE WELL ID     
SRVC.                                             :Service company    
DATE.                                             :LOG DATE           
~Curve Information
#MNEM.UNIT           API CODE  Curve Description
#---------           --------  -----------------
DEPT.FT                      :   1 DEPTH
SP  .MV                      :   2
SN  .OHMM                    :   3
ILD .OHMM                    :   4
SBL .MV                      :   5
RS  .OHMM                    :   6
RD  .OHMM                    :   7
~A
# ...
  6467.000 -24.025  1.9500  1.5680 -7.6898  1.9500  1.5680 
  6467.500 -23.395  1.9800  1.6210 -7.0614  1.9800  1.6210 
  6468.000 -22.492  2.0110  1.6440 -6.1600  2.0110  1.6440 
  6468.500 -22.955  2.0410  1.6670 -6.6246  2.0410  1.6670 
  6469.000 -23.418  2.0770  1.6920 -7.0893  2.0770  1.6920 
  6469.500 -23.583  2.1120  1.7170 -7.2559  2.1120  1.7170 
  6470.000 -23.747  2.1480  1.7420 -7.4215  2.1480  1.7420 
  6470.500 -23.797  2.1810  1.7680 -7.4731  2.1810  1.7680 
  6471.000 -23.843  2.2130  1.7940 -7.5207  2.2130  1.7940 
  6471.500 -23.889  2.2460  1.8200 -7.5684  2.2460  1.8200 
  6472.000 -24.097  2.2630  1.8470 -7.7780  2.2630  1.8470 
  6472.500 -23.942  2.2800  1.8730 -7.6246  2.2800  1.8730 
  6473.000 -23.787  2.2960  1.9000 -7.4712  2.2960  1.9000 
  6473.500 -23.482  2.3130  1.9300 -7.1678  2.3130  1.9300 
  6474.000 -24.282  2.3320  1.9600 -7.9694  2.3320  1.9600 
  6474.500 -23.712  2.3500  1.9870 -7.4011  2.3500  1.9870 
  6475.000 -23.142  2.3690  2.0130 -6.8327  2.3690  2.0130 
  6475.500 -23.367  2.3870  2.0280 -7.0593  2.3870  2.0280 
  6476.000 -23.591  2.4090  2.0430 -7.2849  2.4090  2.0430 
  6476.500 -24.357  2.4310  2.0530 -8.0525  2.4310  2.0530 
  6477.000 -24.659  2.4530  2.0630 -8.3562  2.4530  2.0630 
  6477.500 -24.962  2.4720  2.0540 -8.6608  2.4720  2.0540 
  6478.000 -24.928  2.4900  2.0500 -8.6284  2.4900  2.0500 
  6478.500 -24.894  2.4970  2.0460 -8.5960  2.4970  2.0460 
  6479.000 -24.467  2.5040  2.0420 -8.1706  2.5040  2.0420 
  6479.500 -23.880  2.4350  2.0410 -7.5853  2.4350  2.0410 
  6480.000 -23.490  2.3660  2.0390 -7.1969  2.3660  2.0390 
  6480.500 -24.411  2.4120  2.0420 -8.1195  2.4120  2.0420 
  6481.000 -24.514  2.4580  2.0450 -8.2241  2.4580  2.0450 
  6481.500 -24.617  2.4780  2.0590 -8.3287  2.4780  2.0590 
  6482.000 -24.247  2.4980  2.0740 -7.9604  2.4980  2.0740 
  6482.500 -23.877  2.5190  2.0940 -7.5920  2.5190  2.0940 
  6483.000 -22.500  2.5370  2.1140 -6.2166  2.5370  2.1140 
  6483.500 -23.182  2.5550  2.1340 -6.9002  2.5550  2.1340 
  6484.000 -23.348  2.5770  2.1870 -7.0678  2.5770  2.1870 
  6484.500 -23.514  2.5440  2.2440 -7.2355  2.5440  2.2440 
  6485.000 -23.480  2.5110  2.3010 -7.2031  2.5110  2.3010 
  6485.500 -23.446  2.5010  2.3580 -7.1707  2.5010  2.3580 
  6486.000 -23.412  2.5310  2.4120 -7.1383  2.5310  2.4120 
  6486.500 -23.302  2.6860  2.4820 -7.0299  2.6860  2.4820 
  6487.000 -23.191  2.8400  2.5130 -6.9206  2.8400  2.5130 
  6487.500 -23.354  2.9660  2.5440 -7.0852  2.9660  2.5440 
  6488.000 -24.512  3.0920  2.6020 -8.2448  3.0920  2.6020 
  6488.500 -25.469  3.1690  2.6610 -9.2034  3.1690  2.6610 
  6489.000 -26.426  3.2470  2.6910 -10.162  3.2470  2.6910 
  6489.500 -28.817  3.2860  2.7210 -12.555  3.2860  2.7210 
  6490.000 -28.645  3.3250  2.6950 -12.384  3.3250  2.6950 
  6490.500 -28.473  3.3070  2.6690 -12.214  3.3070  2.6690 
  6491.000 -27.251  3.2900  2.6520 -10.994  3.2900  2.6520 
  6491.500 -26.145  3.1760  2.6350 -9.8891  3.1760  2.6350 
  6492.000 -25.039  3.1150  2.6840 -8.7847  3.1150  2.6840 
  6492.500 -23.266  3.0550  2.7330 -7.0134  3.0550  2.7330 
  6493.000 -22.717  2.9730  2.7830 -6.4660  2.9730  2.7830 
  6493.500 -22.526  3.0190  2.9870 -6.2766  3.0190  2.9870 
  6494.000 -22.609  3.3280  3.1140 -6.3612  3.3280  3.1140 
  6494.500 -23.133  3.6770  3.2470 -6.8868  3.6770  3.2470 
  6495.000 -25.757  3.6990  3.3010 -9.5125  3.6990  3.3010 
  6495.500 -28.026  3.7140  3.3560 -11.783  3.7140  3.3560 
  6496.000 -29.702  3.7290  3.3710 -13.461  3.7290  3.3710 
  6496.500 -30.263  3.9580  3.3860 -14.023  3.9580  3.3860 
  6497.000 -28.564  4.0280  3.3600 -12.326  4.0280  3.3600 
  6497.500 -27.102  4.0830  3.2710 -10.866  4.0830  3.2710 
  6498.000 -26.035  4.0260  3.1820 -9.8002  4.0260  3.1820 
  6498.500 -24.969  3.9690  2.9890 -8.7358  3.9690  2.9890 
  6499.000 -24.593  3.7920  2.9360 -8.3614  3.7920  2.9360 
  6499.500 -24.218  3.7710  2.8830 -7.9880  3.7710  2.8830 
  6500.000 -23.842  3.7500  2.7860 -7.6137  3.7500  2.7860 
  6500.500 -23.613  3.7560  2.7740 -7.3863  3.7560  2.7740 
  6501.000 -23.384  3.7620  2.7620 -7.1589  3.7620  2.7620 
  6501.500 -22.877  3.7410  2.7500 -6.6535  3.7410  2.7500 
  6502.000 -22.371  3.7190  2.7520 -6.1491  3.7190  2.7520 
  6502.500 -22.062  3.6570  2.7540 -5.8418  3.6570  2.7540 
  6503.000 -22.747  3.5960  2.7600 -6.5284  3.5960  2.7600 
  6503.500 -23.432  3.5140  2.7660 -7.2150  3.5140  2.7660 
  6504.000 -23.507  3.4330  2.7610 -7.2916  3.4330  2.7610 
  6504.500 -23.582  3.3600  2.7550 -7.3682  3.3600  2.7550 
  6505.000 -23.657  3.2870  2.7450 -7.4449  3.2870  2.7450 
  6505.500 -23.668  3.2210  2.7440 -7.4575  3.2210  2.7440 
  6506.000 -23.734  3.2990  2.7420 -7.5251  3.2990  2.7420 
  6506.500 -23.800  3.3610  2.7210 -7.5927  3.3610  2.7210 
  6507.000 -24.684  3.4550  2.6990 -8.4783  3.4550  2.6990 
  6507.500 -25.328  3.5250  2.6450 -9.1240  3.5250  2.6450 
  6508.000 -25.477  3.5150  2.5920 -9.2746  3.5150  2.5920 
  6508.500 -25.625  3.2270  2.5150 -9.4242  3.2270  2.5150 
  6509.000 -25.357  3.0020  2.4380 -9.1578  3.0020  2.4380 
  6509.500 -25.088  2.8660  2.3220 -8.8904  2.8660  2.3220 
  6510.000 -24.837  2.7290  2.2070 -8.6410  2.7290  2.2070 
  6510.500 -24.586  2.5880  2.0910 -8.3917  2.5880  2.0910 
  6511.000 -24.159  2.4470  1.9450 -7.9663  2.4470  1.9450 
  6511.500 -23.732  2.3300  1.9040 -7.5409  2.3300  1.9040 
  6512.000 -23.189  2.2120  1.8620 -6.9995  2.2120  1.8620 
  6512.500 -23.160  2.1230  1.8210 -6.9721  2.1230  1.8210 
  6513.000 -23.486  2.0650  1.7150 -7.2998  2.0650  1.7150 
  6513.500 -22.822  2.0400  1.7430 -6.6374  2.0400  1.7430 
  6514.000 -22.077  2.0150  1.7710 -5.8940  2.0150  1.7710 
  6514.500 -21.805  2.0130  1.7990 -5.6236  2.0130  1.7990 
  6515.000 -21.534  2.1150  1.9120 -5.3542  2.1150  1.9120 
  6515.500 -21.324  2.1850  2.0260 -5.1459  2.1850  2.0260 
  6516.000 -21.115  2.2900  2.1830 -4.9385  2.2900  2.1830 
  6516.500 -21.463  2.3960  2.2370 -5.2881  2.3960  2.2370 
  6517.000 -21.811  2.4660  2.3190 -5.6377  2.4660  2.3190 
  6517.500 -22.935  2.5330  2.4020 -6.7633  2.5330  2.4020 
  6518.000 -24.131  2.5990  2.5030 -7.9610  2.5990  2.5030 
  6518.500 -26.283  2.8110  2.5730 -10.115  2.8110  2.5730 
  6519.000 -26.136  2.9090  2.6430 -9.9692  2.9090  2.6430 
  6519.500 -24.042  3.0070  2.6890 -7.8768  3.0070  2.6890 
  6520.000 -22.622  3.1020  2.7360 -6.4584  3.1020  2.7360 
  6520.500 -21.758  3.1960  2.8050 -5.5961  3.1960  2.8050 
  6521.000 -21.606  3.5910  2.8750 -5.4457  3.5910  2.8750 
  6521.500 -21.454  3.7570  2.9130 -5.2953  3.7570  2.9130 
  6522.000 -21.602  3.9190  2.9520 -5.4449  3.9190  2.9520 
  6522.500 -21.751  4.0810  2.9890 -5.5955  4.0810  2.9890 
  6523.000 -29.698  4.4520  2.9990 -13.544  4.4520  2.9990 
  6523.500 -35.224  4.6340  3.0100 -19.072  4.6340  3.0100 
  6524.000 -38.090  4.8630  3.0200 -21.939  4.8630  3.0200 
  6524.500 -39.763  5.1400  3.0310 -23.614  5.1400  3.0310 
  6525.000 -40.901  5.2170  3.0660 -24.754  5.2170  3.0660 
  6525.500 -42.039  5.2950  3.1020 -25.893  5.2950  3.1020 
  6526.000 -43.681  5.3020  3.1370 -27.537  5.3020  3.1370 
  6526.500 -45.077  5.3320  3.2150 -28.934  5.3320  3.2150 
  6527.000 -47.189  5.5690  3.2570 -31.048  5.5690  3.2570 
  6527.500 -52.278  6.0930  3.3000 -36.139  6.0930  3.3000 
  6528.000 -59.982  6.4740  3.3610 -43.844  6.4740  3.3610 
  6528.500 -68.324  7.0050  3.4230 -52.188  7.0050  3.4230 
  6529.000 -73.054  9.5270  3.4620 -56.920  9.5270  3.4620 
  6529.500 -77.149  10.202  3.5000 -61.016  10.202  3.5000 
  6530.000 -76.841  10.328  3.5540 -60.710  10.328  3.5540 
  6530.500 -73.161  10.254  3.6080 -57.031  10.254  3.6080 
  6531.000 -67.853  10.054  3.6220 -51.725  10.054  3.6220 
  6531.500 -63.935  8.3720  3.5760 -47.809  8.3720  3.5760 
  6532.000 -60.571  8.0360  3.5310 -44.446  8.0360  3.5310 
  6532.500 -55.305  7.3500  3.4580 -39.182  7.3500  3.4580 
  6533.000 -51.821  6.2420  3.3840 -35.700  6.2420  3.3840 
  6533.500 -47.744  5.2370  3.3430 -31.624  5.2370  3.3430 
