~Version Information
VERS.                     2.0: CWLS log ASCII Standard Version 2.00
WRAP.                      NO: One line per depth step
~Well Information Block
#MNEM.UNIT                               Data Type  Information
#---------                               ---------  -----------
STRT.FT                                   370.0000:
STOP.FT                                  6980.0000:
STEP.FT                                     0.5000:
NULL.                 -999.25                     :
COMP.                                             :COMPANY            
WELL.     KCL 13-X                                :WELL               
FLD .                                             :FIELD              
CTRY.                                             :COUNTRY            
STAT.                                             :STATE              
LOC .                                             :LOCATION           
UWI .                                             :UNIQUE WELL ID     
SRVC.                                             :Service company    
DATE.                                             :LOG DATE           
~Curve Information
#MNEM.UNIT           API CODE  Curve Description
#---------           --------  -----------------
DEPT.FT                      :   1 DEPTH
SP  .MV                      :   2
SN  .OHMM                    :   3
ILD .OHMM                    :   4
SBL .MV                      :   5
RS  .OHMM                    :   6
RD  .OHMM                    :   7
~A
# ...
  3452.000 -29.549  4.1350  3.8880 -10.372  4.1350  3.8880 
  3452.500 -29.795  4.1320  3.9490 -10.616  4.1320  3.9490 
  3453.000 -29.264  4.1370  4.0460 -10.081  4.1370  4.0460 
  3453.500 -28.497  4.2140  4.1430 -9.3109  4.2140  4.1430 
  3454.000 -27.289  4.4070  4.3160 -8.1001  4.4070  4.3160 
  3454.500 -26.483  4.6000  4.4480 -7.2909  4.6000  4.4480 
  3455.000 -26.231  4.8010  4.5650 -7.0360  4.8010  4.5650 
  3455.500 -26.492  5.0010  4.6230 -7.2934  5.0010  4.6230 
  3456.000 -28.070  5.5070  4.6810 -8.8678  5.5070  4.6810 
  3456.500 -30.415  5.7590  4.7300 -11.210  5.7590  4.7300 
  3457.000 -32.528  5.8490  4.7790 -13.320  5.8490  4.7790 
  3457.500 -35.051  5.9380  4.7680 -15.840  5.9380  4.7680 
  3458.000 -37.041  5.9830  4.6900 -17.827  5.9830  4.6900 
  3458.500 -38.046  5.5980  4.6120 -18.828  5.5980  4.6120 
  3459.000 -36.892  5.3570  4.4020 -17.671  5.3570  4.4020 
  3459.500 -30.375  5.0600  4.2810 -11.150  5.0600  4.2810 
  3460.000 -27.282  4.7640  4.1590 -8.0549  4.7640  4.1590 
  3460.500 -26.103  4.5780  4.1090 -6.8719  4.5780  4.1090 
  3461.000 -25.638  4.5040  4.0590 -6.4038  4.5040  4.0590 
  3461.500 -25.357  4.4300  4.1170 -6.1193  4.4300  4.1170 
  3462.000 -25.249  4.4280  4.1740 -6.0087  4.4280  4.1740 
  3462.500 -26.003  4.4260  4.4960 -6.7592  4.4260  4.4960 
  3463.000 -26.292  4.5350  4.6690 -7.0450  4.5350  4.6690 
  3463.500 -26.068  4.6440  4.8890 -6.8180  4.6440  4.8890 
  3464.000 -25.944  5.0780  5.1660 -6.6906  5.0780  5.1660 
  3464.500 -26.172  5.5130  5.4420 -6.9151  5.5130  5.4420 
  3465.000 -27.344  5.9960  5.8850 -8.0843  5.9960  5.8850 
  3465.500 -28.276  6.4790  6.2080 -9.0130  6.4790  6.2080 
  3466.000 -30.393  8.1550  6.2610 -11.127  8.1550  6.2610 
  3466.500 -32.968  9.0510  6.3040 -13.699  9.0510  6.3040 
  3467.000 -37.195  9.4030  6.3470 -17.922  9.4030  6.3470 
  3467.500 -43.537  9.7550  6.3900 -24.261  9.7550  6.3900 
  3468.000 -47.500  10.205  6.3950 -28.221  10.205  6.3950 
  3468.500 -49.891  10.266  6.3840 -30.609  10.266  6.3840 
  3469.000 -50.115  10.224  6.3660 -30.830  10.224  6.3660 
  3469.500 -48.941  9.9670  6.2890 -29.653  9.9670  6.2890 
  3470.000 -47.671  9.3040  6.2120 -28.379  9.3040  6.2120 
  3470.500 -45.881  8.6570  6.1360 -26.586  8.6570  6.1360 
  3471.000 -43.968  8.4880  5.9270 -24.670  8.4880  5.9270 
  3471.500 -43.006  8.4140  5.5980 -23.705  8.4140  5.5980 
  3472.000 -44.096  8.2840  5.1970 -24.791  8.2840  5.1970 
  3472.500 -44.937  7.7250  4.7810 -25.629  7.7250  4.7810 
  3473.000 -45.367  5.9640  4.5640 -26.056  5.9640  4.5640 
  3473.500 -43.868  4.9270  4.4070 -24.554  4.9270  4.4070 
  3474.000 -42.243  4.8380  4.2500 -22.926  4.8380  4.2500 
  3474.500 -33.432  4.8590  4.0950 -14.111  4.8590  4.0950 
  3475.000 -29.010  4.8810  4.1880 -9.6860  4.8810  4.1880 
  3475.500 -27.870  5.0450  4.2300 -8.5434  5.0450  4.2300 
  3476.000 -27.474  5.2100  4.2720 -8.1440  5.2100  4.2720 
  3476.500 -27.275  5.4940  4.9840 -7.9416  5.4940  4.9840 
  3477.000 -27.411  6.2780  5.3640 -8.0744  6.2780  5.3640 
  3477.500 -28.789  7.1200  5.5680 -9.4491  7.1200  5.5680 
  3478.000 -32.810  8.3660  5.7370 -13.467  8.3660  5.7370 
  3478.500 -37.002  8.9920  5.9060 -17.655  8.9920  5.9060 
  3479.000 -40.354  9.2210  6.0770 -21.004  9.2210  6.0770 
  3479.500 -43.026  9.4490  6.1470 -23.673  9.4490  6.1470 
  3480.000 -44.690  9.6370  6.1920 -25.334  9.6370  6.1920 
  3480.500 -45.766  9.6740  6.2210 -26.407  9.6740  6.2210 
  3481.000 -46.349  9.6880  6.2190 -26.987  9.6880  6.2190 
  3481.500 -46.900  9.6610  6.2180 -27.534  9.6610  6.2180 
  3482.000 -47.221  9.5760  6.0040 -27.852  9.5760  6.0040 
  3482.500 -47.554  9.4900  5.7900 -28.183  9.4900  5.7900 
  3483.000 -47.468  8.8190  5.6530 -28.093  8.8190  5.6530 
  3483.500 -47.009  8.4500  5.5160 -27.631  8.4500  5.5160 
  3484.000 -43.555  7.2620  5.1470 -24.173  7.2620  5.1470 
  3484.500 -39.621  6.0270  4.7790 -20.236  6.0270  4.7790 
  3485.000 -36.267  5.1810  4.0670 -16.879  5.1810  4.0670 
  3485.500 -33.048  4.8450  3.9050 -13.657  4.8450  3.9050 
  3486.000 -30.406  4.5090  3.8390 -11.012  4.5090  3.8390 
  3486.500 -28.185  4.0590  3.7980 -8.7875  4.0590  3.7980 
  3487.000 -26.555  3.9620  3.7560 -7.1543  3.9620  3.7560 
  3487.500 -25.521  3.9920  3.8410 -6.1173  3.9920  3.8410 
  3488.000 -25.331  4.1880  3.9260 -5.9239  4.1880  3.9260 
  3488.500 -26.205  4.3330  4.0110 -6.7945  4.3330  4.0110 
  3489.000 -27.148  4.4780  4.2230 -7.7348  4.4780  4.2230 
  3489.500 -28.421  4.6190  4.2760 -9.0041  4.6190  4.2760 
  3490.000 -29.902  4.7600  4.3130 -10.482  4.7600  4.3130 
  3490.500 -31.186  4.8590  4.2710 -11.763  4.8590  4.2710 
  3491.000 -32.592  4.8010  4.2410 -13.165  4.8010  4.2410 
  3491.500 -34.043  4.7430  4.2100 -14.614  4.7430  4.2100 
  3492.000 -31.459  4.6290  4.2000 -12.026  4.6290  4.2000 
  3492.500 -28.910  4.5910  4.1900 -9.4739  4.5910  4.1900 
  3493.000 -27.046  4.5530  4.1800 -7.6069  4.5530  4.1800 
  3493.500 -27.283  4.6200  4.1850 -7.8406  4.6200  4.1850 
  3494.000 -27.975  4.6860  4.1910 -8.5298  4.6860  4.1910 
  3494.500 -29.026  4.7520  4.2350 -9.5778  4.7520  4.2350 
  3495.000 -30.000  4.8090  4.2730 -10.548  4.8090  4.2730 
  3495.500 -30.802  4.8670  4.3110 -11.347  4.8670  4.3110 
  3496.000 -31.808  4.8970  4.3480 -12.350  4.8970  4.3480 
  3496.500 -31.151  4.9260  4.3850 -11.690  4.9260  4.3850 
  3497.000 -29.964  4.9470  4.4220 -10.500  4.9470  4.4220 
  3497.500 -29.111  4.8810  4.4440 -9.6430  4.8810  4.4440 
  3498.000 -28.350  4.8700  4.4650 -8.8792  4.8700  4.4650 
  3498.500 -27.813  4.8600  4.4870 -8.3385  4.8600  4.4870 
  3499.000 -27.420  4.9850  4.5240 -7.9428  4.9850  4.5240 
  3499.500 -27.252  5.1090  4.5610 -7.7716  5.1090  4.5610 
  3500.000 -29.441  5.2190  4.5940 -9.9572  5.2190  4.5940 
  3500.500 -30.668  5.3520  4.6280 -11.180  5.3520  4.6280 
  3501.000 -32.046  5.4760  4.6770 -12.555  5.4760  4.6770 
  3501.500 -31.145  5.5060  4.7270 -11.651  5.5060  4.7270 
  3502.000 -29.509  5.4640  4.7760 -10.012  5.4640  4.7760 
  3502.500 -27.779  5.1990  4.8260 -8.2792  5.1990  4.8260 
  3503.000 -26.498  5.3320  4.8860 -6.9945  5.3320  4.8860 
  3503.500 -25.733  5.8060  4.9080 -6.2269  5.8060  4.9080 
  3504.000 -28.482  5.9960  4.9310 -8.9724  5.9960  4.9310 
  3504.500 -32.243  6.1530  4.9480 -12.730  6.1530  4.9480 
  3505.000 -35.382  6.3100  4.9660 -15.866  6.3100  4.9660 
  3505.500 -37.367  6.5210  4.8390 -17.847  6.5210  4.8390 
  3506.000 -39.374  6.5080  4.7110 -19.851  6.5080  4.7110 
  3506.500 -40.785  6.4940  4.5840 -21.260  6.4940  4.5840 
  3507.000 -41.609  6.2520  4.3900 -22.080  6.2520  4.3900 
  3507.500 -37.781  5.1440  4.2370 -18.249  5.1440  4.2370 
  3508.000 -33.672  4.6320  4.1350 -14.137  4.6320  4.1350 
  3508.500 -29.700  4.4750  4.0340 -10.161  4.4750  4.0340 
  3509.000 -27.708  4.3180  3.9360 -8.1662  4.3180  3.9360 
  3509.500 -26.691  4.1320  3.8990 -7.1463  4.1320  3.8990 
  3510.000 -26.001  4.0940  3.8630 -6.4525  4.0940  3.8630 
  3510.500 -25.402  4.0570  3.8260 -5.8503  4.0570  3.8260 
  3511.000 -25.009  4.0680  3.8440 -5.4544  4.0680  3.8440 
  3511.500 -24.645  4.0790  3.8610 -5.0874  4.0790  3.8610 
  3512.000 -24.274  4.0900  3.8850 -4.7134  4.0900  3.8850 
  3512.500 -23.910  4.1740  3.9100 -4.3458  4.1740  3.9100 
  3513.000 -23.510  4.2440  3.9340 -3.9429  4.2440  3.9340 
  3513.500 -23.005  4.3010  3.9870 -3.4340  4.3010  3.9870 
  3514.000 -22.745  4.3580  3.9850 -3.1714  4.3580  3.9850 
  3514.500 -23.939  4.3720  3.9830 -4.3619  4.3720  3.9830 
  3515.000 -24.714  4.3300  3.9690 -5.1338  4.3300  3.9690 
  3515.500 -25.306  4.2880  3.9540 -5.7231  4.2880  3.9540 
  3516.000 -24.678  4.2380  3.9280 -5.0917  4.2380  3.9280 
  3516.500 -24.110  4.1880  3.9020 -4.5206  4.1880  3.9020 
  3517.000 -23.559  4.0900  3.8510 -3.9664  4.0900  3.8510 
  3517.500 -23.172  4.0440  3.8330 -3.5761  4.0440  3.8330 
  3518.000 -23.742  3.9980  3.8150 -4.1426  3.9980  3.8150 
  3518.500 -24.296  3.9560  3.7980 -4.6936  3.9560  3.7980 
