~Version Information
VERS.                     2.0: CWLS log ASCII Standard Version 2.00
WRAP.                      NO: One line per depth step
~Well Information Block
#MNEM.UNIT                               Data Type  Information
#---------                               ---------  -----------
STRT.FT                                   370.0000:
STOP.FT                                  6980.0000:
STEP.FT                                     0.5000:
NULL.                 -999.25                     :
COMP.                                             :COMPANY            
WELL.     KCL 13-X                                :WELL               
FLD .                                             :FIELD              
CTRY.                                             :COUNTRY            
STAT.                                             :STATE              
LOC .                                             :LOCATION           
UWI .                                             :UNIQUE WELL ID     
SRVC.                                             :Service company    
DATE.                                             :LOG DATE           
~Curve Information
#MNEM.UNIT           API CODE  Curve Description
#---------           --------  -----------------
DEPT.FT                      :   1 DEPTH
SP  .MV                      :   2
SN  .OHMM                    :   3
ILD .OHMM                    :   4
SBL .MV                      :   5
RS  .OHMM                    :   6
RD  .OHMM                    :   7
~A
# ...
  1710.000 -36.799  5.6110  5.1010 -9.4158  5.6110  5.1010 
  1710.500 -36.641  5.5060  5.0460 -9.2613  5.5060  5.0460 
  1711.000 -38.435  5.4010  4.9910 -11.059  5.4010  4.9910 
  1711.500 -39.712  5.2960  4.9610 -12.339  5.2960  4.9610 
  1712.000 -39.833  5.2680  4.9750 -12.464  5.2680  4.9750 
  1712.500 -39.304  5.2410  4.9890 -11.938  5.2410  4.9890 
  1713.000 -38.774  5.1700  5.0030 -11.412  5.1700  5.0030 
  1713.500 -38.245  5.2000  5.0310 -10.886  5.2000  5.0310 
  1714.000 -37.292  5.2300  5.0600 -9.9366  5.2300  5.0600 
  1714.500 -37.553  5.2600  5.0770 -10.201  5.2600  5.0770 
  1715.000 -37.813  5.2740  5.0930 -10.465  5.2740  5.0930 
  1715.500 -39.130  5.2880  5.1340 -11.785  5.2880  5.1340 
  1716.000 -39.231  5.3020  5.1550 -11.890  5.3020  5.1550 
  1716.500 -39.332  5.5430  5.1760 -11.994  5.5430  5.1760 
  1717.000 -37.982  5.6390  5.2090 -10.648  5.6390  5.2090 
  1717.500 -38.600  5.6880  5.2330 -11.269  5.6880  5.2330 
  1718.000 -39.219  5.7360  5.2500 -11.891  5.7360  5.2500 
  1718.500 -40.018  5.8240  5.2660 -12.694  5.8240  5.2660 
  1719.000 -40.578  5.9130  5.2310 -13.257  5.9130  5.2310 
  1719.500 -40.480  5.8430  5.1960 -13.163  5.8430  5.1960 
  1720.000 -40.381  5.7870  5.1580 -13.067  5.7870  5.1580 
  1720.500 -39.270  5.7320  5.1390 -11.960  5.7320  5.1390 
  1721.000 -38.754  5.7090  5.1190 -11.447  5.7090  5.1190 
  1721.500 -38.238  5.6850  5.1480 -10.935  5.6850  5.1480 
  1722.000 -37.444  5.7050  5.1770 -10.144  5.7050  5.1770 
  1722.500 -37.684  5.7240  5.2090 -10.388  5.7240  5.2090 
  1723.000 -37.924  5.7440  5.2420 -10.631  5.7440  5.2420 
  1723.500 -38.576  5.8090  5.2820 -11.287  5.8090  5.2820 
  1724.000 -39.229  5.8810  5.3230 -11.943  5.8810  5.3230 
  1724.500 -39.882  5.9700  5.3800 -12.600  5.9700  5.3800 
  1725.000 -40.482  6.0820  5.4090 -13.203  6.0820  5.4090 
  1725.500 -41.061  6.1030  5.4370 -13.786  6.1030  5.4370 
  1726.000 -41.640  6.1230  5.4700 -14.368  6.1230  5.4700 
  1726.500 -39.772  6.0930  5.4790 -12.504  6.0930  5.4790 
  1727.000 -39.176  5.9340  5.4560 -11.911  5.9340  5.4560 
  1727.500 -39.058  5.7750  5.3370 -11.797  5.7750  5.3370 
  1728.000 -38.941  5.5050  5.2180 -11.683  5.5050  5.2180 
  1728.500 -38.564  5.2340  5.0040 -11.310  5.2340  5.0040 
  1729.000 -38.187  4.8720  4.7420 -10.936  4.8720  4.7420 
  1729.500 -35.164  4.5110  4.6110 -7.9165  4.5110  4.6110 
  1730.000 -33.573  4.3440  4.4790 -6.3290  4.3440  4.4790 
  1730.500 -32.758  4.1770  4.1540 -5.5175  4.1770  4.1540 
  1731.000 -31.942  3.9480  3.9480 -4.7050  3.9480  3.9480 
  1731.500 -31.826  3.8800  3.8290 -4.5924  3.8800  3.8290 
  1732.000 -31.709  3.8130  3.8290 -4.4789  3.8130  3.8290 
  1732.500 -31.730  3.8150  3.8300 -4.5034  3.8150  3.8300 
  1733.000 -31.752  3.8750  3.9020 -4.5289  3.8750  3.9020 
  1733.500 -31.953  3.9350  3.9750 -4.7334  3.9350  3.9750 
  1734.000 -32.273  4.0160  4.0550 -5.0568  4.0160  4.0550 
  1734.500 -32.593  4.0730  4.1360 -5.3803  4.0730  4.1360 
  1735.000 -33.810  4.0930  4.1530 -6.6008  4.0930  4.1530 
  1735.500 -35.027  4.1140  4.1700 -7.8213  4.1140  4.1700 
  1736.000 -37.699  4.1270  4.1700 -10.497  4.1270  4.1700 
  1736.500 -38.377  4.1400  4.1710 -11.178  4.1400  4.1710 
  1737.000 -35.632  4.1270  4.1130 -8.4367  4.1270  4.1130 
  1737.500 -34.399  4.1140  4.0550 -7.2072  4.1140  4.0550 
  1738.000 -33.444  4.1020  3.9980 -6.2557  4.1020  3.9980 
  1738.500 -32.490  4.0310  3.8640 -5.3052  4.0310  3.8640 
  1739.000 -31.339  3.9600  3.8090 -4.1577  3.9600  3.8090 
  1739.500 -31.360  3.8890  3.7530 -4.1821  3.8890  3.7530 
  1740.000 -31.381  3.8180  3.8020 -4.2066  3.8180  3.8020 
  1740.500 -32.062  3.7470  3.8510 -4.8911  3.7470  3.8510 
  1741.000 -32.899  3.7830  3.8990 -5.7316  3.7830  3.8990 
  1741.500 -33.737  3.8200  3.9160 -6.5731  3.8200  3.9160 
  1742.000 -34.595  3.8620  3.9320 -7.4345  3.8620  3.9320 
  1742.500 -35.453  3.8620  3.9090 -8.2960  3.8620  3.9090 
  1743.000 -36.253  3.8630  3.8870 -9.0995  3.8630  3.8870 
  1743.500 -35.478  3.8360  3.8640 -8.3280  3.8360  3.8640 
  1744.000 -34.704  3.8090  3.8360 -7.5575  3.8090  3.8360 
  1744.500 -33.909  3.7820  3.8090 -6.7659  3.7820  3.8090 
  1745.000 -33.114  3.7540  3.7780 -5.9744  3.7540  3.7780 
  1745.500 -32.161  3.7390  3.7470 -5.0249  3.7390  3.7470 
  1746.000 -31.486  3.7240  3.8380 -4.3534  3.7240  3.8380 
  1746.500 -31.687  3.7650  3.9290 -4.5579  3.7650  3.9290 
  1747.000 -31.887  3.8050  4.0200 -4.7613  3.8050  4.0200 
  1747.500 -32.088  4.0220  4.1510 -4.9658  4.0220  4.1510 
  1748.000 -32.468  4.1620  4.2820 -5.3493  4.1620  4.2820 
  1748.500 -32.849  4.3020  4.4140 -5.7338  4.3020  4.4140 
  1749.000 -33.787  4.4340  4.5260 -6.6753  4.4340  4.5260 
  1749.500 -34.724  4.5660  4.6110 -7.6157  4.5660  4.6110 
  1750.000 -36.998  4.7430  4.6950 -9.8932  4.7430  4.6950 
  1750.500 -37.479  4.9190  4.7440 -10.378  4.9190  4.7440 
  1751.000 -38.080  5.0600  4.7690 -10.982  5.0600  4.7690 
  1751.500 -39.557  5.2000  4.7860 -12.463  5.2000  4.7860 
  1752.000 -38.405  5.2730  4.7830 -11.314  5.2730  4.7830 
  1752.500 -37.253  5.2980  4.7800 -10.166  5.2980  4.7800 
  1753.000 -37.376  5.2710  4.7260 -10.292  5.2710  4.7260 
  1753.500 -37.499  5.2450  4.6790 -10.419  5.2450  4.6790 
  1754.000 -36.469  5.1660  4.6320 -9.3921  5.1660  4.6320 
  1754.500 -35.138  5.0990  4.5850 -8.0646  5.0990  4.5850 
  1755.000 -33.806  5.0320  4.5460 -6.7360  5.0320  4.5460 
  1755.500 -32.616  4.9570  4.5070 -5.5495  4.9570  4.5070 
  1756.000 -31.426  4.8820  4.4610 -4.3630  4.8820  4.4610 
  1756.500 -31.170  4.8130  4.4460 -4.1105  4.8130  4.4460 
  1757.000 -30.914  4.8130  4.4790 -3.8580  4.8130  4.4790 
  1757.500 -30.560  4.8270  4.5110 -3.5074  4.8270  4.5110 
  1758.000 -30.543  4.8420  4.5440 -3.4939  4.8420  4.5440 
  1758.500 -30.526  4.8560  4.6260 -3.4804  4.8560  4.6260 
  1759.000 -31.367  4.8980  4.6580 -4.3249  4.8980  4.6580 
  1759.500 -32.208  4.9100  4.6910 -5.1694  4.9100  4.6910 
  1760.000 -32.887  4.9230  4.7160 -5.8518  4.9230  4.7160 
  1760.500 -33.567  4.9480  4.7330 -6.5353  4.9480  4.7330 
  1761.000 -35.086  4.9660  4.7300 -8.0578  4.9660  4.7300 
  1761.500 -35.607  4.9620  4.7270 -8.5823  4.9620  4.7270 
  1762.000 -34.973  4.9590  4.7040 -7.9518  4.9590  4.7040 
  1762.500 -33.403  4.8640  4.6810 -6.3852  4.8640  4.6810 
  1763.000 -31.833  4.7700  4.5470 -4.8187  4.7700  4.5470 
  1763.500 -31.637  4.6200  4.4920 -4.6262  4.6200  4.4920 
  1764.000 -31.442  4.5210  4.3970 -4.4347  4.5210  4.3970 
  1764.500 -31.246  4.4220  4.3270 -4.2422  4.4220  4.3270 
  1765.000 -31.330  4.3710  4.3200 -4.3297  4.3710  4.3200 
  1765.500 -31.414  4.3200  4.3210 -4.4171  4.3200  4.3210 
  1766.000 -31.437  4.3530  4.3220 -4.4436  4.3530  4.3220 
  1766.500 -31.460  4.3870  4.3270 -4.4701  4.3870  4.3270 
  1767.000 -31.584  4.4200  4.3320 -4.5976  4.4200  4.3320 
  1767.500 -31.667  4.4840  4.3490 -4.6841  4.4840  4.3490 
  1768.000 -31.749  4.6130  4.3820 -4.7695  4.6130  4.3820 
  1768.500 -32.390  4.6780  4.4150 -5.4140  4.6780  4.4150 
  1769.000 -33.031  4.7420  4.4420 -6.0585  4.7420  4.4420 
  1769.500 -33.991  4.8030  4.4700 -7.0220  4.8030  4.4700 
  1770.000 -34.951  4.8640  4.4970 -7.9855  4.8640  4.4970 
  1770.500 -35.951  4.8730  4.5230 -8.9889  4.8730  4.5230 
  1771.000 -36.670  4.8820  4.5480 -9.7114  4.8820  4.5480 
  1771.500 -37.629  4.8360  4.5610 -10.674  4.8360  4.5610 
  1772.000 -37.633  4.7690  4.5730 -10.681  4.7690  4.5730 
  1772.500 -36.661  4.7020  4.5820 -9.7129  4.7020  4.5820 
  1773.000 -35.688  4.5510  4.5040 -8.7433  4.5510  4.5040 
  1773.500 -34.962  4.4010  4.4250 -8.0208  4.4010  4.4250 
  1774.000 -34.235  4.3020  4.2510 -7.2973  4.3020  4.2510 
  1774.500 -33.508  4.2040  4.1680 -6.5738  4.2040  4.1680 
  1775.000 -32.557  4.0930  4.0850 -5.6263  4.0930  4.0850 
  1775.500 -32.202  4.0710  4.0310 -5.2747  4.0710  4.0310 
  1776.000 -31.847  4.0480  3.9760 -4.9232  4.0480  3.9760 
  1776.500 -31.572  4.0530  3.9610 -4.6517  4.0530  3.9610 
