~Version Information
VERS.                     2.0: CWLS log ASCII Standard Version 2.00
WRAP.                      NO: One line per depth step
~Well Information Block
#MNEM.UNIT                               Data Type  Information
#---------                               ---------  -----------
STRT.FT                                   370.0000:
STOP.FT                                  6980.0000:
STEP.FT                                     0.5000:
NULL.                 -999.25                     :
COMP.                                             :COMPANY            
WELL.     KCL 13-X                                :WELL               
FLD .                                             :FIELD              
CTRY.                                             :COUNTRY            
STAT.                                             :STATE              
LOC .                                             :LOCATION           
UWI .                                             :UNIQUE WELL ID     
SRVC.                                             :Service company    
DATE.                                             :LOG DATE           
~Curve Information
#MNEM.UNIT           API CODE  Curve Description
#---------           --------  -----------------
DEPT.FT                      :   1 DEPTH
SP  .MV                      :   2
SN  .OHMM                    :   3
ILD .OHMM                    :   4
SBL .MV                      :   5
RS  .OHMM                    :   6
RD  .OHMM                    :   7
~A
# ...
  4725.000 -32.308  4.0020  3.5080 -10.149  4.0020  3.5080 
  4725.500 -31.558  4.1120  3.5310 -9.4006  4.1120  3.5310 
  4726.000 -31.092  4.3490  3.5540 -8.9364  4.3490  3.5540 
  4726.500 -34.523  4.4430  3.5870 -12.369  4.4430  3.5870 
  4727.000 -35.603  4.4890  3.6190 -13.451  4.4890  3.6190 
  4727.500 -36.884  4.4640  3.6520 -14.734  4.4640  3.6520 
  4728.000 -32.794  4.3710  3.6710 -10.645  4.3710  3.6710 
  4728.500 -29.739  4.2790  3.6900 -7.5922  4.2790  3.6900 
  4729.000 -28.790  3.9420  3.6360 -6.6450  3.9420  3.6360 
  4729.500 -28.570  3.7900  3.5830 -6.4268  3.7900  3.5830 
  4730.000 -28.351  3.7800  3.5020 -6.2095  3.7800  3.5020 
  4730.500 -28.131  3.7910  3.5320 -5.9913  3.7910  3.5320 
  4731.000 -27.389  3.8020  3.5630 -5.2511  3.8020  3.5630 
  4731.500 -26.877  3.8760  3.6400 -4.7408  3.8760  3.6400 
  4732.000 -27.045  3.9500  3.6830 -4.9106  3.9500  3.6830 
  4732.500 -27.926  4.3700  3.7250 -5.7934  4.3700  3.7250 
  4733.000 -30.045  4.5750  3.7600 -7.9141  4.5750  3.7600 
  4733.500 -31.403  4.6770  3.7940 -9.2739  4.6770  3.7940 
  4734.000 -34.315  4.7000  3.8170 -12.188  4.7000  3.8170 
  4734.500 -35.874  4.7220  3.8070 -13.748  4.7220  3.8070 
  4735.000 -36.957  4.7440  3.7460 -14.833  4.7440  3.7460 
  4735.500 -36.488  4.6080  3.6850 -14.366  4.6080  3.6850 
  4736.000 -34.823  4.2240  3.6040 -12.703  4.2240  3.6040 
  4736.500 -32.403  4.0160  3.5390 -10.285  4.0160  3.5390 
  4737.000 -30.023  3.8040  3.4740 -7.9063  3.8040  3.4740 
  4737.500 -29.273  3.5920  3.4410 -7.1581  3.5920  3.4410 
  4738.000 -28.523  3.4950  3.4080 -6.4098  3.4950  3.4080 
  4738.500 -28.055  3.4780  3.4160 -5.9436  3.4780  3.4160 
  4739.000 -28.082  3.4610  3.4250 -5.9724  3.4610  3.4250 
  4739.500 -28.109  3.4640  3.4330 -6.0011  3.4640  3.4330 
  4740.000 -28.117  3.4680  3.4420 -6.0109  3.4680  3.4420 
  4740.500 -28.124  3.4720  3.4710 -6.0197  3.4720  3.4710 
  4741.000 -28.074  3.5050  3.4820 -5.9714  3.5050  3.4820 
  4741.500 -28.023  3.5380  3.4930 -5.9222  3.5380  3.4930 
  4742.000 -27.831  3.5710  3.5030 -5.7320  3.5710  3.5030 
  4742.500 -27.639  3.6180  3.5140 -5.5417  3.6180  3.5140 
  4743.000 -27.428  3.6640  3.5120 -5.3325  3.6640  3.5120 
  4743.500 -27.217  3.7820  3.5230 -5.1233  3.7820  3.5230 
  4744.000 -27.185  3.8990  3.5340 -5.0930  3.8990  3.5340 
  4744.500 -27.310  4.0170  3.5400 -5.2198  4.0170  3.5400 
  4745.000 -27.812  4.2780  3.5470 -5.7236  4.2780  3.5470 
  4745.500 -28.315  4.5390  3.5530 -6.2284  4.5390  3.5530 
  4746.000 -33.740  5.2460  3.5720 -11.655  5.2460  3.5720 
  4746.500 -38.602  6.0880  3.5900 -16.519  6.0880  3.5900 
  4747.000 -43.026  6.8500  3.5960 -20.945  6.8500  3.5960 
  4747.500 -49.080  7.5090  3.6030 -27.000  7.5090  3.6030 
  4748.000 -58.559  7.7940  3.5620 -36.481  7.7940  3.5620 
  4748.500 -64.259  8.0800  3.5320 -42.183  8.0800  3.5320 
  4749.000 -69.996  8.3010  3.5030 -47.922  8.3010  3.5030 
  4749.500 -72.151  8.5220  3.4900 -50.078  8.5220  3.4900 
  4750.000 -73.034  8.5840  3.4770 -50.963  8.5840  3.4770 
  4750.500 -73.560  8.6220  3.5150 -51.491  8.6220  3.5150 
  4751.000 -74.924  8.7880  3.5530 -52.857  8.7880  3.5530 
  4751.500 -75.368  8.9450  3.5910 -53.303  8.9450  3.5910 
  4752.000 -75.857  9.1030  3.6290 -53.793  9.1030  3.6290 
  4752.500 -75.088  9.3710  3.6670 -53.026  9.3710  3.6670 
  4753.000 -74.318  9.3060  3.6820 -52.258  9.3060  3.6820 
  4753.500 -69.794  9.1850  3.6960 -47.736  9.1850  3.6960 
  4754.000 -66.819  8.9290  3.7140 -44.762  8.9290  3.7140 
  4754.500 -65.116  8.9040  3.7320 -43.061  8.9040  3.7320 
  4755.000 -64.908  8.8780  3.7230 -42.855  8.8780  3.7230 
  4755.500 -64.700  8.8650  3.7130 -42.649  8.8650  3.7130 
  4756.000 -64.528  8.8510  3.6400 -42.478  8.8510  3.6400 
  4756.500 -64.357  8.8260  3.5670 -42.309  8.8260  3.5670 
  4757.000 -61.583  8.2990  3.5100 -39.537  8.2990  3.5100 
  4757.500 -57.690  7.1990  3.4690 -35.646  7.1990  3.4690 
  4758.000 -52.288  5.6230  3.4280 -30.246  5.6230  3.4280 
  4758.500 -47.680  4.8730  3.3920 -25.639  4.8730  3.3920 
  4759.000 -39.452  4.1400  3.3550 -17.413  4.1400  3.3550 
  4759.500 -32.259  3.8120  3.3190 -10.222  3.8120  3.3190 
  4760.000 -29.522  3.7230  3.2770 -7.4866  3.7230  3.2770 
  4760.500 -28.196  3.7450  3.3180 -6.1624  3.7450  3.3180 
  4761.000 -26.870  3.7680  3.3600 -4.8382  3.7680  3.3600 
  4761.500 -27.003  3.7900  3.4010 -4.9729  3.7900  3.4010 
  4762.000 -27.530  3.8130  3.4430 -5.5017  3.8130  3.4430 
  4762.500 -28.056  4.0170  3.4850 -6.0295  4.0170  3.4850 
  4763.000 -28.183  3.9760  3.4790 -6.1582  3.9760  3.4790 
  4763.500 -28.309  3.9350  3.4730 -6.2860  3.9350  3.4730 
  4764.000 -28.060  3.8900  3.4640 -6.0388  3.8900  3.4640 
  4764.500 -27.811  3.8440  3.4550 -5.7915  3.8440  3.4550 
  4765.000 -27.386  3.9060  3.5060 -5.3683  3.9060  3.5060 
  4765.500 -27.274  3.9830  3.5570 -5.2581  3.9830  3.5570 
  4766.000 -27.322  4.0700  3.6090 -5.3079  4.0700  3.6090 
  4766.500 -27.389  4.2220  3.6490 -5.3766  4.2220  3.6490 
  4767.000 -27.457  4.3750  3.6900 -5.4464  4.3750  3.6900 
  4767.500 -27.907  4.5270  3.7310 -5.8982  4.5270  3.7310 
  4768.000 -30.105  4.7950  3.7500 -8.0979  4.7950  3.7500 
  4768.500 -33.455  5.0400  3.7680 -11.450  5.0400  3.7680 
  4769.000 -38.122  5.3410  3.7990 -16.118  5.3410  3.7990 
  4769.500 -40.996  5.8170  3.8290 -18.994  5.8170  3.8290 
  4770.000 -43.670  6.0940  3.8590 -21.670  6.0940  3.8590 
  4770.500 -45.828  6.2670  3.8810 -23.830  6.2670  3.8810 
  4771.000 -47.588  6.3330  3.9020 -25.592  6.3330  3.9020 
  4771.500 -48.750  6.4000  3.9010 -26.755  6.4000  3.9010 
  4772.000 -49.715  6.5410  3.8960 -27.722  6.5410  3.8960 
  4772.500 -50.600  6.6030  3.8900 -28.609  6.6030  3.8900 
  4773.000 -50.807  6.6650  3.8800 -28.818  6.6650  3.8800 
  4773.500 -50.318  6.7870  3.8290 -28.330  6.7870  3.8290 
  4774.000 -49.829  6.9090  3.7770 -27.843  6.9090  3.7770 
  4774.500 -48.925  7.1130  3.7250 -26.941  7.1130  3.7250 
  4775.000 -49.093  7.1910  3.6430 -27.111  7.1910  3.6430 
  4775.500 -50.255  7.2140  3.6260 -28.274  7.2140  3.6260 
  4776.000 -52.812  7.2360  3.6090 -30.833  7.2360  3.6090 
  4776.500 -53.854  7.2590  3.6290 -31.877  7.2590  3.6290 
  4777.000 -54.896  7.3250  3.6480 -32.921  7.3250  3.6480 
  4777.500 -55.882  7.3910  3.6680 -33.909  7.3910  3.6680 
  4778.000 -56.867  7.6030  3.7060 -34.895  7.6030  3.7060 
  4778.500 -57.411  7.6970  3.7440 -35.441  7.6970  3.7440 
  4779.000 -57.956  7.7920  3.7540 -35.988  7.7920  3.7540 
  4779.500 -58.442  7.8340  3.7650 -36.476  7.8340  3.7650 
  4780.000 -58.929  7.8770  3.7700 -36.964  7.8770  3.7700 
  4780.500 -57.548  7.6270  3.7690 -35.585  7.6270  3.7690 
  4781.000 -53.819  6.6000  3.7680 -31.858  6.6000  3.7680 
  4781.500 -50.245  5.9140  3.7470 -28.286  5.9140  3.7470 
  4782.000 -45.398  5.6180  3.7250 -23.440  5.6180  3.7250 
  4782.500 -36.414  5.3060  3.7040 -14.458  5.3060  3.7040 
  4783.000 -35.189  4.8830  3.6820 -13.235  4.8830  3.6820 
  4783.500 -33.964  4.5310  3.6690 -12.012  4.5310  3.6690 
  4784.000 -33.517  4.3620  3.6550 -11.567  4.3620  3.6550 
  4784.500 -33.069  4.2810  3.6540 -11.120  4.2810  3.6540 
  4785.000 -32.005  4.2640  3.6520 -10.058  4.2640  3.6520 
  4785.500 -31.017  4.2940  3.6470 -9.0718  4.2940  3.6470 
  4786.000 -29.474  4.3250  3.6410 -7.5306  4.3250  3.6410 
  4786.500 -28.251  4.3790  3.6390 -6.3094  4.3790  3.6390 
  4787.000 -28.020  4.4330  3.6380 -6.0801  4.4330  3.6380 
  4787.500 -27.992  4.4870  3.6430 -6.0539  4.4870  3.6430 
  4788.000 -28.039  4.5880  3.6620 -6.1027  4.5880  3.6620 
  4788.500 -28.127  4.6830  3.6800 -6.1924  4.6830  3.6800 
  4789.000 -28.414  4.7770  3.7230 -6.4812  4.7770  3.7230 
  4789.500 -33.876  5.5060  3.7650 -11.945  5.5060  3.7650 
  4790.000 -37.823  5.7720  3.8070 -15.894  5.7720  3.8070 
  4790.500 -42.688  6.0370  3.8490 -20.761  6.0370  3.8490 
  4791.000 -45.919  6.6630  3.9020 -23.993  6.6630  3.9020 
  4791.500 -48.873  6.7010  3.9120 -26.949  6.7010  3.9120 
