~Version Information
VERS.                     2.0: CWLS log ASCII Standard Version 2.00
WRAP.                      NO: One line per depth step
~Well Information Block
#MNEM.UNIT                               Data Type  Information
#---------                               ---------  -----------
STRT.FT                                   360.0000:
STOP.FT                                  7920.0000:
STEP.FT                                     0.5000:
NULL.                 -999.25                     :
COMP.                                             :COMPANY            
WELL.     KCL 12-27                               :WELL               
FLD .                                             :FIELD              
CTRY.                                             :COUNTRY            
STAT.                                             :STATE              
LOC .                                             :LOCATION           
UWI .                                             :UNIQUE WELL ID     
SRVC.                                             :Service company    
DATE.                                             :LOG DATE           
~Curve Information
#MNEM.UNIT           API CODE  Curve Description
#---------           --------  -----------------
DEPT.FT                      :   1 DEPTH
SP  .MV                      :   2
DT  .US/F                    :   3
SP  .MV                      :   4
SN  .OHMM                    :   5
LN  .OHMM                    :   6
SBL .MV                      :   7
RS  .OHMM                    :   8
RD  .OHMM                    :   9
DTS .US/F                    :  10
SPS .MV                      :  11
~A
# ...
  7407.000 -27.884  103.56 -25.161  2.0870  1.6180 -8.8664  2.0870  1.6180  103.59 -27.960 
  7407.500 -28.152  103.65 -25.886  2.1230  1.7620 -9.6015  2.1230  1.7620  103.25 -28.455 
  7408.000 -29.234  102.21 -26.431  2.2670  1.9060 -10.157  2.2670  1.9060  101.69 -29.383 
  7408.500 -29.773  100.32 -27.517  2.3740  2.0140 -11.253  2.3740  2.0140  97.172 -30.117 
  7409.000 -31.035  88.774 -28.966  2.5540  2.0850 -12.712  2.5540  2.0850  88.193 -31.956 
  7409.500 -34.467  86.610 -30.414  2.7340  2.1930 -14.170  2.7340  2.1930  85.990 -35.279 
  7410.000 -37.536  84.265 -36.022  2.9140  2.1930 -19.788  2.9140  2.1930  84.101 -37.959 
  7410.500 -39.160  83.634 -38.375  3.2030  2.2290 -22.151  3.2030  2.2290  83.981 -39.531 
  7411.000 -40.603  84.986 -39.100  3.2380  2.2280 -22.886  3.2380  2.2280  86.218 -40.785 
  7411.500 -41.323  89.856 -38.559  3.2020  2.2460 -22.355  3.2020  2.2460  91.293 -40.917 
  7412.000 -39.694  95.627 -36.029  3.1650  2.2640 -19.835  3.1650  2.2640  96.091 -38.763 
  7412.500 -35.896  97.520 -33.319  2.9850  2.2270 -17.135  2.9850  2.2270  97.738 -35.503 
  7413.000 -34.267  98.422 -30.970  2.8760  2.1190 -14.796  2.8760  2.1190  98.786 -33.966 
  7413.500 -32.999  99.955 -30.610  2.8040  2.0820 -14.446  2.8040  2.0820  99.892 -32.914 
  7414.000 -32.635  99.684 -30.250  2.7310  1.9740 -14.096  2.7310  1.9740  98.401 -33.008 
  7414.500 -34.259  94.094 -30.252  2.6590  1.9730 -14.108  2.6590  1.9730  93.606 -34.054 
  7415.000 -33.352  91.930 -30.073  2.5500  1.9550 -13.939  2.5500  1.9550  91.870 -32.991 
  7415.500 -31.723  91.659 -30.165  2.5140  1.9370 -14.041  2.5140  1.9370  91.590 -31.486 
  7416.000 -30.636  91.344 -30.257  2.4950  1.9720 -14.143  2.4950  1.9720  91.276 -30.752 
  7416.500 -31.176  91.028 -30.259  2.4770  1.9720 -14.155  2.4770  1.9720  91.388 -31.327 
  7417.000 -31.896  92.741 -30.260  2.4760  1.9720 -14.166  2.4760  1.9720  93.894 -31.970 
  7417.500 -32.254  98.332 -30.624  2.4760  1.9890 -14.540  2.4760  1.9890  99.043 -32.235 
  7418.000 -32.161  101.85 -30.807  2.4940  2.0070 -14.733  2.4940  2.0070  101.69 -32.143 
  7418.500 -32.068  101.04 -30.809  2.5110  2.0430 -14.745  2.5110  2.0430  100.83 -32.138 
  7419.000 -32.427  99.955 -30.087  2.5830  2.0780 -14.033  2.5830  2.0780  99.594 -32.530 
  7419.500 -32.967  98.061 -29.546  2.6190  2.1140 -13.502  2.6190  2.1140  97.556 -33.203 
  7420.000 -34.229  95.356 -28.825  2.6550  2.1320 -12.792  2.6550  2.1320  94.861 -33.766 
  7420.500 -31.696  92.651 -27.923  2.7260  2.1490 -11.900  2.7260  2.1490  91.731 -31.647 
  7421.000 -31.422  87.511 -27.924  2.7260  2.1490 -11.911  2.7260  2.1490  87.479 -31.374 
  7421.500 -31.148  87.331 -27.926  2.7260  2.1490 -11.923  2.7260  2.1490  87.501 -31.148 
  7422.000 -31.146  88.323 -27.928  2.7250  2.1120 -11.935  2.7250  2.1120  88.776 -31.176 
  7422.500 -31.324  91.028 -27.749  2.7250  2.0580 -11.766  2.7250  2.0580  91.205 -31.383 
  7423.000 -31.682  92.110 -27.569  2.6520  2.0030 -11.596  2.6520  2.0030  92.355 -31.682 
  7423.500 -31.680  93.643 -27.029  2.6160  1.9670 -11.066  2.6160  1.9670  93.882 -31.623 
  7424.000 -31.316  95.176 -26.308  2.5440  1.9300 -10.355  2.5440  1.9300  95.299 -31.261 
  7424.500 -30.951  95.987 -24.863  2.4710  1.8760 -8.9199  2.4710  1.8760  95.734 -30.817 
  7425.000 -30.045  94.274 -23.960  2.3980  1.8210 -8.0269  2.3980  1.8210  94.053 -29.810 
  7425.500 -28.416  92.741 -23.962  2.3800  1.7490 -8.0390  2.3800  1.7490  92.690 -28.162 
  7426.000 -26.606  92.380 -23.964  2.3620  1.7490 -8.0510  2.3620  1.7490  92.429 -26.606 
  7426.500 -26.603  92.741 -25.051  2.3970  1.7480 -9.1481  2.3970  1.7480  93.159 -26.603 
  7427.000 -26.601  95.897 -26.499  2.5050  1.7840 -10.606  2.5050  1.7840  96.360 -26.601 
  7427.500 -26.598  99.504 -30.299  2.6850  1.8200 -14.416  2.6850  1.8200  99.639 -26.733 
  7428.000 -27.679  100.59 -34.460  3.4780  1.8910 -18.587  3.4780  1.8910  99.749 -27.897 
  7428.500 -29.484  93.643 -38.801  4.1270  1.9630 -22.938  4.1270  1.9630  93.601 -29.758 
  7429.000 -31.831  93.282 -41.696  4.6320  2.1790 -25.843  4.6320  2.1790  93.028 -32.157 
  7429.500 -34.720  91.028 -59.420  5.2810  2.2870 -43.577  5.2810  2.2870  90.242 -37.594 
  7430.000 -61.102  83.814 -65.027  5.7850  2.3950 -49.194  5.7850  2.3950  83.520 -61.349 
  7430.500 -63.449  81.019 -65.933  6.1460  2.5030 -50.110  6.1460  2.5030  80.517 -63.650 
  7431.000 -65.434  76.059 -66.297  6.0370  2.5270 -50.484  6.0370  2.5270  76.182 -65.574 
  7431.500 -66.877  77.322 -64.490  5.9650  2.5500 -48.687  5.9650  2.5500  77.343 -66.849 
  7432.000 -64.525  79.125 -57.439  5.8560  2.5740 -41.647  5.8560  2.5740  79.196 -64.448 
  7432.500 -61.270  82.101 -54.548  5.5310  2.5920 -38.766  5.5310  2.5920  82.184 -61.141 
  7433.000 -57.652  84.445 -50.933  5.0620  2.6090 -35.161  5.0620  2.6090  84.856 -57.463 
  7433.500 -53.674  93.102 -48.042  4.6290  2.6090 -32.280  4.6290  2.6090  93.166 -53.492 
  7434.000 -50.599  94.184 -46.054  4.2320  2.5900 -30.302  4.2320  2.5900  94.216 -50.264 
  7434.500 -45.897  94.635 -42.259  4.0150  2.5720 -26.517  4.0150  2.5720  94.440 -45.687 
  7435.000 -43.364  92.290 -35.389  3.9060  2.5720 -19.657  3.9060  2.5720  92.205 -42.901 
  7435.500 -38.482  91.389 -33.040  3.7980  2.5710 -17.318  3.7980  2.5710  91.456 -38.308 
  7436.000 -36.853  92.020 -34.488  3.8330  2.5710 -18.776  3.8330  2.5710  92.212 -36.724 
  7436.500 -35.766  93.643 -35.123  3.8690  2.5890 -19.421  3.8690  2.5890  93.725 -36.001 
  7437.000 -37.570  94.274 -35.757  3.9050  2.6060 -20.065  3.9050  2.6060  94.236 -37.878 
  7437.500 -39.736  94.004 -36.845  3.9400  2.5700 -21.163  3.9400  2.5700  94.240 -39.847 
  7438.000 -40.457  95.536 -34.496  3.8680  2.5690 -18.824  3.8680  2.5690  95.955 -40.577 
  7438.500 -41.177  98.061 -31.423  3.7230  2.5690 -15.761  3.7230  2.5690  98.173 -41.209 
  7439.000 -41.355  98.692 -29.617  3.5790  2.5330 -13.965  3.5790  2.5330  97.974 -40.463 
  7439.500 -36.653  94.905 -27.991  3.5060  2.4960 -12.349  3.5060  2.4960  93.651 -35.487 
  7440.000 -30.867  88.683 -24.919  3.4340  2.4960 -9.2872  3.4340  2.4960  88.462 -30.249 
  7440.500 -27.973  87.647 -24.559  3.3970  2.4590 -8.9372  3.3970  2.4590  87.413 -27.565 
  7441.000 -26.163  86.610 -25.465  3.3970  2.4230 -9.8533  3.3970  2.4230  85.541 -26.248 
  7441.500 -26.522  82.101 -26.370  3.3970  2.3870 -10.768  3.3970  2.3870  81.742 -26.881 
  7442.000 -27.965  80.658 -29.266  3.4500  2.4220 -13.674  3.4500  2.4220  81.411 -28.813 
  7442.500 -31.215  83.544 -36.863  3.5040  2.4580 -21.281  3.5040  2.4580  84.134 -33.038 
  7443.000 -37.899  85.708 -40.843  3.8280  2.5120 -25.271  3.8280  2.5120  87.556 -40.573 
  7443.500 -47.294  92.200 -42.110  3.7920  2.5660 -26.548  3.7920  2.5660  92.895 -47.615 
  7444.000 -48.376  94.545 -42.836  3.6470  2.8900 -27.285  3.6470  2.8900  94.712 -48.431 
  7444.500 -48.554  95.086 -38.317  3.8630  2.9620 -22.776  3.8630  2.9620  94.682 -47.165 
  7445.000 -44.214  93.823 -32.532  4.1880  3.1050 -17.001  4.1880  3.1050  93.494 -39.953 
  7445.500 -31.380  92.831 -31.629  4.4040  3.1770 -16.108  4.4040  3.1770  92.397 -31.503 
  7446.000 -31.739  91.569 -32.716  4.4030  3.3930 -17.205  4.4030  3.3930  89.067 -31.866 
  7446.500 -32.097  84.536 -33.803  4.4570  3.4290 -18.302  4.4570  3.4290  81.122 -32.694 
  7447.000 -33.721  75.248 -35.251  4.5110  3.3930 -19.760  4.5110  3.3930  75.659 -34.406 
  7447.500 -35.526  76.330 -35.253  4.3120  3.3560 -19.772  4.3120  3.3560  77.283 -36.020 
  7448.000 -36.788  78.765 -33.989  4.1130  3.2480 -18.518  4.1130  3.2480  79.892 -36.641 
  7448.500 -36.424  81.560 -31.098  3.8960  3.1390 -15.637  3.8960  3.1390  81.897 -34.923 
  7449.000 -32.807  82.371 -27.483  3.5350  2.7420 -12.032  3.5350  2.7420  82.833 -31.957 
  7449.500 -30.816  83.454 -26.038  3.2470  2.3810 -10.597  3.2470  2.3810  87.568 -30.497 
  7450.000 -30.090  92.831 -25.497  3.0300  2.1280 -10.066  3.0300  2.1280  92.547 -30.252 
