~Version Information
VERS.                     2.0: CWLS log ASCII Standard Version 2.00
WRAP.                      NO: One line per depth step
~Well Information Block
#MNEM.UNIT                               Data Type  Information
#---------                               ---------  -----------
STRT.FT                                   360.0000:
STOP.FT                                  7920.0000:
STEP.FT                                     0.5000:
NULL.                 -999.25                     :
COMP.                                             :COMPANY            
WELL.     KCL 12-27                               :WELL               
FLD .                                             :FIELD              
CTRY.                                             :COUNTRY            
STAT.                                             :STATE              
LOC .                                             :LOCATION           
UWI .                                             :UNIQUE WELL ID     
SRVC.                                             :Service company    
DATE.                                             :LOG DATE           
~Curve Information
#MNEM.UNIT           API CODE  Curve Description
#---------           --------  -----------------
DEPT.FT                      :   1 DEPTH
SP  .MV                      :   2
DT  .US/F                    :   3
SP  .MV                      :   4
SN  .OHMM                    :   5
LN  .OHMM                    :   6
SBL .MV                      :   7
RS  .OHMM                    :   8
RD  .OHMM                    :   9
DTS .US/F                    :  10
SPS .MV                      :  11
~A
# ...
  6885.000 -37.048  99.247 -28.879  2.2620  1.7570 -6.9504  2.2620  1.7570  94.918 -32.711 
  6885.500 -30.542  97.714 -28.426  2.2270  1.7940 -6.5003  2.2270  1.7940  95.729 -34.157 
  6886.000 -32.711  94.918 -27.700  2.2090  1.7940 -5.7771  2.2090  1.7940  96.720 -33.795 
  6886.500 -34.157  95.729 -27.337  2.1910  1.7950 -5.4170  2.1910  1.7950  98.163 -29.819 
  6887.000 -33.795  96.720 -26.974  2.1560  1.7950 -5.0569  2.1560  1.7950  101.23 -27.470 
  6887.500 -29.819  98.163 -26.972  2.1200  1.7590 -5.0577  2.1200  1.7590  103.21 -26.747 
  6888.000 -27.470  101.23 -27.151  2.0480  1.7600 -5.2396  2.0480  1.7600  104.56 -27.018 
  6888.500 -26.747  103.21 -27.510  2.0490  1.7600 -5.6014  2.0490  1.7600  106.37 -27.289 
  6889.000 -27.018  104.56 -27.689  2.0490  1.7240 -5.7833  2.0490  1.7240  104.20 -27.651 
  6889.500 -27.289  106.37 -28.230  2.0860  1.7250 -6.3271  2.0860  1.7250  102.49 -27.651 
  6890.000 -27.651  104.20 -28.770  2.1220  1.7250 -6.8700  2.1220  1.7250  101.95 -28.193 
  6890.500 -27.651  102.49 -29.130  2.1220  1.7250 -7.2329  2.1220  1.7250  102.58 -29.819 
  6891.000 -28.193  101.95 -29.219  2.1230  1.7260 -7.3247  2.1230  1.7260  103.30 -33.434 
  6891.500 -29.819  102.58 -29.308  2.1590  1.7260 -7.4166  2.1590  1.7260  100.05 -31.988 
  6892.000 -33.434  103.30 -29.666  2.1960  1.7260 -7.7774  2.1960  1.7260  100.50 -28.373 
  6892.500 -31.988  100.05 -29.845  2.2320  1.7630 -7.9593  2.2320  1.7630  102.13 -27.831 
  6893.000 -28.373  100.50 -30.024  2.2680  1.7990 -8.1411  2.2680  1.7990  100.59 -29.096 
  6893.500 -27.831  102.13 -30.204  2.3050  1.8720 -8.3240  2.3050  1.8720  99.419 -32.349 
  6894.000 -29.096  100.59 -30.383  2.4500  1.9440 -8.5059  2.4500  1.9440  99.058 -31.084 
  6894.500 -32.349  99.419 -30.922  2.6300  1.9810 -9.0477  2.6300  1.9810  98.606 -30.361 
  6895.000 -31.084  99.058 -31.282  2.6490  2.0890 -9.4106  2.6490  2.0890  96.983 -29.096 
  6895.500 -30.361  98.606 -31.552  2.6670  2.1260 -9.6834  2.6670  2.1260  94.548 -27.470 
  6896.000 -29.096  96.983 -31.822  2.6310  2.1260 -9.9563  2.6310  2.1260  92.834 -27.289 
  6896.500 -27.470  94.548 -32.361  2.5960  2.0910 -10.498  2.5960  2.0910  92.834 -27.560 
  6897.000 -27.289  92.834 -32.540  2.5600  2.0910 -10.680  2.5600  2.0910  92.833 -27.831 
  6897.500 -27.560  92.834 -32.719  2.5060  2.0910 -10.862  2.5060  2.0910  91.390 -28.373 
  6898.000 -27.831  92.833 -32.989  2.4520  2.0920 -11.135  2.4520  2.0920  92.381 -28.554 
  6898.500 -28.373  91.390 -33.259  2.4170  2.0560 -11.408  2.4170  2.0560  96.890 -29.277 
  6899.000 -28.554  92.381 -33.256  2.3990  2.0200 -11.407  2.3990  2.0200  98.512 -35.422 
  6899.500 -29.277  96.890 -33.073  2.3810  1.9840 -11.227  2.3810  1.9840  99.504 -37.228 
  6900.000 -35.422  98.512 -32.891  2.2730  1.9490 -11.048  2.2730  1.9490  100.95 -32.890 
  6900.500 -37.228  99.504 -32.705  2.2020  1.8770 -10.865  2.2020  1.8770  102.48 -31.082 
  6901.000 -32.890  100.95 -32.520  2.1660  1.8420 -10.683  2.1660  1.8420  103.29 -34.876 
  6901.500 -31.082  102.48 -32.697  2.1670  1.8060 -10.863  2.1670  1.8060  103.92 -35.417 
  6902.000 -34.876  103.29 -32.874  2.2400  1.7350 -11.043  2.2400  1.7350  104.37 -38.850 
  6902.500 -35.417  103.92 -32.779  2.2770  1.6990 -10.950  2.2770  1.6990  105.64 -41.741 
  6903.000 -38.850  104.37 -32.684  2.3130  1.7000 -10.858  2.3130  1.7000  104.01 -33.426 
  6903.500 -41.741  105.64 -32.317  2.3860  1.7000 -10.494  2.3860  1.7000  102.66 -28.907 
  6904.000 -33.426  104.01 -31.951  2.3870  1.7190 -10.131  2.3870  1.7190  100.14 -29.991 
  6904.500 -28.907  102.66 -31.856  2.3330  1.7380 -10.039  2.3330  1.7380  98.783 -32.159 
  6905.000 -29.991  100.14 -31.762  2.2800  1.7750 -9.9477  2.2800  1.7750  97.881 -32.881 
  6905.500 -32.159  98.783 -31.667  2.2080  1.7750 -9.8556  2.2080  1.7750  98.061 -29.807 
  6906.000 -32.881  97.881 -31.572  2.1370  1.7760 -9.7634  2.1370  1.7760  99.234 -26.734 
  6906.500 -29.807  98.061 -31.205  2.1370  1.7400 -9.3993  2.1370  1.7400  101.22 -27.095 
  6907.000 -26.734  99.234 -31.020  2.1380  1.7050 -9.2171  2.1380  1.7050  103.65 -27.094 
  6907.500 -27.095  101.22 -30.835  2.1380  1.6690 -9.0350  2.1380  1.6690  104.37 -27.093 
  6908.000 -27.094  103.65 -30.469  2.1390  1.6340 -8.6719  2.1390  1.6340  103.83 -26.911 
  6908.500 -27.093  104.37 -30.283  2.1400  1.6340 -8.4887  2.1400  1.6340  105.18 -26.730 
  6909.000 -26.911  103.83 -30.098  2.1410  1.6350 -8.3066  2.1410  1.6350  107.89 -26.548 
  6909.500 -26.730  105.18 -30.004  2.1770  1.6000 -8.2154  2.1770  1.6000  107.08 -26.005 
  6910.000 -26.548  107.89 -29.910  2.2140  1.6000 -8.1243  2.2140  1.6000  108.25 -25.281 
  6910.500 -26.005  107.08 -29.905  2.2510  1.6370 -8.1221  2.2510  1.6370  109.06 -25.280 
  6911.000 -25.281  108.25 -29.901  2.2870  1.7460 -8.1210  2.2870  1.7460  106.72 -25.279 
  6911.500 -25.280  109.06 -29.896  2.3240  1.8550 -8.1189  2.3240  1.8550  103.92 -25.279 
  6912.000 -25.279  106.72 -29.892  2.4690  1.9280 -8.1177  2.4690  1.9280  103.20 -25.458 
  6912.500 -25.279  103.92 -29.888  2.5420  2.1090 -8.1166  2.5420  2.1090  102.21 -25.638 
  6913.000 -25.458  103.20 -30.063  2.6510  2.2900 -8.2944  2.6510  2.2900  100.59 -29.432 
  6913.500 -25.638  102.21 -30.239  2.9400  2.6510 -8.4733  2.9400  2.6510  98.692 -31.781 
  6914.000 -29.432  100.59 -30.326  3.2290  3.2650 -8.5631  3.2290  3.2650  96.528 -27.804 
  6914.500 -31.781  98.692 -30.412  3.3740  3.8430 -8.6520  3.3740  3.8430  94.004 -25.273 
  6915.000 -27.804  96.528 -31.131  4.0240  5.0710 -9.3739  4.0240  5.0710  90.577 -25.272 
  6915.500 -25.273  94.004 -31.849  5.0720  5.6130 -10.095  5.0720  5.6130  87.692 -25.813 
  6916.000 -25.272  90.577 -32.747  5.3610  6.1550 -10.996  5.3610  6.1550  83.904 -26.535 
  6916.500 -25.813  87.692 -33.917  7.7430  6.9490 -12.168  7.7430  6.9490  82.191 -31.053 
  6917.000 -26.535  83.904 -35.088  8.6460  7.2030 -13.342  8.6460  7.2030  76.420 -32.678 
  6917.500 -31.053  82.191 -37.974  9.0070  7.9250 -16.231  9.0070  7.9250  73.354 -34.846 
  6918.000 -32.678  76.420 -38.873  9.3330  8.7550 -17.133  9.3330  8.7550  70.830 -37.375 
  6918.500 -34.846  73.354 -39.772  9.6940  8.6480 -18.035  9.6940  8.6480  70.583 -38.807 
  6919.000 -37.375  70.830 -39.044  9.1170  8.2150 -17.310  9.1170  8.2150  74.706 -36.651 
  6919.500 -38.820  70.559 -38.859  8.9020  7.3500 -17.128  8.9020  7.3500  74.650 -36.650 
  6920.000 -36.651  74.707 -38.132  7.7840  6.5930 -16.403  7.7840  6.5930  76.572 -36.657 
  6920.500 -36.650  74.617 -37.947  6.6290  6.0520 -16.221  6.6290  6.0520  79.202 -37.041 
  6921.000 -36.649  76.510 -36.858  5.4390  4.8980 -15.135  5.4390  4.8980  81.804 -38.157 
  6921.500 -37.009  79.125 -36.131  4.5380  3.9610 -14.411  4.5380  3.9610  83.611 -39.988 
  6922.000 -38.093  81.740 -35.404  4.1780  3.3840 -13.687  4.1780  3.3840  85.239 -41.939 
  6922.500 -39.899  83.544 -32.868  3.8540  2.9510 -11.154  3.8540  2.9510  86.757 -39.115 
  6923.000 -42.067  85.167 -32.141  3.6380  2.8440 -10.430  3.6380  2.8440  87.915 -35.060 
  6923.500 -39.355  86.700 -32.318  3.5840  2.8080 -10.609  3.5840  2.8080  90.238 -38.196 
  6924.000 -34.836  87.782 -32.495  3.5300  2.7730 -10.789  3.5300  2.7730  93.367 -31.968 
  6924.500 -38.630  90.036 -33.031  3.5670  2.8100 -11.328  3.5670  2.8100  96.362 -32.345 
  6925.000 -31.943  93.147 -33.569  3.6040  2.8460 -11.869  3.6040  2.8460  97.863 -32.890 
  6925.500 -32.303  96.258 -34.287  3.7490  2.8830 -12.590  3.7490  2.8830  100.62 -33.418 
  6926.000 -32.845  97.610 -34.644  3.7860  2.8840 -12.950  3.7860  2.8840  99.866 -33.814 
  6926.500 -33.386  100.68 -35.002  3.7500  2.8840 -13.311  3.7500  2.8840  97.790 -34.522 
  6927.000 -33.746  100.04 -35.719  3.7150  2.8850 -14.030  3.7150  2.8850  94.287 -34.971 
  6927.500 -34.468  98.151 -35.625  3.6790  2.8860 -13.939  3.6790  2.8860  91.928 -34.546 
  6928.000 -35.010  94.545 -35.531  3.5720  2.8500 -13.848  3.5720  2.8500  90.189 -33.551 
