~Version Information
VERS.                     2.0: CWLS log ASCII Standard Version 2.00
WRAP.                      NO: One line per depth step
~Well Information Block
#MNEM.UNIT                               Data Type  Information
#---------                               ---------  -----------
STRT.FT                                   360.0000:
STOP.FT                                  7920.0000:
STEP.FT                                     0.5000:
NULL.                 -999.25                     :
COMP.                                             :COMPANY            
WELL.     KCL 12-27                               :WELL               
FLD .                                             :FIELD              
CTRY.                                             :COUNTRY            
STAT.                                             :STATE              
LOC .                                             :LOCATION           
UWI .                                             :UNIQUE WELL ID     
SRVC.                                             :Service company    
DATE.                                             :LOG DATE           
~Curve Information
#MNEM.UNIT           API CODE  Curve Description
#---------           --------  -----------------
DEPT.FT                      :   1 DEPTH
SP  .MV                      :   2
DT  .US/F                    :   3
SP  .MV                      :   4
SN  .OHMM                    :   5
LN  .OHMM                    :   6
SBL .MV                      :   7
RS  .OHMM                    :   8
RD  .OHMM                    :   9
DTS .US/F                    :  10
SPS .MV                      :  11
~A
# ...
  1404.000 -999.25 -999.25 -42.049  8.9270  7.8790 -22.049  8.9270  7.8790 -999.25 -999.25 
  1404.500 -999.25 -999.25 -43.502  9.0530  8.0580 -23.502  9.0530  8.0580 -999.25 -999.25 
  1405.000 -999.25 -999.25 -44.593  9.1790  8.0940 -24.593  9.1790  8.0940 -999.25 -999.25 
  1405.500 -999.25 -999.25 -44.596  9.1780  8.0210 -24.596  9.1780  8.0210 -999.25 -999.25 
  1406.000 -999.25 -999.25 -44.599  9.1050  7.9840 -24.599  9.1050  7.9840 -999.25 -999.25 
  1406.500 -999.25 -999.25 -43.882  9.0320  7.9470 -23.882  9.0320  7.9470 -999.25 -999.25 
  1407.000 -999.25 -999.25 -43.433  8.9590  7.8380 -23.433  8.9590  7.8380 -999.25 -999.25 
  1407.500 -999.25 -999.25 -42.983  8.7770  7.7290 -22.983  8.7770  7.7290 -999.25 -999.25 
  1408.000 -999.25 -999.25 -42.628  8.6680  7.6200 -22.628  8.6680  7.6200 -999.25 -999.25 
  1408.500 -999.25 -999.25 -42.633  8.5230  7.4380 -22.633  8.5230  7.4380 -999.25 -999.25 
  1409.000 -999.25 -999.25 -42.999  8.4860  7.3290 -22.999  8.4860  7.3290 -999.25 -999.25 
  1409.500 -999.25 -999.25 -43.185  8.4130  7.2920 -23.185  8.4130  7.2920 -999.25 -999.25 
  1410.000 -999.25 -999.25 -42.284  8.3400  7.2910 -22.284  8.3400  7.2910 -999.25 -999.25 
  1410.500 -999.25 -999.25 -41.383  8.2670  7.2910 -21.383  8.2670  7.2910 -999.25 -999.25 
  1411.000 -999.25 -999.25 -42.112  8.2300  7.3980 -22.112  8.2300  7.3980 -999.25 -999.25 
  1411.500 -999.25 -999.25 -42.841  8.1930  7.4520 -22.841  8.1930  7.4520 -999.25 -999.25 
  1412.000 -999.25 -999.25 -42.664  8.1920  7.5060 -22.664  8.1920  7.5060 -999.25 -999.25 
  1412.500 -999.25 -999.25 -42.307  8.1920  7.6490 -22.307  8.1920  7.6490 -999.25 -999.25 
  1413.000 -999.25 -999.25 -42.130  8.2990  7.7930 -22.130  8.2990  7.7930 -999.25 -999.25 
  1413.500 -999.25 -999.25 -41.773  8.3350  7.9730 -21.773  8.3350  7.9730 -999.25 -999.25 
  1414.000 -999.25 -999.25 -41.234  8.4060  8.0450 -21.234  8.4060  8.0450 -999.25 -999.25 
  1414.500 -999.25 -999.25 -40.152  8.4060  8.0440 -20.152  8.4060  8.0440 -999.25 -999.25 
  1415.000 -999.25 -999.25 -41.062  8.4050  8.0440 -21.062  8.4050  8.0440 -999.25 -999.25 
  1415.500 -999.25 -999.25 -41.791  8.4050  7.9700 -21.791  8.4050  7.9700 -999.25 -999.25 
  1416.000 -999.25 -999.25 -42.700  8.4040  7.8970 -22.700  8.4040  7.8970 -999.25 -999.25 
  1416.500 -999.25 -999.25 -40.713  8.3300  7.7880 -20.713  8.3300  7.7880 -999.25 -999.25 
  1417.000 -999.25 -999.25 -39.269  8.0770  7.5340 -19.269  8.0770  7.5340 -999.25 -999.25 
  1417.500 -999.25 -999.25 -37.463  7.6780  7.2440 -17.463  7.6780  7.2440 -999.25 -999.25 
  1418.000 -999.25 -999.25 -36.563  6.9180  7.0260 -16.563  6.9180  7.0260 -999.25 -999.25 
  1418.500 -999.25 -999.25 -36.205  6.7720  6.8090 -16.205  6.7720  6.8090 -999.25 -999.25 
  1419.000 -999.25 -999.25 -36.934  6.7710  6.6630 -16.934  6.7710  6.6630 -999.25 -999.25 
  1419.500 -999.25 -999.25 -37.481  6.8250  6.6620 -17.481  6.8250  6.6620 -999.25 -999.25 
  1420.000 -999.25 -999.25 -38.572  6.8790  6.6620 -18.572  6.8790  6.6620 -999.25 -999.25 
  1420.500 -999.25 -999.25 -39.482  7.0950  6.7690 -19.482  7.0950  6.7690 -999.25 -999.25 
  1421.000 -999.25 -999.25 -39.668  7.3110  6.8050 -19.668  7.3110  6.8050 -999.25 -999.25 
  1421.500 -999.25 -999.25 -40.034  7.4190  6.9120 -20.034  7.4190  6.9120 -999.25 -999.25 
  1422.000 -999.25 -999.25 -40.401  7.5630  6.9120 -20.401  7.5630  6.9120 -999.25 -999.25 
  1422.500 -999.25 -999.25 -40.587  7.6350  6.9110 -20.587  7.6350  6.9110 -999.25 -999.25 
  1423.000 -999.25 -999.25 -39.505  7.5980  6.9110 -19.505  7.5980  6.9110 -999.25 -999.25 
  1423.500 -999.25 -999.25 -38.423  7.5610  6.9100 -18.423  7.5610  6.9100 -999.25 -999.25 
  1424.000 -999.25 -999.25 -37.522  7.5240  6.9090 -17.522  7.5240  6.9090 -999.25 -999.25 
  1424.500 -999.25 -999.25 -37.163  7.3430  6.7640 -17.163  7.3430  6.7640 -999.25 -999.25 
  1425.000 -999.25 -999.25 -36.805  7.1610  6.7270 -16.805  7.1610  6.7270 -999.25 -999.25 
  1425.500 -999.25 -999.25 -35.906  7.0160  6.6900 -15.906  7.0160  6.6900 -999.25 -999.25 
  1426.000 -999.25 -999.25 -35.730  6.8700  6.6170 -15.730  6.8700  6.6170 -999.25 -999.25 
  1426.500 -999.25 -999.25 -35.733  6.7240  6.5080 -15.733  6.7240  6.5080 -999.25 -999.25 
  1427.000 -999.25 -999.25 -35.737  6.6510  6.5070 -15.737  6.6510  6.5070 -999.25 -999.25 
  1427.500 -999.25 -999.25 -35.562  6.6150  6.4340 -15.562  6.6150  6.4340 -999.25 -999.25 
  1428.000 -999.25 -999.25 -35.929  6.5780  6.3610 -15.929  6.5780  6.3610 -999.25 -999.25 
  1428.500 -999.25 -999.25 -36.295  6.5410  6.2880 -16.295  6.5410  6.2880 -999.25 -999.25 
  1429.000 -999.25 -999.25 -36.843  6.5220  6.2510 -16.843  6.5220  6.2510 -999.25 -999.25 
  1429.500 -999.25 -999.25 -37.029  6.5040  6.2500 -17.029  6.5040  6.2500 -999.25 -999.25 
  1430.000 -999.25 -999.25 -37.576  6.5020  6.2310 -17.576  6.5020  6.2310 -999.25 -999.25 
  1430.500 -999.25 -999.25 -37.762  6.5560  6.2130 -17.762  6.5560  6.2130 -999.25 -999.25 
  1431.000 -999.25 -999.25 -38.310  6.6100  6.2120 -18.310  6.6100  6.2120 -999.25 -999.25 
  1431.500 -999.25 -999.25 -39.039  6.7180  6.2830 -19.039  6.7180  6.2830 -999.25 -999.25 
  1432.000 -999.25 -999.25 -39.586  6.8250  6.3550 -19.586  6.8250  6.3550 -999.25 -999.25 
  1432.500 -999.25 -999.25 -40.315  7.2220  6.4630 -20.315  7.2220  6.4630 -999.25 -999.25 
  1433.000 -999.25 -999.25 -40.863  7.5110  6.7150 -20.863  7.5110  6.7150 -999.25 -999.25 
  1433.500 -999.25 -999.25 -40.505  7.8350  7.0400 -20.505  7.8350  7.0400 -999.25 -999.25 
  1434.000 -999.25 -999.25 -40.510  7.9440  7.2920 -20.510  7.9440  7.2920 -999.25 -999.25 
  1434.500 -999.25 -999.25 -41.057  8.0520  7.4000 -21.057  8.0520  7.4000 -999.25 -999.25 
  1435.000 -999.25 -999.25 -41.605  8.4480  7.5080 -21.605  8.4480  7.5080 -999.25 -999.25 
  1435.500 -999.25 -999.25 -42.877  8.6650  7.7960 -22.877  8.6650  7.7960 -999.25 -999.25 
  1436.000 -999.25 -999.25 -43.787  8.7180  7.8320 -23.787  8.7180  7.8320 -999.25 -999.25 
  1436.500 -999.25 -999.25 -45.061  8.7720  7.8310 -25.061  8.7720  7.8310 -999.25 -999.25 
  1437.000 -999.25 -999.25 -45.428  8.7170  7.7220 -25.428  8.7170  7.7220 -999.25 -999.25 
  1437.500 -999.25 -999.25 -45.251  8.6620  7.6130 -25.251  8.6620  7.6130 -999.25 -999.25 
  1438.000 -999.25 -999.25 -44.801  8.4440  7.3950 -24.801  8.4440  7.3950 -999.25 -999.25 
  1438.500 -999.25 -999.25 -44.350  8.2990  7.1770 -24.350  8.2990  7.1770 -999.25 -999.25 
  1439.000 -999.25 -999.25 -42.909  7.8280  7.0500 -22.909  7.8280  7.0500 -999.25 -999.25 
  1439.500 -999.25 -999.25 -41.646  7.5010  6.9230 -21.646  7.5010  6.9230 -999.25 -999.25 
  1440.000 -999.25 -999.25 -40.383  7.2110  6.7410 -20.383  7.2110  6.7410 -999.25 -999.25 
  1440.500 -999.25 -999.25 -39.120  7.1020  6.5600 -19.120  7.1020  6.5600 -999.25 -999.25 
  1441.000 -999.25 -999.25 -38.762  6.8840  6.4510 -18.762  6.8840  6.4510 -999.25 -999.25 
  1441.500 -999.25 -999.25 -38.405  6.7390  6.3770 -18.405  6.7390  6.3770 -999.25 -999.25 
  1442.000 -999.25 -999.25 -38.590  6.6660  6.3230 -18.590  6.6660  6.3230 -999.25 -999.25 
  1442.500 -999.25 -999.25 -40.043  6.6660  6.2680 -20.043  6.6660  6.2680 -999.25 -999.25 
  1443.000 -999.25 -999.25 -40.953  6.6650  6.2310 -20.953  6.6650  6.2310 -999.25 -999.25 
  1443.500 -999.25 -999.25 -41.320  6.6820  6.1940 -21.320  6.6820  6.1940 -999.25 -999.25 
  1444.000 -999.25 -999.25 -41.505  6.7000  6.1750 -21.505  6.7000  6.1750 -999.25 -999.25 
  1444.500 -999.25 -999.25 -40.786  6.6620  6.1570 -20.786  6.6620  6.1570 -999.25 -999.25 
  1445.000 -999.25 -999.25 -40.428  6.6620  6.2100 -20.428  6.6620  6.2100 -999.25 -999.25 
  1445.500 -999.25 -999.25 -40.433  6.6610  6.2640 -20.433  6.6610  6.2640 -999.25 -999.25 
  1446.000 -999.25 -999.25 -40.618  6.6960  6.3350 -20.618  6.6960  6.3350 -999.25 -999.25 
  1446.500 -999.25 -999.25 -41.528  6.7320  6.4790 -21.528  6.7320  6.4790 -999.25 -999.25 
  1447.000 -999.25 -999.25 -42.257  6.7680  6.5680 -22.257  6.7680  6.5680 -999.25 -999.25 
