~Version Information
VERS.                     2.0: CWLS log ASCII Standard Version 2.00
WRAP.                      NO: One line per depth step
~Well Information Block
#MNEM.UNIT                               Data Type  Information
#---------                               ---------  -----------
STRT.FT                                   370.0000:
STOP.FT                                  6980.0000:
STEP.FT                                     0.5000:
NULL.                 -999.25                     :
COMP.                                             :COMPANY            
WELL.     KCL 13-X                                :WELL               
FLD .                                             :FIELD              
CTRY.                                             :COUNTRY            
STAT.                                             :STATE              
LOC .                                             :LOCATION           
UWI .                                             :UNIQUE WELL ID     
SRVC.                                             :Service company    
DATE.                                             :LOG DATE           
~Curve Information
#MNEM.UNIT           API CODE  Curve Description
#---------           --------  -----------------
DEPT.FT                      :   1 DEPTH
SP  .MV                      :   2
SN  .OHMM                    :   3
ILD .OHMM                    :   4
SBL .MV                      :   5
RS  .OHMM                    :   6
RD  .OHMM                    :   7
~A
# ...
  6065.000 -31.503  2.4250  2.1540 -13.866  2.4250  2.1540 
  6065.500 -32.618  2.4390  2.1410 -14.982  2.4390  2.1410 
  6066.000 -34.809  2.4620  2.1280 -17.175  2.4620  2.1280 
  6066.500 -37.554  2.4850  2.1210 -19.922  2.4850  2.1210 
  6067.000 -39.304  2.4590  2.1150 -21.673  2.4590  2.1150 
  6067.500 -41.055  2.4340  2.1080 -23.426  2.4340  2.1080 
  6068.000 -38.763  2.4060  2.1130 -21.135  2.4060  2.1130 
  6068.500 -35.518  2.3780  2.1080 -17.892  2.3780  2.1080 
  6069.000 -34.531  2.3500  2.1030 -16.907  2.3500  2.1030 
  6069.500 -34.300  2.3710  2.0990 -16.677  2.3710  2.0990 
  6070.000 -35.139  2.3890  2.0950 -17.518  2.3890  2.0950 
  6070.500 -36.337  2.4060  2.0910 -18.718  2.4060  2.0910 
  6071.000 -37.058  2.4230  2.0800 -19.440  2.4230  2.0800 
  6071.500 -37.699  2.4380  2.0770 -20.083  2.4380  2.0770 
  6072.000 -37.628  2.4520  2.0730 -20.013  2.4520  2.0730 
  6072.500 -36.998  2.4620  2.0690 -19.385  2.4620  2.0690 
  6073.000 -36.369  2.4730  2.0590 -18.758  2.4730  2.0590 
  6073.500 -35.226  2.4720  2.0490 -17.616  2.4720  2.0490 
  6074.000 -34.123  2.4710  2.0430 -16.515  2.4710  2.0430 
  6074.500 -33.217  2.4560  2.0360 -15.611  2.4560  2.0360 
  6075.000 -32.310  2.4400  2.0300 -14.705  2.4400  2.0300 
  6075.500 -30.930  2.4250  2.0180 -13.327  2.4250  2.0180 
  6076.000 -33.320  2.4100  2.0060 -15.718  2.4100  2.0060 
  6076.500 -33.106  2.3830  1.9940 -15.506  2.3830  1.9940 
  6077.000 -32.892  2.3500  1.9680 -15.294  2.3500  1.9680 
  6077.500 -31.792  2.3170  1.9420 -14.195  2.3170  1.9420 
  6078.000 -31.839  2.2830  1.9250 -14.244  2.2830  1.9250 
  6078.500 -31.407  2.2500  1.9080 -13.813  2.2500  1.9080 
  6079.000 -30.540  2.2170  1.8880 -12.948  2.2170  1.8880 
  6079.500 -31.342  2.1840  1.8680 -13.752  2.1840  1.8680 
  6080.000 -32.022  2.1640  1.8480 -14.433  2.1640  1.8480 
  6080.500 -31.712  2.1450  1.8310 -14.125  2.1450  1.8310 
  6081.000 -30.133  2.1260  1.8130 -12.548  2.1260  1.8130 
  6081.500 -29.524  2.1070  1.7960 -11.940  2.1070  1.7960 
  6082.000 -28.914  2.1030  1.7970 -11.332  2.1030  1.7970 
  6082.500 -28.011  2.0990  1.7990 -10.430  2.0990  1.7990 
  6083.000 -27.344  2.0950  1.8000 -9.7651  2.0950  1.8000 
  6083.500 -26.912  2.0970  1.7780 -9.3347  2.0970  1.7780 
  6084.000 -27.715  2.1000  1.7570 -10.139  2.1000  1.7570 
  6084.500 -28.037  2.0870  1.7430 -10.463  2.0870  1.7430 
  6085.000 -27.924  2.0750  1.7280 -10.352  2.0750  1.7280 
  6085.500 -27.811  2.0630  1.7140 -10.240  2.0630  1.7140 
  6086.000 -27.344  2.0540  1.7090 -9.7748  2.0540  1.7090 
  6086.500 -26.834  2.0440  1.7050 -9.2664  2.0440  1.7050 
  6087.000 -26.563  2.0350  1.7000 -8.9970  2.0350  1.7000 
  6087.500 -26.946  2.0260  1.6940 -9.3816  2.0260  1.6940 
  6088.000 -27.330  2.0170  1.6870 -9.7672  2.0170  1.6870 
  6088.500 -27.038  2.0140  1.6800 -9.4769  2.0140  1.6800 
  6089.000 -26.747  2.0100  1.6710 -9.1875  2.0100  1.6710 
  6089.500 -24.972  2.0060  1.6740 -7.4141  2.0060  1.6740 
  6090.000 -24.264  2.0030  1.6760 -6.7077  2.0030  1.6760 
  6090.500 -24.391  2.0040  1.6790 -6.8363  2.0040  1.6790 
  6091.000 -24.753  2.0040  1.6810 -7.2000  2.0040  1.6810 
  6091.500 -26.069  2.0050  1.6830 -8.5176  2.0050  1.6830 
  6092.000 -27.227  2.0050  1.6860 -9.6772  2.0050  1.6860 
  6092.500 -26.598  2.0160  1.6860 -9.0498  2.0160  1.6860 
  6093.000 -25.138  2.0260  1.6860 -7.5914  2.0260  1.6860 
  6093.500 -24.868  2.0370  1.6860 -7.3231  2.0370  1.6860 
  6094.000 -25.230  2.0470  1.6860 -7.6867  2.0470  1.6860 
  6094.500 -25.592  2.0570  1.6860 -8.0503  2.0570  1.6860 
  6095.000 -23.617  2.0660  1.6870 -6.0769  2.0660  1.6870 
  6095.500 -23.187  2.0750  1.7000 -5.6485  2.0750  1.7000 
  6096.000 -23.315  2.0740  1.6950 -5.7782  2.0740  1.6950 
  6096.500 -24.193  2.0720  1.6900 -6.6578  2.0720  1.6900 
  6097.000 -26.504  2.0710  1.6850 -8.9704  2.0710  1.6850 
  6097.500 -27.262  2.0690  1.6800 -9.7300  2.0690  1.6800 
  6098.000 -24.771  2.0680  1.6800 -7.2406  2.0680  1.6800 
  6098.500 -24.816  2.0660  1.6810 -7.2873  2.0660  1.6810 
  6099.000 -25.140  2.0640  1.6810 -7.6129  2.0640  1.6810 
  6099.500 -25.464  2.0710  1.6820 -7.9385  2.0710  1.6820 
  6100.000 -25.707  2.0670  1.6850 -8.1831  2.0670  1.6850 
  6100.500 -25.951  2.0640  1.6890 -8.4287  2.0640  1.6890 
  6101.000 -25.404  2.0610  1.6930 -7.8834  2.0610  1.6930 
  6101.500 -24.856  2.0570  1.6980 -7.3370  2.0570  1.6980 
  6102.000 -23.439  2.0510  1.7020 -5.9216  2.0510  1.7020 
  6102.500 -22.455  2.0450  1.7070 -4.9392  2.0450  1.7070 
  6103.000 -23.297  2.0380  1.7120 -5.7828  2.0380  1.7120 
  6103.500 -23.738  2.0320  1.7170 -6.2255  2.0320  1.7170 
  6104.000 -25.336  2.0260  1.7260 -7.8251  2.0260  1.7260 
  6104.500 -25.976  2.0240  1.7360 -8.4667  2.0240  1.7360 
  6105.000 -24.834  2.0060  1.7450 -7.3263  2.0060  1.7450 
  6105.500 -24.882  2.0130  1.7550 -7.3759  2.0130  1.7550 
  6106.000 -24.454  2.0190  1.7650 -6.9495  2.0190  1.7650 
  6106.500 -23.863  2.0230  1.7710 -6.3602  2.0230  1.7710 
  6107.000 -22.959  2.0260  1.7780 -5.4578  2.0260  1.7780 
  6107.500 -22.332  2.0290  1.7740 -4.8324  2.0290  1.7740 
  6108.000 -22.238  2.0330  1.7700 -4.7400  2.0330  1.7700 
  6108.500 -22.144  2.0360  1.7660 -4.6476  2.0360  1.7660 
  6109.000 -22.512  2.0410  1.7620 -5.0173  2.0410  1.7620 
  6109.500 -23.075  2.0470  1.7590 -5.5819  2.0470  1.7590 
  6110.000 -23.797  2.0520  1.7560 -6.3055  2.0520  1.7560 
  6110.500 -24.400  2.0570  1.7530 -6.9101  2.0570  1.7530 
  6111.000 -24.805  2.0630  1.7500 -7.3167  2.0630  1.7500 
  6111.500 -23.464  2.0680  1.7430 -5.9774  2.0680  1.7430 
  6112.000 -22.836  2.0730  1.7370 -5.3510  2.0730  1.7370 
  6112.500 -23.441  2.0780  1.7300 -5.9576  2.0780  1.7300 
  6113.000 -24.163  2.0840  1.7360 -6.6812  2.0840  1.7360 
  6113.500 -24.644  2.0890  1.7420 -7.1638  2.0890  1.7420 
  6114.000 -25.125  2.0940  1.7520 -7.6465  2.0940  1.7520 
  6114.500 -26.026  2.0990  1.7630 -8.5491  2.0990  1.7630 
  6115.000 -26.926  2.1050  1.7740 -9.4507  2.1050  1.7740 
  6115.500 -28.366  2.1060  1.7840 -10.892  2.1060  1.7840 
  6116.000 -26.905  2.1070  1.7940 -9.4329  2.1070  1.7940 
  6116.500 -25.858  2.1080  1.8050 -8.3876  2.1080  1.8050 
  6117.000 -24.812  2.1090  1.8060 -7.3432  2.1090  1.8060 
  6117.500 -24.602  2.1100  1.8070 -7.1348  2.1100  1.8070 
  6118.000 -24.392  2.1110  1.8080 -6.9264  2.1110  1.8080 
  6118.500 -24.022  2.1180  1.8150 -6.5580  2.1180  1.8150 
  6119.000 -23.652  2.1240  1.8210 -6.1897  2.1240  1.8210 
  6119.500 -24.671  2.1220  1.8280 -7.2103  2.1220  1.8280 
  6120.000 -25.690  2.1200  1.8340 -8.2309  2.1200  1.8340 
  6120.500 -27.209  2.1190  1.8300 -9.7515  2.1190  1.8300 
  6121.000 -28.409  2.1150  1.8250 -10.953  2.1150  1.8250 
  6121.500 -29.029  2.1120  1.8210 -11.575  2.1120  1.8210 
  6122.000 -29.650  2.1090  1.8200 -12.197  2.1090  1.8200 
  6122.500 -30.067  2.1050  1.8180 -12.616  2.1050  1.8180 
  6123.000 -30.484  2.1070  1.8170 -13.035  2.1070  1.8170 
  6123.500 -30.901  2.1080  1.8160 -13.453  2.1080  1.8160 
  6124.000 -31.286  2.1090  1.8150 -13.840  2.1090  1.8150 
  6124.500 -31.671  2.1100  1.8130 -14.226  2.1100  1.8130 
  6125.000 -31.996  2.1100  1.8120 -14.553  2.1100  1.8120 
  6125.500 -32.321  2.1110  1.8100 -14.880  2.1110  1.8100 
  6126.000 -32.646  2.1110  1.8090 -15.206  2.1110  1.8090 
  6126.500 -31.881  2.1120  1.8040 -14.443  2.1120  1.8040 
  6127.000 -31.116  2.1130  1.8000 -13.680  2.1130  1.8000 
  6127.500 -29.300  2.1140  1.7960 -11.865  2.1140  1.7960 
  6128.000 -28.453  2.1140  1.8040 -11.020  2.1140  1.8040 
  6128.500 -27.606  2.1140  1.8120 -10.174  2.1140  1.8120 
  6129.000 -27.118  2.1140  1.8190 -9.6880  2.1140  1.8190 
  6129.500 -26.629  2.1140  1.8270 -9.2007  2.1140  1.8270 
  6130.000 -25.609  2.1140  1.8350 -8.1823  2.1140  1.8350 
  6130.500 -24.744  2.1130  1.8240 -7.3189  2.1130  1.8240 
  6131.000 -24.789  2.1110  1.8130 -7.3655  2.1110  1.8130 
  6131.500 -24.834  2.1100  1.8010 -7.4121  2.1100  1.8010 
