~Version Information
VERS.                     2.0: CWLS log ASCII Standard Version 2.00
WRAP.                      NO: One line per depth step
~Well Information Block
#MNEM.UNIT                               Data Type  Information
#---------                               ---------  -----------
STRT.FT                                   360.0000:
STOP.FT                                  7920.0000:
STEP.FT                                     0.5000:
NULL.                 -999.25                     :
COMP.                                             :COMPANY            
WELL.     KCL 12-27                               :WELL               
FLD .                                             :FIELD              
CTRY.                                             :COUNTRY            
STAT.                                             :STATE              
LOC .                                             :LOCATION           
UWI .                                             :UNIQUE WELL ID     
SRVC.                                             :Service company    
DATE.                                             :LOG DATE           
~Curve Information
#MNEM.UNIT           API CODE  Curve Description
#---------           --------  -----------------
DEPT.FT                      :   1 DEPTH
SP  .MV                      :   2
DT  .US/F                    :   3
SP  .MV                      :   4
SN  .OHMM                    :   5
LN  .OHMM                    :   6
SBL .MV                      :   7
RS  .OHMM                    :   8
RD  .OHMM                    :   9
DTS .US/F                    :  10
SPS .MV                      :  11
~A
# ...
   882.000 -999.25 -999.25 -44.708  18.920  14.361 -24.708  18.920  14.361 -999.25 -999.25 
   882.500 -999.25 -999.25 -44.350  16.241  13.853 -24.350  16.241  13.853 -999.25 -999.25 
   883.000 -999.25 -999.25 -43.991  14.757  13.671 -23.991  14.757  13.671 -999.25 -999.25 
   883.500 -999.25 -999.25 -44.176  14.105  13.526 -24.176  14.105  13.526 -999.25 -999.25 
   884.000 -999.25 -999.25 -44.542  13.634  13.381 -24.542  13.634  13.381 -999.25 -999.25 
   884.500 -999.25 -999.25 -45.089  13.470  12.837 -25.089  13.470  12.837 -999.25 -999.25 
   885.000 -999.25 -999.25 -45.363  13.307  11.678 -25.363  13.307  11.678 -999.25 -999.25 
   885.500 -999.25 -999.25 -45.637  12.582  11.098 -25.637  12.582  11.098 -999.25 -999.25 
   886.000 -999.25 -999.25 -45.462  11.025  10.826 -25.462  11.025  10.826 -999.25 -999.25 
   886.500 -999.25 -999.25 -44.922  10.698  10.554 -24.922  10.698  10.554 -999.25 -999.25 
   887.000 -999.25 -999.25 -44.563  10.408  10.118 -24.563  10.408  10.118 -999.25 -999.25 
   887.500 -999.25 -999.25 -43.843  10.154  9.9010 -23.843  10.154  9.9010 -999.25 -999.25 
   888.000 -999.25 -999.25 -42.941  9.8630  9.6830 -22.941  9.8630  9.6830 -999.25 -999.25 
   888.500 -999.25 -999.25 -41.496  9.7360  8.8130 -21.496  9.7360  8.8130 -999.25 -999.25 
   889.000 -999.25 -999.25 -39.870  9.6090  8.7030 -19.870  9.6090  8.7030 -999.25 -999.25 
   889.500 -999.25 -999.25 -39.510  9.0640  8.4130 -19.510  9.0640  8.4130 -999.25 -999.25 
   890.000 -999.25 -999.25 -37.884  8.7740  8.1590 -17.884  8.7740  8.1590 -999.25 -999.25 
   890.500 -999.25 -999.25 -37.887  8.5920  7.9050 -17.887  8.5920  7.9050 -999.25 -999.25 
   891.000 -999.25 -999.25 -37.891  8.4470  7.7230 -17.891  8.4470  7.7230 -999.25 -999.25 
   891.500 -999.25 -999.25 -38.257  8.3370  7.6500 -18.257  8.3370  7.6500 -999.25 -999.25 
   892.000 -999.25 -999.25 -38.622  8.3000  7.6130 -18.622  8.3000  7.6130 -999.25 -999.25 
   892.500 -999.25 -999.25 -38.625  8.2630  7.5760 -18.625  8.2630  7.5760 -999.25 -999.25 
   893.000 -999.25 -999.25 -38.627  8.2260  7.5930 -18.627  8.2260  7.5930 -999.25 -999.25 
   893.500 -999.25 -999.25 -39.360  8.2610  7.6100 -19.360  8.2610  7.6100 -999.25 -999.25 
   894.000 -999.25 -999.25 -40.450  8.2600  7.6450 -20.450  8.2600  7.6450 -999.25 -999.25 
   894.500 -999.25 -999.25 -40.815  8.2960  7.6990 -20.815  8.2960  7.6990 -999.25 -999.25 
   895.000 -999.25 -999.25 -41.000  8.3310  7.7520 -21.000  8.3310  7.7520 -999.25 -999.25 
   895.500 -999.25 -999.25 -40.823  8.3850  7.8230 -20.823  8.3850  7.8230 -999.25 -999.25 
   896.000 -999.25 -999.25 -40.464  8.4380  7.8950 -20.464  8.4380  7.8950 -999.25 -999.25 
   896.500 -999.25 -999.25 -40.468  8.4730  7.9660 -20.468  8.4730  7.9660 -999.25 -999.25 
   897.000 -999.25 -999.25 -42.282  8.5080  8.1460 -22.282  8.5080  8.1460 -999.25 -999.25 
   897.500 -999.25 -999.25 -42.104  8.5980  8.2540 -22.104  8.5980  8.2540 -999.25 -999.25 
   898.000 -999.25 -999.25 -41.203  8.6880  8.5420 -21.203  8.6880  8.5420 -999.25 -999.25 
   898.500 -999.25 -999.25 -40.120  8.8310  8.7220 -20.120  8.8310  8.7220 -999.25 -999.25 
   899.000 -999.25 -999.25 -39.580  9.0110  9.0110 -19.580  9.0110  9.0110 -999.25 -999.25 
   899.500 -999.25 -999.25 -39.403  9.3720  9.2270 -19.403  9.3720  9.2270 -999.25 -999.25 
   900.000 -999.25 -999.25 -40.493  9.5160  9.2990 -20.493  9.5160  9.2990 -999.25 -999.25 
   900.500 -999.25 -999.25 -41.764  9.7320  9.3340 -21.764  9.7320  9.3340 -999.25 -999.25 
   901.000 -999.25 -999.25 -42.130  9.8400  9.3700 -22.130  9.8400  9.3700 -999.25 -999.25 
   901.500 -999.25 -999.25 -42.313  9.8030  9.2960 -22.313  9.8030  9.2960 -999.25 -999.25 
   902.000 -999.25 -999.25 -42.497  9.7660  9.2950 -22.497  9.7660  9.2950 -999.25 -999.25 
   902.500 -999.25 -999.25 -42.772  9.5480  9.2220 -22.772  9.5480  9.2220 -999.25 -999.25 
   903.000 -999.25 -999.25 -43.047  9.2210  9.1480 -23.047  9.2210  9.1480 -999.25 -999.25 
   903.500 -999.25 -999.25 -42.691  9.0030  9.0030 -22.691  9.0030  9.0030 -999.25 -999.25 
   904.000 -999.25 -999.25 -42.331  8.8930  8.8750 -22.331  8.8930  8.8750 -999.25 -999.25 
   904.500 -999.25 -999.25 -41.972  8.7480  8.7480 -21.972  8.7480  8.7480 -999.25 -999.25 
   905.000 -999.25 -999.25 -40.529  8.6020  8.6030 -20.529  8.6020  8.6030 -999.25 -999.25 
   905.500 -999.25 -999.25 -39.808  8.4570  8.4570 -19.808  8.4570  8.4570 -999.25 -999.25 
   906.000 -999.25 -999.25 -39.631  8.3830  8.0940 -19.631  8.3830  8.0940 -999.25 -999.25 
   906.500 -999.25 -999.25 -39.454  8.3460  7.8400 -19.454  8.3460  7.8400 -999.25 -999.25 
   907.000 -999.25 -999.25 -39.457  8.3100  7.6940 -19.457  8.3100  7.6940 -999.25 -999.25 
   907.500 -999.25 -999.25 -39.280  8.3080  7.6570 -19.280  8.3080  7.6570 -999.25 -999.25 
   908.000 -999.25 -999.25 -39.283  8.3070  7.6200 -19.283  8.3070  7.6200 -999.25 -999.25 
   908.500 -999.25 -999.25 -39.287  8.3430  7.5470 -19.287  8.3430  7.5470 -999.25 -999.25 
   909.000 -999.25 -999.25 -39.109  8.4860  7.5820 -19.109  8.4860  7.5820 -999.25 -999.25 
   909.500 -999.25 -999.25 -39.474  8.5940  7.5990 -19.474  8.5940  7.5990 -999.25 -999.25 
   910.000 -999.25 -999.25 -39.839  8.7380  7.6170 -19.839  8.7380  7.6170 -999.25 -999.25 
   910.500 -999.25 -999.25 -42.198  8.9900  7.7960 -22.198  8.9900  7.7960 -999.25 -999.25 
   911.000 -999.25 -999.25 -42.201  9.2060  8.0120 -22.201  9.2060  8.0120 -999.25 -999.25 
   911.500 -999.25 -999.25 -42.203  9.3320  8.1200 -22.203  9.3320  8.1200 -999.25 -999.25 
   912.000 -999.25 -999.25 -42.207  9.4590  8.2280 -22.207  9.4590  8.2280 -999.25 -999.25 
   912.500 -999.25 -999.25 -42.211  9.6740  8.4080 -22.211  9.6740  8.4080 -999.25 -999.25 
   913.000 -999.25 -999.25 -42.397  9.7820  8.4790 -22.397  9.7820  8.4790 -999.25 -999.25 
   913.500 -999.25 -999.25 -42.401  9.8170  8.6230 -22.401  9.8170  8.6230 -999.25 -999.25 
   914.000 -999.25 -999.25 -42.767  9.8530  8.6940 -22.767  9.8530  8.6940 -999.25 -999.25 
   914.500 -999.25 -999.25 -43.132  9.8880  8.7300 -23.132  9.8880  8.7300 -999.25 -999.25 
   915.000 -999.25 -999.25 -43.226  9.9230  8.7650 -23.226  9.9230  8.7650 -999.25 -999.25 
   915.500 -999.25 -999.25 -43.319  9.9410  8.8000 -23.319  9.9410  8.8000 -999.25 -999.25 
   916.000 -999.25 -999.25 -44.049  9.9580  8.8360 -24.049  9.9580  8.8360 -999.25 -999.25 
   916.500 -999.25 -999.25 -44.776  9.9930  8.8350 -24.776  9.9930  8.8350 -999.25 -999.25 
   917.000 -999.25 -999.25 -45.866  10.010  8.8340 -25.866  10.010  8.8340 -999.25 -999.25 
   917.500 -999.25 -999.25 -46.232  10.027  8.8330 -26.232  10.027  8.8330 -999.25 -999.25 
   918.000 -999.25 -999.25 -46.960  10.026  8.7600 -26.960  10.026  8.7600 -999.25 -999.25 
   918.500 -999.25 -999.25 -47.145  9.9890  8.7220 -27.145  9.9890  8.7220 -999.25 -999.25 
   919.000 -999.25 -999.25 -46.062  9.6990  8.5770 -26.062  9.6990  8.5770 -999.25 -999.25 
   919.500 -999.25 -999.25 -44.617  9.1910  8.3950 -24.617  9.1910  8.3950 -999.25 -999.25 
   920.000 -999.25 -999.25 -43.895  8.7920  8.2130 -23.895  8.7920  8.2130 -999.25 -999.25 
   920.500 -999.25 -999.25 -43.174  8.5380  7.8870 -23.174  8.5380  7.8870 -999.25 -999.25 
   921.000 -999.25 -999.25 -43.179  8.2480  7.6330 -23.179  8.2480  7.6330 -999.25 -999.25 
   921.500 -999.25 -999.25 -42.640  8.0300  7.4870 -22.640  8.0300  7.4870 -999.25 -999.25 
   922.000 -999.25 -999.25 -41.557  7.8480  7.3410 -21.557  7.8480  7.3410 -999.25 -999.25 
   922.500 -999.25 -999.25 -40.293  7.7750  7.2680 -20.293  7.7750  7.2680 -999.25 -999.25 
   923.000 -999.25 -999.25 -38.848  7.7020  7.2310 -18.848  7.7020  7.2310 -999.25 -999.25 
   923.500 -999.25 -999.25 -38.309  7.7000  7.2300 -18.309  7.7000  7.2300 -999.25 -999.25 
   924.000 -999.25 -999.25 -38.494  7.9530  7.4460 -18.494  7.9530  7.4460 -999.25 -999.25 
   924.500 -999.25 -999.25 -38.859  8.2050  7.6620 -18.859  8.2050  7.6620 -999.25 -999.25 
   925.000 -999.25 -999.25 -39.406  8.8550  8.2040 -19.406  8.8550  8.2040 -999.25 -999.25 
