~Version Information
VERS.                     2.0: CWLS log ASCII Standard Version 2.00
WRAP.                      NO: One line per depth step
~Well Information Block
#MNEM.UNIT                               Data Type  Information
#---------                               ---------  -----------
STRT.FT                                   370.0000:
STOP.FT                                  6980.0000:
STEP.FT                                     0.5000:
NULL.                 -999.25                     :
COMP.                                             :COMPANY            
WELL.     KCL 13-X                                :WELL               
FLD .                                             :FIELD              
CTRY.                                             :COUNTRY            
STAT.                                             :STATE              
LOC .                                             :LOCATION           
UWI .                                             :UNIQUE WELL ID     
SRVC.                                             :Service company    
DATE.                                             :LOG DATE           
~Curve Information
#MNEM.UNIT           API CODE  Curve Description
#---------           --------  -----------------
DEPT.FT                      :   1 DEPTH
SP  .MV                      :   2
SN  .OHMM                    :   3
ILD .OHMM                    :   4
SBL .MV                      :   5
RS  .OHMM                    :   6
RD  .OHMM                    :   7
~A
# ...
  2983.000 -24.509  4.6150  4.6400 -1.0712  4.6150  4.6400 
  2983.500 -24.889  4.6820  4.7250 -1.4603  4.6820  4.7250 
  2984.000 -25.267  4.7490  4.8100 -1.8483  4.7490  4.8100 
  2984.500 -25.629  4.8160  4.8960 -2.2198  4.8160  4.8960 
  2985.000 -25.959  4.8940  4.9530 -2.5590  4.8940  4.9530 
  2985.500 -26.083  4.9710  5.0110 -2.6929  4.9710  5.0110 
  2986.000 -25.817  5.0480  5.0640 -2.4363  5.0480  5.0640 
  2986.500 -25.534  5.1250  5.1170 -2.1625  5.1250  5.1170 
  2987.000 -25.247  5.1940  5.1230 -1.8855  5.1940  5.1230 
  2987.500 -25.532  5.2320  5.0730 -2.1793  5.2320  5.0730 
  2988.000 -26.178  5.2700  5.0230 -2.8353  5.2700  5.0230 
  2988.500 -26.681  5.2830  4.9900 -3.3481  5.2830  4.9900 
  2989.000 -26.344  5.2780  4.8920 -3.0198  5.2780  4.8920 
  2989.500 -25.885  5.2730  4.8030 -2.5709  5.2730  4.8030 
  2990.000 -26.278  5.1910  4.7140 -2.9736  5.1910  4.7140 
  2990.500 -26.761  5.1090  4.5200 -3.4662  5.1090  4.5200 
  2991.000 -26.497  5.0270  4.3660 -3.2116  5.0270  4.3660 
  2991.500 -26.167  4.8330  4.2810 -2.8904  4.8330  4.2810 
  2992.000 -25.801  4.6240  4.1960 -2.5340  4.6240  4.1960 
  2992.500 -25.525  4.5670  4.1130 -2.2679  4.5670  4.1130 
  2993.000 -25.404  4.4610  4.2460 -2.1565  4.4610  4.2460 
  2993.500 -25.368  4.4710  4.4910 -2.1301  4.4710  4.4910 
  2994.000 -25.553  4.4810  4.9180 -2.3242  4.4810  4.9180 
  2994.500 -25.852  4.5900  5.3580 -2.6334  4.5900  5.3580 
  2995.000 -26.389  5.4870  5.7980 -3.1792  5.4870  5.7980 
  2995.500 -27.767  6.3680  6.9240 -4.5665  6.3680  6.9240 
  2996.000 -30.544  7.4240  7.7180 -7.3536  7.4240  7.7180 
  2996.500 -33.077  8.3120  9.2190 -9.8959  8.3120  9.2190 
  2997.000 -35.353  9.2650  9.8060 -12.181  9.2650  9.8060 
  2997.500 -37.883  10.138  10.249 -14.721  10.138  10.249 
  2998.000 -40.717  12.498  10.414 -17.565  12.498  10.414 
  2998.500 -44.364  13.164  10.500 -21.221  13.164  10.500 
  2999.000 -47.079  13.624  10.586 -23.945  13.624  10.586 
  2999.500 -48.939  14.020  10.861 -25.816  14.020  10.861 
  3000.000 -48.781  14.157  10.915 -25.667  14.157  10.915 
  3000.500 -49.697  14.295  10.964 -26.592  14.295  10.964 
  3001.000 -50.313  14.488  11.012 -27.217  14.488  11.012 
  3001.500 -50.352  14.681  11.061 -27.266  14.681  11.061 
  3002.000 -50.391  15.046  11.235 -27.314  15.046  11.235 
  3002.500 -50.517  15.410  11.408 -27.451  15.410  11.408 
  3003.000 -50.679  16.179  11.915 -27.622  16.179  11.915 
  3003.500 -50.885  16.989  12.160 -27.837  16.989  12.160 
  3004.000 -51.110  17.497  12.285 -28.072  17.497  12.285 
  3004.500 -51.410  18.005  12.332 -28.382  18.005  12.332 
  3005.000 -51.945  18.432  12.290 -28.926  18.432  12.290 
  3005.500 -52.821  18.573  12.145 -29.811  18.573  12.145 
  3006.000 -53.291  18.564  11.904 -30.291  18.564  11.904 
  3006.500 -53.119  18.339  11.490 -30.129  18.339  11.490 
  3007.000 -52.358  17.550  10.947 -29.377  17.550  10.947 
  3007.500 -51.201  16.482  10.571 -28.230  16.482  10.571 
  3008.000 -49.880  14.611  10.395 -26.918  14.611  10.395 
  3008.500 -47.820  13.464  10.234 -24.868  13.464  10.234 
  3009.000 -44.097  12.436  10.065 -21.154  12.436  10.065 
  3009.500 -42.546  11.583  9.9960 -19.613  11.583  9.9960 
  3010.000 -41.740  11.334  9.9270 -18.816  11.334  9.9270 
  3010.500 -41.374  11.611  9.9530 -18.460  11.611  9.9530 
  3011.000 -41.166  11.777  9.9790 -18.261  11.777  9.9790 
  3011.500 -41.052  11.958  9.9930 -18.156  11.958  9.9930 
  3012.000 -40.990  12.144  10.039 -18.104  12.144  10.039 
  3012.500 -41.497  12.330  10.037 -18.621  12.330  10.037 
  3013.000 -42.129  12.677  9.8890 -19.262  12.677  9.8890 
  3013.500 -43.000  12.858  9.7410 -20.143  12.858  9.7410 
  3014.000 -44.111  12.909  9.0850 -21.263  12.909  9.0850 
  3014.500 -45.273  12.959  8.4390 -22.435  12.959  8.4390 
  3015.000 -46.664  12.726  7.8410 -23.835  12.726  7.8410 
  3015.500 -48.107  11.857  7.2590 -25.288  11.857  7.2590 
  3016.000 -48.241  10.805  6.3590 -25.432  10.805  6.3590 
  3016.500 -47.087  9.7060  5.3860 -24.287  9.7060  5.3860 
  3017.000 -44.428  8.1290  4.7790 -21.638  8.1290  4.7790 
  3017.500 -38.458  6.1780  4.6270 -15.677  6.1780  4.6270 
  3018.000 -33.930  5.1110  4.3030 -11.158  5.1110  4.3030 
  3018.500 -30.351  4.5590  3.9800 -7.5890  4.5590  3.9800 
  3019.000 -28.267  4.4270  3.7230 -5.5147  4.4270  3.7230 
  3019.500 -27.160  4.2950  3.6180 -4.4172  4.2950  3.6180 
  3020.000 -26.573  4.0460  3.5140 -3.8395  4.0460  3.5140 
  3020.500 -26.361  3.9410  3.4210 -3.6369  3.9410  3.4210 
  3021.000 -26.247  3.8400  3.3280 -3.5329  3.8400  3.3280 
  3021.500 -26.223  3.7390  3.2220 -3.5180  3.7390  3.2220 
  3022.000 -26.349  3.6090  3.1170 -3.6539  3.6090  3.1170 
  3022.500 -26.453  3.5440  3.0350 -3.7670  3.5440  3.0350 
  3023.000 -26.645  3.5190  3.0500 -3.9684  3.5190  3.0500 
  3023.500 -26.868  3.4530  3.0650 -4.2009  3.4530  3.0650 
  3024.000 -27.113  3.4480  3.2220 -4.4559  3.4480  3.2220 
  3024.500 -27.420  3.4430  3.3780 -4.7725  3.4430  3.3780 
  3025.000 -27.327  3.5980  3.7390 -4.6891  3.5980  3.7390 
  3025.500 -27.139  3.7530  4.0990 -4.5102  3.7530  4.0990 
  3026.000 -26.983  3.9070  4.4870 -4.3644  3.9070  4.4870 
  3026.500 -26.864  4.3970  4.8760 -4.2545  4.3970  4.8760 
  3027.000 -26.825  4.6820  5.2360 -4.2246  4.6820  5.2360 
  3027.500 -27.512  5.0470  5.5970 -4.9210  5.0470  5.5970 
  3028.000 -30.131  5.3240  5.8100 -7.5496  5.3240  5.8100 
  3028.500 -33.446  5.9820  6.0230 -10.875  5.9820  6.0230 
  3029.000 -35.945  6.3150  6.0570 -13.383  6.3150  6.0570 
  3029.500 -37.932  6.6040  6.0910 -15.380  6.6040  6.0910 
  3030.000 -39.093  6.8930  6.0250 -16.550  6.8930  6.0250 
  3030.500 -38.376  6.9350  6.0200 -15.842  6.9350  6.0200 
  3031.000 -37.927  6.9760  6.0150 -15.403  6.9760  6.0150 
  3031.500 -37.528  7.0140  6.0850 -15.014  7.0140  6.0850 
  3032.000 -37.147  7.0770  6.1540 -14.643  7.0770  6.1540 
  3032.500 -36.806  7.1400  6.4060 -14.311  7.1400  6.4060 
  3033.000 -36.666  7.2890  6.5640 -14.180  7.2890  6.5640 
  3033.500 -38.513  7.4380  6.7220 -16.037  7.4380  6.7220 
  3034.000 -39.997  7.6790  6.9590 -17.530  7.6790  6.9590 
  3034.500 -40.472  7.9200  7.1950 -18.015  7.9200  7.1950 
  3035.000 -40.664  8.2830  7.3530 -18.216  8.2830  7.3530 
  3035.500 -40.781  8.4290  7.5110 -18.343  8.4290  7.5110 
  3036.000 -40.897  8.5760  7.6960 -18.468  8.5760  7.6960 
  3036.500 -41.004  8.8040  7.8810 -18.585  8.8040  7.8810 
  3037.000 -41.164  9.0330  7.9710 -18.755  9.0330  7.9710 
  3037.500 -41.365  9.4130  8.0610 -18.965  9.4130  8.0610 
  3038.000 -41.589  9.6810  8.1380 -19.199  9.6810  8.1380 
  3038.500 -41.882  9.9230  8.1210 -19.501  9.9230  8.1210 
  3039.000 -42.364  10.165  8.1030 -19.993  10.165  8.1030 
  3039.500 -43.456  10.575  8.0980 -21.094  10.575  8.0980 
  3040.000 -44.744  10.646  8.0920 -22.392  10.646  8.0920 
  3040.500 -45.632  10.055  8.1030 -23.290  10.055  8.1030 
  3041.000 -44.936  9.9470  8.1140 -22.603  9.9470  8.1140 
  3041.500 -43.869  9.8380  8.1760 -21.546  9.8380  8.1760 
  3042.000 -42.638  9.8720  8.2370 -20.323  9.8720  8.2370 
  3042.500 -41.845  9.9070  8.2990 -19.540  9.9070  8.2990 
  3043.000 -41.373  10.143  8.4850 -19.078  10.143  8.4850 
  3043.500 -42.940  10.380  8.6700 -20.655  10.380  8.6700 
  3044.000 -44.480  11.778  8.9110 -22.204  11.778  8.9110 
  3044.500 -45.885  12.469  9.1520 -23.619  12.469  9.1520 
  3045.000 -47.054  13.731  9.3090 -24.797  13.731  9.3090 
  3045.500 -48.114  14.111  9.3070 -25.866  14.111  9.3070 
  3046.000 -49.130  14.237  9.2100 -26.892  14.237  9.2100 
  3046.500 -50.049  14.180  9.1130 -27.820  14.180  9.1130 
  3047.000 -50.735  14.000  8.8480 -28.516  14.000  8.8480 
  3047.500 -50.393  13.820  8.2020 -28.183  13.820  8.2020 
  3048.000 -49.726  12.497  6.7200 -27.526  12.497  6.7200 
  3048.500 -48.898  8.4220  6.1390 -26.708  8.4220  6.1390 
  3049.000 -47.394  6.3040  5.6680 -25.213  6.3040  5.6680 
  3049.500 -44.797  6.0550  5.4430 -22.625  6.0550  5.4430 
