~Version Information
VERS.                     2.0: CWLS log ASCII Standard Version 2.00
WRAP.                      NO: One line per depth step
~Well Information Block
#MNEM.UNIT                               Data Type  Information
#---------                               ---------  -----------
STRT.FT                                   370.0000:
STOP.FT                                  6980.0000:
STEP.FT                                     0.5000:
NULL.                 -999.25                     :
COMP.                                             :COMPANY            
WELL.     KCL 13-X                                :WELL               
FLD .                                             :FIELD              
CTRY.                                             :COUNTRY            
STAT.                                             :STATE              
LOC .                                             :LOCATION           
UWI .                                             :UNIQUE WELL ID     
SRVC.                                             :Service company    
DATE.                                             :LOG DATE           
~Curve Information
#MNEM.UNIT           API CODE  Curve Description
#---------           --------  -----------------
DEPT.FT                      :   1 DEPTH
SP  .MV                      :   2
SN  .OHMM                    :   3
ILD .OHMM                    :   4
SBL .MV                      :   5
RS  .OHMM                    :   6
RD  .OHMM                    :   7
~A
# ...
  6936.000 -82.065  26.301  6.9640 -64.065  26.301  6.9640 
  6936.500 -86.042  28.556  6.9700 -68.042  28.556  6.9700 
  6937.000 -90.931  30.172  6.9890 -72.931  30.172  6.9890 
  6937.500 -92.367  31.788  7.0080 -74.367  31.788  7.0080 
  6938.000 -93.802  29.460  7.0520 -75.802  29.460  7.0520 
  6938.500 -96.674  27.132  7.0350 -78.674  27.132  7.0350 
  6939.000 -97.236  25.606  6.9900 -79.236  25.606  6.9900 
  6939.500 -96.253  24.080  6.9450 -78.253  24.080  6.9450 
  6940.000 -92.812  21.640  6.7120 -74.812  21.640  6.7120 
  6940.500 -90.400  19.201  6.5190 -72.400  19.201  6.5190 
  6941.000 -87.729  13.101  6.3100 -69.729  13.101  6.3100 
  6941.500 -85.059  11.626  6.1260 -67.059  11.626  6.1260 
  6942.000 -77.453  10.223  6.0370 -59.453  10.223  6.0370 
  6942.500 -73.257  9.7520  6.0430 -55.257  9.7520  6.0430 
  6943.000 -69.180  8.3570  6.0500 -51.180  8.3570  6.0500 
  6943.500 -65.062  7.7740  6.0710 -47.062  7.7740  6.0710 
  6944.000 -63.485  7.3910  5.8710 -45.485  7.3910  5.8710 
  6944.500 -60.598  7.0550  5.6060 -42.598  7.0550  5.6060 
  6945.000 -51.244  6.8700  5.4300 -33.244  6.8700  5.4300 
  6945.500 -42.049  6.4150  5.2540 -24.049  6.4150  5.2540 
  6946.000 -36.939  6.3180  5.0490 -18.939  6.3180  5.0490 
  6946.500 -28.260  5.8540  4.8440 -10.260  5.8540  4.8440 
  6947.000 -23.590  5.5340  4.6030 -5.5900  5.5340  4.6030 
  6947.500 -22.170  5.1900  4.4900 -4.1700  5.1900  4.4900 
  6948.000 -21.226  5.1400  4.4320 -3.2260  5.1400  4.4320 
  6948.500 -19.887  5.1230  4.3910 -1.8870  5.1230  4.3910 
  6949.000 -19.101  5.1900  4.4050 -1.1010  5.1900  4.4050 
  6949.500 -18.675  5.2560  4.4200 -0.6750  5.2560  4.4200 
  6950.000 -21.461  5.4130  4.5050 -3.4610  5.4130  4.5050 
  6950.500 -23.946  5.4110  4.5590 -5.9460  5.4110  4.5590 
  6951.000 -26.432  5.3860  4.6140 -8.4320  5.3860  4.6140 
  6951.500 -28.787  5.2810  4.6440 -10.787  5.2810  4.6440 
  6952.000 -30.221  5.1770  4.6740 -12.221  5.1770  4.6740 
  6952.500 -31.775  4.8080  4.4810 -13.775  4.8080  4.4810 
  6953.000 -32.818  4.5520  4.3770 -14.818  4.5520  4.3770 
  6953.500 -31.791  4.3440  4.0010 -13.791  4.3440  4.0010 
  6954.000 -26.643  4.1360  3.8370 -8.6430  4.1360  3.8370 
  6954.500 -24.073  3.8790  3.6720 -6.0730  3.8790  3.6720 
  6955.000 -23.803  3.6230  3.5000 -5.8030  3.6230  3.5000 
  6955.500 -23.730  3.3810  3.3270 -5.7300  3.3810  3.3270 
  6956.000 -23.658  3.2850  3.1890 -5.6580  3.2850  3.1890 
  6956.500 -23.585  3.1720  3.0520 -5.5850  3.1720  3.0520 
  6957.000 -23.259  3.1270  2.9830 -5.2590  3.1270  2.9830 
  6957.500 -22.932  3.0820  2.9150 -4.9320  3.0820  2.9150 
  6958.000 -22.798  3.0390  2.8090 -4.7980  3.0390  2.8090 
  6958.500 -22.664  3.0060  2.7560 -4.6640  3.0060  2.7560 
  6959.000 -21.963  2.9730  2.7020 -3.9630  2.9730  2.7020 
  6959.500 -21.651  2.9160  2.6730 -3.6510  2.9160  2.6730 
  6960.000 -21.224  2.8750  2.6440 -3.2240  2.8750  2.6440 
  6960.500 -20.915  2.8340  2.6340 -2.9150  2.8340  2.6340 
  6961.000 -20.645  2.7280  2.6250 -2.6450  2.7280  2.6250 
  6961.500 -20.296  2.7820  2.6310 -2.2960  2.7820  2.6310 
  6962.000 -20.740  2.8680  2.6370 -2.7400  2.8680  2.6370 
  6962.500 -21.900  2.9540  2.6990 -3.9000  2.9540  2.6990 
  6963.000 -22.662  3.0410  2.7850 -4.6620  3.0410  2.7850 
  6963.500 -22.986  3.1570  2.8550 -4.9860  3.1570  2.8550 
  6964.000 -23.629  3.1960  2.9010 -5.6290  3.1960  2.9010 
  6964.500 -24.092  3.1950  2.9150 -6.0920  3.1950  2.9150 
  6965.000 -24.555  3.0180  2.9140 -6.5550  3.0180  2.9140 
  6965.500 -25.796  2.8730  2.9050 -7.7960  2.8730  2.9050 
  6966.000 -26.595  2.9830  2.8800 -8.5950  2.9830  2.8800 
  6966.500 -25.095  3.0940  2.8550 -7.0950  3.0940  2.8550 
  6967.000 -23.477  3.1760  2.8050 -5.4770  3.1760  2.8050 
  6967.500 -24.439  3.2580  2.7720 -6.4390  3.2580  2.7720 
  6968.000 -25.796  3.2080  2.7610 -7.7960  3.2080  2.7610 
  6968.500 -26.714  3.1590  2.8400 -8.7140  3.1590  2.8400 
  6969.000 -27.993  3.2010  2.9180 -9.9930  3.2010  2.9180 
  6969.500 -28.318  3.2430  3.0990 -10.318  3.2430  3.0990 
  6970.000 -27.930  3.3650  3.2170 -9.9300  3.3650  3.2170 
  6970.500 -27.541  3.4870  3.3190 -9.5410  3.4870  3.3190 
  6971.000 -27.152  3.5720  3.3890 -9.1520  3.5720  3.3890 
  6971.500 -26.484  3.2760  3.4200 -8.4840  3.2760  3.4200 
  6972.000 -25.860  2.7330  3.4580 -7.8600  2.7330  3.4580 
  6972.500 -25.431  2.5090  3.4480 -7.4310  2.5090  3.4480 
  6973.000 -25.160  2.7860  3.1920 -7.1600  2.7860  3.1920 
  6973.500 -25.148  3.0710  3.0550 -7.1480  3.0710  3.0550 
  6974.000 -25.136  3.2920  2.9820 -7.1360  3.2920  2.9820 
  6974.500 -23.876  3.1870  2.8450 -5.8760  3.1870  2.8450 
  6975.000 -21.821  3.1220  2.8120 -3.8210  3.1220  2.8120 
  6975.500 -20.677  3.2000  2.8420 -2.6770  3.2000  2.8420 
  6976.000 -20.508  3.2860  2.8920 -2.5080  3.2860  2.8920 
  6976.500 -20.339  3.4120  2.9430 -2.3390  3.4120  2.9430 
  6977.000 -20.265  3.3550  3.0000 -2.2650  3.3550  3.0000 
  6977.500 -20.253  3.1310  3.0560 -2.2530  3.1310  3.0560 
  6978.000 -20.241  2.9850  3.1130 -2.2410  2.9850  3.1130 
  6978.500 -22.193  3.1590  3.1430 -4.1930  3.1590  3.1430 
  6979.000 -23.512  3.3960 -999.25 -5.5120  3.3960 -999.25 
  6979.500 -24.432  3.4510 -999.25 -6.4320  3.4510 -999.25 
  6980.000 -25.154  3.2980 -999.25 -7.1540  3.2980 -999.25 
