~Version Information
VERS.                     2.0: CWLS log ASCII Standard Version 2.00
WRAP.                      NO: One line per depth step
~Well Information Block
#MNEM.UNIT                               Data Type  Information
#---------                               ---------  -----------
STRT.FT                                   370.0000:
STOP.FT                                  6980.0000:
STEP.FT                                     0.5000:
NULL.                 -999.25                     :
COMP.                                             :COMPANY            
WELL.     KCL 13-X                                :WELL               
FLD .                                             :FIELD              
CTRY.                                             :COUNTRY            
STAT.                                             :STATE              
LOC .                                             :LOCATION           
UWI .                                             :UNIQUE WELL ID     
SRVC.                                             :Service company    
DATE.                                             :LOG DATE           
~Curve Information
#MNEM.UNIT           API CODE  Curve Description
#---------           --------  -----------------
DEPT.FT                      :   1 DEPTH
SP  .MV                      :   2
SN  .OHMM                    :   3
ILD .OHMM                    :   4
SBL .MV                      :   5
RS  .OHMM                    :   6
RD  .OHMM                    :   7
~A
# ...
   839.000 -44.809  7.5180  7.1270 -11.362  7.5180  7.1270 
   839.500 -45.925  7.5390  6.7620 -12.482  7.5390  6.7620 
   840.000 -46.763  7.5600  6.5800 -13.323  7.5600  6.5800 
   840.500 -46.605  7.3620  6.4930 -13.169  7.3620  6.4930 
   841.000 -44.655  7.0690  6.4070 -11.222  7.0690  6.4070 
   841.500 -42.905  6.8870  6.4120 -9.4758  6.8870  6.4120 
   842.000 -42.229  6.6420  6.4170 -8.8033  6.6420  6.4170 
   842.500 -41.552  6.5230  6.4870 -8.1298  6.5230  6.4870 
   843.000 -41.117  6.5600  6.5560 -7.6983  6.5600  6.5560 
   843.500 -41.437  6.5970  6.7860 -8.0218  6.5970  6.7860 
   844.000 -42.872  6.6950  7.0160 -9.4602  6.6950  7.0160 
   844.500 -45.065  7.0030  7.2460 -11.657  7.0030  7.2460 
   845.000 -45.743  7.3110  7.5860 -12.338  7.3110  7.5860 
   845.500 -44.908  7.5560  7.9260 -11.507  7.5560  7.9260 
   846.000 -44.173  7.8000  8.4060 -10.775  7.8000  8.4060 
   846.500 -43.437  8.1280  8.7910 -10.043  8.1280  8.7910 
   847.000 -42.603  8.4570  9.0470 -9.2121  8.4570  9.0470 
   847.500 -44.119  9.1200  9.3110 -10.732  9.1200  9.3110 
   848.000 -46.191  9.6000  9.5130 -12.807  9.6000  9.5130 
   848.500 -47.467  9.9840  9.5450 -14.087  9.9840  9.5450 
   849.000 -49.619  10.268  9.5780 -16.242  10.268  9.5780 
   849.500 -51.373  10.552  9.5880 -18.000  10.552  9.5880 
   850.000 -53.167  11.136  9.5260 -19.797  11.136  9.5260 
   850.500 -53.530  11.393  9.4630 -20.163  11.393  9.4630 
   851.000 -52.142  11.330  9.4010 -18.779  11.330  9.4010 
   851.500 -51.351  10.949  9.0440 -17.991  10.949  9.0440 
   852.000 -50.559  10.755  8.7350 -17.203  10.755  8.7350 
   852.500 -50.145  10.561  8.7200 -16.792  10.561  8.7200 
   853.000 -49.731  10.100  8.7270 -16.382  10.100  8.7270 
   853.500 -48.583  9.7120  8.7340 -15.237  9.7120  8.7340 
   854.000 -48.190  9.7130  8.7420 -14.848  9.7130  8.7420 
   854.500 -48.592  9.7140  8.7490 -15.253  9.7140  8.7490 
   855.000 -48.995  9.7550  8.6720 -15.660  9.7550  8.6720 
   855.500 -50.276  9.7960  8.6330 -16.944  9.7960  8.6330 
   856.000 -51.038  9.8460  8.4430 -17.710  9.8460  8.4430 
   856.500 -51.681  9.8240  8.0700 -18.356  9.8240  8.0700 
   857.000 -51.168  9.7220  7.7800 -17.847  9.7220  7.7800 
   857.500 -50.654  9.4600  7.4900 -17.336  9.4600  7.4900 
   858.000 -47.595  8.4250  7.1690 -14.281  8.4250  7.1690 
   858.500 -45.767  7.7250  6.8470 -12.456  7.7250  6.8470 
   859.000 -42.070  6.8900  6.4780 -8.7627  6.8900  6.4780 
   859.500 -40.959  6.7340  6.1100 -7.6551  6.7340  6.1100 
   860.000 -41.163  6.5780  6.0430 -7.8626  6.5780  6.0430 
   860.500 -42.143  6.4230  5.9770 -8.8461  6.4230  5.9770 
   861.000 -43.124  6.0500  5.9150 -9.8306  6.0500  5.9150 
   861.500 -42.691  6.1470  5.9480 -9.4011  6.1470  5.9480 
   862.000 -42.258  6.1720  5.9810 -8.9715  6.1720  5.9810 
   862.500 -41.229  6.1140  6.0340 -7.9460  6.1140  6.0340 
   863.000 -41.672  6.0550  6.0880 -8.3925  6.0550  6.0880 
   863.500 -42.195  6.2170  6.1210 -8.9190  6.2170  6.1210 
   864.000 -41.802  6.3220  6.1620 -8.5295  6.3220  6.1620 
   864.500 -41.568  6.5390  6.2510 -8.2989  6.5390  6.2510 
   865.000 -42.211  6.6270  6.2770 -8.9454  6.6270  6.2770 
   865.500 -44.805  6.7170  6.2660 -11.543  6.7170  6.2660 
   866.000 -46.801  6.7420  6.2550 -13.542  6.7420  6.2550 
   866.500 -46.647  6.7670  6.2410 -13.392  6.7670  6.2410 
   867.000 -45.139  6.7130  6.2430 -11.887  6.7130  6.2430 
   867.500 -43.989  6.5710  6.2560 -10.741  6.5710  6.2560 
   868.000 -43.078  6.2450  6.2700 -9.8333  6.2450  6.2700 
   868.500 -42.426  6.2590  6.2870 -9.1848  6.2590  6.2870 
   869.000 -41.773  6.2720  6.3040 -8.5353  6.2720  6.3040 
   869.500 -41.023  6.2980  6.4020 -7.7887  6.2980  6.4020 
   870.000 -40.908  6.8810  6.7540 -7.6772  6.8810  6.7540 
   870.500 -42.467  7.4560  7.2330 -9.2397  7.4560  7.2330 
   871.000 -42.770  7.7450  7.5290 -9.5462  7.7450  7.5290 
   871.500 -43.073  7.8420  7.7070 -9.8527  7.8420  7.7070 
   872.000 -43.397  7.9070  7.7640 -10.180  7.9070  7.7640 
   872.500 -43.720  7.9480  7.7730 -10.507  7.9480  7.7730 
   873.000 -45.041  7.9970  7.7820 -11.831  7.9970  7.7820 
   873.500 -45.644  8.0460  7.7760 -12.438  8.0460  7.7760 
   874.000 -45.290  8.1600  7.7690 -12.087  8.1600  7.7690 
   874.500 -44.936  8.2730  7.7630 -11.737  8.2730  7.7630 
   875.000 -45.399  8.4100  7.7720 -12.203  8.4100  7.7720 
   875.500 -45.862  8.5630  7.8140 -12.670  8.5630  7.8140 
   876.000 -47.820  8.6080  7.8230 -14.631  8.6080  7.8230 
   876.500 -47.566  8.6530  7.8320 -14.380  8.6530  7.8320 
   877.000 -47.312  8.6710  7.8020 -14.130  8.6710  7.8020 
   877.500 -46.203  8.6560  7.6440 -13.024  8.6560  7.6440 
   878.000 -46.010  8.4820  7.3900 -12.835  8.4820  7.3900 
   878.500 -46.492  8.0530  7.1920 -13.320  8.0530  7.1920 
   879.000 -46.915  7.3690  6.9620 -13.747  7.3690  6.9620 
   879.500 -47.338  7.1550  6.7410 -14.173  7.1550  6.7410 
   880.000 -45.511  6.9690  6.5750 -12.350  6.9690  6.5750 
   880.500 -43.685  6.7830  6.4080 -10.527  6.7830  6.4080 
   881.000 -42.754  6.4030  6.2580 -9.5998  6.4030  6.2580 
   881.500 -41.823  6.2920  6.1080 -8.6723  6.2920  6.1080 
   882.000 -41.670  6.3020  5.9670 -8.5228  6.3020  5.9670 
   882.500 -41.953  6.3430  5.9360 -8.8092  6.3430  5.9360 
   883.000 -41.420  6.3800  5.9300 -8.2797  6.3800  5.9300 
   883.500 -40.887  6.4170  5.9580 -7.7502  6.4170  5.9580 
   884.000 -41.112  6.4900  5.9860 -7.9787  6.4900  5.9860 
   884.500 -41.337  6.5630  6.0140 -8.2072  6.5630  6.0140 
   885.000 -42.098  6.5340  6.0510 -8.9717  6.5340  6.0510 
   885.500 -42.860  6.4990  6.0880 -9.7371  6.4990  6.0880 
   886.000 -42.270  6.4650  6.2010 -9.1506  6.4650  6.2010 
   886.500 -41.677  6.5180  6.3140 -8.5611  6.5180  6.3140 
   887.000 -41.443  6.5710  6.4270 -8.3306  6.5710  6.4270 
   887.500 -41.528  6.7630  6.6600 -8.4191  6.7630  6.6600 
   888.000 -41.731  6.9560  7.2280 -8.6255  6.9560  7.2280 
   888.500 -41.935  7.2160  7.5080 -8.8330  7.2160  7.5080 
   889.000 -43.336  7.4770  7.8520 -10.237  7.4770  7.8520 
   889.500 -43.758  8.2040  8.2440 -10.663  8.2040  8.2440 
   890.000 -44.180  8.9470  8.5400 -11.088  8.9470  8.5400 
   890.500 -46.856  9.2990  8.8050 -13.768  9.2990  8.8050 
   891.000 -48.134  9.6510  9.0690 -15.049  9.6510  9.0690 
   891.500 -49.413  10.482  9.2860 -16.332  10.482  9.2860 
   892.000 -52.486  10.866  9.5020 -19.408  10.866  9.5020 
   892.500 -52.093  11.330  9.6640 -19.019  11.330  9.6640 
   893.000 -51.660  11.825  9.7770 -18.589  11.825  9.7770 
   893.500 -51.386  12.361  10.049 -18.319  12.361  10.049 
   894.000 -51.968  12.593  9.9950 -18.904  12.593  9.9950 
   894.500 -52.550  12.787  9.7650 -19.490  12.787  9.7650 
   895.000 -54.907  12.804  9.4720 -21.850  12.804  9.4720 
   895.500 -56.186  12.781  8.8270 -23.133  12.781  8.8270 
   896.000 -55.932  12.679  8.2070 -22.882  12.679  8.2070 
   896.500 -55.678  9.9070  7.4830 -22.632  9.9070  7.4830 
   897.000 -52.539  8.6320  6.8830 -19.496  8.6320  6.8830 
   897.500 -50.990  7.0710  6.2820 -17.951  7.0710  6.2820 
   898.000 -47.371  6.3950  5.8450 -14.335  6.3950  5.8450 
   898.500 -44.350  6.0140  5.4080 -11.318  6.0140  5.4080 
   899.000 -40.970  5.5540  5.0030 -7.9411  5.5540  5.0030 
   899.500 -39.780  5.3320  4.9490 -6.7546  5.3320  4.9490 
   900.000 -37.875  5.1740  4.9980 -4.8531  5.1740  4.9980 
   900.500 -37.695  5.1550  5.0470 -4.6766  5.1550  5.0470 
   901.000 -37.515  5.1360  5.1280 -4.5000  5.1360  5.1280 
   901.500 -37.303  5.1450  5.2080 -4.2915  5.1450  5.2080 
   902.000 -37.091  5.2420  5.4010 -4.0830  5.2420  5.4010 
   902.500 -36.879  5.3380  5.5940 -3.8745  5.3380  5.5940 
   903.000 -36.600  5.5590  5.7310 -3.5990  5.5590  5.7310 
   903.500 -36.322  5.7790  5.8670 -3.3244  5.7790  5.8670 
   904.000 -35.687  6.0310  6.1270 -2.6929  6.0310  6.1270 
   904.500 -35.408  6.2840  6.3880 -2.4174  6.2840  6.3880 
   905.000 -35.308  6.3770  6.5370 -2.3209  6.3770  6.5370 
   905.500 -35.208  6.4700  6.6850 -2.2244  6.4700  6.6850 
