~Version Information
VERS.                     2.0: CWLS log ASCII Standard Version 2.00
WRAP.                      NO: One line per depth step
~Well Information Block
#MNEM.UNIT                               Data Type  Information
#---------                               ---------  -----------
STRT.FT                                   370.0000:
STOP.FT                                  6980.0000:
STEP.FT                                     0.5000:
NULL.                 -999.25                     :
COMP.                                             :COMPANY            
WELL.     KCL 13-X                                :WELL               
FLD .                                             :FIELD              
CTRY.                                             :COUNTRY            
STAT.                                             :STATE              
LOC .                                             :LOCATION           
UWI .                                             :UNIQUE WELL ID     
SRVC.                                             :Service company    
DATE.                                             :LOG DATE           
~Curve Information
#MNEM.UNIT           API CODE  Curve Description
#---------           --------  -----------------
DEPT.FT                      :   1 DEPTH
SP  .MV                      :   2
SN  .OHMM                    :   3
ILD .OHMM                    :   4
SBL .MV                      :   5
RS  .OHMM                    :   6
RD  .OHMM                    :   7
~A
# ...
  1241.000 -38.089  6.5250  6.0540 -7.4409  6.5250  6.0540 
  1241.500 -39.148  6.5100  5.9480 -8.5034  6.5100  5.9480 
  1242.000 -39.488  6.3990  5.8420 -8.8469  6.3990  5.8420 
  1242.500 -39.828  6.3130  5.7470 -9.1903  6.3130  5.7470 
  1243.000 -39.511  6.2260  5.6760 -8.8768  6.2260  5.6760 
  1243.500 -39.195  6.0040  5.6330 -8.5643  6.0040  5.6330 
  1244.000 -37.704  5.8740  5.5900 -7.0768  5.8740  5.5900 
  1244.500 -36.213  5.7430  5.5540 -5.5893  5.7430  5.5540 
  1245.000 -36.157  5.6720  5.5180 -5.5367  5.6720  5.5180 
  1245.500 -36.100  5.6010  5.4820 -5.4832  5.6010  5.4820 
  1246.000 -36.461  5.5230  5.4520 -5.8477  5.5230  5.4520 
  1246.500 -36.224  5.4770  5.4410 -5.6142  5.4770  5.4410 
  1247.000 -35.709  5.4740  5.4300 -5.1027  5.4740  5.4300 
  1247.500 -35.193  5.4710  5.4350 -4.5901  5.4710  5.4350 
  1248.000 -34.850  5.4920  5.4390 -4.2506  5.4920  5.4390 
  1248.500 -34.507  5.5130  5.4570 -3.9111  5.5130  5.4570 
  1249.000 -34.164  5.5540  5.4540 -3.5716  5.5540  5.4540 
  1249.500 -34.527  5.5630  5.4510 -3.9381  5.5630  5.4510 
  1250.000 -35.305  5.5720  5.4130 -4.7195  5.5720  5.4130 
  1250.500 -36.084  5.5260  5.3740 -5.5020  5.5260  5.3740 
  1251.000 -36.268  5.4470  5.3230 -5.6895  5.4470  5.3230 
  1251.500 -36.451  5.3680  5.2720 -5.8760  5.3680  5.2720 
  1252.000 -36.098  5.2570  5.1540 -5.5265  5.2570  5.1540 
  1252.500 -35.783  5.1470  5.1240 -5.2150  5.1470  5.1240 
  1253.000 -35.468  5.0840  5.0930 -4.9034  5.0840  5.0930 
  1253.500 -35.153  5.0220  5.0860 -4.5919  5.0220  5.0860 
  1254.000 -34.639  5.0230  5.0790 -4.0814  5.0230  5.0790 
  1254.500 -34.125  5.0240  5.1920 -3.5709  5.0240  5.1920 
  1255.000 -33.811  5.0250  5.2750 -3.2604  5.0250  5.2750 
  1255.500 -33.496  5.1220  5.3580 -2.9488  5.1220  5.3580 
  1256.000 -33.181  5.1950  5.4410 -2.6373  5.1950  5.4410 
  1256.500 -33.027  5.2670  5.5740 -2.4868  5.2670  5.5740 
  1257.000 -33.907  5.4040  5.7070 -3.3703  5.4040  5.7070 
  1257.500 -35.784  5.5400  5.9080 -5.2508  5.5400  5.9080 
  1258.000 -36.743  5.8370  6.0210 -6.2132  5.8370  6.0210 
  1258.500 -36.189  5.9740  6.1210 -5.6627  5.9740  6.1210 
  1259.000 -35.635  6.0940  6.2220 -5.1122  6.0940  6.2220 
  1259.500 -35.161  6.2150  6.2510 -4.6417  6.2150  6.2510 
  1260.000 -34.687  6.3840  6.2800 -4.1712  6.3840  6.2800 
  1260.500 -35.688  6.4650  6.2690 -5.1756  6.4650  6.2690 
  1261.000 -37.882  6.5210  6.2580 -7.3731  6.5210  6.2580 
  1261.500 -39.320  6.5700  6.1770 -8.8146  6.5700  6.1770 
  1262.000 -39.681  6.6190  6.0960 -9.1791  6.6190  6.0960 
  1262.500 -40.043  6.5680  6.0150 -9.5446  6.5680  6.0150 
  1263.000 -38.137  6.5170  5.9440 -7.6420  6.5170  5.9440 
  1263.500 -37.224  6.3630  5.8420 -6.7325  6.3630  5.8420 
  1264.000 -36.311  6.2090  5.7670 -5.8230  6.2090  5.7670 
  1264.500 -35.559  6.0660  5.6920 -5.0745  6.0660  5.6920 
  1265.000 -34.807  5.9240  5.6370 -4.3260  5.9240  5.6370 
  1265.500 -35.050  5.7580  5.5820 -4.5724  5.7580  5.5820 
  1266.000 -35.293  5.6870  5.5990 -4.8189  5.6870  5.5990 
  1266.500 -34.839  5.6170  5.6170 -4.3684  5.6170  5.6170 
  1267.000 -34.384  5.5620  5.6470 -3.9169  5.5620  5.6470 
  1267.500 -32.716  5.5310  5.6770 -2.2524  5.5310  5.6770 
  1268.000 -32.561  5.5160  5.7070 -2.1009  5.5160  5.7070 
  1268.500 -32.565  5.4700  5.7730 -2.1083  5.4700  5.7730 
  1269.000 -32.569  5.4550  5.8460 -2.1158  5.4550  5.8460 
  1269.500 -33.131  5.4400  5.8820 -2.6813  5.4400  5.8820 
  1270.000 -33.413  5.4650  5.9190 -2.9668  5.4650  5.9190 
  1270.500 -33.377  5.5570  6.0760 -2.9343  5.5570  6.0760 
  1271.000 -33.089  5.6480  6.2330 -2.6497  5.6480  6.2330 
  1271.500 -32.802  5.7390  6.3780 -2.3662  5.7390  6.3780 
  1272.000 -32.514  5.8160  6.4980 -2.0817  5.8160  6.4980 
  1272.500 -32.199  5.8930  6.5980 -1.7702  5.8930  6.5980 
  1273.000 -31.885  6.0180  6.6970 -1.4597  6.0180  6.6970 
  1273.500 -32.206  6.1430  6.7960 -1.7841  6.1430  6.7960 
  1274.000 -32.528  6.2710  6.8930 -2.1096  6.2710  6.8930 
  1274.500 -33.627  6.3320  6.9900 -3.2121  6.3320  6.9900 
  1275.000 -34.726  6.3930  7.0630 -4.3146  6.3930  7.0630 
  1275.500 -35.686  6.5380  7.1040 -5.2781  6.5380  7.1040 
  1276.000 -36.646  6.5670  7.1530 -6.2415  6.5670  7.1530 
  1276.500 -38.324  6.5950  7.1730 -7.9230  6.5950  7.1730 
  1277.000 -38.965  6.5600  7.1940 -8.5675  6.5600  7.1940 
  1277.500 -36.819  6.5260  7.1800 -6.4250  6.5260  7.1800 
  1278.000 -34.911  6.4800  7.1650 -4.5205  6.4800  7.1650 
  1278.500 -33.919  6.4730  7.1670 -3.5319  6.4730  7.1670 
  1279.000 -32.490  6.4820  7.1990 -2.1064  6.4820  7.1990 
  1279.500 -32.453  6.4990  7.3790 -2.0729  6.4990  7.3790 
  1280.000 -32.955  6.6430  7.5600 -2.5784  6.6430  7.5600 
  1280.500 -33.457  6.9720  7.9230 -3.0839  6.9720  7.9230 
  1281.000 -34.338  7.3390  8.2870 -3.9684  7.3390  8.2870 
  1281.500 -35.436  7.8740  8.6630 -5.0698  7.8740  8.6630 
  1282.000 -36.535  8.2540  9.0390 -6.1723  8.2540  9.0390 
  1282.500 -38.650  8.6330  9.5350 -8.2908  8.6330  9.5350 
  1283.000 -39.292  9.1640  9.7350 -8.9363  9.1640  9.7350 
  1283.500 -39.376  9.6960  10.159 -9.0238  9.6960  10.159 
  1284.000 -39.478  10.853  10.291 -9.1292  10.853  10.291 
  1284.500 -39.581  11.667  10.423 -9.2357  11.667  10.423 
  1285.000 -39.784  12.354  10.656 -9.4422  12.354  10.656 
  1285.500 -39.987  12.722  10.697 -9.6487  12.722  10.697 
  1286.000 -40.729  13.146  10.738 -10.394  13.146  10.738 
  1286.500 -41.470  13.514  10.787 -11.139  13.514  10.787 
  1287.000 -42.509  13.682  10.772 -12.181  13.682  10.772 
  1287.500 -43.908  13.771  10.677 -13.584  13.771  10.677 
  1288.000 -44.389  13.764  10.583 -14.068  13.764  10.583 
  1288.500 -44.713  13.127  10.114 -14.396  13.127  10.114 
  1289.000 -44.875  12.658  9.7250 -14.561  12.658  9.7250 
  1289.500 -42.809  11.599  9.0960 -12.499  11.599  9.0960 
  1290.000 -41.199  10.213  8.4200 -10.892  10.213  8.4200 
  1290.500 -39.589  8.9150  7.9980 -9.2855  8.9150  7.9980 
  1291.000 -37.163  8.1350  7.6800 -6.8630  8.1350  7.6800 
  1291.500 -34.738  7.7130  7.5940 -4.4414  7.7130  7.5940 
  1292.000 -33.071  7.5150  7.6350 -2.7779  7.5150  7.6350 
  1292.500 -32.319  7.4600  7.7240 -2.0294  7.4600  7.7240 
  1293.000 -31.925  7.4410  7.7880 -1.6389  7.4410  7.7880 
  1293.500 -31.690  7.4220  7.9210 -1.4074  7.4220  7.9210 
  1294.000 -31.653  7.6320  8.0530 -1.3738  7.6320  8.0530 
  1294.500 -31.616  7.7920  8.2220 -1.3403  7.7920  8.2220 
  1295.000 -32.139  8.0440  8.2950 -1.8668  8.0440  8.2950 
  1295.500 -34.215  8.2960  8.3520 -3.9463  8.2960  8.3520 
  1296.000 -35.611  8.6640  8.3570 -5.3458  8.6640  8.3570 
  1296.500 -38.563  8.7850  8.3620 -8.3013  8.7850  8.3620 
  1297.000 -39.562  8.8490  8.1160 -9.3037  8.8490  8.1160 
  1297.500 -39.984  8.8830  8.0570 -9.7292  8.8830  8.0570 
  1298.000 -40.406  8.9160  7.9980 -10.155  8.9160  7.9980 
  1298.500 -40.609  8.8450  7.9440 -10.361  8.8450  7.9440 
  1299.000 -40.812  8.7740  7.8900 -10.568  8.7740  7.8900 
  1299.500 -41.015  8.6720  7.9100 -10.774  8.6720  7.9100 
  1300.000 -41.278  8.6730  7.9310 -11.041  8.6730  7.9310 
  1300.500 -41.541  8.7140  7.9800 -11.307  8.7140  7.9800 
  1301.000 -41.763  8.7710  8.0290 -11.533  8.7710  8.0290 
  1301.500 -41.985  8.8280  8.0700 -11.758  8.8280  8.0700 
  1302.000 -42.308  8.8930  8.0720 -12.085  8.8930  8.0720 
  1302.500 -42.630  8.9570  8.0570 -12.410  8.9570  8.0570 
  1303.000 -42.952  9.0300  7.9100 -12.736  9.0300  7.9100 
  1303.500 -43.274  9.0400  7.7640 -13.061  9.0400  7.7640 
  1304.000 -43.876  8.8890  7.5140 -13.666  8.8890  7.5140 
  1304.500 -42.446  8.5950  7.2640 -12.240  8.5950  7.2640 
  1305.000 -40.419  8.0310  6.9380 -10.216  8.0310  6.9380 
  1305.500 -38.830  7.7610  6.8600 -8.6309  7.7610  6.8600 
  1306.000 -37.956  7.4900  6.8330 -7.7604  7.4900  6.8330 
  1306.500 -37.083  7.2530  6.8060 -6.8909  7.2530  6.8060 
  1307.000 -36.330  7.0460  6.8550 -6.1413  7.0460  6.8550 
  1307.500 -35.576  6.9360  6.9840 -5.3908  6.9360  6.9840 
