~Version Information
VERS.                     2.0: CWLS log ASCII Standard Version 2.00
WRAP.                      NO: One line per depth step
~Well Information Block
#MNEM.UNIT                               Data Type  Information
#---------                               ---------  -----------
STRT.FT                                    30.0000:
STOP.FT                                  5850.0000:
STEP.FT                                     0.5000:
NULL.                 -999.25                     :
COMP.                                             :COMPANY            
WELL.     KCL44-43                                :WELL               
FLD .                                             :FIELD              
CTRY.                                             :COUNTRY            
STAT.                                             :STATE              
LOC .                                             :LOCATION           
UWI .                                             :UNIQUE WELL ID     
SRVC.                                             :Service company    
DATE.                                             :LOG DATE           
~Curve Information
#MNEM.UNIT           API CODE  Curve Description
#---------           --------  -----------------
DEPT.FT                      :   1 DEPTH
SP  .MV                      :   2
ILD .OHMM                    :   3
SN  .OHMM                    :   4
GR  .RE/T                    :   5
NEUT.CPS                     :   6
SBL .MV                      :   7
RS  .OHMM                    :   8
RD  .OHMM                    :   9
NEUS.CPS                     :  10
GRS .RE/T                    :  11
~A
    30.000 -999.25 -999.25  61.977 -999.25 -999.25 -999.25  61.977 -999.25 -999.25 -999.25 
    30.500 -999.25 -999.25  66.402 -999.25 -999.25 -999.25  66.402 -999.25 -999.25 -999.25 
    31.000 -999.25  9.2380  68.762 -999.25 -999.25 -999.25  68.762  9.2380 -999.25 -999.25 
    31.500 -999.25  9.6160  71.229 -999.25 -999.25 -999.25  71.229  9.6160 -999.25 -999.25 
    32.000 -999.25  99.519  74.657 -999.25 -999.25 -999.25  74.657  99.519 -999.25 -999.25 
    32.500 -999.25  99.528  85.993 -999.25 -999.25 -999.25  85.993  99.528 -999.25 -999.25 
    33.000 -999.25  99.537  87.142 -999.25 -999.25 -999.25  87.142  99.537 -999.25 -999.25 
    33.500 -999.25  99.546  87.685 -999.25 -999.25 -999.25  87.685  99.546 -999.25 -999.25 
    34.000 -999.25  99.234  87.943 -999.25 -999.25 -999.25  87.943  99.234 -999.25 -999.25 
    34.500 -999.25  31.033  87.881 -999.25 -999.25 -999.25  87.881  31.033 -999.25 -999.25 
    35.000 -999.25  30.579  87.391 -999.25 -999.25 -999.25  87.391  30.579 -999.25 -999.25 
    35.500 -999.25  31.870  57.587 -999.25 -999.25 -999.25  57.587  31.870 -999.25 -999.25 
    36.000 -999.25  30.668  55.850 -999.25 -999.25 -999.25  55.850  30.668 -999.25 -999.25 
    36.500 -999.25  29.145  59.991 -999.25 -999.25 -999.25  59.991  29.145 -999.25 -999.25 
    37.000 -999.25  28.727  62.315 -999.25 -999.25 -999.25  62.315  28.727 -999.25 -999.25 
    37.500 -999.25  31.158  64.105 -999.25 -999.25 -999.25  64.105  31.158 -999.25 -999.25 
    38.000 -999.25  31.701  65.111 -999.25 -999.25 -999.25  65.111  31.701 -999.25 -999.25 
    38.500 -999.25  32.102  64.443 -999.25 -999.25 -999.25  64.443  32.102 -999.25 -999.25 
    39.000 -999.25  32.716  62.956 -999.25 -999.25 -999.25  62.956  32.716 -999.25 -999.25 
    39.500 -999.25  33.152  58.833 -999.25 -999.25 -999.25  58.833  33.152 -999.25 -999.25 
    40.000 -999.25  32.556  56.492 -999.25 -999.25 -999.25  56.492  32.556 -999.25 -999.25 
    40.500 -999.25  31.781  57.854 -999.25 -999.25 -999.25  57.854  31.781 -999.25 -999.25 
    41.000 -999.25  31.345  60.605 -999.25 -999.25 -999.25  60.605  31.345 -999.25 -999.25 
    41.500 -999.25  30.908  62.431 -999.25 -999.25 -999.25  62.431  30.908 -999.25 -999.25 
    42.000 -999.25  30.205  65.574 -999.25 -999.25 -999.25  65.574  30.205 -999.25 -999.25 
    42.500 -999.25  29.786  72.814 -999.25 -999.25 -999.25  72.814  29.786 -999.25 -999.25 
    43.000 -999.25  32.395  75.993 -999.25 -999.25 -999.25  75.993  32.395 -999.25 -999.25 
    43.500 -6.0020  36.892  82.556 -999.25 -999.25  19.998  82.556  36.892 -999.25 -999.25 
    44.000 -18.312  38.860  83.491 -999.25 -999.25  7.6880  83.491  38.860 -999.25 -999.25 
    44.500 -21.393  39.902  82.217 -999.25 -999.25  4.6070  82.217  39.902 -999.25 -999.25 
    45.000 -27.066  40.445  80.196 -999.25 -999.25 -1.0660  80.196  40.445 -999.25 -999.25 
    45.500 -27.662  35.004  76.287 -999.25 -999.25 -1.6620  76.287  35.004 -999.25 -999.25 
    46.000 -63.861  26.643  55.744 -999.25 -999.25 -37.861  55.744  26.643 -999.25 -999.25 
    46.500 -26.547  19.849  61.273 -999.25 -999.25 -0.5470  61.273  19.849 -999.25 -999.25 
    47.000 -8.2600  14.891  68.727 -999.25 -999.25  17.740  68.727  14.891 -999.25 -999.25 
    47.500 -8.1460  9.9330  75.147 -999.25 -999.25  17.854  75.147  9.9330 -999.25 -999.25 
    48.000 -8.5120  4.0360  76.581 -999.25 -999.25  17.488  76.581  4.0360 -999.25 -999.25 
    48.500 -8.8770  4.0580  77.373 -999.25 -999.25  17.123  77.373  4.0580 -999.25 -999.25 
    49.000 -10.432  4.0800  77.453 -999.25 -999.25  15.568  77.453  4.0800 -999.25 -999.25 
    49.500 -10.851  4.0740  75.966 -999.25 -999.25  15.149  75.966  4.0740 -999.25 -999.25 
    50.000 -11.270  4.0000  68.103 -999.25 -999.25  14.730  68.103  4.0000 -999.25 -999.25 
    50.500 -11.727  3.8750  60.444 -999.25 -999.25  14.273  60.444  3.8750 -999.25 -999.25 
    51.000 -14.598  3.8180  57.024 -999.25 -999.25  11.402  57.024  3.8180 -999.25 -999.25 
    51.500 -15.694  3.7650  54.850 -999.25 -999.25  10.306  54.850  3.7650 -999.25 -999.25 
    52.000 -16.825  3.7430  53.425 -999.25 -999.25  9.1750  53.425  3.7430 -999.25 -999.25 
    52.500 -17.176  3.7290  52.248 -999.25 -999.25  8.8240  52.248  3.7290 -999.25 -999.25 
    53.000 -17.384  3.7470  51.357 -999.25 -999.25  8.6160  51.357  3.7470 -999.25 -999.25 
    53.500 -16.883  3.7820  50.715 -999.25 -999.25  9.1170  50.715  3.7820 -999.25 -999.25 
    54.000 -15.813  3.8750  52.353 -999.25 -999.25  10.187  52.353  3.8750 -999.25 -999.25 
    54.500 -15.277  3.9960  55.379 -999.25 -999.25  10.723  55.379  3.9960 -999.25 -999.25 
    55.000 -15.698  4.0850  61.184 -999.25 -999.25  10.302  61.184  4.0850 -999.25 -999.25 
    55.500 -17.362  4.2450  63.962 -999.25 -999.25  8.6380  63.962  4.2450 -999.25 -999.25 
    56.000 -17.571  4.3550  65.172 -999.25 -999.25  8.4290  65.172  4.3550 -999.25 -999.25 
    56.500 -17.460  4.5150  64.672 -999.25 -999.25  8.5400  64.672  4.5150 -999.25 -999.25 
    57.000 -17.384  4.6510  64.493 -999.25 -999.25  8.6160  64.493  4.6510 -999.25 -999.25 
    57.500 -17.451  4.9430  66.986 -999.25 -999.25  8.5490  66.986  4.9430 -999.25 -999.25 
    58.000 -18.227  5.1030  72.435 -999.25 -999.25  7.7730  72.435  5.1030 -999.25 -999.25 
    58.500 -19.217  5.1770  78.346 -999.25 -999.25  6.7830  78.346  5.1770 -999.25 -999.25 
    59.000 -20.206  5.2450  80.768 -999.25 -999.25  5.7940  80.768  5.2450 -999.25 -999.25 
    59.500 -20.841  5.2910  83.402 -999.25 -999.25  5.1590  83.402  5.2910 -999.25 -999.25 
    60.000 -21.298  5.3090  85.183 -999.25 -999.25  4.7020  85.183  5.3090 -999.25 -999.25 
    60.500 -21.613  5.3090  86.321 -999.25 -999.25  4.3870  86.321  5.3090 -999.25 -999.25 
    61.000 -21.608  5.2590  85.252 -999.25 -999.25  4.3920  85.252  5.2590 -999.25 -999.25 
    61.500 -21.994  5.2410  82.045 -999.25 -999.25  4.0060  82.045  5.2410 -999.25 -999.25 
    62.000 -21.830  5.2370  77.022 -999.25 -999.25  4.1700  77.022  5.2370 -999.25 -999.25 
    62.500 -21.666  5.2480  76.131 -999.25 -999.25  4.3340  76.131  5.2480 -999.25 -999.25 
    63.000 -21.271  5.3010  82.256 -999.25 -999.25  4.7290  82.256  5.3010 -999.25 -999.25 
    63.500 -20.947  5.3300  85.141 -999.25 -999.25  5.0530  85.141  5.3300 -999.25 -999.25 
    64.000 -20.765  5.3400  87.847 -999.25 -999.25  5.2350  87.847  5.3400 -999.25 -999.25 
    64.500 -20.761  5.3190  88.060 -999.25 -999.25  5.2390  88.060  5.3190 -999.25 -999.25 
    65.000 -20.934  5.2510  86.207 -999.25 -999.25  5.0660  86.207  5.2510 -999.25 -999.25 
    65.500 -21.142  5.1190  84.674 -999.25 -999.25  4.8580  84.674  5.1190 -999.25 -999.25 
    66.000 -21.351  4.9730  84.887 -999.25 -999.25  4.6490  84.887  4.9730 -999.25 -999.25 
    66.500 -21.914  4.8230  87.094 -999.25 -999.25  4.0860  87.094  4.8230 -999.25 -999.25 
    67.000 -22.265  4.5740  87.806 -999.25 -999.25  3.7350  87.806  4.5740 -999.25 -999.25 
    67.500 -22.757  4.3460  88.482 -999.25 -999.25  3.2430  88.482  4.3460 -999.25 -999.25 
    68.000 -23.392  4.1000  88.730 -999.25 -999.25  2.6080  88.730  4.1000 -999.25 -999.25 
    68.500 -24.168  3.8610  87.803 -999.25 -999.25  1.8320  87.803  3.8610 -999.25 -999.25 
    69.000 -25.229  3.6650  81.640 -999.25 -999.25  0.7710  81.640  3.6650 -999.25 -999.25 
    69.500 -25.863  3.5980  63.901 -999.25 -999.25  0.1370  63.901  3.5980 -999.25 -999.25 
    70.000 -26.320  3.5050  57.809 -999.25 -999.25 -0.3200  57.809  3.5050 -999.25 -999.25 
    70.500 -26.042  3.4300  52.003 -999.25 -999.25 -0.0420  52.003  3.4300 -999.25 -999.25 
    71.000 -25.266  3.3910  49.972 -999.25 -999.25  0.7340  49.972  3.3910 -999.25 -999.25 
    71.500 -24.490  3.3730  48.902 -999.25 -999.25  1.5100  48.902  3.3730 -999.25 -999.25 
    72.000 -23.786  3.4870  48.474 -999.25 -999.25  2.2140  48.474  3.4870 -999.25 -999.25 
    72.500 -23.401  3.8930  50.645 -999.25 -999.25  2.5990  50.645  3.8930 -999.25 -999.25 
    73.000 -23.300  4.2310  51.571 -999.25 -999.25  2.7000  51.571  4.2310 -999.25 -999.25 
