~Version Information
VERS.                     2.0: CWLS log ASCII Standard Version 2.00
WRAP.                      NO: One line per depth step
~Well Information Block
#MNEM.UNIT                               Data Type  Information
#---------                               ---------  -----------
STRT.FT                                   400.0000:
STOP.FT                                  3500.0000:
STEP.FT                                     0.5000:
NULL.                 -999.25                     :
COMP.                                             :COMPANY            
WELL.     KCL44-34                                :WELL               
FLD .                                             :FIELD              
CTRY.                                             :COUNTRY            
STAT.                                             :STATE              
LOC .                                             :LOCATION           
UWI .                                             :UNIQUE WELL ID     
SRVC.                                             :Service company    
DATE.                                             :LOG DATE           
~Curve Information
#MNEM.UNIT           API CODE  Curve Description
#---------           --------  -----------------
DEPT.FT                      :   1 DEPTH
SP  .MV                      :   2
SN  .OHMM                    :   3
ILD .OHMM                    :   4
SBL .MV                      :   5
RS  .OHMM                    :   6
RD  .OHMM                    :   7
DEPS.FT                      :   8
~A
# ...
  2642.000 -27.856  3.3050  2.5620 -17.717  3.3050  2.5620 -1384.0 
  2642.500 -30.909  3.3120  2.6450 -20.784  3.3120  2.6450 -1384.5 
  2643.000 -34.860  3.3190  2.7450 -24.749  3.3190  2.7450 -1385.0 
  2643.500 -39.458  3.3260  2.7880 -29.362  3.3260  2.7880 -1385.5 
  2644.000 -41.074  3.2540  2.8090 -30.992  3.2540  2.8090 -1386.0 
  2644.500 -41.756  3.0310  2.8090 -31.689  3.0310  2.8090 -1386.5 
  2645.000 -42.295  2.7650  2.6290 -32.242  2.7650  2.6290 -1387.0 
  2645.500 -41.935  2.6430  2.4280 -31.897  2.6430  2.4280 -1387.5 
  2646.000 -40.497  2.6210  2.2630 -30.473  2.6210  2.2630 -1388.0 
  2646.500 -39.598  2.6000  2.0970 -29.588  2.6000  2.0970 -1388.5 
  2647.000 -38.807  2.5850  2.0400 -28.812  2.5850  2.0400 -1389.0 
  2647.500 -38.411  2.5560  2.0250 -28.430  2.5560  2.0250 -1389.5 
  2648.000 -38.877  2.5350  2.0180 -28.911  2.5350  2.0180 -1390.0 
  2648.500 -39.379  2.4980  2.0390 -29.427  2.4980  2.0390 -1390.5 
  2649.000 -39.774  2.4770  2.0680 -29.836  2.4770  2.0680 -1391.0 
  2649.500 -38.731  2.7350  2.1390 -28.808  2.7350  2.1390 -1391.5 
  2650.000 -38.156  2.9640  2.2320 -28.247  2.9640  2.2320 -1392.0 
  2650.500 -38.048  3.2160  2.4700 -28.154  3.2160  2.4700 -1392.5 
  2651.000 -39.341  3.4610  2.6790 -29.461  3.4610  2.6790 -1393.0 
  2651.500 -42.036  3.6340  2.8090 -32.171  3.6340  2.8090 -1393.5 
  2652.000 -43.329  3.7710  2.9460 -33.478  3.7710  2.9460 -1394.0 
  2652.500 -42.108  3.8580  2.9890 -32.271  3.8580  2.9890 -1394.5 
  2653.000 -41.030  3.9230  3.0080 -31.208  3.9230  3.0080 -1395.0 
  2653.500 -40.958  3.7090  3.0270 -31.150  3.7090  3.0270 -1395.5 
  2654.000 -40.419  3.4720  2.9770 -30.626  3.4720  2.9770 -1396.0 
  2654.500 -38.982  3.3080  2.8920 -29.203  3.3080  2.8920 -1396.5 
  2655.000 -37.617  3.2440  2.7490 -27.853  3.2440  2.7490 -1397.0 
  2655.500 -36.862  3.2090  2.6710 -27.112  3.2090  2.6710 -1397.5 
  2656.000 -35.210  3.5260  2.6500 -25.474  3.5260  2.6500 -1398.0 
  2656.500 -34.635  3.8060  2.7010 -24.914  3.8060  2.7010 -1398.5 
  2657.000 -34.455  3.9650  2.9820 -24.748  3.9650  2.9820 -1399.0 
  2657.500 -34.239  4.1450  3.7290 -24.547  4.1450  3.7290 -1399.5 
  2658.000 -36.323  4.3250  3.9300 -26.645  4.3250  3.9300 -1400.0 
  2658.500 -37.401  4.4910  4.1250 -27.738  4.4910  4.1250 -1400.5 
  2659.000 -37.940  4.6350  4.3050 -28.291  4.6350  4.3050 -1401.0 
  2659.500 -38.263  4.7010  4.3780 -28.628  4.7010  4.3780 -1401.5 
  2660.000 -35.784  4.7370  4.4640 -26.164  4.7370  4.4640 -1402.0 
  2660.500 -34.060  4.6450  4.4650 -24.454  4.6450  4.4650 -1402.5 
  2661.000 -32.371  4.4080  4.3800 -22.780  4.4080  4.3800 -1403.0 
  2661.500 -30.467  4.1580  4.1790 -20.890  4.1580  4.1790 -1403.5 
  2662.000 -28.239  3.8720  3.9070 -18.677  3.8720  3.9070 -1404.0 
  2662.500 -27.198  3.7570  3.6710 -17.650  3.7570  3.6710 -1404.5 
  2663.000 -26.551  3.5860  3.5070 -17.017  3.5860  3.5070 -1405.0 
  2663.500 -26.192  3.3710  3.3500 -16.673  3.3710  3.3500 -1405.5 
  2664.000 -26.084  3.2860  3.1640 -16.579  3.2860  3.1640 -1406.0 
  2664.500 -26.479  3.1860  3.0070 -16.989  3.1860  3.0070 -1406.5 
  2665.000 -26.802  3.1370  2.8350 -17.326  3.1370  2.8350 -1407.0 
  2665.500 -27.198  3.1160  2.7070 -17.736  3.1160  2.7070 -1407.5 
  2666.000 -26.371  3.1520  2.6710 -16.924  3.1520  2.6710 -1408.0 
  2666.500 -25.724  3.1820  2.7150 -16.291  3.1820  2.7150 -1408.5 
  2667.000 -25.365  3.2110  2.7520 -15.947  3.2110  2.7520 -1409.0 
  2667.500 -25.150  3.2480  2.7850 -15.746  3.2480  2.7850 -1409.5 
  2668.000 -27.269  3.2840  2.8180 -17.880  3.2840  2.8180 -1410.0 
  2668.500 -27.665  3.3210  2.8830 -18.290  3.3210  2.8830 -1410.5 
  2669.000 -27.701  3.3500  2.9020 -18.340  3.3500  2.9020 -1411.0 
  2669.500 -25.150  3.3580  2.9200 -15.804  3.3580  2.9200 -1411.5 
  2670.000 -23.281  3.3810  2.9430 -13.949  3.3810  2.9430 -1412.0 
  2670.500 -22.347  3.3880  2.9360 -13.030  3.3880  2.9360 -1412.5 
  2671.000 -21.629  3.3890  2.8650 -12.326  3.3890  2.8650 -1413.0 
  2671.500 -21.018  3.3900  2.8300 -11.730  3.3900  2.8300 -1413.5 
  2672.000 -20.587  3.3830  2.7660 -11.313  3.3830  2.7660 -1414.0 
  2672.500 -20.156  3.3700  2.7310 -10.896  3.3700  2.7310 -1414.5 
  2673.000 -20.659  3.3270  2.7750 -11.414  3.3270  2.7750 -1415.0 
  2673.500 -21.485  3.3000  2.8190 -12.254  3.3000  2.8190 -1415.5 
  2674.000 -21.844  3.2710  2.8910 -12.628  3.2710  2.8910 -1416.0 
  2674.500 -22.383  3.2870  3.0280 -13.181  3.2870  3.0280 -1416.5 
  2675.000 -22.814  3.6960  3.2300 -13.626  3.6960  3.2300 -1417.0 
  2675.500 -23.712  4.2140  3.4670 -14.539  4.2140  3.4670 -1417.5 
  2676.000 -24.611  4.6380  3.7050 -15.452  4.6380  3.7050 -1418.0 
  2676.500 -26.335  5.0410  3.9000 -17.191  5.0410  3.9000 -1418.5 
  2677.000 -28.419  5.2280  4.0080 -19.289  5.2280  4.0080 -1419.0 
  2677.500 -32.946  5.3080  4.0590 -23.831  5.3080  4.0590 -1419.5 
  2678.000 -34.850  5.3230  4.1100 -25.749  5.3230  4.1100 -1420.0 
  2678.500 -35.784  5.1870  4.1610 -26.697  5.1870  4.1610 -1420.5 
  2679.000 -36.431  4.8860  4.1690 -27.359  4.8860  4.1690 -1421.0 
  2679.500 -36.970  4.0760  3.7240 -27.912  4.0760  3.7240 -1421.5 
  2680.000 -37.114  3.6680  3.4450 -28.071  3.6680  3.4450 -1422.0 
  2680.500 -35.964  3.2740  3.2660 -26.935  3.2740  3.2660 -1422.5 
  2681.000 -33.629  3.0730  2.9940 -24.615  3.0730  2.9940 -1423.0 
  2681.500 -31.473  2.9380  2.7510 -22.473  2.9380  2.7510 -1423.5 
  2682.000 -28.527  2.8520  2.5440 -19.541  2.8520  2.5440 -1424.0 
  2682.500 -27.341  2.7960  2.4010 -18.370  2.7960  2.4010 -1424.5 
  2683.000 -25.653  2.7390  2.3370 -16.696  2.7390  2.3370 -1425.0 
  2683.500 -24.215  2.6890  2.3020 -15.273  2.6890  2.3020 -1425.5 
  2684.000 -23.533  2.6540  2.3030 -14.605  2.6540  2.3030 -1426.0 
  2684.500 -22.886  2.6260  2.2890 -13.973  2.6260  2.2890 -1426.5 
  2685.000 -22.437  2.8490  2.2820 -13.538  2.8490  2.2820 -1427.0 
  2685.500 -21.988  2.9360  2.3120 -13.103  2.9360  2.3120 -1427.5 
  2686.000 -21.952  3.0660  2.3630 -13.082  3.0660  2.3630 -1428.0 
  2686.500 -22.599  3.1670  2.5360 -13.743  3.1670  2.5360 -1428.5 
  2687.000 -22.958  3.2690  2.6730 -14.117  3.2690  2.6730 -1429.0 
  2687.500 -21.377  3.4270  2.8100 -12.550  3.4270  2.8100 -1429.5 
  2688.000 -20.479  3.4930  2.8250 -11.667  3.4930  2.8250 -1430.0 
  2688.500 -19.688  3.6220  2.9410 -10.890  3.6220  2.9410 -1430.5 
  2689.000 -19.078  3.7950  3.1500 -10.294  3.7950  3.1500 -1431.0 
  2689.500 -18.719  4.0400  3.3220 -9.9498  4.0400  3.3220 -1431.5 
  2690.000 -18.539  4.7950  3.6320 -9.7842  4.7950  3.6320 -1432.0 
  2690.500 -20.551  5.4990  3.8410 -11.811  5.4990  3.8410 -1432.5 
  2691.000 -22.671  6.5470  4.2510 -13.945  6.5470  4.2510 -1433.0 
  2691.500 -22.275  7.1870  4.6890 -13.563  7.1870  4.6890 -1433.5 
  2692.000 -21.808  9.6140  5.0920 -13.111  9.6140  5.0920 -1434.0 
  2692.500 -23.389  10.885  5.8750 -14.706  10.885  5.8750 -1434.5 
  2693.000 -24.611  11.976  6.3560 -15.943  11.976  6.3560 -1435.0 
  2693.500 -24.970  17.181  7.0820 -16.316  17.181  7.0820 -1435.5 
  2694.000 -25.006  18.150  7.3550 -16.367  18.150  7.3550 -1436.0 
  2694.500 -24.898  18.388  7.4490 -16.273  18.388  7.4490 -1436.5 
  2695.000 -24.754  18.475  7.2710 -16.143  18.475  7.2710 -1437.0 
  2695.500 -24.539  18.476  6.9770 -15.943  18.476  6.9770 -1437.5 
  2696.000 -24.000  15.519  5.4200 -15.418  15.519  5.4200 -1438.0 
  2696.500 -22.850  14.206  4.4090 -14.283  14.206  4.4090 -1438.5 
  2697.000 -21.701  6.6780  3.9360 -13.148  6.6780  3.9360 -1439.0 
  2697.500 -20.659  3.5210  3.5850 -12.121  3.5210  3.5850 -1439.5 
  2698.000 -19.976  3.1480  3.1050 -11.452  3.1480  3.1050 -1440.0 
  2698.500 -18.359  2.8900  2.8110 -9.8494  2.8900  2.8110 -1440.5 
  2699.000 -16.527  2.6330  2.5390 -8.0318  2.6330  2.5390 -1441.0 
  2699.500 -14.587  2.4400  2.3820 -6.1062  2.4400  2.3820 -1441.5 
  2700.000 -13.545  2.3610  2.2610 -5.0787  2.3610  2.2610 -1442.0 
  2700.500 -12.465  2.5340  2.2110 -4.0131  2.5340  2.2110 -1442.5 
