~Version Information
VERS.                     2.0: CWLS log ASCII Standard Version 2.00
WRAP.                      NO: One line per depth step
~Well Information Block
#MNEM.UNIT                               Data Type  Information
#---------                               ---------  -----------
STRT.FT                                    30.0000:
STOP.FT                                  5850.0000:
STEP.FT                                     0.5000:
NULL.                 -999.25                     :
COMP.                                             :COMPANY            
WELL.     KCL44-43                                :WELL               
FLD .                                             :FIELD              
CTRY.                                             :COUNTRY            
STAT.                                             :STATE              
LOC .                                             :LOCATION           
UWI .                                             :UNIQUE WELL ID     
SRVC.                                             :Service company    
DATE.                                             :LOG DATE           
~Curve Information
#MNEM.UNIT           API CODE  Curve Description
#---------           --------  -----------------
DEPT.FT                      :   1 DEPTH
SP  .MV                      :   2
ILD .OHMM                    :   3
SN  .OHMM                    :   4
GR  .RE/T                    :   5
NEUT.CPS                     :   6
SBL .MV                      :   7
RS  .OHMM                    :   8
RD  .OHMM                    :   9
NEUS.CPS                     :  10
GRS .RE/T                    :  11
~A
# ...
  5815.500 -999.25  5.3910 -999.25  4.7510  297.12 -999.25 -999.25  5.3910  297.12  4.7510 
  5816.000 -999.25  5.4950 -999.25  4.7640  300.06 -999.25 -999.25  5.4950  300.06  4.7640 
  5816.500 -999.25  5.5700 -999.25  4.7680  301.39 -999.25 -999.25  5.5700  301.39  4.7680 
  5817.000 -999.25  5.6450 -999.25  4.7650  302.99 -999.25 -999.25  5.6450  302.99  4.7650 
  5817.500 -999.25  5.7130 -999.25  4.7470  304.38 -999.25 -999.25  5.7130  304.38  4.7470 
  5818.000 -999.25  5.7590 -999.25  4.7720  305.29 -999.25 -999.25  5.7590  305.29  4.7720 
  5818.500 -999.25  5.7950 -999.25  4.8770  305.45 -999.25 -999.25  5.7950  305.45  4.8770 
  5819.000 -999.25  5.6810 -999.25  4.9380  305.39 -999.25 -999.25  5.6810  305.39  4.9380 
  5819.500 -999.25  5.5890 -999.25  4.9710  304.17 -999.25 -999.25  5.5890  304.17  4.9710 
  5820.000 -999.25  5.4000 -999.25  5.0040  302.35 -999.25 -999.25  5.4000  302.35  5.0040 
  5820.500 -999.25  5.2590 -999.25  5.0520  298.98 -999.25 -999.25  5.2590  298.98  5.0520 
  5821.000 -999.25  4.9790 -999.25  5.0680  294.07 -999.25 -999.25  4.9790  294.07  5.0680 
  5821.500 -999.25  4.8600 -999.25  5.0710  289.85 -999.25 -999.25  4.8600  289.85  5.0710 
  5822.000 -999.25  4.7510 -999.25  5.0750  283.65 -999.25 -999.25  4.7510  283.65  5.0750 
  5822.500 -999.25  4.8530 -999.25  5.0760  283.49 -999.25 -999.25  4.8530  283.49  5.0760 
  5823.000 -999.25  5.0580 -999.25  5.0990  284.60 -999.25 -999.25  5.0580  284.60  5.0990 
  5823.500 -999.25  5.1990 -999.25  5.1240  285.98 -999.25 -999.25  5.1990  285.98  5.1240 
  5824.000 -999.25  5.2540 -999.25  5.1610  290.99 -999.25 -999.25  5.2540  290.99  5.1610 
  5824.500 -999.25  5.2950 -999.25  5.1890  294.40 -999.25 -999.25  5.2950  294.40  5.1890 
  5825.000 -999.25  5.3360 -999.25  5.2230  297.34 -999.25 -999.25  5.3360  297.34  5.2230 
  5825.500 -999.25  5.3800 -999.25  5.2400  299.84 -999.25 -999.25  5.3800  299.84  5.2400 
  5826.000 -999.25  5.2500 -999.25  5.2610  301.38 -999.25 -999.25  5.2500  301.38  5.2610 
  5826.500 -999.25  5.2060 -999.25  5.2470  302.28 -999.25 -999.25  5.2060  302.28  5.2470 
  5827.000 -999.25  5.1680 -999.25  5.2040  301.32 -999.25 -999.25  5.1680  301.32  5.2040 
  5827.500 -999.25  5.0200 -999.25  5.2060  300.36 -999.25 -999.25  5.0200  300.36  5.2060 
  5828.000 -999.25  4.8870 -999.25  5.2480  298.10 -999.25 -999.25  4.8870  298.10  5.2480 
  5828.500 -999.25  4.9350 -999.25  5.2570  296.50 -999.25 -999.25  4.9350  296.50  5.2570 
  5829.000 -999.25  5.2820 -999.25  5.1130  294.78 -999.25 -999.25  5.2820  294.78  5.1130 
  5829.500 -999.25  5.4800 -999.25  5.0560  293.77 -999.25 -999.25  5.4800  293.77  5.0560 
  5830.000 -999.25  5.6850 -999.25  4.9550  292.96 -999.25 -999.25  5.6850  292.96  4.9550 
  5830.500 -999.25  5.8400 -999.25  4.8940  292.41 -999.25 -999.25  5.8400  292.41  4.8940 
  5831.000 -999.25  6.0240 -999.25  4.9110  293.53 -999.25 -999.25  6.0240  293.53  4.9110 
  5831.500 -999.25  6.1220 -999.25  4.9690  294.96 -999.25 -999.25  6.1220  294.96  4.9690 
  5832.000 -999.25  6.1640 -999.25  5.0310  296.12 -999.25 -999.25  6.1640  296.12  5.0310 
  5832.500 -999.25  6.2050 -999.25  5.0880  297.02 -999.25 -999.25  6.2050  297.02  5.0880 
  5833.000 -999.25  6.1420 -999.25  5.1530  297.75 -999.25 -999.25  6.1420  297.75  5.1530 
  5833.500 -999.25  5.9660 -999.25  5.2020  297.48 -999.25 -999.25  5.9660  297.48  5.2020 
  5834.000 -999.25  5.6120 -999.25  5.2390  295.65 -999.25 -999.25  5.6120  295.65  5.2390 
  5834.500 -999.25  5.1680 -999.25  5.2800  292.97 -999.25 -999.25  5.1680  292.97  5.2800 
  5835.000 -999.25  4.7350 -999.25  5.3310  290.24 -999.25 -999.25  4.7350  290.24  5.3310 
  5835.500 -999.25  4.4810 -999.25  5.3550  287.24 -999.25 -999.25  4.4810  287.24  5.3550 
  5836.000 -999.25  4.3860 -999.25  5.3830  284.13 -999.25 -999.25  4.3860  284.13  5.3830 
  5836.500 -999.25  4.3130 -999.25  5.4100  281.56 -999.25 -999.25  4.3130  281.56  5.4100 
  5837.000 -999.25  4.2870 -999.25  5.4320  280.00 -999.25 -999.25  4.2870  280.00  5.4320 
  5837.500 -999.25  4.3320 -999.25  5.4390  278.18 -999.25 -999.25  4.3320  278.18  5.4390 
  5838.000 -999.25  4.4080 -999.25  5.2490  278.17 -999.25 -999.25  4.4080  278.17  5.2490 
  5838.500 -999.25  4.4780 -999.25  5.2030  278.16 -999.25 -999.25  4.4780  278.16  5.2030 
  5839.000 -999.25  4.5370 -999.25  5.1580  278.60 -999.25 -999.25  4.5370  278.60  5.1580 
  5839.500 -999.25  4.5890 -999.25  5.0840  279.05 -999.25 -999.25  4.5890  279.05  5.0840 
  5840.000 -999.25  4.6230 -999.25  5.0260  280.36 -999.25 -999.25  4.6230  280.36  5.0260 
  5840.500 -999.25  4.6600 -999.25  4.9750  281.60 -999.25 -999.25  4.6600  281.60  4.9750 
  5841.000 -999.25  4.6960 -999.25  4.9190  283.21 -999.25 -999.25  4.6960  283.21  4.9190 
  5841.500 -999.25  4.7570 -999.25  4.8690  285.52 -999.25 -999.25  4.7570  285.52  4.8690 
  5842.000 -999.25  4.8050 -999.25  4.8430  287.23 -999.25 -999.25  4.8050  287.23  4.8430 
  5842.500 -999.25  4.8590 -999.25  4.9470  289.33 -999.25 -999.25  4.8590  289.33  4.9470 
  5843.000 -999.25  4.9100 -999.25  4.9840  291.15 -999.25 -999.25  4.9100  291.15  4.9840 
  5843.500 -999.25  4.9640 -999.25  5.0240  292.12 -999.25 -999.25  4.9640  292.12  5.0240 
  5844.000 -999.25  5.0040 -999.25  5.0530  293.09 -999.25 -999.25  5.0040  293.09  5.0530 
  5844.500 -999.25  4.7770 -999.25  5.0770  294.64 -999.25 -999.25  4.7770  294.64  5.0770 
  5845.000 -999.25  4.6890 -999.25  5.1000  295.03 -999.25 -999.25  4.6890  295.03  5.1000 
  5845.500 -999.25  4.5610 -999.25  5.1080  293.65 -999.25 -999.25  4.5610  293.65  5.1080 
  5846.000 -999.25  4.4770 -999.25  5.1110  291.90 -999.25 -999.25  4.4770  291.90  5.1110 
  5846.500 -999.25  4.4280 -999.25  5.0670  294.25 -999.25 -999.25  4.4280  294.25  5.0670 
  5847.000 -999.25  4.4140 -999.25  5.0100  297.15 -999.25 -999.25  4.4140  297.15  5.0100 
  5847.500 -999.25  4.4150 -999.25  4.9490  299.50 -999.25 -999.25  4.4150  299.50  4.9490 
  5848.000 -999.25  4.4160 -999.25  4.8820  300.79 -999.25 -999.25  4.4160  300.79  4.8820 
  5848.500 -999.25  4.4170 -999.25  4.8080  301.55 -999.25 -999.25  4.4170  301.55  4.8080 
  5849.000 -999.25  4.4180 -999.25  4.7600  302.30 -999.25 -999.25  4.4180  302.30  4.7600 
  5849.500 -999.25  4.4190 -999.25  4.7560  303.01 -999.25 -999.25  4.4190  303.01  4.7560 
  5850.000 -999.25 -999.25 -999.25  4.8220  303.66 -999.25 -999.25 -999.25  303.66  4.8220 
