~Version Information
VERS.                     2.0: CWLS log ASCII Standard Version 2.00
WRAP.                      NO: One line per depth step
~Well Information Block
#MNEM.UNIT                               Data Type  Information
#---------                               ---------  -----------
STRT.FT                                   400.0000:
STOP.FT                                  3500.0000:
STEP.FT                                     0.5000:
NULL.                 -999.25                     :
COMP.                                             :COMPANY            
WELL.     KCL44-34                                :WELL               
FLD .                                             :FIELD              
CTRY.                                             :COUNTRY            
STAT.                                             :STATE              
LOC .                                             :LOCATION           
UWI .                                             :UNIQUE WELL ID     
SRVC.                                             :Service company    
DATE.                                             :LOG DATE           
~Curve Information
#MNEM.UNIT           API CODE  Curve Description
#---------           --------  -----------------
DEPT.FT                      :   1 DEPTH
SP  .MV                      :   2
SN  .OHMM                    :   3
ILD .OHMM                    :   4
SBL .MV                      :   5
RS  .OHMM                    :   6
RD  .OHMM                    :   7
DEPS.FT                      :   8
~A
# ...
  1226.000 -28.256  1.4410  1.5160 -16.809  1.4410  1.5160  32.000 
  1226.500 -27.034  1.4430  1.5160 -15.626  1.4430  1.5160  31.500 
  1227.000 -25.310  1.4300  1.5090 -13.941  1.4300  1.5090  31.000 
  1227.500 -24.303  1.4320  1.5240 -12.973  1.4320  1.5240  30.500 
  1228.000 -23.584  1.4550  1.5460 -12.293  1.4550  1.5460  30.000 
  1228.500 -23.224  1.4780  1.5860 -11.972  1.4780  1.5860  29.500 
  1229.000 -23.726  1.5230  1.6260 -12.513  1.5230  1.6260  29.000 
  1229.500 -24.191  1.5750  1.6980 -13.017  1.5750  1.6980  28.500 
  1230.000 -24.729  1.6190  1.7700 -13.595  1.6190  1.7700  28.000 
  1230.500 -25.051  1.6780  1.8280 -13.956  1.6780  1.8280  27.500 
  1231.000 -25.194  1.7730  1.9080 -14.138  1.7730  1.9080  27.000 
  1231.500 -25.013  1.8680  1.9370 -13.996  1.8680  1.9370  26.500 
  1232.000 -24.832  1.9340  1.9660 -13.854  1.9340  1.9660  26.000 
  1232.500 -24.616  1.9570  1.9840 -13.677  1.9570  1.9840  25.500 
  1233.000 -24.507  1.8520  2.0030 -13.607  1.8520  2.0030  25.000 
  1233.500 -24.506  1.8210  1.9240 -13.645  1.8210  1.9240  24.500 
  1234.000 -25.115  1.7900  1.8240 -14.293  1.7900  1.8240  24.000 
  1234.500 -26.120  1.6700  1.7100 -15.338  1.6700  1.7100  23.500 
  1235.000 -26.729  1.6180  1.6450 -15.986  1.6180  1.6450  23.000 
  1235.500 -27.123  1.5650  1.6310 -16.419  1.5650  1.6310  22.500 
  1236.000 -27.337  1.5240  1.6100 -16.672  1.5240  1.6100  22.000 
  1236.500 -27.695  1.4970  1.5890 -17.069  1.4970  1.5890  21.500 
  1237.000 -27.802  1.4990  1.5820 -17.215  1.4990  1.5820  21.000 
  1237.500 -27.765  1.5010  1.5830 -17.217  1.5010  1.5830  20.500 
  1238.000 -27.656  1.5450  1.6190 -17.147  1.5450  1.6190  20.000 
  1238.500 -27.188  1.5930  1.6480 -16.719  1.5930  1.6480  19.500 
  1239.000 -24.997  1.6410  1.6780 -14.567  1.6410  1.6780  19.000 
  1239.500 -22.303  1.7660  1.7140 -11.912  1.7660  1.7140  18.500 
  1240.000 -21.476  1.8390  1.7860 -11.124  1.8390  1.7860  18.000 
  1240.500 -21.223  1.8760  1.8330 -10.910  1.8760  1.8330  17.500 
  1241.000 -21.222  1.8850  1.8800 -10.948  1.8850  1.8800  17.000 
  1241.500 -20.072  1.9010  1.9310 -9.8373  1.9010  1.9310  16.500 
  1242.000 -15.439  1.9250  1.9530 -5.2434  1.9250  1.9530  16.000 
  1242.500 -14.971  1.9330  1.9530 -4.8145  1.9330  1.9530  15.500 
  1243.000 -14.755  1.9420  1.9540 -4.6376  1.9420  1.9540  15.000 
  1243.500 -14.861  1.9440  1.9690 -4.7828  1.9440  1.9690  14.500 
  1244.000 -18.343  1.9410  1.9690 -8.3039  1.9410  1.9690  14.000 
  1244.500 -20.102  1.9390  1.9620 -10.102  1.9390  1.9620  13.500 
  1245.000 -19.777  1.9050  1.9550 -9.7747  1.9050  1.9550  13.000 
  1245.500 -17.191  1.8890  1.9340 -7.1864  1.8890  1.9340  12.500 
  1246.000 -13.384  1.8720  1.9060 -3.3771  1.8720  1.9060  12.000 
  1246.500 -12.054  1.8560  1.8850 -2.0448  1.8560  1.8850  11.500 
  1247.000 -11.874  1.8400  1.8710 -1.8624  1.8400  1.8710  11.000 
  1247.500 -12.016  1.8060  1.8500 -2.0021  1.8060  1.8500  10.500 
  1248.000 -21.746  1.7870  1.8290 -11.730  1.7870  1.8290  10.000 
  1248.500 -25.120  1.7740  1.7790 -15.102  1.7740  1.7790  9.5000 
  1249.000 -26.052  1.7540  1.7650 -16.031  1.7540  1.7650  9.0000 
  1249.500 -26.590  1.7410  1.7510 -16.567  1.7410  1.7510  8.5000 
  1250.000 -24.434  1.7280  1.7300 -14.409  1.7280  1.7300  8.0000 
  1250.500 -23.247  1.7010  1.7090 -13.219  1.7010  1.7090  7.5000 
  1251.000 -23.244  1.6890  1.6950 -13.214  1.6890  1.6950  7.0000 
  1251.500 -21.876  1.6760  1.6800 -11.844  1.6760  1.6800  6.5000 
  1252.000 -19.971  1.6560  1.6770 -9.9363  1.6560  1.6770  6.0000 
  1252.500 -19.393  1.6220  1.6740 -9.3560  1.6220  1.6740  5.5000 
  1253.000 -21.724  1.6160  1.6740 -11.685  1.6160  1.6740  5.0000 
  1253.500 -23.481  1.6100  1.6740 -13.439  1.6100  1.6740  4.5000 
  1254.000 -24.196  1.6080  1.6740 -14.152  1.6080  1.6740  4.0000 
  1254.500 -23.726  1.6060  1.6850 -13.680  1.6060  1.6850  3.5000 
  1255.000 -23.041  1.6370  1.6960 -12.992  1.6370  1.6960  3.0000 
  1255.500 -22.392  1.6740  1.7110 -12.341  1.6740  1.7110  2.5000 
  1256.000 -21.707  1.7110  1.7250 -11.654  1.7110  1.7250  2.0000 
  1256.500 -21.453  1.7480  1.7800 -11.398  1.7480  1.7800  1.5000 
  1257.000 -21.199  1.8110  1.8340 -11.141  1.8110  1.8340  1.0000 
  1257.500 -21.052  1.8730  1.8910 -10.992  1.8730  1.8910  0.5000 
  1258.000 -21.695  2.0120  1.9420 -11.633  2.0120  1.9420  0.0000 
  1258.500 -22.231  2.0560  2.0070 -12.166  2.0560  2.0070 -0.5000 
  1259.000 -22.623  2.1000  2.0350 -12.556  2.1000  2.0350 -1.0000 
  1259.500 -22.872  2.2100  2.0640 -12.803  2.2100  2.0640 -1.5000 
  1260.000 -17.734  2.2190  2.0970 -7.6623  2.2190  2.0970 -2.0000 
  1260.500 -15.505  2.2270  2.1290 -5.4310  2.2270  2.1290 -2.5000 
  1261.000 -12.917  2.1790  2.1220 -2.8407  2.1790  2.1220 -3.0000 
  1261.500 -12.268  2.1450  2.1660 -2.1894  2.1450  2.1660 -3.5000 
  1262.000 -11.870  2.1320  2.1880 -1.7891  2.1320  2.1880 -4.0000 
  1262.500 -12.047  2.1120  2.1660 -1.9638  2.1120  2.1660 -4.5000 
  1263.000 -21.451  2.0560  2.1160 -11.365  2.0560  2.1160 -5.0000 
  1263.500 -23.854  2.0150  2.0730 -13.766  2.0150  2.0730 -5.5000 
  1264.000 -23.995  1.9730  2.0160 -13.905  1.9730  2.0160 -6.0000 
  1264.500 -22.664  1.9310  1.9910 -12.572  1.9310  1.9910 -6.5000 
  1265.000 -19.250  1.8620  1.9660 -9.1552  1.8620  1.9660 -7.0000 
  1265.500 -18.564  1.8200  1.9160 -8.4669  1.8200  1.9160 -7.5000 
  1266.000 -18.705  1.8000  1.9090 -8.6056  1.8000  1.9090 -8.0000 
  1266.500 -21.539  1.7800  1.9170 -11.437  1.7800  1.9170 -8.5000 
  1267.000 -22.506  1.7680  1.9600 -12.402  1.7680  1.9600 -9.0000 
  1267.500 -19.163  1.7660  1.9820 -9.0566  1.7660  1.9820 -9.5000 
  1268.000 -17.437  1.7640  1.9960 -7.3283  1.7640  1.9960 -10.000 
  1268.500 -16.824  1.7790  2.0110 -6.7130  1.7790  2.0110 -10.500 
  1269.000 -16.677  1.8390  2.0540 -6.5637  1.8390  2.0540 -11.000 
  1269.500 -18.146  1.8620  2.0830 -8.0304  1.8620  2.0830 -11.500 
  1270.000 -20.262  1.9130  2.0980 -10.144  1.9130  2.0980 -12.000 
  1270.500 -21.229  1.9650  2.1050 -11.109  1.9650  2.1050 -12.500 
  1271.000 -22.016  2.0170  2.1050 -11.893  2.0170  2.1050 -13.000 
  1271.500 -22.372  2.0470  2.0910 -12.247  2.0470  2.0910 -13.500 
  1272.000 -17.629  1.9990  2.0630 -7.5018  1.9990  2.0630 -14.000 
  1272.500 -16.729  1.9570  2.0340 -6.5995  1.9570  2.0340 -14.500 
  1273.000 -16.618  1.8940  1.9840 -6.4862  1.8940  1.9840 -15.000 
  1273.500 -16.544  1.8450  1.9340 -6.4099  1.8450  1.9340 -15.500 
  1274.000 -16.469  1.7900  1.8770 -6.3326  1.7900  1.8770 -16.000 
  1274.500 -16.610  1.7630  1.8270 -6.4713  1.7630  1.8270 -16.500 
  1275.000 -18.654  1.7430  1.8050 -8.5130  1.7430  1.8050 -17.000 
  1275.500 -19.943  1.7230  1.7410 -9.7996  1.7230  1.7410 -17.500 
  1276.000 -20.515  1.6850  1.7200 -10.369  1.6850  1.7200 -18.000 
  1276.500 -21.410  1.6470  1.6980 -11.262  1.6470  1.6980 -18.500 
  1277.000 -21.694  1.6130  1.6410 -11.544  1.6130  1.6410 -19.000 
  1277.500 -21.835  1.6000  1.6200 -11.682  1.6000  1.6200 -19.500 
  1278.000 -21.670  1.5800  1.6130 -11.515  1.5800  1.6130 -20.000 
  1278.500 -21.506  1.5670  1.5990 -11.349  1.5670  1.5990 -20.500 
  1279.000 -21.036  1.5540  1.6350 -10.876  1.5540  1.6350 -21.000 
  1279.500 -20.764  1.5270  1.6710 -10.602  1.5270  1.6710 -21.500 
  1280.000 -20.492  1.5290  1.6930 -10.328  1.5290  1.6930 -22.000 
  1280.500 -21.351  1.5880  1.7150 -11.185  1.5880  1.7150 -22.500 
  1281.000 -22.569  1.6260  1.7180 -12.400  1.6260  1.7180 -23.000 
  1281.500 -22.350  1.6480  1.7220 -12.179  1.6480  1.7220 -23.500 
  1282.000 -20.911  1.6710  1.7220 -10.738  1.6710  1.7220 -24.000 
  1282.500 -20.370  1.6810  1.7150 -10.194  1.6810  1.7150 -24.500 
  1283.000 -20.331  1.6820  1.7010 -10.153  1.6820  1.7010 -25.000 
  1283.500 -23.452  1.6690  1.6800 -13.272  1.6690  1.6800 -25.500 
  1284.000 -24.814  1.6640  1.6660 -14.631  1.6640  1.6660 -26.000 
  1284.500 -26.067  1.6510  1.6370 -15.882  1.6510  1.6370 -26.500 
