~Version Information
VERS.                     2.0: CWLS log ASCII Standard Version 2.00
WRAP.                      NO: One line per depth step
~Well Information Block
#MNEM.UNIT                               Data Type  Information
#---------                               ---------  -----------
STRT.FT                                   400.0000:
STOP.FT                                  3500.0000:
STEP.FT                                     0.5000:
NULL.                 -999.25                     :
COMP.                                             :COMPANY            
WELL.     KCL44-34                                :WELL               
FLD .                                             :FIELD              
CTRY.                                             :COUNTRY            
STAT.                                             :STATE              
LOC .                                             :LOCATION           
UWI .                                             :UNIQUE WELL ID     
SRVC.                                             :Service company    
DATE.                                             :LOG DATE           
~Curve Information
#MNEM.UNIT           API CODE  Curve Description
#---------           --------  -----------------
DEPT.FT                      :   1 DEPTH
SP  .MV                      :   2
SN  .OHMM                    :   3
ILD .OHMM                    :   4
SBL .MV                      :   5
RS  .OHMM                    :   6
RD  .OHMM                    :   7
DEPS.FT                      :   8
~A
# ...
  3468.000 -31.437  8.3980  6.3740 -31.437  8.3980  6.3740 -2210.0 
  3468.500 -32.048  8.4700  6.4030 -32.048  8.4700  6.4030 -2210.5 
  3469.000 -32.515  8.5000  6.4540 -32.515  8.5000  6.4540 -2211.0 
  3469.500 -31.688  8.2920  6.4480 -31.688  8.2920  6.4480 -2211.5 
  3470.000 -31.509  7.8620  6.4270 -31.509  7.8620  6.4270 -2212.0 
  3470.500 -31.509  7.4250  6.1550 -31.509  7.4250  6.1550 -2212.5 
  3471.000 -30.395  6.9590  5.8970 -30.395  6.9590  5.8970 -2213.0 
  3471.500 -29.317  6.0910  5.7470 -29.317  6.0910  5.7470 -2213.5 
  3472.000 -28.239  5.6540  5.5610 -28.239  5.6540  5.5610 -2214.0 
  3472.500 -27.772  5.5760  5.0450 -27.772  5.5760  5.0450 -2214.5 
  3473.000 -27.844  5.4900  4.5500 -27.844  5.4900  4.5500 -2215.0 
  3473.500 -28.132  5.4050  4.3350 -28.132  5.4050  4.3350 -2215.5 
  3474.000 -27.772  5.3120  4.2280 -27.772  5.3120  4.2280 -2216.0 
  3474.500 -26.623  5.2620  4.1570 -26.623  5.2620  4.1570 -2216.5 
  3475.000 -24.539  5.1840  4.0790 -24.539  5.1840  4.0790 -2217.0 
  3475.500 -23.964  5.2200  4.0360 -23.964  5.2200  4.0360 -2217.5 
  3476.000 -23.784  5.9030  4.0150 -23.784  5.9030  4.0150 -2218.0 
  3476.500 -28.096  6.1330  4.0160 -28.096  6.1330  4.0160 -2218.5 
  3477.000 -31.437  6.2090  4.2250 -31.437  6.2090  4.2250 -2219.0 
  3477.500 -32.730  6.2850  4.4410 -32.730  6.2850  4.4410 -2219.5 
  3478.000 -32.910  6.2790  4.7500 -32.910  6.2790  4.7500 -2220.0 
  3478.500 -31.437  6.2720  4.8870 -31.437  6.2720  4.8870 -2220.5 
  3479.000 -30.431  6.2010  5.0020 -30.431  6.2010  5.0020 -2221.0 
  3479.500 -29.928  6.1580  5.1030 -29.928  6.1580  5.1030 -2221.5 
  3480.000 -29.892  6.1370  5.1110 -29.892  6.1370  5.1110 -2222.0 
  3480.500 -30.862  6.0810  5.0610 -30.862  6.0810  5.0610 -2222.5 
  3481.000 -31.617  5.9450  4.9470 -31.617  5.9450  4.9470 -2223.0 
  3481.500 -31.796  5.7730  4.8040 -31.796  5.7730  4.8040 -2223.5 
  3482.000 -30.108  5.5800  4.6400 -30.108  5.5800  4.6400 -2224.0 
  3482.500 -29.174  5.1210  4.3170 -29.174  5.1210  4.3170 -2224.5 
  3483.000 -27.988  4.8200  4.0520 -27.988  4.8200  4.0520 -2225.0 
  3483.500 -27.162  4.5840  3.7800 -27.162  4.5840  3.7800 -2225.5 
  3484.000 -26.443  4.4050  3.6520 -26.443  4.4050  3.6520 -2226.0 
  3484.500 -26.227  4.2550  3.6170 -26.227  4.2550  3.6170 -2226.5 
  3485.000 -25.904  4.1700  3.6060 -25.904  4.1700  3.6060 -2227.0 
  3485.500 -25.796  4.2060  3.5960 -25.796  4.2060  3.5960 -2227.5 
  3486.000 -25.617  4.2430  3.5610 -25.617  4.2430  3.5610 -2228.0 
  3486.500 -25.437  4.2580  3.5540 -25.437  4.2580  3.5540 -2228.5 
  3487.000 -28.096  4.2010  3.5440 -28.096  4.2010  3.5440 -2229.0 
  3487.500 -29.856  4.1440  3.5340 -29.856  4.1440  3.5340 -2229.5 
  3488.000 -31.257  4.0940  3.5270 -31.257  4.0940  3.5270 -2230.0 
  3488.500 -31.796  4.1600  3.5210 -31.796  4.1600  3.5210 -2230.5 
  3489.000 -31.581  4.2320  3.5220 -31.581  4.2320  3.5220 -2231.0 
  3489.500 -31.401  4.3550  3.5220 -31.401  4.3550  3.5220 -2231.5 
  3490.000 -31.401  4.4840  3.6090 -31.401  4.4840  3.6090 -2232.0 
  3490.500 -30.683  4.7080  3.7600 -30.683  4.7080  3.7600 -2232.5 
  3491.000 -30.431  5.0240  3.9470 -30.431  5.0240  3.9470 -2233.0 
  3491.500 -30.323  5.2540  4.1350 -30.323  5.2540  4.1350 -2233.5 
  3492.000 -30.108  5.4270  4.4220 -30.108  5.4270  4.4220 -2234.0 
  3492.500 -29.641  5.5280  4.5810 -29.641  5.5280  4.5810 -2234.5 
  3493.000 -28.527  5.6220  4.7610 -28.527  5.6220  4.7610 -2235.0 
  3493.500 -26.910  5.6950  4.9120 -26.910  5.6950  4.9120 -2235.5 
  3494.000 -17.281  5.7240  5.0060 -17.281  5.7240  5.0060 -2236.0 
  3494.500 -16.168  5.7570  5.0640 -16.168  5.7570  5.0640 -2236.5 
  3495.000 -15.701  5.7900  5.1080 -15.701  5.7900  5.1080 -2237.0 
  3495.500 -15.521  5.8190  5.1440 -15.521  5.8190  5.1440 -2237.5 
  3496.000 -15.701  5.7120  5.1310 -15.701  5.7120  5.1310 -2238.0 
  3496.500 -16.168  5.4610  5.0020 -16.168  5.4610  5.0020 -2238.5 
  3497.000 -21.269  5.3540  4.8590 -21.269  5.3540  4.8590 -2239.0 
  3497.500 -23.102  5.1320  4.5730 -23.102  5.1320  4.5730 -2239.5 
  3498.000 -24.539  5.0110  4.3790 -24.539  5.0110  4.3790 -2240.0 
  3498.500 -25.509  4.8680  4.2440 -25.509  4.8680  4.2440 -2240.5 
  3499.000 -26.299  4.8110  4.1220 -26.299  4.8110  4.1220 -2241.0 
  3499.500 -27.018  4.7470  4.0440 -27.018  4.7470  4.0440 -2241.5 
  3500.000 -27.341  4.6470  3.9870 -27.341  4.6470  3.9870 -2242.0 
