~Version Information
VERS.                     2.0: CWLS log ASCII Standard Version 2.00
WRAP.                      NO: One line per depth step
~Well Information Block
#MNEM.UNIT                               Data Type  Information
#---------                               ---------  -----------
STRT.FT                                   400.0000:
STOP.FT                                  3500.0000:
STEP.FT                                     0.5000:
NULL.                 -999.25                     :
COMP.                                             :COMPANY            
WELL.     KCL44-34                                :WELL               
FLD .                                             :FIELD              
CTRY.                                             :COUNTRY            
STAT.                                             :STATE              
LOC .                                             :LOCATION           
UWI .                                             :UNIQUE WELL ID     
SRVC.                                             :Service company    
DATE.                                             :LOG DATE           
~Curve Information
#MNEM.UNIT           API CODE  Curve Description
#---------           --------  -----------------
DEPT.FT                      :   1 DEPTH
SP  .MV                      :   2
SN  .OHMM                    :   3
ILD .OHMM                    :   4
SBL .MV                      :   5
RS  .OHMM                    :   6
RD  .OHMM                    :   7
DEPS.FT                      :   8
~A
# ...
   577.000 -35.532  6.9930  6.1780 -20.532  6.9930  6.1780  681.00 
   577.500 -36.503  6.9940  6.2210 -21.503  6.9940  6.2210  680.50 
   578.000 -34.205  6.9520  6.2420 -19.205  6.9520  6.2420  680.00 
   578.500 -33.237  6.7300  6.2500 -18.237  6.7300  6.2500  679.50 
   579.000 -33.058  6.1430  6.1990 -18.058  6.1430  6.1990  679.00 
   579.500 -33.059  5.7720  5.9770 -18.059  5.7720  5.9770  678.50 
   580.000 -32.952  5.6650  4.9500 -17.952  5.6650  4.9500  678.00 
   580.500 -32.916  5.6310  4.7060 -17.916  5.6310  4.7060  677.50 
   581.000 -32.881  5.6750  4.6780 -17.881  5.6750  4.6780  677.00 
   581.500 -33.133  5.8480  4.7500 -18.133  5.8480  4.7500  676.50 
   582.000 -33.349  6.3010  5.0010 -18.349  6.3010  5.0010  676.00 
   582.500 -32.991  6.6670  5.7690 -17.991  6.6670  5.7690  675.50 
   583.000 -32.669  6.8620  5.9850 -17.669  6.8620  5.9850  675.00 
   583.500 -32.633  6.9280  6.1710 -17.633  6.9280  6.1710  674.50 
   584.000 -32.742  6.9790  6.2930 -17.742  6.9790  6.2930  674.00 
   584.500 -32.743  6.9870  6.3440 -17.743  6.9870  6.3440  673.50 
   585.000 -32.420  6.7880  6.3580 -17.420  6.7880  6.3580  673.00 
   585.500 -32.062  6.5520  6.3080 -17.062  6.5520  6.3080  672.50 
   586.000 -31.919  6.4170  6.1000 -16.919  6.4170  6.1000  672.00 
   586.500 -31.991  6.3390  5.3320 -16.991  6.3390  5.3320  671.50 
   587.000 -32.064  6.3040  5.0740 -17.064  6.3040  5.0740  671.00 
   587.500 -32.136  6.2120  4.9230 -17.136  6.2120  4.9230  670.50 
   588.000 -32.532  6.1190  4.6570 -17.532  6.1190  4.6570  670.00 
   588.500 -32.443  5.9270  4.3490 -17.443  5.9270  4.3490  669.50 
   589.000 -32.354  5.7060  4.1840 -17.354  5.7060  4.1840  669.00 
   589.500 -32.355  5.5350  4.1260 -17.355  5.5350  4.1260  668.50 
   590.000 -32.427  5.3430  4.1260 -17.427  5.3430  4.1260  668.00 
   590.500 -32.464  5.2430  4.3780 -17.464  5.2430  4.3780  667.50 
   591.000 -32.465  5.2160  4.6720 -17.465  5.2160  4.6720  667.00 
   591.500 -32.537  5.6610  5.3760 -17.537  5.6610  5.3760  666.50 
   592.000 -32.646  6.3150  5.9000 -17.646  6.3150  5.9000  666.00 
   592.500 -32.718  7.5490  6.6460 -17.718  7.5490  6.6460  665.50 
   593.000 -33.006  8.4040  9.0080 -18.006  8.4040  9.0080  665.00 
   593.500 -36.023  9.0650  9.8990 -21.023  9.0650  9.8990  664.50 
   594.000 -37.460  9.6540  10.523 -22.460  9.6540  10.523  664.00 
   594.500 -38.322  11.146  11.155 -23.322  11.146  11.155  663.50 
   595.000 -38.718  11.958  12.002 -23.718  11.958  12.002  663.00 
   595.500 -39.365  12.238  12.627 -24.365  12.238  12.627  662.50 
   596.000 -39.869  12.426  12.921 -24.869  12.426  12.921  662.00 
   596.500 -40.192  12.470  13.094 -25.192  12.470  13.094  661.50 
   597.000 -40.085  12.464  13.122 -25.085  12.464  13.122  661.00 
   597.500 -39.835  12.401  13.036 -24.835  12.401  13.036  660.50 
   598.000 -39.584  12.201  12.340 -24.584  12.201  12.340  660.00 
   598.500 -38.903  11.678  11.084 -23.903  11.678  11.084  659.50 
   599.000 -37.539  11.249  8.6930 -22.539  11.249  8.6930  659.00 
   599.500 -34.811  10.598  7.0060 -19.811  10.598  7.0060  658.50 
   600.000 -32.657  6.4830  6.0230 -17.657  6.4830  6.0230  658.00 
   600.500 -31.943  5.9170  4.8730 -16.943  5.9170  4.8730  657.50 
   601.000 -31.624  5.2570  3.8030 -16.624  5.2570  3.8030  657.00 
   601.500 -31.664  4.4760  3.3490 -16.664  4.4760  3.3490  656.50 
   602.000 -31.667  4.1460  3.0830 -16.667  4.1460  3.0830  656.00 
   602.500 -31.671  3.8960  2.9530 -16.671  3.8960  2.9530  655.50 
   603.000 -31.747  3.6880  2.8010 -16.747  3.6880  2.8010  655.00 
   603.500 -31.859  3.5520  2.7420 -16.859  3.5520  2.7420  654.50 
   604.000 -31.935  3.4590  2.7130 -16.935  3.4590  2.7130  654.00 
   604.500 -31.795  3.4170  2.8190 -16.795  3.4170  2.8190  653.50 
   605.000 -31.655  3.4530  2.8540 -16.655  3.4530  2.8540  653.00 
   605.500 -31.408  3.4750  2.9180 -16.408  3.4750  2.9180  652.50 
   606.000 -31.304  3.4960  2.9460 -16.304  3.4960  2.9460  652.00 
   606.500 -31.236  3.5470  2.9730 -16.236  3.5470  2.9730  651.50 
   607.000 -31.061  3.5760  3.0080 -16.061  3.5760  3.0080  651.00 
   607.500 -30.921  3.6050  3.0140 -15.921  3.6050  3.0140  650.50 
   608.000 -30.638  3.6200  2.9490 -15.638  3.6200  2.9490  650.00 
   608.500 -30.588  3.6350  2.8900 -15.588  3.6350  2.8900  649.50 
   609.000 -30.538  3.6060  2.8460 -15.538  3.6060  2.8460  649.00 
   609.500 -30.721  3.5140  2.7810 -15.721  3.5140  2.7810  648.50 
   610.000 -30.905  3.4130  2.7080 -15.905  3.4130  2.7080  648.00 
   610.500 -31.016  3.2920  2.6570 -16.016  3.2920  2.6570  647.50 
   611.000 -30.769  3.2060  2.6050 -15.769  3.2060  2.6050  647.00 
   611.500 -30.522  3.3290  2.7550 -15.522  3.3290  2.7550  646.50 
   612.000 -30.274  3.4360  2.9840 -15.274  3.4360  2.9840  646.00 
   612.500 -29.955  3.6230  3.0830 -14.955  3.6230  3.0830  645.50 
   613.000 -30.534  3.8170  3.3190 -15.534  3.8170  3.3190  645.00 
   613.500 -31.543  4.1050  3.4830 -16.543  4.1050  3.4830  644.50 
   614.000 -31.870  4.2120  3.6620 -16.870  4.2120  3.6620  644.00 
   614.500 -32.161  4.3420  3.8040 -17.161  4.3420  3.8040  643.50 
   615.000 -32.273  4.5210  3.9830 -17.273  4.5210  3.9830  643.00 
   615.500 -32.205  5.0090  4.2260 -17.205  5.0090  4.2260  642.50 
   616.000 -31.994  5.3330  4.4110 -16.994  5.3330  4.4110  642.00 
   616.500 -31.674  5.5980  4.6690 -16.674  5.5980  4.6690  641.50 
   617.000 -31.427  6.6740  5.1630 -16.427  6.6740  5.1630  641.00 
   617.500 -32.077  8.3670  7.2510 -17.077  8.3670  7.2510  640.50 
   618.000 -32.548  8.9120  9.8560 -17.548  8.9120  9.8560  640.00 
   618.500 -34.563  9.5360  10.128 -19.563  9.5360  10.128  639.50 
   619.000 -37.080  11.107  10.342 -22.080  11.107  10.342  639.00 
   619.500 -37.910  12.793  10.406 -22.910  12.793  10.406  638.50 
   620.000 -39.027  12.851  10.412 -24.027  12.851  10.412  638.00 
   620.500 -38.851  12.851  10.411 -23.851  12.851  10.411  637.50 
   621.000 -37.994  12.851  10.360 -22.994  12.851  10.360  637.00 
   621.500 -36.813  11.762  9.7920 -21.813  11.762  9.7920  636.50 
   622.000 -34.878  10.170  9.2240 -19.878  10.170  9.2240  636.00 
   622.500 -31.650  7.2520  7.1480 -16.650  7.2520  7.1480  635.50 
   623.000 -30.792  6.7290  5.2590 -15.792  6.7290  5.2590  635.00 
   623.500 -30.042  6.3060  4.3530 -15.042  6.3060  4.3530  634.50 
   624.000 -29.830  6.1630  4.0720 -14.830  6.1630  4.0720  634.00 
   624.500 -29.799  6.0200  4.1720 -14.799  6.0200  4.1720  633.50 
   625.000 -29.802  5.9770  4.5510 -14.802  5.9770  4.5510  633.00 
   625.500 -29.914  6.2210  5.0460 -14.914  6.2210  5.0460  632.50 
   626.000 -31.318  7.9860  5.6840 -16.318  7.9860  5.6840  632.00 
   626.500 -32.256  8.9040  6.5730 -17.256  8.9040  6.5730  631.50 
   627.000 -33.122  9.3280  7.1890 -18.122  9.3280  7.1890  631.00 
   627.500 -33.592  9.6360  7.6330 -18.592  9.6360  7.6330  630.50 
   628.000 -34.027  9.8870  7.8690 -19.027  9.8870  7.8690  630.00 
   628.500 -34.175  10.060  7.9900 -19.175  10.060  7.9900  629.50 
   629.000 -33.209  10.118  8.1180 -18.209  10.118  8.1180  629.00 
   629.500 -32.890  9.9820  8.1460 -17.890  9.9820  8.1460  628.50 
   630.000 -33.828  10.054  7.9940 -18.828  10.054  7.9940  628.00 
   630.500 -35.268  11.402  7.6850 -20.268  11.402  7.6850  627.50 
   631.000 -37.390  11.783  7.5540 -22.390  11.783  7.5540  627.00 
   631.500 -38.687  12.120  10.238 -23.687  12.120  10.238  626.50 
   632.000 -39.696  12.487  10.661 -24.696  12.487  10.661  626.00 
   632.500 -40.023  12.587  11.026 -25.023  12.587  11.026  625.50 
   633.000 -39.489  12.645  11.147 -24.489  12.645  11.147  625.00 
   633.500 -39.062  12.645  11.225 -24.062  12.645  11.225  624.50 
   634.000 -38.994  12.645  11.238 -23.994  12.645  11.238  624.00 
   634.500 -38.998  12.545  11.137 -23.998  12.545  11.137  623.50 
   635.000 -39.038  12.295  10.935 -24.038  12.295  10.935  623.00 
   635.500 -39.688  12.138  10.438 -24.688  12.138  10.438  622.50 
