~Version Information
VERS.                     2.0: CWLS log ASCII Standard Version 2.00
WRAP.                      NO: One line per depth step
~Well Information Block
#MNEM.UNIT                               Data Type  Information
#---------                               ---------  -----------
STRT.FT                                    30.0000:
STOP.FT                                  5850.0000:
STEP.FT                                     0.5000:
NULL.                 -999.25                     :
COMP.                                             :COMPANY            
WELL.     KCL44-43                                :WELL               
FLD .                                             :FIELD              
CTRY.                                             :COUNTRY            
STAT.                                             :STATE              
LOC .                                             :LOCATION           
UWI .                                             :UNIQUE WELL ID     
SRVC.                                             :Service company    
DATE.                                             :LOG DATE           
~Curve Information
#MNEM.UNIT           API CODE  Curve Description
#---------           --------  -----------------
DEPT.FT                      :   1 DEPTH
SP  .MV                      :   2
ILD .OHMM                    :   3
SN  .OHMM                    :   4
GR  .RE/T                    :   5
NEUT.CPS                     :   6
SBL .MV                      :   7
RS  .OHMM                    :   8
RD  .OHMM                    :   9
NEUS.CPS                     :  10
GRS .RE/T                    :  11
~A
# ...
  5032.500 -999.25  3.0660 -999.25  4.8160  262.45 -999.25 -999.25  3.0660  263.14  4.8218 
  5033.000 -999.25  3.1010 -999.25  4.8190  260.34 -999.25 -999.25  3.1010  261.87  4.8168 
  5033.500 -999.25  3.1460 -999.25  5.0330  259.23 -999.25 -999.25  3.1460  260.04  4.8776 
  5034.000 -999.25  3.1800 -999.25  5.1480  258.12 -999.25 -999.25  3.1800  258.93  5.0641 
  5034.500 -999.25  3.1290 -999.25  5.2230  255.15 -999.25 -999.25  3.1290  257.32  5.1681 
  5035.000 -999.25  3.0780 -999.25  5.2650  253.26 -999.25 -999.25  3.0780  254.65  5.2341 
  5035.500 -999.25  2.9910 -999.25  5.3300  251.64 -999.25 -999.25  2.9910  252.84  5.2820 
  5036.000 -999.25  2.7150 -999.25  5.3610  249.80 -999.25 -999.25  2.7150  251.16  5.3380 
  5036.500 -999.25  2.5500 -999.25  5.3520  246.90 -999.25 -999.25  2.5500  249.06  5.3587 
  5037.000 -999.25  2.4490 -999.25  5.3400  244.26 -999.25 -999.25  2.4490  246.23  5.3490 
  5037.500 -999.25  2.3050 -999.25  5.3370  242.74 -999.25 -999.25  2.3050  243.88  5.3392 
  5038.000 -999.25  2.1930 -999.25  5.3340  244.38 -999.25 -999.25  2.1930  243.15  5.3363 
  5038.500 -999.25  2.1210 -999.25  5.3420  246.18 -999.25 -999.25  2.1210  244.82  5.3360 
  5039.000 -999.25  2.0630 -999.25  5.1320  247.77 -999.25 -999.25  2.0630  246.56  5.2913 
  5039.500 -999.25  2.1250 -999.25  5.0100  250.48 -999.25 -999.25  2.1250  248.41  5.1029 
  5040.000 -999.25  2.2310 -999.25  4.9600  256.07 -999.25 -999.25  2.2310  251.79  4.9982 
  5040.500 -999.25  2.3700 -999.25  4.9240  263.98 -999.25 -999.25  2.3700  257.91  4.9516 
  5041.000 -999.25  2.5160 -999.25  4.9030  266.49 -999.25 -999.25  2.5160  264.56  4.9192 
  5041.500 -999.25  2.6550 -999.25  4.8900  270.60 -999.25 -999.25  2.6550  267.43  4.9001 
  5042.000 -999.25  2.8330 -999.25  4.8980  271.73 -999.25 -999.25  2.8330  270.86  4.8918 
  5042.500 -999.25  3.0220 -999.25  4.9300  273.38 -999.25 -999.25  3.0220  272.09  4.9051 
  5043.000 -999.25  3.2390 -999.25  4.9560  274.39 -999.25 -999.25  3.2390  273.60  4.9357 
  5043.500 -999.25  3.4170 -999.25  4.9920  275.14 -999.25 -999.25  3.4170  274.55  4.9637 
  5044.000 -999.25  3.5270 -999.25  5.0180  276.21 -999.25 -999.25  3.5270  275.37  4.9975 
  5044.500 -999.25  3.5840 -999.25  5.0420  277.11 -999.25 -999.25  3.5840  276.40  5.0230 
  5045.000 -999.25  3.6300 -999.25  5.0680  277.75 -999.25 -999.25  3.6300  277.24  5.0474 
  5045.500 -999.25  3.6590 -999.25  5.0480  277.75 -999.25 -999.25  3.6590  277.75  5.0639 
  5046.000 -999.25  3.6620 -999.25  5.0130  277.74 -999.25 -999.25  3.6620  277.75  5.0410 
  5046.500 -999.25  3.5870 -999.25  4.9720  277.69 -999.25 -999.25  3.5870  277.73  5.0049 
  5047.000 -999.25  3.4830 -999.25  4.9370  277.42 -999.25 -999.25  3.4830  277.64  4.9652 
  5047.500 -999.25  3.3160 -999.25  4.9460  273.19 -999.25 -999.25  3.3160  276.61  4.9387 
  5048.000 -999.25  2.6950 -999.25  4.9860  270.41 -999.25 -999.25  2.6950  272.67  4.9536 
  5048.500 -999.25  2.5280 -999.25  5.0080  267.89 -999.25 -999.25  2.5280  269.94  4.9901 
  5049.000 -999.25  2.3850 -999.25  5.0300  265.81 -999.25 -999.25  2.3850  267.51  5.0120 
  5049.500 -999.25  2.2920 -999.25  4.9870  264.73 -999.25 -999.25  2.2920  265.61  5.0223 
  5050.000 -999.25  2.1990 -999.25  4.9170  263.18 -999.25 -999.25  2.1990  264.46  4.9746 
  5050.500 -999.25  2.1480 -999.25  4.8530  261.89 -999.25 -999.25  2.1480  262.96  4.9058 
  5051.000 -999.25  2.2220 -999.25  4.8050  260.54 -999.25 -999.25  2.2220  261.65  4.8448 
  5051.500 -999.25  2.3100 -999.25  4.7370  259.34 -999.25 -999.25  2.3100  260.34  4.7935 
  5052.000 -999.25  2.3490 -999.25  4.6920  261.10 -999.25 -999.25  2.3490  259.63  4.7296 
  5052.500 -999.25  2.3690 -999.25  4.6580  263.86 -999.25 -999.25  2.3690  261.55  4.6865 
  5053.000 -999.25  2.3900 -999.25  4.6260  265.29 -999.25 -999.25  2.3900  264.09  4.6529 
  5053.500 -999.25  2.4210 -999.25  4.6470  266.08 -999.25 -999.25  2.4210  265.42  4.6293 
  5054.000 -999.25  2.4700 -999.25  4.6640  264.36 -999.25 -999.25  2.4700  265.82  4.6496 
  5054.500 -999.25  2.5620 -999.25  4.6820  263.17 -999.25 -999.25  2.5620  264.18  4.6667 
  5055.000 -999.25  2.6930 -999.25  4.7150  265.08 -999.25 -999.25  2.6930  263.45  4.6869 
  5055.500 -999.25  2.8060 -999.25  4.7210  268.60 -999.25 -999.25  2.8060  265.59  4.7159 
  5056.000 -999.25  2.8480 -999.25  4.7270  270.72 -999.25 -999.25  2.8480  268.90  4.7219 
  5056.500 -999.25  2.8430 -999.25  4.7390  272.85 -999.25 -999.25  2.8430  271.02  4.7287 
  5057.000 -999.25  2.6960 -999.25  4.7490  274.60 -999.25 -999.25  2.6960  273.08  4.7404 
  5057.500 -999.25  2.4810 -999.25  4.7790  275.49 -999.25 -999.25  2.4810  274.72  4.7530 
  5058.000 -999.25  2.3740 -999.25  4.8010  273.18 -999.25 -999.25  2.3740  275.19  4.7819 
  5058.500 -999.25  2.2590 -999.25  4.8600  270.39 -999.25 -999.25  2.2590  272.82  4.8085 
  5059.000 -999.25  2.1870 -999.25  4.9090  267.43 -999.25 -999.25  2.1870  270.02  4.8661 
  5059.500 -999.25  2.1180 -999.25  4.9420  264.05 -999.25 -999.25  2.1180  267.02  4.9130 
  5060.000 -999.25  2.0890 -999.25  4.9260  262.11 -999.25 -999.25  2.0890  263.82  4.9401 
  5060.500 -999.25  2.1410 -999.25  4.8970  260.86 -999.25 -999.25  2.1410  261.97  4.9226 
  5061.000 -999.25  2.2070 -999.25  4.8380  258.76 -999.25 -999.25  2.2070  260.63  4.8903 
  5061.500 -999.25  2.2450 -999.25  4.8080  258.08 -999.25 -999.25  2.2450  258.68  4.8347 
  5062.000 -999.25  2.2800 -999.25  4.7590  257.39 -999.25 -999.25  2.2800  258.00  4.8028 
  5062.500 -999.25  2.2980 -999.25  4.7610  256.14 -999.25 -999.25  2.2980  257.26  4.7592 
  5063.000 -999.25  2.3170 -999.25  4.8120  256.22 -999.25 -999.25  2.3170  256.15  4.7662 
  5063.500 -999.25  2.3400 -999.25  4.8300  256.10 -999.25 -999.25  2.3400  256.21  4.8138 
  5064.000 -999.25  2.3320 -999.25  4.8470  255.97 -999.25 -999.25  2.3320  256.09  4.8316 
  5064.500 -999.25  2.2950 -999.25  4.8910  255.85 -999.25 -999.25  2.2950  255.96  4.8511 
  5065.000 -999.25  2.2370 -999.25  4.9080  254.65 -999.25 -999.25  2.2370  255.74  4.8925 
  5065.500 -999.25  2.1320 -999.25  4.9260  253.57 -999.25 -999.25  2.1320  254.56  4.9096 
  5066.000 -999.25  2.0770 -999.25  4.9560  252.26 -999.25 -999.25  2.0770  253.46  4.9285 
  5066.500 -999.25  2.0300 -999.25  4.9710  251.01 -999.25 -999.25  2.0300  252.16  4.9572 
  5067.000 -999.25  1.9960 -999.25  4.9900  250.09 -999.25 -999.25  1.9960  250.94  4.9725 
  5067.500 -999.25  1.9810 -999.25  5.0040  249.00 -999.25 -999.25  1.9810  250.01  4.9910 
  5068.000 -999.25  1.9900 -999.25  5.0160  248.71 -999.25 -999.25  1.9900  248.98  5.0049 
  5068.500 -999.25  2.0250 -999.25  4.9930  248.86 -999.25 -999.25  2.0250  248.72  5.0144 
  5069.000 -999.25  2.2120 -999.25  4.9410  251.08 -999.25 -999.25  2.2120  249.00  4.9896 
  5069.500 -999.25  2.4820 -999.25  4.8870  253.52 -999.25 -999.25  2.4820  251.24  4.9376 
  5070.000 -999.25  2.8370 -999.25  4.8440  256.82 -999.25 -999.25  2.8370  253.72  4.8844 
  5070.500 -999.25  3.4180 -999.25  4.8840  258.57 -999.25 -999.25  3.4180  256.92  4.8463 
  5071.000 -999.25  3.7660 -999.25  4.8980  260.22 -999.25 -999.25  3.7660  258.66  4.8848 
  5071.500 -999.25  4.1750 -999.25  4.9020  261.97 -999.25 -999.25  4.1750  260.31  4.8982 
  5072.000 -999.25  4.5240 -999.25  4.9010  262.92 -999.25 -999.25  4.5240  262.02  4.9020 
  5072.500 -999.25  4.8150 -999.25  4.9960  263.61 -999.25 -999.25  4.8150  262.95  4.9053 
  5073.000 -999.25  4.9470 -999.25  5.0410  263.87 -999.25 -999.25  4.9470  263.62  4.9979 
  5073.500 -999.25  5.0170 -999.25  5.0800  263.69 -999.25 -999.25  5.0170  263.86  5.0426 
  5074.000 -999.25  5.0630 -999.25  5.1090  261.44 -999.25 -999.25  5.0630  263.61  5.0811 
  5074.500 -999.25  4.9770 -999.25  5.1280  255.44 -999.25 -999.25  4.9770  261.23  5.1096 
  5075.000 -999.25  4.5690 -999.25  5.1570  252.43 -999.25 -999.25  4.5690  255.35  5.1289 
  5075.500 -999.25  4.1380 -999.25  5.0810  251.04 -999.25 -999.25  4.1380  252.39  5.1549 
