~Version Information
VERS.                     2.0: CWLS log ASCII Standard Version 2.00
WRAP.                      NO: One line per depth step
~Well Information Block
#MNEM.UNIT                               Data Type  Information
#---------                               ---------  -----------
STRT.FT                                   400.0000:
STOP.FT                                  3500.0000:
STEP.FT                                     0.5000:
NULL.                 -999.25                     :
COMP.                                             :COMPANY            
WELL.     KCL44-34                                :WELL               
FLD .                                             :FIELD              
CTRY.                                             :COUNTRY            
STAT.                                             :STATE              
LOC .                                             :LOCATION           
UWI .                                             :UNIQUE WELL ID     
SRVC.                                             :Service company    
DATE.                                             :LOG DATE           
~Curve Information
#MNEM.UNIT           API CODE  Curve Description
#---------           --------  -----------------
DEPT.FT                      :   1 DEPTH
SP  .MV                      :   2
SN  .OHMM                    :   3
ILD .OHMM                    :   4
SBL .MV                      :   5
RS  .OHMM                    :   6
RD  .OHMM                    :   7
DEPS.FT                      :   8
~A
# ...
  2229.000 -41.015  2.3130  2.2630 -21.653  2.3130  2.2630 -971.00 
  2229.500 -41.123  2.1870  2.0400 -21.738  2.1870  2.0400 -971.50 
  2230.000 -41.159  2.0610  1.8250 -21.752  2.0610  1.8250 -972.00 
  2230.500 -36.489  1.8390  1.6450 -17.060  1.8390  1.6450 -972.50 
  2231.000 -35.160  1.6730  1.4800 -15.708  1.6730  1.4800 -973.00 
  2231.500 -34.765  1.5440  1.3790 -15.291  1.5440  1.3790 -973.50 
  2232.000 -34.334  1.4070  1.2850 -14.837  1.4070  1.2850 -974.00 
  2232.500 -34.047  1.3500  1.2350 -14.528  1.3500  1.2350 -974.50 
  2233.000 -33.976  1.2920  1.2350 -14.434  1.2920  1.2350 -975.00 
  2233.500 -33.976  1.2340  1.2420 -14.412  1.2340  1.2420 -975.50 
  2234.000 -34.192  1.2560  1.2490 -14.605  1.2560  1.2490 -976.00 
  2234.500 -35.234  1.2990  1.2630 -15.625  1.2990  1.2630 -976.50 
  2235.000 -38.432  1.3410  1.2910 -18.801  1.3410  1.2910 -977.00 
  2235.500 -39.043  1.3910  1.3200 -19.389  1.3910  1.3200 -977.50 
  2236.000 -40.014  1.4560  1.3480 -20.338  1.4560  1.3480 -978.00 
  2236.500 -41.128  1.4920  1.4200 -21.429  1.4920  1.4200 -978.50 
  2237.000 -42.673  1.5310  1.4630 -22.952  1.5310  1.4630 -979.00 
  2237.500 -44.578  1.5700  1.4910 -24.834  1.5700  1.4910 -979.50 
  2238.000 -45.512  1.5840  1.5200 -25.746  1.5840  1.5200 -980.00 
  2238.500 -45.692  1.5840  1.5550 -25.904  1.5840  1.5550 -980.50 
  2239.000 -41.812  1.5840  1.5620 -22.001  1.5840  1.5620 -981.00 
  2239.500 -39.585  1.5330  1.5330 -19.752  1.5330  1.5330 -981.50 
  2240.000 -37.717  1.4970  1.5040 -17.861  1.4970  1.5040 -982.00 
  2240.500 -36.999  1.4610  1.4900 -17.121  1.4610  1.4900 -982.50 
  2241.000 -35.742  1.4540  1.4790 -15.841  1.4540  1.4790 -983.00 
  2241.500 -32.509  1.4820  1.4680 -12.586  1.4820  1.4680 -983.50 
  2242.000 -30.389  1.5140  1.5750 -10.443  1.5140  1.5750 -984.00 
  2242.500 -29.312  1.5460  1.5970 -9.3441  1.5460  1.5970 -984.50 
  2243.000 -29.169  1.5960  1.6250 -9.1786  1.5960  1.6250 -985.00 
  2243.500 -29.528  1.6110  1.6570 -9.5152  1.6110  1.6570 -985.50 
  2244.000 -32.475  1.6180  1.6890 -12.440  1.6180  1.6890 -986.00 
  2244.500 -36.176  1.6390  1.6890 -16.118  1.6390  1.6890 -986.50 
  2245.000 -37.469  1.6670  1.6750 -17.389  1.6670  1.6750 -987.00 
  2245.500 -35.925  1.6670  1.6530 -15.822  1.6670  1.6530 -987.50 
  2246.000 -30.356  1.6310  1.6240 -10.231  1.6310  1.6240 -988.00 
  2246.500 -29.099  1.5950  1.6130 -8.9516  1.5950  1.6130 -988.50 
  2247.000 -28.453  1.5660  1.6020 -8.2831  1.5660  1.6020 -989.00 
  2247.500 -32.298  1.5510  1.5660 -12.106  1.5510  1.5660 -989.50 
  2248.000 -34.705  1.5300  1.5010 -14.490  1.5300  1.5010 -990.00 
  2248.500 -35.963  1.5080  1.4760 -15.726  1.5080  1.4760 -990.50 
  2249.000 -36.574  1.4650  1.4500 -16.314  1.4650  1.4500 -991.00 
  2249.500 -37.042  1.4360  1.4570 -16.760  1.4360  1.4570 -991.50 
  2250.000 -37.150  1.4430  1.4640 -16.846  1.4430  1.4640 -992.00 
  2250.500 -37.076  1.4430  1.5000 -16.749  1.4430  1.5000 -992.50 
  2251.000 -37.147  1.4580  1.5080 -16.798  1.4580  1.5080 -993.00 
  2251.500 -37.648  1.4800  1.5080 -17.276  1.4800  1.5080 -993.50 
  2252.000 -38.114  1.5010  1.4940 -17.720  1.5010  1.4940 -994.00 
  2252.500 -38.436  1.4800  1.4800 -18.019  1.4800  1.4800 -994.50 
  2253.000 -38.003  1.4660  1.4740 -17.564  1.4660  1.4740 -995.00 
  2253.500 -34.086  1.4450  1.4520 -13.624  1.4450  1.4520 -995.50 
  2254.000 -33.617  1.4240  1.4200 -13.133  1.4240  1.4200 -996.00 
  2254.500 -33.436  1.3810  1.3880 -12.930  1.3810  1.3880 -996.50 
  2255.000 -34.153  1.3460  1.3460 -13.624  1.3460  1.3460 -997.00 
  2255.500 -35.876  1.3170  1.3100 -15.325  1.3170  1.3100 -997.50 
  2256.000 -36.198  1.2960  1.2960 -15.624  1.2960  1.2960 -998.00 
  2256.500 -36.305  1.2750  1.2970 -15.709  1.2750  1.2970 -998.50 
  2257.000 -36.770  1.2680  1.2970 -16.151  1.2680  1.2970 -999.00 
  2257.500 -38.242  1.2690  1.3580 -17.601  1.2690  1.3580 -999.50 
  2258.000 -38.600  1.3050  1.4200 -17.937  1.3050  1.4200 -1000.0 
  2258.500 -35.329  1.4850  1.6710 -14.643  1.4850  1.6710 -1000.5 
  2259.000 -32.453  1.7720  1.8150 -11.745  1.7720  1.8150 -1001.0 
  2259.500 -30.332  2.0090  2.0170 -9.6012  2.0090  2.0170 -1001.5 
  2260.000 -29.109  2.3540  2.2320 -8.3558  2.3540  2.2320 -1002.0 
  2260.500 -28.281  2.5990  2.3550 -7.5054  2.5990  2.3550 -1002.5 
  2261.000 -27.633  2.8290  2.5130 -6.8349  2.8290  2.5130 -1003.0 
  2261.500 -26.949  2.9510  2.5990 -6.1285  2.9510  2.5990 -1003.5 
  2262.000 -26.444  3.0380  2.6790 -5.6011  3.0380  2.6790 -1004.0 
  2262.500 -26.084  3.1380  2.7580 -5.2186  3.1380  2.7580 -1004.5 
  2263.000 -25.831  3.2030  2.8300 -4.9432  3.2030  2.8300 -1005.0 
  2263.500 -27.446  3.2610  2.8630 -6.5357  3.2610  2.8630 -1005.5 
  2264.000 -28.163  3.3760  2.8950 -7.2303  3.3760  2.8950 -1006.0 
  2264.500 -29.168  3.5350  2.9420 -8.2129  3.5350  2.9420 -1006.5 
  2265.000 -30.208  3.7790  2.9890 -9.2304  3.7790  2.9890 -1007.0 
  2265.500 -30.782  3.9800  3.1690 -9.7820  3.9800  3.1690 -1007.5 
  2266.000 -30.888  4.3970  3.3710 -9.9024  4.3970  3.3710 -1008.0 
  2266.500 -30.779  4.9140  3.6510 -9.8078  4.9140  3.6510 -1008.5 
  2267.000 -30.526  5.4740  4.0320 -9.5693  5.4740  4.0320 -1009.0 
  2267.500 -30.489  6.1920  4.5060 -9.5467  6.1920  4.5060 -1009.5 
  2268.000 -30.559  6.5730  4.8150 -9.6311  6.5730  4.8150 -1010.0 
  2268.500 -31.456  7.1980  5.0300 -10.543  7.1980  5.0300 -1010.5 
  2269.000 -31.688  7.4060  5.1380 -10.789  7.4060  5.1380 -1011.0 
  2269.500 -31.920  7.4860  5.2030 -11.035  7.4860  5.2030 -1011.5 
  2270.000 -32.278  7.4430  5.2320 -11.408  7.4430  5.2320 -1012.0 
  2270.500 -32.348  4.8810  4.6590 -11.492  4.8810  4.6590 -1012.5 
  2271.000 -32.490  3.6180  3.2090 -11.649  3.6180  3.2090 -1013.0 
  2271.500 -32.597  3.2880  2.8430 -11.770  3.2880  2.8430 -1013.5 
  2272.000 -33.206  2.9730  2.8360 -12.394  2.9730  2.8360 -1014.0 
  2272.500 -34.965  2.7870  2.0830 -14.167  2.7870  2.0830 -1014.5 
  2273.000 -41.108  2.6080  1.8970 -20.324  2.6080  1.8970 -1015.0 
  2273.500 -45.094  2.4860  1.7110 -24.325  2.4860  1.7110 -1015.5 
  2274.000 -49.153  2.3360  1.5460 -28.398  2.3360  1.5460 -1016.0 
  2274.500 -52.672  2.2350  1.3960 -31.932  2.2350  1.3960 -1016.5 
  2275.000 -54.216  2.2140  1.3310 -33.490  2.2140  1.3310 -1017.0 
  2275.500 -55.076  2.6240  1.3170 -34.364  2.6240  1.3170 -1017.5 
  2276.000 -52.129  2.9400  1.4900 -31.432  2.9400  1.4900 -1018.0 
  2276.500 -47.960  3.1050  1.7130 -27.277  3.1050  1.7130 -1018.5 
  2277.000 -41.312  3.2060  2.0150 -20.644  3.2060  2.0150 -1019.0 
  2277.500 -37.610  3.2420  2.3960 -16.956  3.2420  2.3960 -1019.5 
  2278.000 -34.913  3.2930  2.6110 -14.274  3.2930  2.6110 -1020.0 
  2278.500 -33.403  3.3220  2.7690 -12.778  3.3220  2.7690 -1020.5 
  2279.000 -31.821  3.3440  2.8700 -11.210  3.3440  2.8700 -1021.0 
  2279.500 -30.742  3.3440  2.9070 -10.146  3.3440  2.9070 -1021.5 
  2280.000 -29.950  3.3450  2.9430 -9.3683  3.3450  2.9430 -1022.0 
  2280.500 -29.661  3.3240  2.9500 -9.0937  3.3240  2.9500 -1022.5 
  2281.000 -29.336  3.3100  2.9510 -8.7831  3.3100  2.9510 -1023.0 
  2281.500 -29.155  3.2810  2.9510 -8.6165  3.2810  2.9510 -1023.5 
  2282.000 -28.974  3.2310  2.9510 -8.4500  3.2310  2.9510 -1024.0 
  2282.500 -29.080  3.1670  2.9370 -8.5704  3.1670  2.9370 -1024.5 
  2283.000 -29.833  3.1170  2.9230 -9.3378  3.1170  2.9230 -1025.0 
  2283.500 -30.658  3.0740  2.8950 -10.177  3.0740  2.8950 -1025.5 
  2284.000 -31.160  3.0600  2.8600 -10.694  3.0600  2.8600 -1026.0 
  2284.500 -31.661  3.0180  2.8170 -11.209  3.0180  2.8170 -1026.5 
  2285.000 -31.157  2.9890  2.7810 -10.719  2.9890  2.7810 -1027.0 
  2285.500 -29.646  2.9110  2.7170 -9.2229  2.9110  2.7170 -1027.5 
  2286.000 -28.495  2.8610  2.6530 -8.0863  2.8610  2.6530 -1028.0 
  2286.500 -28.278  2.7460  2.6030 -7.8838  2.7460  2.6030 -1028.5 
  2287.000 -28.062  2.6460  2.5320 -7.6822  2.6460  2.5320 -1029.0 
  2287.500 -27.701  2.5750  2.4890 -7.3356  2.5750  2.4890 -1029.5 
