~Version Information
VERS.                     2.0: CWLS log ASCII Standard Version 2.00
WRAP.                      NO: One line per depth step
~Well Information Block
#MNEM.UNIT                               Data Type  Information
#---------                               ---------  -----------
STRT.FT                                    30.0000:
STOP.FT                                  5850.0000:
STEP.FT                                     0.5000:
NULL.                 -999.25                     :
COMP.                                             :COMPANY            
WELL.     KCL44-43                                :WELL               
FLD .                                             :FIELD              
CTRY.                                             :COUNTRY            
STAT.                                             :STATE              
LOC .                                             :LOCATION           
UWI .                                             :UNIQUE WELL ID     
SRVC.                                             :Service company    
DATE.                                             :LOG DATE           
~Curve Information
#MNEM.UNIT           API CODE  Curve Description
#---------           --------  -----------------
DEPT.FT                      :   1 DEPTH
SP  .MV                      :   2
ILD .OHMM                    :   3
SN  .OHMM                    :   4
GR  .RE/T                    :   5
NEUT.CPS                     :   6
SBL .MV                      :   7
RS  .OHMM                    :   8
RD  .OHMM                    :   9
NEUS.CPS                     :  10
GRS .RE/T                    :  11
~A
# ...
  4641.000 -999.25  3.5510 -999.25  4.5350  280.58 -999.25 -999.25  3.5510  281.00  4.5750 
  4641.500 -999.25  3.3900 -999.25  4.5750  281.00 -999.25 -999.25  3.3900  279.81  4.6480 
  4642.000 -999.25  3.3010 -999.25  4.6480  279.81 -999.25 -999.25  3.3010  273.77  4.7020 
  4642.500 -999.25  3.2470 -999.25  4.7020  273.77 -999.25 -999.25  3.2470  268.26  4.7550 
  4643.000 -999.25  3.2750 -999.25  4.7550  268.26 -999.25 -999.25  3.2750  265.90  4.7940 
  4643.500 -999.25  3.3840 -999.25  4.7940  265.90 -999.25 -999.25  3.3840  263.48  4.8310 
  4644.000 -999.25  3.4230 -999.25  4.8310  263.48 -999.25 -999.25  3.4230  261.33  4.8390 
  4644.500 -999.25  3.5370 -999.25  4.8390  261.33 -999.25 -999.25  3.5370  259.08  4.8410 
  4645.000 -999.25  3.7250 -999.25  4.8410  259.08 -999.25 -999.25  3.7250  257.90  4.8340 
  4645.500 -999.25  3.9520 -999.25  4.8340  257.90 -999.25 -999.25  3.9520  260.62  4.7710 
  4646.000 -999.25  4.1010 -999.25  4.7710  260.62 -999.25 -999.25  4.1010  263.28  4.7420 
  4646.500 -999.25  4.2470 -999.25  4.7420  263.28 -999.25 -999.25  4.2470  269.53  4.7120 
  4647.000 -999.25  4.3250 -999.25  4.7120  269.53 -999.25 -999.25  4.3250  273.79  4.6680 
  4647.500 -999.25  4.4310 -999.25  4.6680  273.79 -999.25 -999.25  4.4310  276.62  4.6290 
  4648.000 -999.25  4.5270 -999.25  4.6290  276.62 -999.25 -999.25  4.5270  278.53  4.5890 
  4648.500 -999.25  4.6970 -999.25  4.5890  278.53 -999.25 -999.25  4.6970  281.89  4.5700 
  4649.000 -999.25  4.9530 -999.25  4.5700  281.89 -999.25 -999.25  4.9530  287.44  4.5640 
  4649.500 -999.25  5.1700 -999.25  4.5640  287.44 -999.25 -999.25  5.1700  291.34  4.5810 
  4650.000 -999.25  5.2840 -999.25  4.5810  291.34 -999.25 -999.25  5.2840  293.31  4.6060 
  4650.500 -999.25  5.3970 -999.25  4.6060  293.31 -999.25 -999.25  5.3970  294.69  4.6830 
  4651.000 -999.25  5.5320 -999.25  4.6830  294.69 -999.25 -999.25  5.5320  295.53  4.7370 
  4651.500 -999.25  5.6310 -999.25  4.7370  295.53 -999.25 -999.25  5.6310  296.43  4.7870 
  4652.000 -999.25  5.7230 -999.25  4.7870  296.43 -999.25 -999.25  5.7230  296.86  4.8460 
  4652.500 -999.25  5.7730 -999.25  4.8460  296.86 -999.25 -999.25  5.7730  297.38  4.8950 
  4653.000 -999.25  5.7900 -999.25  4.8950  297.38 -999.25 -999.25  5.7900  297.53  4.9500 
  4653.500 -999.25  5.6930 -999.25  4.9500  297.53 -999.25 -999.25  5.6930  297.36  4.9850 
  4654.000 -999.25  5.5290 -999.25  4.9850  297.36 -999.25 -999.25  5.5290  296.66  5.0160 
  4654.500 -999.25  5.1540 -999.25  5.0160  296.66 -999.25 -999.25  5.1540  294.14  5.0460 
  4655.000 -999.25  5.0650 -999.25  5.0460  294.14 -999.25 -999.25  5.0650  289.54  5.0590 
  4655.500 -999.25  4.9500 -999.25  5.0590  289.54 -999.25 -999.25  4.9500  284.45  5.0850 
  4656.000 -999.25  4.8640 -999.25  5.0850  284.45 -999.25 -999.25  4.8640  278.73  5.1010 
  4656.500 -999.25  4.6030 -999.25  5.1010  278.73 -999.25 -999.25  4.6030  274.49  5.1160 
  4657.000 -999.25  4.3250 -999.25  5.1160  274.49 -999.25 -999.25  4.3250  272.14  5.1210 
  4657.500 -999.25  4.0930 -999.25  5.1210  272.14 -999.25 -999.25  4.0930  269.56  5.0410 
  4658.000 -999.25  3.9500 -999.25  5.0410  269.56 -999.25 -999.25  3.9500  266.83  4.9690 
  4658.500 -999.25  3.7710 -999.25  4.9690  266.83 -999.25 -999.25  3.7710  265.30  4.9390 
  4659.000 -999.25  3.5990 -999.25  4.9390  265.30 -999.25 -999.25  3.5990  263.77  4.9380 
  4659.500 -999.25  3.4640 -999.25  4.9380  263.77 -999.25 -999.25  3.4640  261.14  4.8760 
  4660.000 -999.25  3.3740 -999.25  4.8760  261.14 -999.25 -999.25  3.3740  259.97  4.8210 
  4660.500 -999.25  3.3630 -999.25  4.8210  259.97 -999.25 -999.25  3.3630  258.36  4.7840 
  4661.000 -999.25  3.5060 -999.25  4.7840  258.36 -999.25 -999.25  3.5060  257.03  4.7270 
  4661.500 -999.25  3.6160 -999.25  4.7270  257.03 -999.25 -999.25  3.6160  256.01  4.6930 
  4662.000 -999.25  3.6980 -999.25  4.6930  256.01 -999.25 -999.25  3.6980  255.15  4.6890 
  4662.500 -999.25  3.7440 -999.25  4.6890  255.15 -999.25 -999.25  3.7440  254.57  4.7180 
  4663.000 -999.25  3.8050 -999.25  4.7180  254.57 -999.25 -999.25  3.8050  254.14  4.7250 
  4663.500 -999.25  3.8230 -999.25  4.7250  254.14 -999.25 -999.25  3.8230  256.76  4.6810 
  4664.000 -999.25  3.8870 -999.25  4.6810  256.76 -999.25 -999.25  3.8870  259.59  4.6500 
  4664.500 -999.25  3.9510 -999.25  4.6500  259.59 -999.25 -999.25  3.9510  260.93  4.6030 
  4665.000 -999.25  4.0790 -999.25  4.6030  260.93 -999.25 -999.25  4.0790  263.55  4.5680 
  4665.500 -999.25  4.1680 -999.25  4.5680  263.55 -999.25 -999.25  4.1680  266.16  4.5510 
  4666.000 -999.25  4.2250 -999.25  4.5510  266.16 -999.25 -999.25  4.2250  269.53  4.5990 
  4666.500 -999.25  4.2750 -999.25  4.5990  269.53 -999.25 -999.25  4.2750  271.24  4.6670 
  4667.000 -999.25  4.3070 -999.25  4.6670  271.24 -999.25 -999.25  4.3070  272.68  4.7120 
  4667.500 -999.25  4.2610 -999.25  4.7120  272.68 -999.25 -999.25  4.2610  273.43  4.7810 
  4668.000 -999.25  4.1900 -999.25  4.7810  273.43 -999.25 -999.25  4.1900  274.61  4.8240 
  4668.500 -999.25  4.1470 -999.25  4.8240  274.61 -999.25 -999.25  4.1470  275.78  4.8570 
  4669.000 -999.25  4.0870 -999.25  4.8570  275.78 -999.25 -999.25  4.0870  276.37  4.8940 
  4669.500 -999.25  4.1610 -999.25  4.8940  276.37 -999.25 -999.25  4.1610  276.91  4.9300 
  4670.000 -999.25  4.3640 -999.25  4.9300  276.91 -999.25 -999.25  4.3640  277.15  4.9570 
  4670.500 -999.25  4.4880 -999.25  4.9570  277.15 -999.25 -999.25  4.4880  277.45  4.9780 
  4671.000 -999.25  4.6110 -999.25  4.9780  277.45 -999.25 -999.25  4.6110  277.44  4.9920 
  4671.500 -999.25  4.7350 -999.25  4.9920  277.44 -999.25 -999.25  4.7350  277.47  4.9460 
  4672.000 -999.25  4.8120 -999.25  4.9460  277.47 -999.25 -999.25  4.8120  277.72  4.9100 
  4672.500 -999.25  4.9250 -999.25  4.9100  277.72 -999.25 -999.25  4.9250  277.79  4.9720 
  4673.000 -999.25  5.0800 -999.25  4.9720  277.79 -999.25 -999.25  5.0800  277.85  5.0250 
  4673.500 -999.25  5.1500 -999.25  5.0250  277.85 -999.25 -999.25  5.1500  278.36  5.0530 
  4674.000 -999.25  5.2060 -999.25  5.0530  278.36 -999.25 -999.25  5.2060  279.09  5.0650 
  4674.500 -999.25  5.1370 -999.25  5.0650  279.09 -999.25 -999.25  5.1370  279.98  5.0530 
  4675.000 -999.25  4.9930 -999.25  5.0530  279.98 -999.25 -999.25  4.9930  280.55  5.0310 
  4675.500 -999.25  4.0340 -999.25  5.0310  280.55 -999.25 -999.25  4.0340  274.81  5.0220 
  4676.000 -999.25  3.8790 -999.25  5.0220  274.81 -999.25 -999.25  3.8790  271.43  5.0110 
  4676.500 -999.25  3.8070 -999.25  5.0110  271.43 -999.25 -999.25  3.8070  269.86  5.0590 
  4677.000 -999.25  3.9270 -999.25  5.0590  269.86 -999.25 -999.25  3.9270  271.92  5.0910 
  4677.500 -999.25  4.3030 -999.25  5.0910  271.92 -999.25 -999.25  4.3030  273.88  5.1210 
  4678.000 -999.25  4.5370 -999.25  5.1210  273.88 -999.25 -999.25  4.5370  274.93  5.1360 
  4678.500 -999.25  4.6530 -999.25  5.1360  274.93 -999.25 -999.25  4.6530  275.55  5.1560 
  4679.000 -999.25  4.7910 -999.25  5.1560  275.55 -999.25 -999.25  4.7910  276.28  5.1610 
  4679.500 -999.25  4.8540 -999.25  5.1610  276.28 -999.25 -999.25  4.8540  276.85  5.1490 
  4680.000 -999.25  4.9200 -999.25  5.1490  276.85 -999.25 -999.25  4.9200  277.54  5.1370 
  4680.500 -999.25  4.9230 -999.25  5.1370  277.54 -999.25 -999.25  4.9230  277.91  5.0770 
  4681.000 -999.25  4.8300 -999.25  5.0770  277.91 -999.25 -999.25  4.8300  277.26  5.0270 
  4681.500 -999.25  4.6660 -999.25  5.0270  277.26 -999.25 -999.25  4.6660  275.70  4.9860 
  4682.000 -999.25  4.1200 -999.25  4.9860  275.70 -999.25 -999.25  4.1200  273.02  4.9610 
  4682.500 -999.25  3.8420 -999.25  4.9610  273.02 -999.25 -999.25  3.8420  271.19  4.9360 
  4683.000 -999.25  3.7200 -999.25  4.9360  271.19 -999.25 -999.25  3.7200  270.81  4.9370 
  4683.500 -999.25  3.6660 -999.25  4.9370  270.81 -999.25 -999.25  3.6660  271.76  4.9390 
  4684.000 -999.25  3.7150 -999.25  4.9390  271.76 -999.25 -999.25  3.7150  272.34  4.9350 
