~Version Information
VERS.                     2.0: CWLS log ASCII Standard Version 2.00
WRAP.                      NO: One line per depth step
~Well Information Block
#MNEM.UNIT                               Data Type  Information
#---------                               ---------  -----------
STRT.FT                                    30.0000:
STOP.FT                                  5850.0000:
STEP.FT                                     0.5000:
NULL.                 -999.25                     :
COMP.                                             :COMPANY            
WELL.     KCL44-43                                :WELL               
FLD .                                             :FIELD              
CTRY.                                             :COUNTRY            
STAT.                                             :STATE              
LOC .                                             :LOCATION           
UWI .                                             :UNIQUE WELL ID     
SRVC.                                             :Service company    
DATE.                                             :LOG DATE           
~Curve Information
#MNEM.UNIT           API CODE  Curve Description
#---------           --------  -----------------
DEPT.FT                      :   1 DEPTH
SP  .MV                      :   2
ILD .OHMM                    :   3
SN  .OHMM                    :   4
GR  .RE/T                    :   5
NEUT.CPS                     :   6
SBL .MV                      :   7
RS  .OHMM                    :   8
RD  .OHMM                    :   9
NEUS.CPS                     :  10
GRS .RE/T                    :  11
~A
# ...
  1944.000 -46.318  1.6710  1.4140 -999.25 -999.25 -24.546  1.4140  1.6710 -999.25 -999.25 
  1944.500 -48.909  1.6380  1.3990 -999.25 -999.25 -27.142  1.3990  1.6380 -999.25 -999.25 
  1945.000 -49.377  1.6130  1.3920 -999.25 -999.25 -27.614  1.3920  1.6130 -999.25 -999.25 
  1945.500 -48.855  1.5660  1.3820 -999.25 -999.25 -27.096  1.3820  1.5660 -999.25 -999.25 
  1946.000 -47.768  1.5550  1.3730 -999.25 -999.25 -26.013  1.3730  1.5550 -999.25 -999.25 
  1946.500 -47.565  1.5400  1.3540 -999.25 -999.25 -25.814  1.3540  1.5400 -999.25 -999.25 
  1947.000 -48.529  1.5250  1.3540 -999.25 -999.25 -26.783  1.3540  1.5250 -999.25 -999.25 
  1947.500 -49.210  1.5030  1.3570 -999.25 -999.25 -27.468  1.3570  1.5030 -999.25 -999.25 
  1948.000 -46.601  1.4880  1.3600 -999.25 -999.25 -24.863  1.3600  1.4880 -999.25 -999.25 
  1948.500 -46.292  1.4840  1.3740 -999.25 -999.25 -24.558  1.3740  1.4840 -999.25 -999.25 
  1949.000 -46.123  1.4730  1.3660 -999.25 -999.25 -24.393  1.3660  1.4730 -999.25 -999.25 
  1949.500 -45.955  1.4650  1.3620 -999.25 -999.25 -24.230  1.3620  1.4650 -999.25 -999.25 
  1950.000 -45.646  1.4610  1.3440 -999.25 -999.25 -23.925  1.3440  1.4610 -999.25 -999.25 
  1950.500 -45.512  1.4540  1.2760 -999.25 -999.25 -23.795  1.2760  1.4540 -999.25 -999.25 
  1951.000 -52.133  1.4510  1.2230 -999.25 -999.25 -30.420  1.2230  1.4510 -999.25 -999.25 
  1951.500 -55.005  1.4510  1.1980 -999.25 -999.25 -33.297  1.1980  1.4510 -999.25 -999.25 
  1952.000 -55.720  1.4510  1.1730 -999.25 -999.25 -34.016  1.1730  1.4510 -999.25 -999.25 
  1952.500 -55.550  1.4510  1.1730 -999.25 -999.25 -33.850  1.1730  1.4510 -999.25 -999.25 
  1953.000 -55.486  1.4520  1.1910 -999.25 -999.25 -33.790  1.1910  1.4520 -999.25 -999.25 
  1953.500 -55.423  1.4660  1.2240 -999.25 -999.25 -33.731  1.2240  1.4660 -999.25 -999.25 
  1954.000 -55.359  1.4870  1.2490 -999.25 -999.25 -33.672  1.2490  1.4870 -999.25 -999.25 
  1954.500 -55.260  1.5160  1.2990 -999.25 -999.25 -33.577  1.2990  1.5160 -999.25 -999.25 
  1955.000 -55.142  1.5590  1.3770 -999.25 -999.25 -33.463  1.3770  1.5590 -999.25 -999.25 
  1955.500 -55.024  1.6310  1.4920 -999.25 -999.25 -33.349  1.4920  1.6310 -999.25 -999.25 
  1956.000 -54.397  1.7310  1.5670 -999.25 -999.25 -32.727  1.5670  1.7310 -999.25 -999.25 
  1956.500 -52.954  1.8910  1.6490 -999.25 -999.25 -31.288  1.6490  1.8910 -999.25 -999.25 
  1957.000 -51.582  2.0800  1.7090 -999.25 -999.25 -29.920  1.7090  2.0800 -999.25 -999.25 
  1957.500 -50.527  2.2980  1.7350 -999.25 -999.25 -28.869  1.7350  2.2980 -999.25 -999.25 
  1958.000 -49.897  2.4440  1.7420 -999.25 -999.25 -28.243  1.7420  2.4440 -999.25 -999.25 
  1958.500 -49.303  2.5080  1.7420 -999.25 -999.25 -27.654  1.7420  2.5080 -999.25 -999.25 
  1959.000 -55.818  2.5260  1.7350 -999.25 -999.25 -34.173  1.7350  2.5260 -999.25 -999.25 
  1959.500 -57.806  2.4910  1.7320 -999.25 -999.25 -36.165  1.7320  2.4910 -999.25 -999.25 
  1960.000 -58.874  2.4700  1.7140 -999.25 -999.25 -37.237  1.7140  2.4700 -999.25 -999.25 
  1960.500 -58.823  2.4060  1.6320 -999.25 -999.25 -37.190  1.6320  2.4060 -999.25 -999.25 
  1961.000 -56.649  2.1740  1.5220 -999.25 -999.25 -35.021  1.5220  2.1740 -999.25 -999.25 
  1961.500 -55.572  1.8320  1.4260 -999.25 -999.25 -33.948  1.4260  1.8320 -999.25 -999.25 
  1962.000 -54.390  1.6750  1.3430 -999.25 -999.25 -32.770  1.3430  1.6750 -999.25 -999.25 
  1962.500 -53.384  1.5720  1.2830 -999.25 -999.25 -31.768  1.2830  1.5720 -999.25 -999.25 
  1963.000 -52.731  1.5180  1.2150 -999.25 -999.25 -31.120  1.2150  1.5180 -999.25 -999.25 
  1963.500 -52.432  1.4790  1.1870 -999.25 -999.25 -30.825  1.1870  1.4790 -999.25 -999.25 
  1964.000 -52.840  1.4360  1.1510 -999.25 -999.25 -31.237  1.1510  1.4360 -999.25 -999.25 
  1964.500 -54.027  1.4250  1.1230 -999.25 -999.25 -32.428  1.1230  1.4250 -999.25 -999.25 
  1965.000 -55.744  1.4220  1.1230 -999.25 -999.25 -34.149  1.1230  1.4220 -999.25 -999.25 
  1965.500 -56.895  1.4330  1.1690 -999.25 -999.25 -35.305  1.1690  1.4330 -999.25 -999.25 
  1966.000 -57.445  1.4430  1.2010 -999.25 -999.25 -35.859  1.2010  1.4430 -999.25 -999.25 
  1966.500 -56.050  1.4680  1.2290 -999.25 -999.25 -34.468  1.2290  1.4680 -999.25 -999.25 
  1967.000 -54.938  1.4970  1.2440 -999.25 -999.25 -33.360  1.2440  1.4970 -999.25 -999.25 
  1967.500 -54.391  1.5220  1.2580 -999.25 -999.25 -32.818  1.2580  1.5220 -999.25 -999.25 
  1968.000 -54.021  1.5610  1.2900 -999.25 -999.25 -32.452  1.2900  1.5610 -999.25 -999.25 
  1968.500 -61.999  1.5890  1.3150 -999.25 -999.25 -40.434  1.3150  1.5890 -999.25 -999.25 
  1969.000 -63.327  1.6140  1.3260 -999.25 -999.25 -41.766  1.3260  1.6140 -999.25 -999.25 
  1969.500 -64.620  1.6220  1.3370 -999.25 -999.25 -43.063  1.3370  1.6220 -999.25 -999.25 
  1970.000 -65.418  1.5820  1.3650 -999.25 -999.25 -43.866  1.3650  1.5820 -999.25 -999.25 
  1970.500 -54.941  1.5600  1.3780 -999.25 -999.25 -33.393  1.3780  1.5600 -999.25 -999.25 
  1971.000 -52.812  1.5340  1.3880 -999.25 -999.25 -31.268  1.3880  1.5340 -999.25 -999.25 
  1971.500 -51.744  1.5080  1.3870 -999.25 -999.25 -30.204  1.3870  1.5080 -999.25 -999.25 
  1972.000 -50.817  1.4890  1.3750 -999.25 -999.25 -29.281  1.3750  1.4890 -999.25 -999.25 
  1972.500 -50.279  1.4700  1.3560 -999.25 -999.25 -28.748  1.3560  1.4700 -999.25 -999.25 
  1973.000 -50.803  1.4440  1.3340 -999.25 -999.25 -29.276  1.3340  1.4440 -999.25 -999.25 
  1973.500 -51.751  1.4390  1.3040 -999.25 -999.25 -30.228  1.3040  1.4390 -999.25 -999.25 
  1974.000 -52.062  1.4310  1.2820 -999.25 -999.25 -30.543  1.2820  1.4310 -999.25 -999.25 
  1974.500 -52.161  1.4340  1.2590 -999.25 -999.25 -30.647  1.2590  1.4340 -999.25 -999.25 
  1975.000 -52.260  1.4430  1.2370 -999.25 -999.25 -30.750  1.2370  1.4430 -999.25 -999.25 
  1975.500 -52.324  1.4740  1.2320 -999.25 -999.25 -30.818  1.2320  1.4740 -999.25 -999.25 
  1976.000 -52.211  1.5230  1.2770 -999.25 -999.25 -30.709  1.2770  1.5230 -999.25 -999.25 
  1976.500 -52.097  1.6970  1.3210 -999.25 -999.25 -30.599  1.3210  1.6970 -999.25 -999.25 
  1977.000 -51.808  2.0450  1.3640 -999.25 -999.25 -30.315  1.3640  2.0450 -999.25 -999.25 
  1977.500 -51.589  2.3000  1.4700 -999.25 -999.25 -30.100  1.4700  2.3000 -999.25 -999.25 
  1978.000 -52.005  2.4100  1.5260 -999.25 -999.25 -30.520  1.5260  2.4100 -999.25 -999.25 
  1978.500 -54.403  2.4550  1.5610 -999.25 -999.25 -32.922  1.5610  2.4550 -999.25 -999.25 
  1979.000 -56.696  2.4720  1.6240 -999.25 -999.25 -35.219  1.6240  2.4720 -999.25 -999.25 
  1979.500 -57.643  2.4460  1.6650 -999.25 -999.25 -36.171  1.6650  2.4460 -999.25 -999.25 
  1980.000 -53.533  2.3730  1.6960 -999.25 -999.25 -32.065  1.6960  2.3730 -999.25 -999.25 
  1980.500 -51.689  2.1810  1.7360 -999.25 -999.25 -30.225  1.7360  2.1810 -999.25 -999.25 
  1981.000 -50.517  1.8640  1.5820 -999.25 -999.25 -29.057  1.5820  1.8640 -999.25 -999.25 
  1981.500 -49.981  1.7500  1.4790 -999.25 -999.25 -28.526  1.4790  1.7500 -999.25 -999.25 
  1982.000 -50.364  1.6390  1.4430 -999.25 -999.25 -28.913  1.4430  1.6390 -999.25 -999.25 
  1982.500 -50.783  1.5860  1.3970 -999.25 -999.25 -29.336  1.3970  1.5860 -999.25 -999.25 
  1983.000 -50.636  1.5180  1.3580 -999.25 -999.25 -29.193  1.3580  1.5180 -999.25 -999.25 
  1983.500 -50.207  1.4610  1.3380 -999.25 -999.25 -28.768  1.3380  1.4610 -999.25 -999.25 
  1984.000 -49.884  1.4330  1.3190 -999.25 -999.25 -28.450  1.3190  1.4330 -999.25 -999.25 
  1984.500 -50.691  1.4150  1.2720 -999.25 -999.25 -29.261  1.2720  1.4150 -999.25 -999.25 
  1985.000 -51.712  1.4080  1.2510 -999.25 -999.25 -30.286  1.2510  1.4080 -999.25 -999.25 
  1985.500 -52.520  1.3900  1.2330 -999.25 -999.25 -31.098  1.2330  1.3900 -999.25 -999.25 
  1986.000 -53.788  1.3720  1.2220 -999.25 -999.25 -32.371  1.2220  1.3720 -999.25 -999.25 
  1986.500 -55.057  1.3650  1.2080 -999.25 -999.25 -33.644  1.2080  1.3650 -999.25 -999.25 
  1987.000 -56.183  1.3470  1.1970 -999.25 -999.25 -34.774  1.1970  1.3470 -999.25 -999.25 
