~Version Information
VERS.                     2.0: CWLS log ASCII Standard Version 2.00
WRAP.                      NO: One line per depth step
~Well Information Block
#MNEM.UNIT                               Data Type  Information
#---------                               ---------  -----------
STRT.FT                                   400.0000:
STOP.FT                                  3500.0000:
STEP.FT                                     0.5000:
NULL.                 -999.25                     :
COMP.                                             :COMPANY            
WELL.     KCL44-34                                :WELL               
FLD .                                             :FIELD              
CTRY.                                             :COUNTRY            
STAT.                                             :STATE              
LOC .                                             :LOCATION           
UWI .                                             :UNIQUE WELL ID     
SRVC.                                             :Service company    
DATE.                                             :LOG DATE           
~Curve Information
#MNEM.UNIT           API CODE  Curve Description
#---------           --------  -----------------
DEPT.FT                      :   1 DEPTH
SP  .MV                      :   2
SN  .OHMM                    :   3
ILD .OHMM                    :   4
SBL .MV                      :   5
RS  .OHMM                    :   6
RD  .OHMM                    :   7
DEPS.FT                      :   8
~A
# ...
  3291.000 -10.011  2.5110  2.4760 -2.0668  2.5110  2.4760 -2033.0 
  3291.500 -9.6160  2.4750  2.4460 -1.6698  2.4750  2.4460 -2033.5 
  3292.000 -9.4740  2.3600  2.3380 -1.5259  2.3600  2.3380 -2034.0 
  3292.500 -11.845  2.1870  2.2020 -3.8950  2.1870  2.2020 -2034.5 
  3293.000 -13.247  2.1080  2.1150 -5.2951  2.1080  2.1150 -2035.0 
  3293.500 -14.074  2.0500  2.0140 -6.1202  2.0500  2.0140 -2035.5 
  3294.000 -14.830  2.0360  1.9920 -6.8742  2.0360  1.9920 -2036.0 
  3294.500 -15.226  2.0710  2.0710 -7.2683  2.0710  2.0710 -2036.5 
  3295.000 -14.256  2.1430  2.1500 -6.2964  2.1430  2.1500 -2037.0 
  3295.500 -13.502  2.2000  2.2070 -5.5405  2.2000  2.2070 -2037.5 
  3296.000 -13.072  2.3430  2.2640 -5.1085  2.3430  2.2640 -2038.0 
  3296.500 -13.324  2.4500  2.4790 -5.3586  2.4500  2.4790 -2038.5 
  3297.000 -14.223  2.5860  2.6220 -6.2557  2.5860  2.6220 -2039.0 
  3297.500 -14.727  2.8300  2.8150 -6.7578  2.8300  2.8150 -2039.5 
  3298.000 -13.937  3.0590  2.9940 -5.9658  3.0590  2.9940 -2040.0 
  3298.500 -13.363  3.3890  3.1450 -5.3899  3.3890  3.1450 -2040.5 
  3299.000 -12.969  3.7620  3.3740 -4.9940  3.7620  3.3740 -2041.0 
  3299.500 -12.610  4.8450  3.5680 -4.6331  4.8450  3.5680 -2041.5 
  3300.000 -12.790  5.2830  3.6820 -4.8112  5.2830  3.6820 -2042.0 
  3300.500 -13.616  5.4770  3.7830 -5.6352  5.4770  3.7830 -2042.5 
  3301.000 -13.975  5.5560  3.8480 -5.9923  5.5560  3.8480 -2043.0 
  3301.500 -14.155  5.5990  3.9120 -6.1704  5.5990  3.9120 -2043.5 
  3302.000 -13.507  4.9100  4.0200 -5.5205  4.9100  4.0200 -2044.0 
  3302.500 -12.357  4.1500  3.9340 -4.3685  4.1500  3.9340 -2044.5 
  3303.000 -11.423  3.8700  3.6190 -3.4326  3.8700  3.6190 -2045.0 
  3303.500 -10.740  3.7340  3.4400 -2.7477  3.7340  3.4400 -2045.5 
  3304.000 -10.201  4.0210  3.3540 -2.2068  4.0210  3.3540 -2046.0 
  3304.500 -10.093  4.3080  3.6700 -2.0968  4.3080  3.6700 -2046.5 
  3305.000 -10.631  4.5600  3.8490 -2.6329  4.5600  3.8490 -2047.0 
  3305.500 -11.098  4.6960  4.1220 -3.0980  4.6960  4.1220 -2047.5 
  3306.000 -11.888  4.8190  4.3660 -3.9222  4.8190  4.3660 -2048.0 
  3306.500 -13.684  4.9410  4.6540 -5.7524  4.9410  4.6540 -2048.5 
  3307.000 -17.169  5.1130  4.8770 -9.2716  5.1130  4.8770 -2049.0 
  3307.500 -18.569  5.1420  4.9990 -10.706  5.1420  4.9990 -2049.5 
  3308.000 -19.395  5.2000  5.1210 -11.566  5.2000  5.1210 -2050.0 
  3308.500 -17.922  5.3220  5.4370 -10.127  5.3220  5.4370 -2050.5 
  3309.000 -17.095  5.5090  5.6310 -9.3343  5.5090  5.6310 -2051.0 
  3309.500 -16.664  5.6240  5.7390 -8.9375  5.6240  5.7390 -2051.5 
  3310.000 -21.047  5.7320  5.8830 -13.355  5.7320  5.8830 -2052.0 
  3310.500 -21.801  5.8250  5.9400 -14.143  5.8250  5.9400 -2052.5 
  3311.000 -20.040  5.9410  6.0480 -12.416  5.9410  6.0480 -2053.0 
  3311.500 -18.926  6.1560  6.1630 -11.336  6.1560  6.1630 -2053.5 
  3312.000 -18.135  6.2240  6.2140 -10.579  6.2240  6.2140 -2054.0 
  3312.500 -18.745  6.2930  6.2930 -11.224  6.2930  6.2930 -2054.5 
  3313.000 -19.715  6.3720  6.3000 -12.228  6.3720  6.3000 -2055.0 
  3313.500 -19.930  6.3360  6.2220 -12.477  6.3360  6.2220 -2055.5 
  3314.000 -18.960  6.2070  5.9420 -11.541  6.2070  5.9420 -2056.0 
  3314.500 -18.169  6.0140  5.6690 -10.784  6.0140  5.6690 -2056.5 
  3315.000 -17.378  5.7480  5.4110 -10.028  5.7480  5.4110 -2057.0 
  3315.500 -16.121  5.4470  5.1310 -8.8048  5.4470  5.1310 -2057.5 
  3316.000 -14.683  5.0380  4.7940 -7.4009  5.0380  4.7940 -2058.0 
  3316.500 -14.108  4.8020  4.5360 -6.8601  4.8020  4.5360 -2058.5 
  3317.000 -12.958  4.5000  4.2130 -5.7443  4.5000  4.2130 -2059.0 
  3317.500 -12.634  4.3570  4.0480 -5.4545  4.3570  4.0480 -2059.5 
  3318.000 -12.562  4.3070  3.9480 -5.4167  4.3070  3.9480 -2060.0 
  3318.500 -12.490  4.4650  4.0060 -5.3789  4.4650  4.0060 -2060.5 
  3319.000 -13.819  4.7450  4.2790 -6.7421  4.7450  4.2790 -2061.0 
  3319.500 -15.830  4.8820  4.4230 -8.7873  4.8820  4.4230 -2061.5 
  3320.000 -17.267  4.9470  4.5230 -10.258  4.9470  4.5230 -2062.0 
  3320.500 -17.734  4.9250  4.6100 -10.760  4.9250  4.6100 -2062.5 
  3321.000 -18.164  4.8970  4.6600 -11.224  4.8970  4.6600 -2063.0 
  3321.500 -18.344  4.8680  4.6600 -11.438  4.8680  4.6600 -2063.5 
  3322.000 -18.343  4.8650  4.6680 -11.471  4.8650  4.6680 -2064.0 
  3322.500 -18.487  4.8620  4.6680 -11.649  4.8620  4.6680 -2064.5 
  3323.000 -18.558  4.8370  4.6820 -11.755  4.8370  4.6820 -2065.0 
  3323.500 -18.558  4.8120  4.7260 -11.789  4.8120  4.7260 -2065.5 
  3324.000 -18.557  4.7830  4.7760 -11.822  4.7830  4.7760 -2066.0 
  3324.500 -18.485  4.9410  4.9270 -11.784  4.9410  4.9270 -2066.5 
  3325.000 -18.233  5.1570  5.0350 -11.566  5.1570  5.0350 -2067.0 
  3325.500 -17.981  5.3720  5.1430 -11.349  5.3720  5.1430 -2067.5 
  3326.000 -17.874  5.7530  5.3010 -11.276  5.7530  5.3010 -2068.0 
  3326.500 -18.628  5.8610  5.3370 -12.064  5.8610  5.3370 -2068.5 
  3327.000 -19.166  5.9330  5.3880 -12.636  5.9330  5.3880 -2069.0 
  3327.500 -19.489  5.9910  5.4240 -12.993  5.9910  5.4240 -2069.5 
  3328.000 -19.740  6.0050  5.4600 -13.278  6.0050  5.4600 -2070.0 
  3328.500 -19.740  5.9980  5.4960 -13.313  5.9980  5.4960 -2070.5 
  3329.000 -19.201  5.9410  5.5250 -12.808  5.9410  5.5250 -2071.0 
  3329.500 -18.877  5.8190  5.1730 -12.518  5.8190  5.1730 -2071.5 
  3330.000 -19.164  5.7370  4.9010 -12.839  5.7370  4.9010 -2072.0 
  3330.500 -18.229  5.6550  4.7720 -11.938  5.6550  4.7720 -2072.5 
  3331.000 -16.253  5.2030  4.6640 -9.9966  5.2030  4.6640 -2073.0 
  3331.500 -14.851  4.6720  4.5780 -8.6288  4.6720  4.5780 -2073.5 
  3332.000 -14.204  4.4710  4.4280 -8.0160  4.4710  4.4280 -2074.0 
  3332.500 -13.953  4.3780  4.2270 -7.7992  4.3780  4.2270 -2074.5 
  3333.000 -15.210  4.3710  4.1130 -9.0903  4.3710  4.1130 -2075.0 
  3333.500 -16.862  4.3780  4.0480 -10.777  4.3780  4.0480 -2075.5 
  3334.000 -17.473  4.5510  3.9910 -11.422  4.5510  3.9910 -2076.0 
  3334.500 -17.077  4.6730  4.0700 -11.060  4.6730  4.0700 -2076.5 
  3335.000 -16.681  4.8460  4.1130 -10.698  4.8460  4.1130 -2077.0 
  3335.500 -16.573  4.9250  4.1930 -10.624  4.9250  4.1930 -2077.5 
  3336.000 -17.148  5.0330  4.2220 -11.233  5.0330  4.2220 -2078.0 
  3336.500 -18.333  5.1330  4.2720 -12.453  5.1330  4.2720 -2078.5 
  3337.000 -19.303  5.1480  4.3010 -13.457  5.1480  4.3010 -2079.0 
  3337.500 -19.949  5.0910  4.3080 -14.137  5.0910  4.3080 -2079.5 
  3338.000 -20.416  5.0120  4.2650 -14.638  5.0120  4.2650 -2080.0 
  3338.500 -20.811  4.9760  4.1940 -15.067  4.9760  4.1940 -2080.5 
  3339.000 -21.062  4.9690  4.1440 -15.353  4.9690  4.1440 -2081.0 
  3339.500 -20.738  4.9620  4.1660 -15.063  4.9620  4.1660 -2081.5 
  3340.000 -20.342  5.0770  4.2230 -14.701  5.0770  4.2230 -2082.0 
  3340.500 -20.019  5.2280  4.3740 -14.412  5.2280  4.3740 -2082.5 
  3341.000 -20.018  5.4940  4.5250 -14.445  5.4940  4.5250 -2083.0 
  3341.500 -20.719  5.7310  4.8410 -15.181  5.7310  4.8410 -2083.5 
  3342.000 -21.419  5.9900  5.0500 -15.915  5.9900  5.0500 -2084.0 
  3342.500 -22.640  6.2990  5.3440 -17.170  6.2990  5.3440 -2084.5 
  3343.000 -23.718  6.7510  5.6740 -18.282  6.7510  5.6740 -2085.0 
  3343.500 -24.472  7.1890  6.0840 -19.070  7.1890  6.0840 -2085.5 
  3344.000 -25.010  7.4050  6.5220 -19.642  7.4050  6.5220 -2086.0 
  3344.500 -24.435  7.5480  6.7590 -19.102  7.5480  6.7590 -2086.5 
  3345.000 -23.572  7.6850  6.9530 -18.273  7.6850  6.9530 -2087.0 
  3345.500 -23.069  7.7210  7.1110 -17.804  7.7210  7.1110 -2087.5 
  3346.000 -22.638  7.7360  7.2040 -17.407  7.7360  7.2040 -2088.0 
  3346.500 -22.134  7.6500  7.3410 -16.937  7.6500  7.3410 -2088.5 
  3347.000 -21.990  7.5570  7.3770 -16.828  7.5570  7.3770 -2089.0 
  3347.500 -21.882  7.4630  6.8750 -16.754  7.4630  6.8750 -2089.5 
  3348.000 -21.953  7.2910  6.6810 -16.859  7.2910  6.6810 -2090.0 
  3348.500 -21.235  7.0910  6.3510 -16.175  7.0910  6.3510 -2090.5 
  3349.000 -20.552  6.7460  5.8060 -15.526  6.7460  5.8060 -2091.0 
  3349.500 -19.869  6.1010  4.8590 -14.878  6.1010  4.8590 -2091.5 
