~Version Information
VERS.                     2.0: CWLS log ASCII Standard Version 2.00
WRAP.                      NO: One line per depth step
~Well Information Block
#MNEM.UNIT                               Data Type  Information
#---------                               ---------  -----------
STRT.FT                                    30.0000:
STOP.FT                                  5850.0000:
STEP.FT                                     0.5000:
NULL.                 -999.25                     :
COMP.                                             :COMPANY            
WELL.     KCL44-43                                :WELL               
FLD .                                             :FIELD              
CTRY.                                             :COUNTRY            
STAT.                                             :STATE              
LOC .                                             :LOCATION           
UWI .                                             :UNIQUE WELL ID     
SRVC.                                             :Service company    
DATE.                                             :LOG DATE           
~Curve Information
#MNEM.UNIT           API CODE  Curve Description
#---------           --------  -----------------
DEPT.FT                      :   1 DEPTH
SP  .MV                      :   2
ILD .OHMM                    :   3
SN  .OHMM                    :   4
GR  .RE/T                    :   5
NEUT.CPS                     :   6
SBL .MV                      :   7
RS  .OHMM                    :   8
RD  .OHMM                    :   9
NEUS.CPS                     :  10
GRS .RE/T                    :  11
~A
# ...
  2335.500 -49.671  1.2730  1.0850 -999.25 -999.25 -31.201  1.0850  1.2730 -999.25 -999.25 
  2336.000 -49.982  1.2770  1.0840 -999.25 -999.25 -31.516  1.0840  1.2770 -999.25 -999.25 
  2336.500 -50.188  1.3690  1.0940 -999.25 -999.25 -31.727  1.0940  1.3690 -999.25 -999.25 
  2337.000 -49.968  1.4430  1.1470 -999.25 -999.25 -31.511  1.1470  1.4430 -999.25 -999.25 
  2337.500 -49.325  1.6600  1.2210 -999.25 -999.25 -30.872  1.2210  1.6600 -999.25 -999.25 
  2338.000 -49.105  1.9660  1.3530 -999.25 -999.25 -30.656  1.3530  1.9660 -999.25 -999.25 
  2338.500 -48.815  2.4040  1.5520 -999.25 -999.25 -30.370  1.5520  2.4040 -999.25 -999.25 
  2339.000 -48.808  2.7270  1.3730 -999.25 -999.25 -30.368  1.3730  2.7270 -999.25 -999.25 
  2339.500 -50.286  3.3470  1.5970 -999.25 -999.25 -31.850  1.5970  3.3470 -999.25 -999.25 
  2340.000 -53.215  3.8380  1.7280 -999.25 -999.25 -34.783  1.7280  3.8380 -999.25 -999.25 
  2340.500 -54.492  4.3910  1.8320 -999.25 -999.25 -36.064  1.8320  4.3910 -999.25 -999.25 
  2341.000 -54.248  4.4870  1.9110 -999.25 -999.25 -35.825  1.9110  4.4870 -999.25 -999.25 
  2341.500 -52.837  4.4450  1.9970 -999.25 -999.25 -34.418  1.9970  4.4450 -999.25 -999.25 
  2342.000 -51.249  2.9840  2.0610 -999.25 -999.25 -32.834  2.0610  2.9840 -999.25 -999.25 
  2342.500 -49.731  2.2720  1.9970 -999.25 -999.25 -31.320  1.9970  2.2720 -999.25 -999.25 
  2343.000 -48.426  1.9050  1.5880 -999.25 -999.25 -30.019  1.5880  1.9050 -999.25 -999.25 
  2343.500 -47.900  1.7740  1.4600 -999.25 -999.25 -29.498  1.4600  1.7740 -999.25 -999.25 
  2344.000 -47.053  1.6810  1.3500 -999.25 -999.25 -28.655  1.3500  1.6810 -999.25 -999.25 
  2344.500 -43.661  1.5850  1.2830 -999.25 -999.25 -25.267  1.2830  1.5850 -999.25 -999.25 
  2345.000 -42.144  1.5430  1.2690 -999.25 -999.25 -23.754  1.2690  1.5430 -999.25 -999.25 
  2345.500 -41.299  1.5110  1.2870 -999.25 -999.25 -22.913  1.2870  1.5110 -999.25 -999.25 
  2346.000 -41.267  1.5010  1.2910 -999.25 -999.25 -22.886  1.2910  1.5010 -999.25 -999.25 
  2346.500 -43.852  1.5120  1.3020 -999.25 -999.25 -25.475  1.3020  1.5120 -999.25 -999.25 
  2347.000 -46.580  1.5160  1.3060 -999.25 -999.25 -28.207  1.3060  1.5160 -999.25 -999.25 
  2347.500 -47.290  1.5020  1.3060 -999.25 -999.25 -28.921  1.3060  1.5020 -999.25 -999.25 
  2348.000 -42.625  1.4780  1.3060 -999.25 -999.25 -24.261  1.3060  1.4780 -999.25 -999.25 
  2348.500 -40.471  1.4490  1.3070 -999.25 -999.25 -22.111  1.3070  1.4490 -999.25 -999.25 
  2349.000 -39.626  1.4320  1.3040 -999.25 -999.25 -21.270  1.3040  1.4320 -999.25 -999.25 
  2349.500 -38.993  1.4040  1.3000 -999.25 -999.25 -20.641  1.3000  1.4040 -999.25 -999.25 
  2350.000 -45.080  1.3790  1.2830 -999.25 -999.25 -26.732  1.2830  1.3790 -999.25 -999.25 
  2350.500 -47.489  1.3540  1.2800 -999.25 -999.25 -29.146  1.2800  1.3540 -999.25 -999.25 
  2351.000 -47.528  1.3440  1.2510 -999.25 -999.25 -29.189  1.2510  1.3440 -999.25 -999.25 
  2351.500 -47.248  1.3400  1.2370 -999.25 -999.25 -28.913  1.2370  1.3400 -999.25 -999.25 
  2352.000 -47.004  1.3410  1.2120 -999.25 -999.25 -28.673  1.2120  1.3410 -999.25 -999.25 
  2352.500 -46.865  1.3690  1.2160 -999.25 -999.25 -28.538  1.2160  1.3690 -999.25 -999.25 
  2353.000 -46.726  1.3820  1.2310 -999.25 -999.25 -28.404  1.2310  1.3820 -999.25 -999.25 
  2353.500 -46.590  1.3950  1.2450 -999.25 -999.25 -28.272  1.2450  1.3950 -999.25 -999.25 
  2354.000 -48.681  1.4270  1.2700 -999.25 -999.25 -30.367  1.2700  1.4270 -999.25 -999.25 
  2354.500 -49.392  1.4410  1.2770 -999.25 -999.25 -31.082  1.2770  1.4410 -999.25 -999.25 
  2355.000 -49.820  1.4450  1.2810 -999.25 -999.25 -31.515  1.2810  1.4450 -999.25 -999.25 
  2355.500 -50.000  1.4450  1.2850 -999.25 -999.25 -31.699  1.2850  1.4450 -999.25 -999.25 
  2356.000 -48.624  1.4280  1.2890 -999.25 -999.25 -30.327  1.2890  1.4280 -999.25 -999.25 
  2356.500 -45.621  1.4060  1.2920 -999.25 -999.25 -27.328  1.2920  1.4060 -999.25 -999.25 
  2357.000 -44.705  1.3960  1.2960 -999.25 -999.25 -26.416  1.2960  1.3960 -999.25 -999.25 
  2357.500 -45.098  1.3570  1.2930 -999.25 -999.25 -26.814  1.2930  1.3570 -999.25 -999.25 
  2358.000 -45.349  1.3430  1.2820 -999.25 -999.25 -27.069  1.2820  1.3430 -999.25 -999.25 
  2358.500 -45.494  1.3250  1.2570 -999.25 -999.25 -27.218  1.2570  1.3250 -999.25 -999.25 
  2359.000 -45.550  1.3110  1.2290 -999.25 -999.25 -27.278  1.2290  1.3110 -999.25 -999.25 
  2359.500 -45.605  1.2900  1.2010 -999.25 -999.25 -27.338  1.2010  1.2900 -999.25 -999.25 
  2360.000 -46.990  1.2830  1.1800 -999.25 -999.25 -28.727  1.1800  1.2830 -999.25 -999.25 
  2360.500 -48.619  1.2800  1.1440 -999.25 -999.25 -30.360  1.1440  1.2800 -999.25 -999.25 
  2361.000 -49.080  1.2890  1.1270 -999.25 -999.25 -30.825  1.1270  1.2890 -999.25 -999.25 
  2361.500 -49.541  1.2980  1.1270 -999.25 -999.25 -31.290  1.1270  1.2980 -999.25 -999.25 
  2362.000 -50.357  1.3130  1.1450 -999.25 -999.25 -32.111  1.1450  1.3130 -999.25 -999.25 
  2362.500 -50.606  1.3200  1.1630 -999.25 -999.25 -32.364  1.1630  1.3200 -999.25 -999.25 
  2363.000 -50.502  1.3350  1.1780 -999.25 -999.25 -32.264  1.1780  1.3350 -999.25 -999.25 
  2363.500 -48.382  1.3530  1.1930 -999.25 -999.25 -30.148  1.1930  1.3530 -999.25 -999.25 
  2364.000 -46.120  1.3780  1.2150 -999.25 -999.25 -27.890  1.2150  1.3780 -999.25 -999.25 
  2364.500 -45.238  1.4070  1.2360 -999.25 -999.25 -27.013  1.2360  1.4070 -999.25 -999.25 
  2365.000 -44.920  1.4330  1.2610 -999.25 -999.25 -26.699  1.2610  1.4330 -999.25 -999.25 
  2365.500 -44.180  1.4690  1.2690 -999.25 -999.25 -25.963  1.2690  1.4690 -999.25 -999.25 
  2366.000 -43.475  1.4970  1.2770 -999.25 -999.25 -25.262  1.2770  1.4970 -999.25 -999.25 
  2366.500 -42.875  1.5410  1.3020 -999.25 -999.25 -24.667  1.3020  1.5410 -999.25 -999.25 
  2367.000 -42.133  1.5940  1.3270 -999.25 -999.25 -23.929  1.3270  1.5940 -999.25 -999.25 
  2367.500 -40.403  1.6250  1.3450 -999.25 -999.25 -22.203  1.3450  1.6250 -999.25 -999.25 
  2368.000 -39.307  1.6560  1.3850 -999.25 -999.25 -21.111  1.3850  1.6560 -999.25 -999.25 
  2368.500 -38.425  1.7420  1.4390 -999.25 -999.25 -20.233  1.4390  1.7420 -999.25 -999.25 
  2369.000 -37.967  1.8490  1.4850 -999.25 -999.25 -19.780  1.4850  1.8490 -999.25 -999.25 
  2369.500 -37.863  1.9530  1.5430 -999.25 -999.25 -19.680  1.5430  1.9530 -999.25 -999.25 
  2370.000 -37.935  2.0560  1.6250 -999.25 -999.25 -19.756  1.6250  2.0560 -999.25 -999.25 
  2370.500 -37.698  2.1800  1.7060 -999.25 -999.25 -19.523  1.7060  2.1800 -999.25 -999.25 
  2371.000 -36.930  2.2610  1.7950 -999.25 -999.25 -18.760  1.7950  2.2610 -999.25 -999.25 
  2371.500 -34.748  2.3780  1.8830 -999.25 -999.25 -16.582  1.8830  2.3780 -999.25 -999.25 
  2372.000 -33.132  2.4630  2.0640 -999.25 -999.25 -14.970  2.0640  2.4630 -999.25 -999.25 
  2372.500 -30.030  2.7440  2.3270 -999.25 -999.25 -11.872  2.3270  2.7440 -999.25 -999.25 
  2373.000 -28.908  2.9570  2.5470 -999.25 -999.25 -10.754  2.5470  2.9570 -999.25 -999.25 
  2373.500 -27.646  3.6510  2.9560 -999.25 -999.25 -9.4966  2.9560  3.6510 -999.25 -999.25 
  2374.000 -26.914  3.8890  3.5940 -999.25 -999.25 -8.7688  3.5940  3.8890 -999.25 -999.25 
  2374.500 -26.535  4.7410  4.1770 -999.25 -999.25 -8.3940  4.1770  4.7410 -999.25 -999.25 
  2375.000 -26.121  5.3350  4.7220 -999.25 -999.25 -7.9843  4.7220  5.3350 -999.25 -999.25 
  2375.500 -26.061  5.9190  5.1490 -999.25 -999.25 -7.9285  5.1490  5.9190 -999.25 -999.25 
  2376.000 -28.512  6.3530  5.2840 -999.25 -999.25 -10.384  5.2840  6.3530 -999.25 -999.25 
  2376.500 -31.848  7.1330  5.4110 -999.25 -999.25 -13.724  5.4110  7.1330 -999.25 -999.25 
  2377.000 -32.461  8.0330  5.4820 -999.25 -999.25 -14.341  5.4820  8.0330 -999.25 -999.25 
  2377.500 -32.647  8.1680  5.4810 -999.25 -999.25 -14.531  5.4810  8.1680 -999.25 -999.25 
  2378.000 -33.047  8.2000  5.4380 -999.25 -999.25 -14.936  5.4380  8.2000 -999.25 -999.25 
  2378.500 -33.624  8.0600  5.3410 -999.25 -999.25 -15.517  5.3410  8.0600 -999.25 -999.25 
