~Version Information
VERS.                     2.0: CWLS log ASCII Standard Version 2.00
WRAP.                      NO: One line per depth step
~Well Information Block
#MNEM.UNIT                               Data Type  Information
#---------                               ---------  -----------
STRT.FT                                    30.0000:
STOP.FT                                  5850.0000:
STEP.FT                                     0.5000:
NULL.                 -999.25                     :
COMP.                                             :COMPANY            
WELL.     KCL44-43                                :WELL               
FLD .                                             :FIELD              
CTRY.                                             :COUNTRY            
STAT.                                             :STATE              
LOC .                                             :LOCATION           
UWI .                                             :UNIQUE WELL ID     
SRVC.                                             :Service company    
DATE.                                             :LOG DATE           
~Curve Information
#MNEM.UNIT           API CODE  Curve Description
#---------           --------  -----------------
DEPT.FT                      :   1 DEPTH
SP  .MV                      :   2
ILD .OHMM                    :   3
SN  .OHMM                    :   4
GR  .RE/T                    :   5
NEUT.CPS                     :   6
SBL .MV                      :   7
RS  .OHMM                    :   8
RD  .OHMM                    :   9
NEUS.CPS                     :  10
GRS .RE/T                    :  11
~A
# ...
   421.500 -37.776  15.667  14.955 -999.25 -999.25 -11.776  14.955  15.667 -999.25 -999.25 
   422.000 -38.417  16.377  15.629 -999.25 -999.25 -12.417  15.629  16.377 -999.25 -999.25 
   422.500 -39.343  16.661  16.055 -999.25 -999.25 -13.343  16.055  16.661 -999.25 -999.25 
   423.000 -40.304  17.051  16.623 -999.25 -999.25 -14.304  16.623  17.051 -999.25 -999.25 
   423.500 -40.910  17.298  16.906 -999.25 -999.25 -14.910  16.906  17.298 -999.25 -999.25 
   424.000 -41.516  17.261  16.549 -999.25 -999.25 -15.516  16.549  17.261 -999.25 -999.25 
   424.500 -41.022  16.511  15.549 -999.25 -999.25 -15.022  15.549  16.511 -999.25 -999.25 
   425.000 -40.492  15.512  14.372 -999.25 -999.25 -14.492  14.372  15.512 -999.25 -999.25 
   425.500 -40.033  14.691  12.874 -999.25 -999.25 -14.033  12.874  14.691 -999.25 -999.25 
   426.000 -39.929  13.799  11.982 -999.25 -999.25 -13.929  11.982  13.799 -999.25 -999.25 
   426.500 -39.968  12.621  11.517 -999.25 -999.25 -13.968  11.517  12.621 -999.25 -999.25 
   427.000 -40.006  11.373  10.946 -999.25 -999.25 -14.006  10.946  11.373 -999.25 -999.25 
   427.500 -38.908  10.894  10.684 -999.25 -999.25 -12.908  10.684  10.894 -999.25 -999.25 
   428.000 -37.633  10.414  10.422 -999.25 -999.25 -11.633  10.422  10.414 -999.25 -999.25 
   428.500 -36.535  9.9350  10.161 -999.25 -999.25 -10.535  10.161  9.9350 -999.25 -999.25 
   429.000 -36.005  9.8400  9.8990 -999.25 -999.25 -10.005  9.8990  9.8400 -999.25 -999.25 
   429.500 -35.724  9.7460  8.5060 -999.25 -999.25 -9.7240  8.5060  9.7460 -999.25 -999.25 
   430.000 -35.833  9.5460  8.0640 -999.25 -999.25 -9.8330  8.0640  9.5460 -999.25 -999.25 
   430.500 -36.400  9.2400  7.8930 -999.25 -999.25 -10.400  7.8930  9.2400 -999.25 -999.25 
   431.000 -38.387  9.0720  7.6940 -999.25 -999.25 -12.387  7.6940  9.0720 -999.25 -999.25 
   431.500 -39.203  8.5090  7.5620 -999.25 -999.25 -13.203  7.5620  8.5090 -999.25 -999.25 
   432.000 -37.888  8.2170  7.4340 -999.25 -999.25 -11.888  7.4340  8.2170 -999.25 -999.25 
   432.500 -36.361  8.0390  7.3340 -999.25 -999.25 -10.361  7.3340  8.0390 -999.25 -999.25 
   433.000 -36.005  7.9680  7.2020 -999.25 -999.25 -10.005  7.2020  7.9680 -999.25 -999.25 
   433.500 -35.898  7.9040  7.0950 -999.25 -999.25 -9.8980  7.0950  7.9040 -999.25 -999.25 
   434.000 -36.004  7.9890  7.0380 -999.25 -999.25 -10.004  7.0380  7.9890 -999.25 -999.25 
   434.500 -36.287  8.1530  6.9630 -999.25 -999.25 -10.287  6.9630  8.1530 -999.25 -999.25 
   435.000 -37.280  8.2990  6.9420 -999.25 -999.25 -11.280  6.9420  8.2990 -999.25 -999.25 
   435.500 -39.089  8.3880  6.9740 -999.25 -999.25 -13.089  6.9740  8.3880 -999.25 -999.25 
   436.000 -39.727  8.4420  7.1310 -999.25 -999.25 -13.727  7.1310  8.4420 -999.25 -999.25 
   436.500 -39.975  8.4700  7.3020 -999.25 -999.25 -13.975  7.3020  8.4700 -999.25 -999.25 
   437.000 -39.583  8.4520  7.3770 -999.25 -999.25 -13.583  7.3770  8.4520 -999.25 -999.25 
   437.500 -37.985  8.3380  7.4160 -999.25 -999.25 -11.985  7.4160  8.3380 -999.25 -999.25 
   438.000 -36.280  7.9470  7.4480 -999.25 -999.25 -10.280  7.4480  7.9470 -999.25 -999.25 
   438.500 -35.108  7.5940  7.3480 -999.25 -999.25 -9.1080  7.3480  7.5940 -999.25 -999.25 
   439.000 -34.291  7.4690  7.0880 -999.25 -999.25 -8.2910  7.0880  7.4690 -999.25 -999.25 
   439.500 -33.367  7.3800  6.5570 -999.25 -999.25 -7.3670  6.5570  7.3800 -999.25 -999.25 
   440.000 -32.940  7.2630  6.4150 -999.25 -999.25 -6.9400  6.4150  7.2630 -999.25 -999.25 
   440.500 -32.762  7.1670  6.4930 -999.25 -999.25 -6.7620  6.4930  7.1670 -999.25 -999.25 
   441.000 -33.613  7.5510  6.6860 -999.25 -999.25 -7.6130  6.6860  7.5510 -999.25 -999.25 
   441.500 -34.890  7.6300  6.6870 -999.25 -999.25 -8.8900  6.6870  7.6300 -999.25 -999.25 
   442.000 -35.741  7.6970  6.6890 -999.25 -999.25 -9.7410  6.6890  7.6970 -999.25 -999.25 
   442.500 -36.272  7.7470  6.7280 -999.25 -999.25 -10.272  6.7280  7.7470 -999.25 -999.25 
   443.000 -37.017  7.7790  6.8140 -999.25 -999.25 -11.017  6.8140  7.7790 -999.25 -999.25 
   443.500 -36.519  7.8010  6.9960 -999.25 -999.25 -10.519  6.9960  7.8010 -999.25 -999.25 
   444.000 -35.453  7.7680  7.0490 -999.25 -999.25 -9.4530  7.0490  7.7680 -999.25 -999.25 
   444.500 -34.494  7.4940  7.0380 -999.25 -999.25 -8.4940  7.0380  7.4940 -999.25 -999.25 
   445.000 -33.748  7.1060  6.9780 -999.25 -999.25 -7.7480  6.9780  7.1060 -999.25 -999.25 
   445.500 -33.463  6.8170  6.8170 -999.25 -999.25 -7.4630  6.8170  6.8170 -999.25 -999.25 
   446.000 -33.285  6.7280  6.5220 -999.25 -999.25 -7.2850  6.5220  6.7280 -999.25 -999.25 
   446.500 -33.284  6.6820  6.3470 -999.25 -999.25 -7.2840  6.3470  6.6820 -999.25 -999.25 
   447.000 -33.283  6.6360  6.1660 -999.25 -999.25 -7.2830  6.1660  6.6360 -999.25 -999.25 
   447.500 -33.246  6.6040  5.9380 -999.25 -999.25 -7.2460  5.9380  6.6040 -999.25 -999.25 
   448.000 -33.139  6.5720  5.8660 -999.25 -999.25 -7.1390  5.8660  6.5720 -999.25 -999.25 
   448.500 -33.138  6.5180  5.7920 -999.25 -999.25 -7.1380  5.7920  6.5180 -999.25 -999.25 
   449.000 -33.102  6.4860  5.7560 -999.25 -999.25 -7.1020  5.7560  6.4860 -999.25 -999.25 
   449.500 -33.136  6.4220  5.7380 -999.25 -999.25 -7.1360  5.7380  6.4220 -999.25 -999.25 
   450.000 -33.206  6.3510  5.6810 -999.25 -999.25 -7.2060  5.6810  6.3510 -999.25 -999.25 
   450.500 -33.336  6.3080  5.6420 -999.25 -999.25 -7.3360  5.6420  6.3080 -999.25 -999.25 
   451.000 -33.537  6.2470  5.5590 -999.25 -999.25 -7.5370  5.5590  6.2470 -999.25 -999.25 
   451.500 -33.702  6.2320  5.5090 -999.25 -999.25 -7.7020  5.5090  6.2320 -999.25 -999.25 
   452.000 -33.831  6.3570  5.4590 -999.25 -999.25 -7.8310  5.4590  6.3570 -999.25 -999.25 
   452.500 -33.961  6.4520  5.4230 -999.25 -999.25 -7.9610  5.4230  6.4520 -999.25 -999.25 
   453.000 -34.268  6.5090  5.4050 -999.25 -999.25 -8.2680  5.4050  6.5090 -999.25 -999.25 
   453.500 -34.646  6.5480  5.5860 -999.25 -999.25 -8.6460  5.5860  6.5480 -999.25 -999.25 
   454.000 -34.988  6.5830  5.8100 -999.25 -999.25 -8.9880  5.8100  6.5830 -999.25 -999.25 
   454.500 -35.189  6.6150  6.0200 -999.25 -999.25 -9.1890  6.0200  6.6150 -999.25 -999.25 
   455.000 -35.035  6.7530  6.1510 -999.25 -999.25 -9.0350  6.1510  6.7530 -999.25 -999.25 
   455.500 -34.703  7.0200  6.3150 -999.25 -999.25 -8.7030  6.3150  7.0200 -999.25 -999.25 
   456.000 -34.406  7.4080  6.4680 -999.25 -999.25 -8.4060  6.4680  7.4080 -999.25 -999.25 
   456.500 -34.110  7.6640  6.6240 -999.25 -999.25 -8.1100  6.6240  7.6640 -999.25 -999.25 
   457.000 -33.920  7.8670  6.8120 -999.25 -999.25 -7.9200  6.8120  7.8670 -999.25 -999.25 
   457.500 -33.659  8.0520  7.1750 -999.25 -999.25 -7.6590  7.1750  8.0520 -999.25 -999.25 
   458.000 -33.895  8.1550  7.4030 -999.25 -999.25 -7.8950  7.4030  8.1550 -999.25 -999.25 
   458.500 -34.238  8.2110  7.4880 -999.25 -999.25 -8.2380  7.4880  8.2110 -999.25 -999.25 
   459.000 -34.829  8.1970  7.5310 -999.25 -999.25 -8.8290  7.5310  8.1970 -999.25 -999.25 
   459.500 -35.313  8.1890  7.4980 -999.25 -999.25 -9.3130  7.4980  8.1890 -999.25 -999.25 
   460.000 -35.620  8.1670  7.4690 -999.25 -999.25 -9.6200  7.4690  8.1670 -999.25 -999.25 
   460.500 -35.537  8.1740  7.4510 -999.25 -999.25 -9.5370  7.4510  8.1740 -999.25 -999.25 
   461.000 -35.418  8.4870  7.4470 -999.25 -999.25 -9.4180  7.4470  8.4870 -999.25 -999.25 
   461.500 -35.299  8.8320  7.4720 -999.25 -999.25 -9.2990  7.4720  8.8320 -999.25 -999.25 
   462.000 -35.358  9.0490  7.5850 -999.25 -999.25 -9.3580  7.5850  9.0490 -999.25 -999.25 
   462.500 -35.878  9.2380  7.7600 -999.25 -999.25 -9.8780  7.7600  9.2380 -999.25 -999.25 
   463.000 -37.498  9.4050  8.1260 -999.25 -999.25 -11.498  8.1260  9.4050 -999.25 -999.25 
   463.500 -38.408  9.5970  8.3860 -999.25 -999.25 -12.408  8.3860  9.5970 -999.25 -999.25 
   464.000 -39.248  9.7500  8.8020 -999.25 -999.25 -13.248  8.8020  9.7500 -999.25 -999.25 
   464.500 -38.703  9.8630  9.0300 -999.25 -999.25 -12.703  9.0300  9.8630 -999.25 -999.25 
