~Version Information
VERS.                     2.0: CWLS log ASCII Standard Version 2.00
WRAP.                      NO: One line per depth step
~Well Information Block
#MNEM.UNIT                               Data Type  Information
#---------                               ---------  -----------
STRT.FT                                   400.0000:
STOP.FT                                  3500.0000:
STEP.FT                                     0.5000:
NULL.                 -999.25                     :
COMP.                                             :COMPANY            
WELL.     KCL44-34                                :WELL               
FLD .                                             :FIELD              
CTRY.                                             :COUNTRY            
STAT.                                             :STATE              
LOC .                                             :LOCATION           
UWI .                                             :UNIQUE WELL ID     
SRVC.                                             :Service company    
DATE.                                             :LOG DATE           
~Curve Information
#MNEM.UNIT           API CODE  Curve Description
#---------           --------  -----------------
DEPT.FT                      :   1 DEPTH
SP  .MV                      :   2
SN  .OHMM                    :   3
ILD .OHMM                    :   4
SBL .MV                      :   5
RS  .OHMM                    :   6
RD  .OHMM                    :   7
DEPS.FT                      :   8
~A
# ...
  1816.000 -25.921  1.9380  1.9140 -13.278  1.9380  1.9140 -558.00 
  1816.500 -27.966  1.9100  1.8780 -15.321  1.9100  1.8780 -558.50 
  1817.000 -27.246  1.8680  1.8350 -14.599  1.8680  1.8350 -559.00 
  1817.500 -26.706  1.8110  1.7930 -14.056  1.8110  1.7930 -559.50 
  1818.000 -27.242  1.7470  1.7500 -14.590  1.7470  1.7500 -560.00 
  1818.500 -28.246  1.6540  1.6850 -15.592  1.6540  1.6850 -560.50 
  1819.000 -28.424  1.5550  1.6060 -15.767  1.5550  1.6060 -561.00 
  1819.500 -27.165  1.4770  1.5630 -14.506  1.4770  1.5630 -561.50 
  1820.000 -26.481  1.4450  1.4490 -13.820  1.4450  1.4490 -562.00 
  1820.500 -27.377  1.4130  1.3770 -14.713  1.4130  1.3770 -562.50 
  1821.000 -28.452  1.3710  1.3560 -15.786  1.3710  1.3560 -563.00 
  1821.500 -29.061  1.4220  1.3740 -16.393  1.4220  1.3740 -563.50 
  1822.000 -29.454  1.4450  1.3920 -16.783  1.4450  1.3920 -564.00 
  1822.500 -29.668  1.4590  1.4490 -16.995  1.4590  1.4490 -564.50 
  1823.000 -26.937  1.4820  1.4780 -14.262  1.4820  1.4780 -565.00 
  1823.500 -25.104  1.5040  1.4930 -12.427  1.5040  1.4930 -565.50 
  1824.000 -24.420  1.5190  1.5070 -11.740  1.5190  1.5070 -566.00 
  1824.500 -26.896  1.5340  1.5430 -14.214  1.5340  1.5430 -566.50 
  1825.000 -28.618  1.5420  1.5510 -15.934  1.5420  1.5510 -567.00 
  1825.500 -29.621  1.5500  1.5580 -16.934  1.5500  1.5580 -567.50 
  1826.000 -29.943  1.5720  1.5870 -17.254  1.5720  1.5870 -568.00 
  1826.500 -28.504  1.5730  1.6010 -15.813  1.5730  1.6010 -568.50 
  1827.000 -26.061  1.5730  1.6160 -13.367  1.5730  1.6160 -569.00 
  1827.500 -20.566  1.5810  1.6200 -7.8700  1.5810  1.6200 -569.50 
  1828.000 -19.594  1.6040  1.6230 -6.8957  1.6040  1.6230 -570.00 
  1828.500 -19.269  1.6190  1.6230 -6.5684  1.6190  1.6230 -570.50 
  1829.000 -23.971  1.6190  1.6240 -11.268  1.6190  1.6240 -571.00 
  1829.500 -24.795  1.6270  1.6240 -12.090  1.6270  1.6240 -571.50 
  1830.000 -25.691  1.6350  1.6090 -12.983  1.6350  1.6090 -572.00 
  1830.500 -26.228  1.6390  1.5950 -13.518  1.6390  1.5950 -572.50 
  1831.000 -26.693  1.6430  1.5740 -13.981  1.6430  1.5740 -573.00 
  1831.500 -26.799  1.6300  1.5520 -14.085  1.6300  1.5520 -573.50 
  1832.000 -26.797  1.6240  1.5450 -14.080  1.6240  1.5450 -574.00 
  1832.500 -26.508  1.5960  1.5380 -13.789  1.5960  1.5380 -574.50 
  1833.000 -25.932  1.5820  1.5310 -13.211  1.5820  1.5310 -575.00 
  1833.500 -25.661  1.5760  1.5240 -12.937  1.5760  1.5240 -575.50 
  1834.000 -25.390  1.5690  1.5100 -12.664  1.5690  1.5100 -576.00 
  1834.500 -24.849  1.5620  1.5100 -12.121  1.5620  1.5100 -576.50 
  1835.000 -24.632  1.5710  1.5030 -11.901  1.5710  1.5030 -577.00 
  1835.500 -25.384  1.5710  1.5030 -12.651  1.5710  1.5030 -577.50 
  1836.000 -26.747  1.5860  1.5040 -14.012  1.5860  1.5040 -578.00 
  1836.500 -28.325  1.6090  1.5180 -15.587  1.6090  1.5180 -578.50 
  1837.000 -29.221  1.6240  1.5400 -16.481  1.6240  1.5400 -579.00 
  1837.500 -29.829  1.6530  1.5610 -17.087  1.6530  1.5610 -579.50 
  1838.000 -27.278  1.6900  1.5900 -14.533  1.6900  1.5900 -580.00 
  1838.500 -26.487  1.6970  1.6190 -13.740  1.6970  1.6190 -580.50 
  1839.000 -26.054  1.7120  1.6620 -13.305  1.7120  1.6620 -581.00 
  1839.500 -26.770  1.7200  1.6700 -14.019  1.7200  1.6700 -581.50 
  1840.000 -26.804  1.7500  1.6980 -14.050  1.7500  1.6980 -582.00 
  1840.500 -25.079  1.7580  1.7200 -12.323  1.7580  1.7200 -582.50 
  1841.000 -24.682  1.7440  1.7060 -11.924  1.7440  1.7060 -583.00 
  1841.500 -24.285  1.6950  1.6920 -11.524  1.6950  1.6920 -583.50 
  1842.000 -23.781  1.6530  1.6270 -11.018  1.6530  1.6270 -584.00 
  1842.500 -23.851  1.6170  1.5920 -11.086  1.6170  1.5920 -584.50 
  1843.000 -24.029  1.5960  1.5630 -11.261  1.5960  1.5630 -585.00 
  1843.500 -24.817  1.5680  1.5270 -12.047  1.5680  1.5270 -585.50 
  1844.000 -26.000  1.5330  1.4910 -13.228  1.5330  1.4910 -586.00 
  1844.500 -27.973  1.5130  1.4560 -15.198  1.5130  1.4560 -586.50 
  1845.000 -29.013  1.5130  1.4270 -16.236  1.5130  1.4270 -587.00 
  1845.500 -29.549  1.5070  1.4200 -16.770  1.5070  1.4200 -587.50 
  1846.000 -29.440  1.5000  1.4130 -16.658  1.5000  1.4130 -588.00 
  1846.500 -29.546  1.4870  1.3840 -16.762  1.4870  1.3840 -588.50 
  1847.000 -30.226  1.4800  1.3700 -17.440  1.4800  1.3700 -589.00 
  1847.500 -30.512  1.4730  1.3700 -17.724  1.4730  1.3700 -589.50 
  1848.000 -30.761  1.4670  1.3710 -17.970  1.4670  1.3710 -590.00 
  1848.500 -29.539  1.4610  1.3990 -16.746  1.4610  1.3990 -590.50 
  1849.000 -28.316  1.4610  1.4140 -15.521  1.4610  1.4140 -591.00 
  1849.500 -27.524  1.4480  1.4280 -14.726  1.4480  1.4280 -591.50 
  1850.000 -26.804  1.4490  1.4360 -14.004  1.4490  1.4360 -592.00 
  1850.500 -26.336  1.4350  1.4350 -13.534  1.4350  1.4350 -592.50 
  1851.000 -26.299  1.4290  1.4350 -13.494  1.4290  1.4350 -593.00 
  1851.500 -26.441  1.4300  1.4560 -13.634  1.4300  1.4560 -593.50 
  1852.000 -26.475  1.4420  1.4560 -13.666  1.4420  1.4560 -594.00 
  1852.500 -25.828  1.4530  1.4560 -13.016  1.4530  1.4560 -594.50 
  1853.000 -25.503  1.4550  1.4560 -12.689  1.4550  1.4560 -595.00 
  1853.500 -24.748  1.4630  1.4550 -11.932  1.4630  1.4550 -595.50 
  1854.000 -24.782  1.4640  1.4550 -11.964  1.4640  1.4550 -596.00 
  1854.500 -25.104  1.4650  1.4550 -12.283  1.4650  1.4550 -596.50 
  1855.000 -25.354  1.4800  1.4540 -12.531  1.4800  1.4540 -597.00 
  1855.500 -25.101  1.4820  1.4400 -12.276  1.4820  1.4400 -597.50 
  1856.000 -24.633  1.4830  1.4320 -11.805  1.4830  1.4320 -598.00 
  1856.500 -24.164  1.4760  1.4320 -11.334  1.4760  1.4320 -598.50 
  1857.000 -24.378  1.4700  1.4170 -11.546  1.4700  1.4170 -599.00 
  1857.500 -24.916  1.4630  1.4170 -12.081  1.4630  1.4170 -599.50 
  1858.000 -25.489  1.4580  1.4100 -12.652  1.4580  1.4100 -600.00 
  1858.500 -25.631  1.4520  1.4090 -12.792  1.4520  1.4090 -600.50 
  1859.000 -25.342  1.4380  1.4090 -12.500  1.4380  1.4090 -601.00 
  1859.500 -25.054  1.4180  1.4090 -12.210  1.4180  1.4090 -601.50 
  1860.000 -24.549  1.4080  1.4010 -11.703  1.4080  1.4010 -602.00 
  1860.500 -25.410  1.3980  1.3940 -12.561  1.3980  1.3940 -602.50 
  1861.000 -26.306  1.3990  1.3940 -13.455  1.3990  1.3940 -603.00 
  1861.500 -26.053  1.4000  1.3930 -13.200  1.4000  1.3930 -603.50 
  1862.000 -25.800  1.4010  1.3930 -12.945  1.4010  1.3930 -604.00 
  1862.500 -26.122  1.4020  1.3930 -13.264  1.4020  1.3930 -604.50 
  1863.000 -26.228  1.4030  1.3920 -13.368  1.4030  1.3920 -605.00 
  1863.500 -25.437  1.4040  1.3780 -12.575  1.4040  1.3780 -605.50 
  1864.000 -24.646  1.4050  1.3770 -11.781  1.4050  1.3770 -606.00 
  1864.500 -25.362  1.4060  1.3920 -12.495  1.4060  1.3920 -606.50 
  1865.000 -27.120  1.3860  1.3980 -14.251  1.3860  1.3980 -607.00 
  1865.500 -28.663  1.3720  1.4270 -15.791  1.3720  1.4270 -607.50 
  1866.000 -29.739  1.3590  1.4620 -16.865  1.3590  1.4620 -608.00 
  1866.500 -30.348  1.3600  1.4910 -17.472  1.3600  1.4910 -608.50 
  1867.000 -30.633  1.3610  1.5620 -17.754  1.3610  1.5620 -609.00 
  1867.500 -30.345  1.3620  1.6340 -17.464  1.3620  1.6340 -609.50 
  1868.000 -30.218  1.3910  1.7050 -17.335  1.3910  1.7050 -610.00 
  1868.500 -30.091  1.4210  1.7550 -17.205  1.4210  1.7550 -610.50 
  1869.000 -29.586  1.5510  1.8340 -16.698  1.5510  1.8340 -611.00 
  1869.500 -29.010  1.6890  1.9060 -16.120  1.6890  1.9060 -611.50 
  1870.000 -28.722  2.0840  1.9630 -15.830  2.0840  1.9630 -612.00 
  1870.500 -28.648  2.7090  2.0270 -15.753  2.7090  2.0270 -612.50 
  1871.000 -28.575  3.1980  2.1270 -15.678  3.1980  2.1270 -613.00 
  1871.500 -22.470  4.2740  2.1990 -9.5706  4.2740  2.1990 -613.50 
  1872.000 -20.781  5.0350  2.3490 -7.8793  5.0350  2.3490 -614.00 
  1872.500 -19.989  5.4380  2.4130 -7.0850  5.4380  2.4130 -614.50 
  1873.000 -19.844  5.5540  2.5210 -6.9376  5.5540  2.5210 -615.00 
  1873.500 -19.771  5.4690  2.6140 -6.8623  5.4690  2.6140 -615.50 
  1874.000 -19.734  4.2500  2.7000 -6.8230  4.2500  2.7000 -616.00 
  1874.500 -19.265  3.2550  2.7930 -6.3517  3.2550  2.7930 -616.50 
