~Version Information
VERS.                     2.0: CWLS log ASCII Standard Version 2.00
WRAP.                      NO: One line per depth step
~Well Information Block
#MNEM.UNIT                               Data Type  Information
#---------                               ---------  -----------
STRT.FT                                   400.0000:
STOP.FT                                  3500.0000:
STEP.FT                                     0.5000:
NULL.                 -999.25                     :
COMP.                                             :COMPANY            
WELL.     KCL44-34                                :WELL               
FLD .                                             :FIELD              
CTRY.                                             :COUNTRY            
STAT.                                             :STATE              
LOC .                                             :LOCATION           
UWI .                                             :UNIQUE WELL ID     
SRVC.                                             :Service company    
DATE.                                             :LOG DATE           
~Curve Information
#MNEM.UNIT           API CODE  Curve Description
#---------           --------  -----------------
DEPT.FT                      :   1 DEPTH
SP  .MV                      :   2
SN  .OHMM                    :   3
ILD .OHMM                    :   4
SBL .MV                      :   5
RS  .OHMM                    :   6
RD  .OHMM                    :   7
DEPS.FT                      :   8
~A
# ...
  2465.000 -52.193  1.8500  1.7930 -36.948  1.8500  1.7930 -1207.0 
  2465.500 -53.522  1.8440  1.7500 -38.291  1.8440  1.7500 -1207.5 
  2466.000 -54.420  1.7940  1.7080 -39.204  1.7940  1.7080 -1208.0 
  2466.500 -52.192  1.7440  1.6970 -36.990  1.7440  1.6970 -1208.5 
  2467.000 -49.820  1.6940  1.6870 -34.632  1.6940  1.6870 -1209.0 
  2467.500 -47.736  1.6370  1.7160 -32.563  1.6370  1.7160 -1209.5 
  2468.000 -45.795  1.6740  1.7630 -30.636  1.6740  1.7630 -1210.0 
  2468.500 -42.597  1.8960  1.8100 -27.453  1.8960  1.8100 -1210.5 
  2469.000 -41.340  2.1700  1.9400 -26.210  2.1700  1.9400 -1211.0 
  2469.500 -39.040  2.5580  2.0370 -23.925  2.5580  2.0370 -1211.5 
  2470.000 -37.459  2.7880  2.1350 -22.358  2.7880  2.1350 -1212.0 
  2470.500 -35.554  3.0320  2.3930 -20.467  3.0320  2.3930 -1212.5 
  2471.000 -34.332  3.1400  2.5010 -19.260  3.1400  2.5010 -1213.0 
  2471.500 -33.434  3.2840  2.6240 -18.376  3.2840  2.6240 -1213.5 
  2472.000 -32.643  3.3780  2.7180 -17.600  3.3780  2.7180 -1214.0 
  2472.500 -32.535  3.4500  2.8190 -17.506  3.4500  2.8190 -1214.5 
  2473.000 -32.570  3.5220  2.8910 -17.556  3.5220  2.8910 -1215.0 
  2473.500 -32.929  3.6160  2.9340 -17.929  3.6160  2.9340 -1215.5 
  2474.000 -33.827  3.6490  2.9780 -18.841  3.6490  2.9780 -1216.0 
  2474.500 -36.449  3.6820  3.0570 -21.478  3.6820  3.0570 -1216.5 
  2475.000 -39.287  3.6750  3.0860 -24.330  3.6750  3.0860 -1217.0 
  2475.500 -42.952  3.6390  3.0940 -28.010  3.6390  3.0940 -1217.5 
  2476.000 -43.993  3.5250  3.0940 -29.065  3.5250  3.0940 -1218.0 
  2476.500 -44.352  3.4970  3.1060 -29.439  3.4970  3.1060 -1218.5 
  2477.000 -44.639  3.7560  3.1170 -29.740  3.7560  3.1170 -1219.0 
  2477.500 -45.932  3.8820  3.1460 -31.047  3.8820  3.1460 -1219.5 
  2478.000 -47.477  4.0080  3.1820 -32.607  4.0080  3.1820 -1220.0 
  2478.500 -47.872  4.1590  3.2040 -33.016  4.1590  3.2040 -1220.5 
  2479.000 -44.494  4.3100  3.2330 -29.653  4.3100  3.2330 -1221.0 
  2479.500 -42.625  4.4040  3.2700 -27.798  4.4040  3.2700 -1221.5 
  2480.000 -41.188  4.2680  3.2920 -26.375  4.2680  3.2920 -1222.0 
  2480.500 -40.739  3.9240  3.2990 -25.941  3.9240  3.2990 -1222.5 
  2481.000 -40.289  3.7160  3.2780 -25.505  3.7160  3.2780 -1223.0 
  2481.500 -39.570  3.6370  3.2500 -24.801  3.6370  3.2500 -1223.5 
  2482.000 -39.174  3.5800  3.2290 -24.419  3.5800  3.2290 -1224.0 
  2482.500 -38.995  3.5230  3.2040 -24.255  3.5230  3.2040 -1224.5 
  2483.000 -38.850  3.4740  3.1790 -24.124  3.4740  3.1790 -1225.0 
  2483.500 -38.886  3.4380  3.1730 -24.174  3.4380  3.1730 -1225.5 
  2484.000 -38.922  3.3960  3.1300 -24.225  3.3960  3.1300 -1226.0 
  2484.500 -39.280  3.3600  3.0870 -24.597  3.3600  3.0870 -1226.5 
  2485.000 -38.957  3.3460  3.0230 -24.289  3.3460  3.0230 -1227.0 
  2485.500 -38.202  3.3180  3.0240 -23.548  3.3180  3.0240 -1227.5 
  2486.000 -37.914  3.3110  3.0310 -23.275  3.3110  3.0310 -1228.0 
  2486.500 -37.591  3.3120  3.0210 -22.966  3.3120  3.0210 -1228.5 
  2487.000 -37.410  3.3120  3.0100 -22.799  3.3120  3.0100 -1229.0 
  2487.500 -37.590  3.3630  2.9970 -22.994  3.3630  2.9970 -1229.5 
  2488.000 -38.092  3.4060  3.0040 -23.510  3.4060  3.0040 -1230.0 
  2488.500 -38.846  3.5210  3.0120 -24.279  3.5210  3.0120 -1230.5 
  2489.000 -38.415  3.5860  3.0550 -23.862  3.5860  3.0550 -1231.0 
  2489.500 -37.085  3.7660  3.1200 -22.547  3.7660  3.1200 -1231.5 
  2490.000 -36.582  3.9750  3.2930 -22.058  3.9750  3.2930 -1232.0 
  2490.500 -37.192  4.1330  3.4800 -22.682  4.1330  3.4800 -1232.5 
  2491.000 -37.551  4.3200  3.6670 -23.056  4.3200  3.6670 -1233.0 
  2491.500 -37.874  4.5580  3.7250 -23.393  4.5580  3.7250 -1233.5 
  2492.000 -38.269  4.9600  3.7330 -23.803  4.9600  3.7330 -1234.0 
  2492.500 -36.975  5.4560  3.7470 -22.523  5.4560  3.7470 -1234.5 
  2493.000 -35.286  5.7360  3.7840 -20.848  5.7360  3.7840 -1235.0 
  2493.500 -34.460  5.7870  3.8420 -20.037  5.7870  3.8420 -1235.5 
  2494.000 -34.136  5.7150  4.0640 -19.727  5.7150  4.0640 -1236.0 
  2494.500 -34.100  5.4360  4.3300 -19.706  5.4360  4.3300 -1236.5 
  2495.000 -34.243  5.1350  4.4310 -19.863  5.1350  4.4310 -1237.0 
  2495.500 -35.033  4.8190  4.4960 -20.668  4.8190  4.4960 -1237.5 
  2496.000 -36.829  4.6690  4.4610 -22.478  4.6690  4.4610 -1238.0 
  2496.500 -39.919  4.5040  4.0810 -25.582  4.5040  4.0810 -1238.5 
  2497.000 -43.224  4.4260  3.7300 -28.902  4.4260  3.7300 -1239.0 
  2497.500 -45.056  4.4050  3.5360 -30.748  4.4050  3.5360 -1239.5 
  2498.000 -46.888  4.3550  3.3570 -32.595  4.3550  3.3570 -1240.0 
  2498.500 -48.181  4.2980  3.2140 -33.902  4.2980  3.2140 -1240.5 
  2499.000 -49.114  4.2050  3.1430 -34.850  4.2050  3.1430 -1241.0 
  2499.500 -49.545  4.0910  3.0570 -35.295  4.0910  3.0570 -1241.5 
  2500.000 -49.329  3.9330  3.0150 -35.093  3.9330  3.0150 -1242.0 
  2500.500 -48.177  3.8180  2.9930 -33.956  3.8180  2.9930 -1242.5 
  2501.000 -47.385  3.7320  2.9670 -33.178  3.7320  2.9670 -1243.0 
  2501.500 -46.880  3.6600  2.9420 -32.688  3.6600  2.9420 -1243.5 
  2502.000 -46.339  3.5880  2.9060 -32.161  3.5880  2.9060 -1244.0 
  2502.500 -45.869  3.5370  2.8700 -31.706  3.5370  2.8700 -1244.5 
  2503.000 -45.256  3.5010  2.8410 -31.107  3.5010  2.8410 -1245.0 
  2503.500 -44.931  3.4940  2.8120 -30.796  3.4940  2.8120 -1245.5 
  2504.000 -44.641  3.4870  2.8050 -30.521  3.4870  2.8050 -1246.0 
  2504.500 -44.388  3.5290  2.7970 -30.282  3.5290  2.7970 -1246.5 
  2505.000 -44.278  3.5940  2.7760 -30.187  3.5940  2.7760 -1247.0 
  2505.500 -44.276  3.6800  2.8330 -30.199  3.6800  2.8330 -1247.5 
  2506.000 -44.381  3.8450  3.0480 -30.319  3.8450  3.0480 -1248.0 
  2506.500 -44.559  4.0170  3.2410 -30.511  4.0170  3.2410 -1248.5 
  2507.000 -44.808  4.3390  3.4210 -30.774  4.3390  3.4210 -1249.0 
  2507.500 -44.986  4.7270  3.8650 -30.967  4.7270  3.8650 -1249.5 
  2508.000 -45.235  5.3150  4.3320 -31.230  5.3150  4.3320 -1250.0 
  2508.500 -45.233  5.7240  5.4580 -31.243  5.7240  5.4580 -1250.5 
  2509.000 -42.608  6.1620  6.1260 -28.632  6.1620  6.1260 -1251.0 
  2509.500 -40.845  6.6710  6.2690 -26.883  6.6710  6.2690 -1251.5 
  2510.000 -39.873  7.5180  6.3690 -25.926  7.5180  6.3690 -1252.0 
  2510.500 -39.368  7.6610  6.5340 -25.435  7.6610  6.5340 -1252.5 
  2511.000 -43.067  9.1900  6.8140 -29.149  9.1900  6.8140 -1253.0 
  2511.500 -44.753  10.295  7.2160 -30.849  10.295  7.2160 -1253.5 
  2512.000 -45.361  10.940  7.3800 -31.472  10.940  7.3800 -1254.0 
  2512.500 -45.970  11.062  7.5090 -32.095  11.062  7.5090 -1254.5 
  2513.000 -46.543  11.105  7.5520 -32.682  11.105  7.5520 -1255.0 
  2513.500 -47.079  10.825  7.5450 -33.233  10.825  7.5450 -1255.5 
  2514.000 -47.436  9.4110  6.9780 -33.604  9.4110  6.9780 -1256.0 
  2514.500 -47.650  8.0830  6.4250 -33.833  8.0830  6.4250 -1256.5 
  2515.000 -47.684  7.1350  5.5270 -33.881  7.1350  5.5270 -1257.0 
  2515.500 -47.179  6.5610  4.8240 -33.391  6.5610  4.8240 -1257.5 
  2516.000 -45.811  5.1610  4.4360 -32.037  5.1610  4.4360 -1258.0 
  2516.500 -45.342  4.0050  4.0190 -31.582  4.0050  4.0190 -1258.5 
  2517.000 -45.088  3.6680  3.7610 -31.343  3.6680  3.7610 -1259.0 
  2517.500 -45.877  3.4380  3.3520 -32.146  3.4380  3.3520 -1259.5 
  2518.000 -46.629  3.3230  3.0710 -32.913  3.3230  3.0710 -1260.0 
  2518.500 -47.238  3.2150  2.8700 -33.536  3.2150  2.8700 -1260.5 
  2519.000 -47.882  3.1280  2.6760 -34.194  3.1280  2.6760 -1261.0 
  2519.500 -48.024  3.0780  2.5680 -34.351  3.0780  2.5680 -1261.5 
  2520.000 -48.022  3.0850  2.5610 -34.363  3.0850  2.5610 -1262.0 
  2520.500 -47.444  3.1420  2.6330 -33.800  3.1420  2.6330 -1262.5 
  2521.000 -46.760  3.2500  2.6830 -33.130  3.2500  2.6830 -1263.0 
  2521.500 -45.859  3.5080  2.7680 -32.244  3.5080  2.7680 -1263.5 
  2522.000 -44.779  4.1100  2.8830 -31.178  4.1100  2.8830 -1264.0 
  2522.500 -43.987  4.4620  2.9760 -30.400  4.4620  2.9760 -1264.5 
  2523.000 -43.410  4.6700  3.1200 -29.838  4.6700  3.1200 -1265.0 
  2523.500 -43.066  4.7770  3.3130 -29.508  4.7770  3.3130 -1265.5 
