~Version Information
VERS.                     2.0: CWLS log ASCII Standard Version 2.00
WRAP.                      NO: One line per depth step
~Well Information Block
#MNEM.UNIT                               Data Type  Information
#---------                               ---------  -----------
STRT.FT                                   400.0000:
STOP.FT                                  3500.0000:
STEP.FT                                     0.5000:
NULL.                 -999.25                     :
COMP.                                             :COMPANY            
WELL.     KCL44-34                                :WELL               
FLD .                                             :FIELD              
CTRY.                                             :COUNTRY            
STAT.                                             :STATE              
LOC .                                             :LOCATION           
UWI .                                             :UNIQUE WELL ID     
SRVC.                                             :Service company    
DATE.                                             :LOG DATE           
~Curve Information
#MNEM.UNIT           API CODE  Curve Description
#---------           --------  -----------------
DEPT.FT                      :   1 DEPTH
SP  .MV                      :   2
SN  .OHMM                    :   3
ILD .OHMM                    :   4
SBL .MV                      :   5
RS  .OHMM                    :   6
RD  .OHMM                    :   7
DEPS.FT                      :   8
~A
# ...
  3055.000 -11.565  2.6660  2.6480 -4.5285  2.6660  2.6480 -1797.0 
  3055.500 -11.924  2.7490  2.6770 -4.8855  2.7490  2.6770 -1797.5 
  3056.000 -12.283  2.8140  2.7130 -5.2426  2.8140  2.7130 -1798.0 
  3056.500 -12.893  2.8420  2.7490 -5.8507  2.8420  2.7490 -1798.5 
  3057.000 -13.253  2.8710  2.7850 -6.2088  2.8710  2.7850 -1799.0 
  3057.500 -13.612  2.9210  2.8210 -6.5658  2.9210  2.8210 -1799.5 
  3058.000 -14.437  2.9430  2.8780 -7.3889  2.9430  2.8780 -1800.0 
  3058.500 -15.155  2.9710  2.9390 -8.1050  2.9710  2.9390 -1800.5 
  3059.000 -15.658  3.0220  3.0000 -8.6061  3.0220  3.0000 -1801.0 
  3059.500 -16.448  3.3020  3.1220 -9.3942  3.3020  3.1220 -1801.5 
  3060.000 -17.095  3.6820  3.2300 -10.039  3.6820  3.2300 -1802.0 
  3060.500 -18.424  3.9050  3.3590 -11.366  3.9050  3.3590 -1802.5 
  3061.000 -20.687  4.0270  3.4090 -13.627  4.0270  3.4090 -1803.0 
  3061.500 -24.998  4.1060  3.4740 -17.936  4.1060  3.4740 -1803.5 
  3062.000 -31.357  4.1770  3.5670 -24.294  4.1770  3.5670 -1804.0 
  3062.500 -32.722  4.2630  3.6530 -25.657  4.2630  3.6530 -1804.5 
  3063.000 -34.194  4.4720  3.7250 -27.127  4.4720  3.7250 -1805.0 
  3063.500 -34.158  4.7440  3.7970 -27.089  4.7440  3.7970 -1805.5 
  3064.000 -33.834  4.9740  3.8400 -26.763  4.9740  3.8400 -1806.0 
  3064.500 -33.475  5.0820  3.8760 -26.402  5.0820  3.8760 -1806.5 
  3065.000 -36.564  5.1530  3.9050 -29.489  5.1530  3.9050 -1807.0 
  3065.500 -38.935  5.0960  3.8900 -31.858  5.0960  3.8900 -1807.5 
  3066.000 -39.905  4.7950  3.8040 -32.826  4.7950  3.8040 -1808.0 
  3066.500 -40.767  4.4430  3.6680 -33.686  4.4430  3.6680 -1808.5 
  3067.000 -39.149  4.1630  3.5960 -32.066  4.1630  3.5960 -1809.0 
  3067.500 -35.880  4.0340  3.5310 -28.795  4.0340  3.5310 -1809.5 
  3068.000 -34.370  3.8330  3.4310 -27.283  3.8330  3.4310 -1810.0 
  3068.500 -33.651  3.7540  3.3810 -26.563  3.7540  3.3810 -1810.5 
  3069.000 -33.256  3.7180  3.3300 -26.166  3.7180  3.3300 -1811.0 
  3069.500 -31.351  3.6250  3.2940 -24.259  3.6250  3.2940 -1811.5 
  3070.000 -28.333  3.5310  3.2590 -21.239  3.5310  3.2590 -1812.0 
  3070.500 -25.422  3.4380  3.2300 -18.326  3.4380  3.2300 -1812.5 
  3071.000 -23.661  3.3450  3.2080 -16.563  3.3450  3.2080 -1813.0 
  3071.500 -22.511  3.2510  3.1800 -15.411  3.2510  3.1800 -1813.5 
  3072.000 -22.008  3.1940  3.1650 -14.906  3.1940  3.1650 -1814.0 
  3072.500 -21.469  3.1440  3.1290 -14.365  3.1440  3.1290 -1814.5 
  3073.000 -21.504  3.1220  3.0860 -14.398  3.1220  3.0860 -1815.0 
  3073.500 -21.504  3.1220  3.0790 -14.396  3.1220  3.0790 -1815.5 
  3074.000 -21.396  3.1370  3.0790 -14.286  3.1370  3.0790 -1816.0 
  3074.500 -20.964  3.1580  3.1080 -13.852  3.1580  3.1080 -1816.5 
  3075.000 -20.281  3.1720  3.1290 -13.168  3.1720  3.1290 -1817.0 
  3075.500 -20.245  3.1900  3.1370 -13.130  3.1900  3.1370 -1817.5 
  3076.000 -21.862  3.2080  3.1440 -14.745  3.2080  3.1440 -1818.0 
  3076.500 -22.759  3.2300  3.1370 -15.640  3.2300  3.1370 -1818.5 
  3077.000 -22.508  3.2050  3.1150 -15.387  3.2050  3.1150 -1819.0 
  3077.500 -19.992  3.1800  3.0930 -12.869  3.1800  3.0930 -1819.5 
  3078.000 -18.986  3.1080  3.0430 -11.861  3.1080  3.0430 -1820.0 
  3078.500 -18.698  3.0720  3.0000 -11.571  3.0720  3.0000 -1820.5 
  3079.000 -18.482  3.0070  2.9570 -11.353  3.0070  2.9570 -1821.0 
  3079.500 -18.086  2.9790  2.9210 -10.955  2.9790  2.9210 -1821.5 
  3080.000 -17.835  2.9280  2.8710 -10.702  2.9280  2.8710 -1822.0 
  3080.500 -17.619  2.9000  2.8210 -10.484  2.9000  2.8210 -1822.5 
  3081.000 -17.546  2.8490  2.7850 -10.409  2.8490  2.7850 -1823.0 
  3081.500 -17.582  2.7850  2.7530 -10.444  2.7850  2.7530 -1823.5 
  3082.000 -17.618  2.7420  2.7200 -10.478  2.7420  2.7200 -1824.0 
  3082.500 -17.617  2.6630  2.6050 -10.475  2.6630  2.6050 -1824.5 
  3083.000 -17.653  2.5480  2.5190 -10.509  2.5480  2.5190 -1825.0 
  3083.500 -17.724  2.5050  2.5050 -10.578  2.5050  2.5050 -1825.5 
  3084.000 -17.868  2.6630  2.6560 -10.720  2.6630  2.6560 -1826.0 
  3084.500 -18.047  2.9140  2.8780 -10.897  2.9140  2.8780 -1826.5 
  3085.000 -19.807  3.1150  3.0150 -12.655  3.1150  3.0150 -1827.0 
  3085.500 -20.489  3.2730  3.2080 -13.335  3.2730  3.2080 -1827.5 
  3086.000 -20.884  3.4380  3.3810 -13.728  3.4380  3.3810 -1828.0 
  3086.500 -19.626  3.6750  3.5530 -12.468  3.6750  3.5530 -1828.5 
  3087.000 -17.901  3.8330  3.7110 -10.741  3.8330  3.7110 -1829.0 
  3087.500 -17.434  3.9980  3.9190 -10.272  3.9980  3.9190 -1829.5 
  3088.000 -17.362  4.1340  4.0700 -10.199  4.1340  4.0700 -1830.0 
  3088.500 -20.236  4.2850  4.1410 -13.071  4.2850  4.1410 -1830.5 
  3089.000 -21.098  4.3850  4.2710 -13.931  4.3850  4.2710 -1831.0 
  3089.500 -22.319  4.5290  4.3350 -15.150  4.5290  4.3350 -1831.5 
  3090.000 -23.540  4.5070  4.3820 -16.369  4.5070  4.3820 -1832.0 
  3090.500 -24.977  4.3930  4.4280 -17.804  4.3930  4.4280 -1832.5 
  3091.000 -25.731  4.3500  4.4280 -18.556  4.3500  4.4280 -1833.0 
  3091.500 -26.054  4.3780  4.0770 -18.877  4.3780  4.0770 -1833.5 
  3092.000 -25.012  4.4210  3.9550 -17.833  4.4210  3.9550 -1834.0 
  3092.500 -23.574  4.4430  3.8900 -16.393  4.4430  3.8900 -1834.5 
  3093.000 -24.221  4.4570  3.8970 -17.038  4.4570  3.8970 -1835.0 
  3093.500 -25.837  4.4720  3.9400 -18.652  4.4720  3.9400 -1835.5 
  3094.000 -26.483  4.4860  4.0410 -19.296  4.4860  4.0410 -1836.0 
  3094.500 -24.040  4.5220  4.1490 -16.852  4.5220  4.1490 -1836.5 
  3095.000 -22.854  4.7730  4.2200 -15.664  4.7730  4.2200 -1837.0 
  3095.500 -22.638  5.0740  4.3060 -15.446  5.0740  4.3060 -1837.5 
  3096.000 -25.476  5.2680  4.4790 -18.282  5.2680  4.4790 -1838.0 
  3096.500 -26.948  5.4190  4.6940 -19.752  5.4190  4.6940 -1838.5 
  3097.000 -27.703  5.5630  4.8660 -20.505  5.5630  4.8660 -1839.0 
  3097.500 -28.565  5.5950  4.9600 -21.365  5.5950  4.9600 -1839.5 
  3098.000 -29.319  5.6270  5.0310 -22.117  5.6270  5.0310 -1840.0 
  3098.500 -29.714  5.6770  5.0530 -22.510  5.6770  5.0530 -1840.5 
  3099.000 -30.144  5.6850  5.0600 -22.938  5.6850  5.0600 -1841.0 
  3099.500 -30.324  5.6560  5.0600 -23.116  5.6560  5.0600 -1841.5 
  3100.000 -30.539  5.6340  5.0460 -23.329  5.6340  5.0460 -1842.0 
  3100.500 -30.825  5.6130  5.0380 -23.613  5.6130  5.0380 -1842.5 
  3101.000 -31.004  5.5840  4.9950 -23.791  5.5840  4.9950 -1843.0 
  3101.500 -31.219  5.5760  4.9880 -24.004  5.5760  4.9880 -1843.5 
  3102.000 -31.398  5.6340  4.9880 -24.181  5.6340  4.9880 -1844.0 
  3102.500 -31.541  5.7840  5.0020 -24.322  5.7840  5.0020 -1844.5 
  3103.000 -31.540  5.8420  5.0310 -24.319  5.8420  5.0310 -1845.0 
  3103.500 -31.540  5.8700  5.0520 -24.317  5.8700  5.0520 -1845.5 
  3104.000 -31.611  5.8990  5.0520 -24.386  5.8990  5.0520 -1846.0 
  3104.500 -31.754  5.8990  5.0230 -24.527  5.8990  5.0230 -1846.5 
  3105.000 -31.897  5.6900  4.8220 -24.668  5.6900  4.8220 -1847.0 
  3105.500 -32.184  5.5320  4.6710 -24.953  5.5320  4.6710 -1847.5 
  3106.000 -32.363  5.2950  4.5560 -25.130  5.2950  4.5560 -1848.0 
  3106.500 -28.697  5.0730  4.5060 -21.462  5.0730  4.5060 -1848.5 
  3107.000 -27.259  4.9220  4.5920 -20.022  4.9220  4.5920 -1849.0 
  3107.500 -26.468  5.1660  4.8790 -19.230  5.1660  4.8790 -1849.5 
  3108.000 -25.893  5.4450  5.0940 -18.653  5.4450  5.0940 -1850.0 
  3108.500 -25.640  5.6820  5.4810 -18.398  5.6820  5.4810 -1850.5 
  3109.000 -25.460  5.9260  5.8400 -18.216  5.9260  5.8400 -1851.0 
  3109.500 -27.328  6.1340  6.0340 -20.082  6.1340  6.0340 -1851.5 
  3110.000 -29.375  6.2630  6.1050 -22.127  6.2630  6.1050 -1852.0 
  3110.500 -30.272  6.3420  6.1270 -23.022  6.3420  6.1270 -1852.5 
  3111.000 -30.631  6.3850  6.1340 -23.379  6.3850  6.1340 -1853.0 
  3111.500 -30.738  6.3850  6.0980 -23.484  6.3850  6.0980 -1853.5 
  3112.000 -30.683  6.3770  6.0330 -23.427  6.3770  6.0330 -1854.0 
  3112.500 -30.629  6.3200  5.7740 -23.371  6.3200  5.7740 -1854.5 
  3113.000 -30.376  6.2340  5.4660 -23.116  6.2340  5.4660 -1855.0 
  3113.500 -30.160  6.1110  5.2790 -22.898  6.1110  5.2790 -1855.5 
