~Version Information
VERS.                     2.0: CWLS log ASCII Standard Version 2.00
WRAP.                      NO: One line per depth step
~Well Information Block
#MNEM.UNIT                               Data Type  Information
#---------                               ---------  -----------
STRT.FT                                    30.0000:
STOP.FT                                  5850.0000:
STEP.FT                                     0.5000:
NULL.                 -999.25                     :
COMP.                                             :COMPANY            
WELL.     KCL44-43                                :WELL               
FLD .                                             :FIELD              
CTRY.                                             :COUNTRY            
STAT.                                             :STATE              
LOC .                                             :LOCATION           
UWI .                                             :UNIQUE WELL ID     
SRVC.                                             :Service company    
DATE.                                             :LOG DATE           
~Curve Information
#MNEM.UNIT           API CODE  Curve Description
#---------           --------  -----------------
DEPT.FT                      :   1 DEPTH
SP  .MV                      :   2
ILD .OHMM                    :   3
SN  .OHMM                    :   4
GR  .RE/T                    :   5
NEUT.CPS                     :   6
SBL .MV                      :   7
RS  .OHMM                    :   8
RD  .OHMM                    :   9
NEUS.CPS                     :  10
GRS .RE/T                    :  11
~A
# ...
  3901.500 -999.25  3.5160 -999.25  6.1580  235.64 -999.25 -999.25  3.5160  239.46  6.0360 
  3902.000 -999.25  3.6140 -999.25  6.0360  239.46 -999.25 -999.25  3.6140  248.64  5.9770 
  3902.500 -999.25  3.6770 -999.25  5.9770  248.64 -999.25 -999.25  3.6770  250.70  5.9100 
  3903.000 -999.25  3.7250 -999.25  5.9100  250.70 -999.25 -999.25  3.7250  251.64  5.8800 
  3903.500 -999.25  3.8410 -999.25  5.8800  251.64 -999.25 -999.25  3.8410  252.53  5.8440 
  3904.000 -999.25  4.0000 -999.25  5.8440  252.53 -999.25 -999.25  4.0000  253.68  5.7840 
  3904.500 -999.25  4.2620 -999.25  5.7840  253.68 -999.25 -999.25  4.2620  254.73  5.7200 
  3905.000 -999.25  4.4000 -999.25  5.7200  254.73 -999.25 -999.25  4.4000  256.58  5.5650 
  3905.500 -999.25  4.4880 -999.25  5.5650  256.58 -999.25 -999.25  4.4880  259.28  5.4320 
  3906.000 -999.25  4.5330 -999.25  5.4320  259.28 -999.25 -999.25  4.5330  263.53  5.2620 
  3906.500 -999.25  4.5490 -999.25  5.2620  263.53 -999.25 -999.25  4.5490  270.19  5.0740 
  3907.000 -999.25  4.5660 -999.25  5.0740  270.19 -999.25 -999.25  4.5660  273.01  5.0070 
  3907.500 -999.25  4.5680 -999.25  5.0070  273.01 -999.25 -999.25  4.5680  274.91  4.9820 
  3908.000 -999.25  4.5590 -999.25  4.9820  274.91 -999.25 -999.25  4.5590  276.76  4.9660 
  3908.500 -999.25  4.5220 -999.25  4.9660  276.76 -999.25 -999.25  4.5220  278.76  5.0070 
  3909.000 -999.25  4.4810 -999.25  5.0070  278.76 -999.25 -999.25  4.4810  279.44  5.1080 
  3909.500 -999.25  4.4440 -999.25  5.1080  279.44 -999.25 -999.25  4.4440  280.65  5.1890 
  3910.000 -999.25  4.4110 -999.25  5.1890  280.65 -999.25 -999.25  4.4110  281.39  5.2910 
  3910.500 -999.25  4.4750 -999.25  5.2910  281.39 -999.25 -999.25  4.4750  281.93  5.3490 
  3911.000 -999.25  4.5390 -999.25  5.3490  281.93 -999.25 -999.25  4.5390  282.68  5.4480 
  3911.500 -999.25  4.5850 -999.25  5.4480  282.68 -999.25 -999.25  4.5850  282.73  5.5370 
  3912.000 -999.25  4.6240 -999.25  5.5370  282.73 -999.25 -999.25  4.6240  280.86  5.7600 
  3912.500 -999.25  4.6350 -999.25  5.7600  280.86 -999.25 -999.25  4.6350  278.94  5.9970 
  3913.000 -999.25  4.5920 -999.25  5.9970  278.94 -999.25 -999.25  4.5920  277.92  6.1270 
  3913.500 -999.25  4.3470 -999.25  6.1270  277.92 -999.25 -999.25  4.3470  273.97  6.1780 
  3914.000 -999.25  4.0220 -999.25  6.1780  273.97 -999.25 -999.25  4.0220  263.28  6.2300 
  3914.500 -999.25  3.7450 -999.25  6.2300  263.28 -999.25 -999.25  3.7450  258.20  6.2850 
  3915.000 -999.25  3.3100 -999.25  6.2850  258.20 -999.25 -999.25  3.3100  250.56  6.3460 
  3915.500 -999.25  3.0390 -999.25  6.3460  250.56 -999.25 -999.25  3.0390  240.73  6.4060 
  3916.000 -999.25  2.8860 -999.25  6.4060  240.73 -999.25 -999.25  2.8860  231.32  6.4700 
  3916.500 -999.25  2.8150 -999.25  6.4700  231.32 -999.25 -999.25  2.8150  226.35  6.5160 
  3917.000 -999.25  2.7330 -999.25  6.5160  226.35 -999.25 -999.25  2.7330  216.36  6.5440 
  3917.500 -999.25  2.6790 -999.25  6.5440  216.36 -999.25 -999.25  2.6790  211.76  6.5680 
  3918.000 -999.25  2.6440 -999.25  6.5680  211.76 -999.25 -999.25  2.6440  210.37  6.5870 
  3918.500 -999.25  2.6190 -999.25  6.5870  210.37 -999.25 -999.25  2.6190  210.21  6.5950 
  3919.000 -999.25  2.6010 -999.25  6.5950  210.21 -999.25 -999.25  2.6010  211.22  6.6010 
  3919.500 -999.25  2.5900 -999.25  6.6010  211.22 -999.25 -999.25  2.5900  212.13  6.6030 
  3920.000 -999.25  2.6400 -999.25  6.6030  212.13 -999.25 -999.25  2.6400  212.66  6.5770 
  3920.500 -999.25  2.7070 -999.25  6.5770  212.66 -999.25 -999.25  2.7070  213.57  6.5450 
  3921.000 -999.25  2.7140 -999.25  6.5450  213.57 -999.25 -999.25  2.7140  214.15  6.4950 
  3921.500 -999.25  2.6890 -999.25  6.4950  214.15 -999.25 -999.25  2.6890  214.68  6.4320 
  3922.000 -999.25  2.6710 -999.25  6.4320  214.68 -999.25 -999.25  2.6710  214.99  6.3980 
  3922.500 -999.25  2.6560 -999.25  6.3980  214.99 -999.25 -999.25  2.6560  215.36  6.3590 
  3923.000 -999.25  2.6240 -999.25  6.3590  215.36 -999.25 -999.25  2.6240  215.84  6.3280 
  3923.500 -999.25  2.6090 -999.25  6.3280  215.84 -999.25 -999.25  2.6090  216.21  6.3010 
  3924.000 -999.25  2.6230 -999.25  6.3010  216.21 -999.25 -999.25  2.6230  216.63  6.3170 
  3924.500 -999.25  2.7610 -999.25  6.3170  216.63 -999.25 -999.25  2.7610  218.65  6.3930 
  3925.000 -999.25  2.8070 -999.25  6.3930  218.65 -999.25 -999.25  2.8070  221.38  6.4580 
  3925.500 -999.25  2.8390 -999.25  6.4580  221.38 -999.25 -999.25  2.8390  223.13  6.5160 
  3926.000 -999.25  2.9030 -999.25  6.5160  223.13 -999.25 -999.25  2.9030  223.98  6.5630 
  3926.500 -999.25  2.9350 -999.25  6.5630  223.98 -999.25 -999.25  2.9350  224.88  6.5790 
  3927.000 -999.25  2.9880 -999.25  6.5790  224.88 -999.25 -999.25  2.9880  225.63  6.5760 
  3927.500 -999.25  3.0590 -999.25  6.5760  225.63 -999.25 -999.25  3.0590  226.43  6.5790 
  3928.000 -999.25  3.0900 -999.25  6.5790  226.43 -999.25 -999.25  3.0900  227.38  6.5910 
  3928.500 -999.25  3.1360 -999.25  6.5910  227.38 -999.25 -999.25  3.1360  227.91  6.6370 
  3929.000 -999.25  3.1750 -999.25  6.6370  227.91 -999.25 -999.25  3.1750  228.39  6.7230 
  3929.500 -999.25  3.2070 -999.25  6.7230  228.39 -999.25 -999.25  3.2070  228.65  6.8330 
  3930.000 -999.25  3.1890 -999.25  6.8330  228.65 -999.25 -999.25  3.1890  228.44  6.9210 
  3930.500 -999.25  3.0290 -999.25  6.9210  228.44 -999.25 -999.25  3.0290  227.59  6.9540 
  3931.000 -999.25  2.9580 -999.25  6.9540  227.59 -999.25 -999.25  2.9580  226.15  6.9750 
  3931.500 -999.25  2.8120 -999.25  6.9750  226.15 -999.25 -999.25  2.8120  221.88  7.0130 
  3932.000 -999.25  2.7410 -999.25  7.0130  221.88 -999.25 -999.25  2.7410  218.41  7.1720 
  3932.500 -999.25  2.6880 -999.25  7.1720  218.41 -999.25 -999.25  2.6880  214.73  7.2520 
  3933.000 -999.25  2.6640 -999.25  7.2520  214.73 -999.25 -999.25  2.6640  212.54  7.3030 
  3933.500 -999.25  2.6280 -999.25  7.3030  212.54 -999.25 -999.25  2.6280  211.70  7.3320 
  3934.000 -999.25  2.5610 -999.25  7.3320  211.70 -999.25 -999.25  2.5610  210.04  7.3550 
  3934.500 -999.25  2.4860 -999.25  7.3550  210.04 -999.25 -999.25  2.4860  208.50  7.3700 
  3935.000 -999.25  2.4080 -999.25  7.3700  208.50 -999.25 -999.25  2.4080  204.02  7.3840 
  3935.500 -999.25  2.3550 -999.25  7.3840  204.02 -999.25 -999.25  2.3550  200.12  7.3870 
  3936.000 -999.25  2.3180 -999.25  7.3870  200.12 -999.25 -999.25  2.3180  198.58  7.3900 
  3936.500 -999.25  2.2810 -999.25  7.3900  198.58 -999.25 -999.25  2.2810  197.57  7.3900 
  3937.000 -999.25  2.1710 -999.25  7.3900  197.57 -999.25 -999.25  2.1710  196.72  7.3290 
  3937.500 -999.25  2.1110 -999.25  7.3290  196.72 -999.25 -999.25  2.1110  195.76  7.2470 
  3938.000 -999.25  2.1400 -999.25  7.2470  195.76 -999.25 -999.25  2.1400  195.18  7.1640 
  3938.500 -999.25  2.1580 -999.25  7.1640  195.18 -999.25 -999.25  2.1580  194.70  7.0640 
  3939.000 -999.25  2.1670 -999.25  7.0640  194.70 -999.25 -999.25  2.1670  195.13  6.9320 
  3939.500 -999.25  2.1770 -999.25  6.9320  195.13 -999.25 -999.25  2.1770  196.37  6.8910 
  3940.000 -999.25  2.1910 -999.25  6.8910  196.37 -999.25 -999.25  2.1910  198.10  6.8260 
  3940.500 -999.25  2.2000 -999.25  6.8260  198.10 -999.25 -999.25  2.2000  199.36  6.8000 
  3941.000 -999.25  2.2660 -999.25  6.8000  199.36 -999.25 -999.25  2.2660  200.66  6.7780 
  3941.500 -999.25  2.3780 -999.25  6.7780  200.66 -999.25 -999.25  2.3780  201.97  6.7890 
  3942.000 -999.25  2.4860 -999.25  6.7890  201.97 -999.25 -999.25  2.4860  202.79  6.8050 
  3942.500 -999.25  2.5840 -999.25  6.8050  202.79 -999.25 -999.25  2.5840  203.89  6.8110 
  3943.000 -999.25  2.6530 -999.25  6.8110  203.89 -999.25 -999.25  2.6530  206.58  6.8110 
  3943.500 -999.25  2.7290 -999.25  6.8110  206.58 -999.25 -999.25  2.7290  208.59  6.7010 
  3944.000 -999.25  2.7600 -999.25  6.7010  208.59 -999.25 -999.25  2.7600  210.37  6.5950 
  3944.500 -999.25  2.8040 -999.25  6.5950  210.37 -999.25 -999.25  2.8040  212.05  6.4980 
