~Version Information
VERS.                     2.0: CWLS log ASCII Standard Version 2.00
WRAP.                      NO: One line per depth step
~Well Information Block
#MNEM.UNIT                               Data Type  Information
#---------                               ---------  -----------
STRT.FT                                    30.0000:
STOP.FT                                  5850.0000:
STEP.FT                                     0.5000:
NULL.                 -999.25                     :
COMP.                                             :COMPANY            
WELL.     KCL44-43                                :WELL               
FLD .                                             :FIELD              
CTRY.                                             :COUNTRY            
STAT.                                             :STATE              
LOC .                                             :LOCATION           
UWI .                                             :UNIQUE WELL ID     
SRVC.                                             :Service company    
DATE.                                             :LOG DATE           
~Curve Information
#MNEM.UNIT           API CODE  Curve Description
#---------           --------  -----------------
DEPT.FT                      :   1 DEPTH
SP  .MV                      :   2
ILD .OHMM                    :   3
SN  .OHMM                    :   4
GR  .RE/T                    :   5
NEUT.CPS                     :   6
SBL .MV                      :   7
RS  .OHMM                    :   8
RD  .OHMM                    :   9
NEUS.CPS                     :  10
GRS .RE/T                    :  11
~A
# ...
  2727.000 -41.186  4.0180  3.2020 -999.25 -999.25 -26.018  3.2020  4.0180 -999.25 -999.25 
  2727.500 -41.322  4.4670  3.3700 -999.25 -999.25 -26.158  3.3700  4.4670 -999.25 -999.25 
  2728.000 -41.635  5.2590  3.5730 -999.25 -999.25 -26.475  3.5730  5.2590 -999.25 -999.25 
  2728.500 -41.842  6.8340  3.7910 -999.25 -999.25 -26.687  3.7910  6.8340 -999.25 -999.25 
  2729.000 -44.843  7.2800  3.9160 -999.25 -999.25 -29.692  3.9160  7.2800 -999.25 -999.25 
  2729.500 -47.950  8.5460  4.1480 -999.25 -999.25 -32.803  4.1480  8.5460 -999.25 -999.25 
  2730.000 -49.572  8.6240  4.2730 -999.25 -999.25 -34.429  4.2730  8.6240 -999.25 -999.25 
  2730.500 -47.400  8.6610  4.3200 -999.25 -999.25 -32.261  4.3200  8.6610 -999.25 -999.25 
  2731.000 -46.148  8.4330  4.3670 -999.25 -999.25 -31.014  4.3670  8.4330 -999.25 -999.25 
  2731.500 -46.028  7.9100  4.2350 -999.25 -999.25 -30.898  4.2350  7.9100 -999.25 -999.25 
  2732.000 -46.332  7.5320  4.1330 -999.25 -999.25 -31.206  4.1330  7.5320 -999.25 -999.25 
  2732.500 -46.354  5.0060  3.6660 -999.25 -999.25 -31.232  3.6660  5.0060 -999.25 -999.25 
  2733.000 -43.404  5.2740  3.5140 -999.25 -999.25 -28.287  3.5140  5.2740 -999.25 -999.25 
  2733.500 -41.302  5.4210  3.0220 -999.25 -999.25 -26.189  3.0220  5.4210 -999.25 -999.25 
  2734.000 -39.909  5.5420  2.9800 -999.25 -999.25 -24.800  2.9800  5.5420 -999.25 -999.25 
  2734.500 -39.470  5.5930  2.9700 -999.25 -999.25 -24.365  2.9700  5.5930 -999.25 -999.25 
  2735.000 -41.190  5.6180  2.9770 -999.25 -999.25 -26.089  2.9770  5.6180 -999.25 -999.25 
  2735.500 -42.200  5.0410  2.9780 -999.25 -999.25 -27.104  2.9780  5.0410 -999.25 -999.25 
  2736.000 -43.354  3.8130  2.9110 -999.25 -999.25 -28.262  2.9110  3.8130 -999.25 -999.25 
  2736.500 -43.305  3.6060  2.7470 -999.25 -999.25 -28.217  2.7470  3.6060 -999.25 -999.25 
  2737.000 -42.918  3.6960  2.7020 -999.25 -999.25 -27.834  2.7020  3.6960 -999.25 -999.25 
  2737.500 -42.532  3.8640  2.8630 -999.25 -999.25 -27.452  2.8630  3.8640 -999.25 -999.25 
  2738.000 -41.635  3.9250  3.0020 -999.25 -999.25 -26.560  3.0020  3.9250 -999.25 -999.25 
  2738.500 -41.408  3.9680  3.0920 -999.25 -999.25 -26.337  3.0920  3.9680 -999.25 -999.25 
  2739.000 -41.181  4.0010  3.1490 -999.25 -999.25 -26.114  3.1490  4.0010 -999.25 -999.25 
  2739.500 -42.547  4.0550  3.1890 -999.25 -999.25 -27.484  3.1890  4.0550 -999.25 -999.25 
  2740.000 -43.913  4.1230  3.1790 -999.25 -999.25 -28.855  3.1790  4.1230 -999.25 -999.25 
  2740.500 -43.690  4.2000  3.1560 -999.25 -999.25 -28.636  3.1560  4.2000 -999.25 -999.25 
  2741.000 -43.325  4.2490  3.1230 -999.25 -999.25 -28.275  3.1230  4.2490 -999.25 -999.25 
  2741.500 -41.581  4.1760  3.1030 -999.25 -999.25 -26.535  3.1030  4.1760 -999.25 -999.25 
  2742.000 -38.069  4.0320  3.0770 -999.25 -999.25 -23.027  3.0770  4.0320 -999.25 -999.25 
  2742.500 -36.255  3.7210  2.9970 -999.25 -999.25 -21.218  2.9970  3.7210 -999.25 -999.25 
  2743.000 -35.572  2.8070  2.6930 -999.25 -999.25 -20.539  2.6930  2.8070 -999.25 -999.25 
  2743.500 -34.997  2.7410  2.5060 -999.25 -999.25 -19.968  2.5060  2.7410 -999.25 -999.25 
  2744.000 -34.632  2.7180  2.3370 -999.25 -999.25 -19.607  2.3370  2.7180 -999.25 -999.25 
  2744.500 -34.373  2.6920  2.1820 -999.25 -999.25 -19.353  2.1820  2.6920 -999.25 -999.25 
  2745.000 -33.974  2.6660  2.1240 -999.25 -999.25 -18.958  2.1240  2.6660 -999.25 -999.25 
  2745.500 -33.715  2.6290  2.1330 -999.25 -999.25 -18.703  2.1330  2.6290 -999.25 -999.25 
  2746.000 -33.422  2.5840  2.1430 -999.25 -999.25 -18.414  2.1430  2.5840 -999.25 -999.25 
  2746.500 -34.154  2.5440  2.1630 -999.25 -999.25 -19.150  2.1630  2.5440 -999.25 -999.25 
  2747.000 -34.780  2.5210  2.1750 -999.25 -999.25 -19.781  2.1750  2.5210 -999.25 -999.25 
  2747.500 -35.936  2.4980  2.1740 -999.25 -999.25 -20.941  2.1740  2.4980 -999.25 -999.25 
  2748.000 -36.527  2.4650  2.1550 -999.25 -999.25 -21.536  2.1550  2.4650 -999.25 -999.25 
  2748.500 -36.694  2.4450  2.1410 -999.25 -999.25 -21.707  2.1410  2.4450 -999.25 -999.25 
  2749.000 -36.541  2.4870  2.1270 -999.25 -999.25 -21.558  2.1270  2.4870 -999.25 -999.25 
  2749.500 -36.283  2.5210  2.1040 -999.25 -999.25 -21.305  2.1040  2.5210 -999.25 -999.25 
  2750.000 -36.768  2.5300  2.0950 -999.25 -999.25 -21.794  2.0950  2.5300 -999.25 -999.25 
  2750.500 -37.598  2.4730  2.0990 -999.25 -999.25 -22.628  2.0990  2.4730 -999.25 -999.25 
  2751.000 -37.896  2.4580  2.1020 -999.25 -999.25 -22.930  2.1020  2.4580 -999.25 -999.25 
  2751.500 -38.584  2.4110  2.0940 -999.25 -999.25 -23.623  2.0940  2.4110 -999.25 -999.25 
  2752.000 -38.919  2.3820  2.0220 -999.25 -999.25 -23.962  2.0220  2.3820 -999.25 -999.25 
  2752.500 -39.146  2.3600  1.8610 -999.25 -999.25 -24.193  1.8610  2.3600 -999.25 -999.25 
  2753.000 -39.233  2.3450  1.7820 -999.25 -999.25 -24.284  1.7820  2.3450 -999.25 -999.25 
  2753.500 -38.683  2.3520  1.7750 -999.25 -999.25 -23.738  1.7750  2.3520 -999.25 -999.25 
  2754.000 -38.062  2.3730  1.7880 -999.25 -999.25 -23.122  1.7880  2.3730 -999.25 -999.25 
  2754.500 -37.902  2.4510  1.9660 -999.25 -999.25 -22.966  1.9660  2.4510 -999.25 -999.25 
  2755.000 -37.882  2.5570  2.0080 -999.25 -999.25 -22.950  2.0080  2.5570 -999.25 -999.25 
  2755.500 -37.756  2.6490  2.0400 -999.25 -999.25 -22.828  2.0400  2.6490 -999.25 -999.25 
  2756.000 -37.100  2.7660  2.0710 -999.25 -999.25 -22.177  2.0710  2.7660 -999.25 -999.25 
  2756.500 -35.560  2.8120  2.1170 -999.25 -999.25 -20.641  2.1170  2.8120 -999.25 -999.25 
  2757.000 -34.621  2.8470  2.1410 -999.25 -999.25 -19.706  2.1410  2.8470 -999.25 -999.25 
  2757.500 -33.859  2.7180  2.1570 -999.25 -999.25 -18.948  2.1570  2.7180 -999.25 -999.25 
  2758.000 -33.415  2.6610  2.1730 -999.25 -999.25 -18.508  2.1730  2.6610 -999.25 -999.25 
  2758.500 -33.890  2.7310  2.1970 -999.25 -999.25 -18.988  2.1970  2.7310 -999.25 -999.25 
  2759.000 -35.180  2.6950  2.2030 -999.25 -999.25 -20.282  2.2030  2.6950 -999.25 -999.25 
  2759.500 -36.363  2.6020  2.1990 -999.25 -999.25 -21.469  2.1990  2.6020 -999.25 -999.25 
  2760.000 -37.051  2.5230  2.1770 -999.25 -999.25 -22.161  2.1770  2.5230 -999.25 -999.25 
  2760.500 -37.696  2.4110  1.7160 -999.25 -999.25 -22.810  1.7160  2.4110 -999.25 -999.25 
  2761.000 -38.024  2.3170  1.7010 -999.25 -999.25 -23.143  1.7010  2.3170 -999.25 -999.25 
  2761.500 -38.103  2.2740  1.7280 -999.25 -999.25 -23.226  1.7280  2.2740 -999.25 -999.25 
  2762.000 -37.935  2.2830  1.8200 -999.25 -999.25 -23.062  1.8200  2.2830 -999.25 -999.25 
  2762.500 -37.414  2.3420  1.8970 -999.25 -999.25 -22.545  1.8970  2.3420 -999.25 -999.25 
  2763.000 -35.760  2.3700  1.9420 -999.25 -999.25 -20.896  1.9420  2.3700 -999.25 -999.25 
  2763.500 -34.355  2.3650  1.9570 -999.25 -999.25 -19.495  1.9570  2.3650 -999.25 -999.25 
  2764.000 -33.903  2.3530  1.9720 -999.25 -999.25 -19.047  1.9720  2.3530 -999.25 -999.25 
  2764.500 -34.407  2.3270  1.9350 -999.25 -999.25 -19.555  1.9350  2.3270 -999.25 -999.25 
  2765.000 -35.123  2.3080  1.8690 -999.25 -999.25 -20.275  1.8690  2.3080 -999.25 -999.25 
  2765.500 -35.805  2.2810  1.7970 -999.25 -999.25 -20.962  1.7970  2.2810 -999.25 -999.25 
  2766.000 -36.379  2.2550  1.7630 -999.25 -999.25 -21.540  1.7630  2.2550 -999.25 -999.25 
  2766.500 -36.670  2.2430  1.7660 -999.25 -999.25 -21.835  1.7660  2.2430 -999.25 -999.25 
  2767.000 -36.963  2.2380  1.7950 -999.25 -999.25 -22.132  1.7950  2.2380 -999.25 -999.25 
  2767.500 -37.077  2.3050  1.8240 -999.25 -999.25 -22.250  1.8240  2.3050 -999.25 -999.25 
  2768.000 -37.298  2.3530  1.9360 -999.25 -999.25 -22.476  1.9360  2.3530 -999.25 -999.25 
  2768.500 -37.413  2.3990  2.0460 -999.25 -999.25 -22.595  2.0460  2.3990 -999.25 -999.25 
  2769.000 -37.422  2.5080  2.0980 -999.25 -999.25 -22.608  2.0980  2.5080 -999.25 -999.25 
  2769.500 -36.901  2.7810  2.2570 -999.25 -999.25 -22.091  2.2570  2.7810 -999.25 -999.25 
  2770.000 -36.555  2.9580  2.4020 -999.25 -999.25 -21.750  2.4020  2.9580 -999.25 -999.25 
