~Version Information
VERS.                     2.0: CWLS log ASCII Standard Version 2.00
WRAP.                      NO: One line per depth step
~Well Information Block
#MNEM.UNIT                               Data Type  Information
#---------                               ---------  -----------
STRT.FT                                   400.0000:
STOP.FT                                  3500.0000:
STEP.FT                                     0.5000:
NULL.                 -999.25                     :
COMP.                                             :COMPANY            
WELL.     KCL44-34                                :WELL               
FLD .                                             :FIELD              
CTRY.                                             :COUNTRY            
STAT.                                             :STATE              
LOC .                                             :LOCATION           
UWI .                                             :UNIQUE WELL ID     
SRVC.                                             :Service company    
DATE.                                             :LOG DATE           
~Curve Information
#MNEM.UNIT           API CODE  Curve Description
#---------           --------  -----------------
DEPT.FT                      :   1 DEPTH
SP  .MV                      :   2
SN  .OHMM                    :   3
ILD .OHMM                    :   4
SBL .MV                      :   5
RS  .OHMM                    :   6
RD  .OHMM                    :   7
DEPS.FT                      :   8
~A
# ...
  2052.000 -25.722  1.3740  1.4240 -11.988  1.3740  1.4240 -794.00 
  2052.500 -26.942  1.4250  1.4500 -13.206  1.4250  1.4500 -794.50 
  2053.000 -27.768  1.4690  1.4760 -14.029  1.4690  1.4760 -795.00 
  2053.500 -27.480  1.5200  1.5270 -13.739  1.5200  1.5270 -795.50 
  2054.000 -25.467  1.5570  1.5570 -11.724  1.5570  1.5570 -796.00 
  2054.500 -24.137  1.5860  1.5720 -10.391  1.5860  1.5720 -796.50 
  2055.000 -23.597  1.5870  1.5730 -9.8490  1.5870  1.5730 -797.00 
  2055.500 -23.812  1.5810  1.5300 -10.062  1.5810  1.5300 -797.50 
  2056.000 -23.201  1.5740  1.4670 -9.4484  1.5740  1.4670 -798.00 
  2056.500 -22.158  1.5530  1.4170 -8.4031  1.5530  1.4170 -798.50 
  2057.000 -21.870  1.5400  1.4030 -8.1128  1.5400  1.4030 -799.00 
  2057.500 -23.738  1.5260  1.4040 -9.9785  1.5260  1.4040 -799.50 
  2058.000 -24.276  1.5130  1.4050 -10.514  1.5130  1.4050 -800.00 
  2058.500 -25.497  1.4920  1.4200 -11.733  1.4920  1.4200 -800.50 
  2059.000 -26.538  1.4930  1.4280 -12.772  1.4930  1.4280 -801.00 
  2059.500 -26.645  1.4860  1.4360 -12.876  1.4860  1.4360 -801.50 
  2060.000 -26.159  1.4870  1.4440 -12.388  1.4870  1.4440 -802.00 
  2060.500 -25.674  1.4880  1.4520 -11.901  1.4880  1.4520 -802.50 
  2061.000 -24.882  1.4890  1.4530 -11.106  1.4890  1.4530 -803.00 
  2061.500 -24.486  1.4890  1.4390 -10.708  1.4890  1.4390 -803.50 
  2062.000 -24.162  1.4760  1.4400 -10.382  1.4760  1.4400 -804.00 
  2062.500 -23.874  1.4700  1.4410 -10.091  1.4700  1.4410 -804.50 
  2063.000 -24.233  1.4700  1.4560 -10.448  1.4700  1.4560 -805.00 
  2063.500 -26.496  1.4570  1.4570 -12.709  1.4570  1.4570 -805.50 
  2064.000 -27.177  1.4500  1.4580 -13.387  1.4500  1.4580 -806.00 
  2064.500 -26.530  1.4370  1.4580 -12.738  1.4370  1.4580 -806.50 
  2065.000 -25.847  1.4300  1.4590 -12.053  1.4300  1.4590 -807.00 
  2065.500 -25.343  1.4240  1.4530 -11.546  1.4240  1.4530 -807.50 
  2066.000 -25.091  1.4250  1.4250 -11.292  1.4250  1.4250 -808.00 
  2066.500 -25.090  1.4260  1.4110 -11.289  1.4260  1.4110 -808.50 
  2067.000 -29.724  1.4160  1.4050 -15.921  1.4160  1.4050 -809.00 
  2067.500 -30.693  1.4060  1.4060 -16.887  1.4060  1.4060 -809.50 
  2068.000 -29.184  1.3990  1.3990 -15.376  1.3990  1.3990 -810.00 
  2068.500 -26.057  1.3970  1.4000 -12.247  1.3970  1.4000 -810.50 
  2069.000 -23.039  1.3940  1.3940 -9.2263  1.3940  1.3940 -811.00 
  2069.500 -22.104  1.3870  1.3800 -8.2890  1.3870  1.3800 -811.50 
  2070.000 -21.528  1.3670  1.3590 -7.7107  1.3670  1.3590 -812.00 
  2070.500 -21.491  1.3600  1.3460 -7.6713  1.3600  1.3460 -812.50 
  2071.000 -27.203  1.3540  1.3390 -13.381  1.3540  1.3390 -813.00 
  2071.500 -27.634  1.3330  1.3330 -13.810  1.3330  1.3330 -813.50 
  2072.000 -24.974  1.3200  1.3120 -11.147  1.3200  1.3120 -814.00 
  2072.500 -23.752  1.3200  1.3130 -9.9231  1.3200  1.3130 -814.50 
  2073.000 -24.937  1.3350  1.3140 -11.106  1.3350  1.3140 -815.00 
  2073.500 -27.200  1.3510  1.3510 -13.366  1.3510  1.3510 -815.50 
  2074.000 -28.133  1.3870  1.3800 -14.297  1.3870  1.3800 -816.00 
  2074.500 -27.558  1.4100  1.4020 -13.720  1.4100  1.4020 -816.50 
  2075.000 -25.581  1.4210  1.4100 -11.741  1.4210  1.4100 -817.00 
  2075.500 -25.616  1.4330  1.4110 -11.773  1.4330  1.4110 -817.50 
  2076.000 -26.693  1.4410  1.4190 -12.848  1.4410  1.4190 -818.00 
  2076.500 -22.345  1.4410  1.4200 -8.4976  1.4410  1.4200 -818.50 
  2077.000 -21.805  1.4350  1.4060 -7.9553  1.4350  1.4060 -819.00 
  2077.500 -22.631  1.4290  1.4000 -8.7790  1.4290  1.4000 -819.50 
  2078.000 -23.636  1.4220  1.3940 -9.7817  1.4220  1.3940 -820.00 
  2078.500 -24.426  1.4160  1.3870 -10.569  1.4160  1.3870 -820.50 
  2079.000 -23.347  1.4090  1.3810 -9.4880  1.4090  1.3810 -821.00 
  2079.500 -23.131  1.4030  1.3600 -9.2697  1.4030  1.3600 -821.50 
  2080.000 -24.065  1.3820  1.3610 -10.201  1.3820  1.3610 -822.00 
  2080.500 -25.717  1.3760  1.3620 -11.851  1.3760  1.3620 -822.50 
  2081.000 -26.902  1.3770  1.3620 -13.034  1.3770  1.3620 -823.00 
  2081.500 -27.619  1.3490  1.3630 -13.748  1.3490  1.3630 -823.50 
  2082.000 -28.050  1.3420  1.3570 -14.177  1.3420  1.3570 -824.00 
  2082.500 -28.372  1.3400  1.3580 -14.497  1.3400  1.3580 -824.50 
  2083.000 -29.270  1.3370  1.3580 -15.393  1.3370  1.3580 -825.00 
  2083.500 -28.119  1.3590  1.3520 -14.239  1.3590  1.3520 -825.50 
  2084.000 -27.256  1.3670  1.3530 -13.374  1.3670  1.3530 -826.00 
  2084.500 -27.256  1.3680  1.3680 -13.372  1.3680  1.3680 -826.50 
  2085.000 -27.866  1.3900  1.3830 -13.979  1.3900  1.3830 -827.00 
  2085.500 -28.979  1.4050  1.4050 -15.090  1.4050  1.4050 -827.50 
  2086.000 -29.733  1.4060  1.4280 -15.842  1.4060  1.4280 -828.00 
  2086.500 -31.061  1.4180  1.4570 -17.167  1.4180  1.4570 -828.50 
  2087.000 -31.995  1.4290  1.4720 -18.099  1.4290  1.4720 -829.00 
  2087.500 -32.317  1.4590  1.4950 -18.419  1.4590  1.4950 -829.50 
  2088.000 -31.418  1.4880  1.5240 -17.517  1.4880  1.5240 -830.00 
  2088.500 -25.849  1.5540  1.5390 -11.946  1.5540  1.5390 -830.50 
  2089.000 -22.291  1.5760  1.5470 -8.3858  1.5760  1.5470 -831.00 
  2089.500 -20.350  1.5910  1.5700 -6.4425  1.5910  1.5700 -831.50 
  2090.000 -19.164  1.5990  1.5780 -5.2542  1.5990  1.5780 -832.00 
  2090.500 -18.445  1.6000  1.5780 -4.5329  1.6000  1.5780 -832.50 
  2091.000 -18.336  1.5940  1.5650 -4.4215  1.5940  1.5650 -833.00 
  2091.500 -22.144  1.5940  1.5510 -8.2272  1.5940  1.5510 -833.50 
  2092.000 -22.969  1.5950  1.5450 -9.0499  1.5950  1.5450 -834.00 
  2092.500 -22.681  1.5960  1.5460 -8.7596  1.5960  1.5460 -834.50 
  2093.000 -21.639  1.5970  1.5320 -7.7153  1.5970  1.5320 -835.00 
  2093.500 -20.740  1.5970  1.5330 -6.8140  1.5970  1.5330 -835.50 
  2094.000 -21.314  1.5980  1.5270 -7.3857  1.5980  1.5270 -836.00 
  2094.500 -23.289  1.5850  1.5200 -9.3584  1.5850  1.5200 -836.50 
  2095.000 -24.079  1.5710  1.4920 -10.146  1.5710  1.4920 -837.00 
  2095.500 -24.509  1.5580  1.4890 -10.574  1.5580  1.4890 -837.50 
  2096.000 -24.616  1.5510  1.4870 -10.678  1.5510  1.4870 -838.00 
  2096.500 -23.322  1.5410  1.4590 -9.3821  1.5410  1.4590 -838.50 
  2097.000 -23.106  1.5310  1.4380 -9.1638  1.5310  1.4380 -839.00 
  2097.500 -25.333  1.4960  1.4170 -11.388  1.4960  1.4170 -839.50 
  2098.000 -26.159  1.4830  1.3960 -12.212  1.4830  1.3960 -840.00 
  2098.500 -26.769  1.4580  1.3690 -12.820  1.4580  1.3690 -840.50 
  2099.000 -24.217  1.4340  1.3550 -10.266  1.4340  1.3550 -841.00 
  2099.500 -24.324  1.3990  1.3560 -10.370  1.3990  1.3560 -841.50 
  2100.000 -25.725  1.3850  1.3570 -11.769  1.3850  1.3570 -842.00 
  2100.500 -26.587  1.3640  1.3850 -12.629  1.3640  1.3850 -842.50 
  2101.000 -26.049  1.3560  1.4210 -12.088  1.3560  1.4210 -843.00 
  2101.500 -25.834  1.3990  1.4710 -11.871  1.3990  1.4710 -843.50 
  2102.000 -24.937  1.4710  1.5070 -10.972  1.4710  1.5070 -844.00 
  2102.500 -23.608  1.5140  1.5430 -9.6404  1.5140  1.5430 -844.50 
  2103.000 -22.387  1.5570  1.5640 -8.4171  1.5570  1.5640 -845.00 
  2103.500 -21.310  1.6360  1.5860 -7.3377  1.6360  1.5860 -845.50 
  2104.000 -19.730  1.6570  1.6140 -5.7554  1.6570  1.6140 -846.00 
  2104.500 -19.084  1.6470  1.6430 -5.1071  1.6470  1.6430 -846.50 
  2105.000 -19.229  1.6360  1.6430 -5.2498  1.6360  1.6430 -847.00 
  2105.500 -21.960  1.6000  1.6360 -7.9785  1.6000  1.6360 -847.50 
  2106.000 -22.715  1.5570  1.6000 -8.7312  1.5570  1.6000 -848.00 
  2106.500 -21.171  1.5350  1.5780 -7.1849  1.5350  1.5780 -848.50 
  2107.000 -13.232  1.5060  1.5490  0.7564  1.5060  1.5490 -849.00 
  2107.500 -12.586  1.4920  1.5420  1.4048  1.4920  1.5420 -849.50 
  2108.000 -12.443  1.4920  1.5130  1.5501  1.4920  1.5130 -850.00 
  2108.500 -21.354  1.4850  1.5130 -7.3586  1.4850  1.5130 -850.50 
  2109.000 -24.552  1.4840  1.5280 -10.554  1.4840  1.5280 -851.00 
  2109.500 -26.457  1.4840  1.5270 -12.457  1.4840  1.5270 -851.50 
  2110.000 -27.679  1.4770  1.5130 -13.657  1.4770  1.5130 -852.00 
  2110.500 -28.290  1.4770  1.4840 -14.245  1.4770  1.4840 -852.50 
