~Version Information
VERS.                     2.0: CWLS log ASCII Standard Version 2.00
WRAP.                      NO: One line per depth step
~Well Information Block
#MNEM.UNIT                               Data Type  Information
#---------                               ---------  -----------
STRT.FT                                   400.0000:
STOP.FT                                  3500.0000:
STEP.FT                                     0.5000:
NULL.                 -999.25                     :
COMP.                                             :COMPANY            
WELL.     KCL44-34                                :WELL               
FLD .                                             :FIELD              
CTRY.                                             :COUNTRY            
STAT.                                             :STATE              
LOC .                                             :LOCATION           
UWI .                                             :UNIQUE WELL ID     
SRVC.                                             :Service company    
DATE.                                             :LOG DATE           
~Curve Information
#MNEM.UNIT           API CODE  Curve Description
#---------           --------  -----------------
DEPT.FT                      :   1 DEPTH
SP  .MV                      :   2
SN  .OHMM                    :   3
ILD .OHMM                    :   4
SBL .MV                      :   5
RS  .OHMM                    :   6
RD  .OHMM                    :   7
DEPS.FT                      :   8
~A
# ...
  1639.000 -22.567  2.5570  1.8090 -10.743  2.5570  1.8090 -381.00 
  1639.500 -25.117  2.8730  1.9670 -13.290  2.8730  1.9670 -381.50 
  1640.000 -25.978  3.1320  2.1180 -14.149  3.1320  2.1180 -382.00 
  1640.500 -23.609  3.2120  2.2180 -11.778  3.2120  2.2180 -382.50 
  1641.000 -23.609  3.2350  2.2830 -11.775  3.2350  2.2830 -383.00 
  1641.500 -23.285  3.2430  2.3550 -11.449  3.2430  2.3550 -383.50 
  1642.000 -23.070  3.1940  2.4190 -11.232  3.1940  2.4190 -384.00 
  1642.500 -22.029  2.3420  2.4190 -10.189  2.3420  2.4190 -384.50 
  1643.000 -18.402  2.1350  2.1680 -6.5592  2.1350  2.1680 -385.00 
  1643.500 -17.756  2.0220  1.9960 -5.9109  2.0220  1.9960 -385.50 
  1644.000 -17.828  1.9150  1.8880 -5.9806  1.9150  1.8880 -386.00 
  1644.500 -22.136  1.8310  1.8090 -10.286  1.8310  1.8090 -386.50 
  1645.000 -24.039  1.7460  1.7590 -12.187  1.7460  1.7590 -387.00 
  1645.500 -25.009  1.6890  1.7300 -13.155  1.6890  1.7300 -387.50 
  1646.000 -25.655  1.6620  1.6940 -13.798  1.6620  1.6940 -388.00 
  1646.500 -25.978  1.6410  1.6370 -14.119  1.6410  1.6370 -388.50 
  1647.000 -26.158  1.6280  1.6220 -14.297  1.6280  1.6220 -389.00 
  1647.500 -26.373  1.6150  1.5940 -14.509  1.6150  1.5940 -389.50 
  1648.000 -26.230  1.6090  1.5940 -14.364  1.6090  1.5940 -390.00 
  1648.500 -25.835  1.6100  1.5940 -13.967  1.6100  1.5940 -390.50 
  1649.000 -25.224  1.6110  1.5790 -13.353  1.6110  1.5790 -391.00 
  1649.500 -24.794  1.6200  1.5790 -12.921  1.6200  1.5790 -391.50 
  1650.000 -24.542  1.6280  1.6150 -12.667  1.6280  1.6150 -392.00 
  1650.500 -25.367  1.6290  1.6370 -13.490  1.6290  1.6370 -392.50 
  1651.000 -26.335  1.6370  1.6580 -14.455  1.6370  1.6580 -393.00 
  1651.500 -26.909  1.6600  1.6510 -15.027  1.6600  1.6510 -393.50 
  1652.000 -27.410  1.6760  1.6550 -15.526  1.6760  1.6550 -394.00 
  1652.500 -25.470  1.6980  1.6590 -13.583  1.6980  1.6590 -394.50 
  1653.000 -24.607  1.7140  1.7020 -12.718  1.7140  1.7020 -395.00 
  1653.500 -24.247  1.7250  1.7020 -12.356  1.7250  1.7020 -395.50 
  1654.000 -23.905  1.7370  1.7090 -12.011  1.7370  1.7090 -396.00 
  1654.500 -23.563  1.7530  1.7240 -11.667  1.7530  1.7240 -396.50 
  1655.000 -23.023  1.7540  1.7240 -11.125  1.7540  1.7240 -397.00 
  1655.500 -23.848  1.7630  1.7420 -11.947  1.7630  1.7420 -397.50 
  1656.000 -25.176  1.7640  1.7600 -13.273  1.7640  1.7600 -398.00 
  1656.500 -25.174  1.7650  1.7880 -13.269  1.7650  1.7880 -398.50 
  1657.000 -25.066  1.7590  1.7960 -13.158  1.7590  1.7960 -399.00 
  1657.500 -25.065  1.7600  1.7960 -13.155  1.7600  1.7960 -399.50 
  1658.000 -25.207  1.7570  1.7960 -13.295  1.7570  1.7960 -400.00 
  1658.500 -25.350  1.7540  1.7890 -13.436  1.7540  1.7890 -400.50 
  1659.000 -25.780  1.7420  1.7820 -13.863  1.7420  1.7820 -401.00 
  1659.500 -26.102  1.7290  1.7820 -14.183  1.7290  1.7820 -401.50 
  1660.000 -23.695  1.7220  1.7750 -11.774  1.7220  1.7750 -402.00 
  1660.500 -23.155  1.7090  1.7600 -11.231  1.7090  1.7600 -402.50 
  1661.000 -23.046  1.7030  1.7390 -11.120  1.7030  1.7390 -403.00 
  1661.500 -23.835  1.6970  1.7320 -11.907  1.6970  1.7320 -403.50 
  1662.000 -25.378  1.6840  1.7100 -13.447  1.6840  1.7100 -404.00 
  1662.500 -26.203  1.6780  1.6740 -14.270  1.6780  1.6740 -404.50 
  1663.000 -26.669  1.6580  1.6670 -14.734  1.6580  1.6670 -405.00 
  1663.500 -27.027  1.6520  1.6600 -15.089  1.6520  1.6600 -405.50 
  1664.000 -26.954  1.6310  1.6390 -15.014  1.6310  1.6390 -406.00 
  1664.500 -26.737  1.6250  1.6240 -14.795  1.6250  1.6240 -406.50 
  1665.000 -26.557  1.6270  1.6170 -14.612  1.6270  1.6170 -407.00 
  1665.500 -26.196  1.7140  1.6170 -14.249  1.7140  1.6170 -407.50 
  1666.000 -24.723  1.7650  1.6680 -12.774  1.7650  1.6680 -408.00 
  1666.500 -23.932  1.8380  1.7470 -11.981  1.8380  1.7470 -408.50 
  1667.000 -23.357  1.8680  1.7970 -11.403  1.8680  1.7970 -409.00 
  1667.500 -23.499  1.9260  1.8300 -11.543  1.9260  1.8300 -409.50 
  1668.000 -23.498  1.9630  1.8620 -11.540  1.9630  1.8620 -410.00 
  1668.500 -22.851  1.9640  1.9340 -10.890  1.9640  1.9340 -410.50 
  1669.000 -21.629  1.9800  1.9630 -9.6660  1.9800  1.9630 -411.00 
  1669.500 -21.089  1.9740  2.0060 -9.1237  1.9740  2.0060 -411.50 
  1670.000 -20.837  1.9390  2.0200 -8.8694  1.9390  2.0200 -412.00 
  1670.500 -21.482  1.9120  2.0240 -9.5121  1.9120  2.0240 -412.50 
  1671.000 -24.138  1.8770  2.0270 -12.166  1.8770  2.0270 -413.00 
  1671.500 -25.106  1.8280  2.0200 -13.131  1.8280  2.0200 -413.50 
  1672.000 -24.638  1.7790  1.9920 -12.661  1.7790  1.9920 -414.00 
  1672.500 -23.955  1.7300  1.9770 -11.976  1.7300  1.9770 -414.50 
  1673.000 -23.559  1.6980  1.9560 -11.577  1.6980  1.9560 -415.00 
  1673.500 -23.127  1.6670  1.9340 -11.143  1.6670  1.9340 -415.50 
  1674.000 -22.731  1.6110  1.8630 -10.745  1.6110  1.8630 -416.00 
  1674.500 -23.807  1.5910  1.8310 -11.819  1.5910  1.8310 -416.50 
  1675.000 -25.673  1.5640  1.7980 -13.682  1.5640  1.7980 -417.00 
  1675.500 -26.929  1.5610  1.7050 -14.936  1.5610  1.7050 -417.50 
  1676.000 -27.825  1.5580  1.6690 -15.830  1.5580  1.6690 -418.00 
  1676.500 -27.465  1.6100  1.6480 -15.467  1.6100  1.6480 -418.50 
  1677.000 -26.423  1.6570  1.6260 -14.423  1.6570  1.6260 -419.00 
  1677.500 -25.704  1.7050  1.6260 -13.702  1.7050  1.6260 -419.50 
  1678.000 -25.667  1.7780  1.6770 -13.662  1.7780  1.6770 -420.00 
  1678.500 -25.522  1.8440  1.7270 -13.515  1.8440  1.7270 -420.50 
  1679.000 -25.198  1.8880  1.7840 -13.189  1.8880  1.7840 -421.00 
  1679.500 -24.586  1.9110  1.8350 -12.574  1.9110  1.8350 -421.50 
  1680.000 -22.969  1.9330  1.8850 -10.955  1.9330  1.8850 -422.00 
  1680.500 -21.388  1.9340  1.9350 -9.3718  1.9340  1.9350 -422.50 
  1681.000 -20.885  1.9350  1.9710 -8.8665  1.9350  1.9710 -423.00 
  1681.500 -20.273  1.9360  1.9570 -8.2522  1.9360  1.9570 -423.50 
  1682.000 -20.093  1.8880  1.9210 -8.0699  1.8880  1.9210 -424.00 
  1682.500 -21.671  1.8460  1.8960 -9.6456  1.8460  1.8960 -424.50 
  1683.000 -24.327  1.8110  1.8710 -12.299  1.8110  1.8710 -425.00 
  1683.500 -24.865  1.7910  1.8140 -12.835  1.7910  1.8140 -425.50 
  1684.000 -24.792  1.7560  1.7640 -12.760  1.7560  1.7640 -426.00 
  1684.500 -26.120  1.7220  1.7210 -14.085  1.7220  1.7210 -426.50 
  1685.000 -27.016  1.6800  1.6880 -14.979  1.6800  1.6880 -427.00 
  1685.500 -27.590  1.6700  1.6560 -15.551  1.6700  1.6560 -427.50 
  1686.000 -26.834  1.6600  1.6200 -14.792  1.6600  1.6200 -428.00 
  1686.500 -25.648  1.6550  1.6200 -13.604  1.6550  1.6200 -428.50 
  1687.000 -24.750  1.6550  1.6310 -12.704  1.6550  1.6310 -429.00 
  1687.500 -25.287  1.6640  1.6420 -13.238  1.6640  1.6420 -429.50 
  1688.000 -25.789  1.6860  1.6780 -13.738  1.6860  1.6780 -430.00 
  1688.500 -26.111  1.7230  1.7140 -14.058  1.7230  1.7140 -430.50 
  1689.000 -22.986  1.7530  1.7360 -10.931  1.7530  1.7360 -431.00 
  1689.500 -21.692  1.7980  1.7570 -9.6342  1.7980  1.7570 -431.50 
  1690.000 -21.548  1.8270  1.8150 -9.4879  1.8270  1.8150 -432.00 
  1690.500 -22.265  1.8360  1.8290 -10.203  1.8360  1.8290 -432.50 
  1691.000 -22.659  1.8440  1.8580 -10.594  1.8440  1.8580 -433.00 
  1691.500 -20.790  1.8600  1.8800 -8.7229  1.8600  1.8800 -433.50 
  1692.000 -19.963  1.8600  1.8940 -7.8936  1.8600  1.8940 -434.00 
  1692.500 -19.029  1.8610  1.9080 -6.9573  1.8610  1.9080 -434.50 
  1693.000 -18.058  1.8730  1.9090 -5.9840  1.8730  1.9090 -435.00 
  1693.500 -17.483  1.8850  1.9160 -5.4067  1.8850  1.9160 -435.50 
  1694.000 -17.625  1.8790  1.9160 -5.5464  1.8790  1.9160 -436.00 
  1694.500 -18.270  1.8810  1.9160 -6.1891  1.8810  1.9160 -436.50 
  1695.000 -18.413  1.8680  1.9090 -6.3298  1.8680  1.9090 -437.00 
  1695.500 -18.520  1.8620  1.8950 -6.4345  1.8620  1.8950 -437.50 
  1696.000 -18.913  1.8560  1.8870 -6.8251  1.8560  1.8870 -438.00 
  1696.500 -23.113  1.8280  1.8660 -11.023  1.8280  1.8660 -438.50 
  1697.000 -24.656  1.7790  1.8370 -12.564  1.7790  1.8370 -439.00 
  1697.500 -25.697  1.7730  1.8160 -13.602  1.7730  1.8160 -439.50 
