~Version Information
VERS.                     2.0: CWLS log ASCII Standard Version 2.00
WRAP.                      NO: One line per depth step
~Well Information Block
#MNEM.UNIT                               Data Type  Information
#---------                               ---------  -----------
STRT.FT                                    30.0000:
STOP.FT                                  5850.0000:
STEP.FT                                     0.5000:
NULL.                 -999.25                     :
COMP.                                             :COMPANY            
WELL.     KCL44-43                                :WELL               
FLD .                                             :FIELD              
CTRY.                                             :COUNTRY            
STAT.                                             :STATE              
LOC .                                             :LOCATION           
UWI .                                             :UNIQUE WELL ID     
SRVC.                                             :Service company    
DATE.                                             :LOG DATE           
~Curve Information
#MNEM.UNIT           API CODE  Curve Description
#---------           --------  -----------------
DEPT.FT                      :   1 DEPTH
SP  .MV                      :   2
ILD .OHMM                    :   3
SN  .OHMM                    :   4
GR  .RE/T                    :   5
NEUT.CPS                     :   6
SBL .MV                      :   7
RS  .OHMM                    :   8
RD  .OHMM                    :   9
NEUS.CPS                     :  10
GRS .RE/T                    :  11
~A
# ...
  5424.000 -999.25  5.0020 -999.25  4.9330  278.91 -999.25 -999.25  5.0020  278.91  4.9330 
  5424.500 -999.25  5.0510 -999.25  4.8720  281.08 -999.25 -999.25  5.0510  281.08  4.8720 
  5425.000 -999.25  5.1020 -999.25  4.8280  284.69 -999.25 -999.25  5.1020  284.69  4.8280 
  5425.500 -999.25  4.9470 -999.25  4.7690  287.71 -999.25 -999.25  4.9470  287.71  4.7690 
  5426.000 -999.25  4.6640 -999.25  4.7930  290.36 -999.25 -999.25  4.6640  290.36  4.7930 
  5426.500 -999.25  4.3490 -999.25  4.8740  292.36 -999.25 -999.25  4.3490  292.36  4.8740 
  5427.000 -999.25  4.1730 -999.25  4.9320  293.20 -999.25 -999.25  4.1730  293.20  4.9320 
  5427.500 -999.25  4.1430 -999.25  4.9780  290.51 -999.25 -999.25  4.1430  290.51  4.9780 
  5428.000 -999.25  4.2370 -999.25  5.0050  288.99 -999.25 -999.25  4.2370  288.99  5.0050 
  5428.500 -999.25  4.2960 -999.25  5.0320  288.86 -999.25 -999.25  4.2960  288.86  5.0320 
  5429.000 -999.25  4.3200 -999.25  5.0710  288.74 -999.25 -999.25  4.3200  288.74  5.0710 
  5429.500 -999.25  4.3570 -999.25  5.0830  288.50 -999.25 -999.25  4.3570  288.50  5.0830 
  5430.000 -999.25  4.2950 -999.25  4.9920  287.73 -999.25 -999.25  4.2950  287.73  4.9920 
  5430.500 -999.25  4.3620 -999.25  4.8940  286.82 -999.25 -999.25  4.3620  286.82  4.8940 
  5431.000 -999.25  4.4120 -999.25  4.9590  284.20 -999.25 -999.25  4.4120  284.20  4.9590 
  5431.500 -999.25  4.4610 -999.25  5.0530  281.90 -999.25 -999.25  4.4610  281.90  5.0530 
  5432.000 -999.25  4.4790 -999.25  5.1350  278.01 -999.25 -999.25  4.4790  278.01  5.1350 
  5432.500 -999.25  4.4430 -999.25  5.2060  275.87 -999.25 -999.25  4.4430  275.87  5.2060 
  5433.000 -999.25  4.1070 -999.25  5.2620  275.81 -999.25 -999.25  4.1070  275.81  5.2620 
  5433.500 -999.25  3.9290 -999.25  5.3170  277.41 -999.25 -999.25  3.9290  277.41  5.3170 
  5434.000 -999.25  3.7830 -999.25  5.3380  277.78 -999.25 -999.25  3.7830  277.78  5.3380 
  5434.500 -999.25  3.7070 -999.25  5.3540  275.43 -999.25 -999.25  3.7070  275.43  5.3540 
  5435.000 -999.25  3.7280 -999.25  5.3810  273.88 -999.25 -999.25  3.7280  273.88  5.3810 
  5435.500 -999.25  3.9740 -999.25  5.3860  271.80 -999.25 -999.25  3.9740  271.80  5.3860 
  5436.000 -999.25  4.1160 -999.25  5.3770  266.99 -999.25 -999.25  4.1160  266.99  5.3770 
  5436.500 -999.25  4.2550 -999.25  5.3600  264.53 -999.25 -999.25  4.2550  264.53  5.3600 
  5437.000 -999.25  4.3610 -999.25  5.3430  267.47 -999.25 -999.25  4.3610  267.47  5.3430 
  5437.500 -999.25  4.4680 -999.25  5.3190  269.97 -999.25 -999.25  4.4680  269.97  5.3190 
  5438.000 -999.25  4.5100 -999.25  5.2950  271.52 -999.25 -999.25  4.5100  271.52  5.2950 
  5438.500 -999.25  4.5630 -999.25  5.2610  273.81 -999.25 -999.25  4.5630  273.81  5.2610 
  5439.000 -999.25  4.5990 -999.25  5.2270  274.55 -999.25 -999.25  4.5990  274.55  5.2270 
  5439.500 -999.25  4.6230 -999.25  5.1450  276.31 -999.25 -999.25  4.6230  276.31  5.1450 
  5440.000 -999.25  4.6370 -999.25  5.0800  277.64 -999.25 -999.25  4.6370  277.64  5.0800 
  5440.500 -999.25  4.6400 -999.25  5.0020  276.88 -999.25 -999.25  4.6400  276.88  5.0020 
  5441.000 -999.25  4.6460 -999.25  4.9190  273.99 -999.25 -999.25  4.6460  273.99  4.9190 
  5441.500 -999.25  4.6450 -999.25  4.9400  271.79 -999.25 -999.25  4.6450  271.79  4.9400 
  5442.000 -999.25  4.6470 -999.25  4.9980  274.65 -999.25 -999.25  4.6470  274.65  4.9980 
  5442.500 -999.25  4.6460 -999.25  5.0430  275.66 -999.25 -999.25  4.6460  275.66  5.0430 
  5443.000 -999.25  4.5060 -999.25  5.0800  276.66 -999.25 -999.25  4.5060  276.66  5.0800 
  5443.500 -999.25  4.3520 -999.25  5.1080  278.51 -999.25 -999.25  4.3520  278.51  5.1080 
  5444.000 -999.25  4.2220 -999.25  5.1310  278.92 -999.25 -999.25  4.2220  278.92  5.1310 
  5444.500 -999.25  4.1790 -999.25  5.1540  279.66 -999.25 -999.25  4.1790  279.66  5.1540 
  5445.000 -999.25  4.4770 -999.25  5.1890  279.96 -999.25 -999.25  4.4770  279.96  5.1890 
  5445.500 -999.25  4.6750 -999.25  5.2080  280.96 -999.25 -999.25  4.6750  280.96  5.2080 
  5446.000 -999.25  4.8880 -999.25  5.2210  282.87 -999.25 -999.25  4.8880  282.87  5.2210 
  5446.500 -999.25  5.0220 -999.25  5.2330  284.89 -999.25 -999.25  5.0220  284.89  5.2330 
  5447.000 -999.25  5.1030 -999.25  5.2220  286.53 -999.25 -999.25  5.1030  286.53  5.2220 
  5447.500 -999.25  5.2810 -999.25  5.2000  290.78 -999.25 -999.25  5.2810  290.78  5.2000 
  5448.000 -999.25  5.3870 -999.25  5.1760  292.75 -999.25 -999.25  5.3870  292.75  5.1760 
  5448.500 -999.25  5.4600 -999.25  5.2250  294.60 -999.25 -999.25  5.4600  294.60  5.2250 
  5449.000 -999.25  5.4950 -999.25  5.2790  295.92 -999.25 -999.25  5.4950  295.92  5.2790 
  5449.500 -999.25  5.5150 -999.25  5.3320  296.60 -999.25 -999.25  5.5150  296.60  5.3320 
  5450.000 -999.25  5.5000 -999.25  5.3890  296.96 -999.25 -999.25  5.5000  296.96  5.3890 
  5450.500 -999.25  5.3630 -999.25  5.4230  296.10 -999.25 -999.25  5.3630  296.10  5.4230 
  5451.000 -999.25  5.2190 -999.25  5.4490  295.23 -999.25 -999.25  5.2190  295.23  5.4490 
  5451.500 -999.25  5.0170 -999.25  5.4700  293.40 -999.25 -999.25  5.0170  293.40  5.4700 
  5452.000 -999.25  5.2650 -999.25  5.4730  289.65 -999.25 -999.25  5.2650  289.65  5.4730 
  5452.500 -999.25  5.4780 -999.25  5.4370  290.70 -999.25 -999.25  5.4780  290.70  5.4370 
  5453.000 -999.25  5.6010 -999.25  5.4150  291.97 -999.25 -999.25  5.6010  291.97  5.4150 
  5453.500 -999.25  5.6810 -999.25  5.3900  293.61 -999.25 -999.25  5.6810  293.61  5.3900 
  5454.000 -999.25  5.7580 -999.25  5.3630  295.15 -999.25 -999.25  5.7580  295.15  5.3630 
  5454.500 -999.25  5.8420 -999.25  5.3360  296.42 -999.25 -999.25  5.8420  296.42  5.3360 
  5455.000 -999.25  5.9120 -999.25  5.4970  298.16 -999.25 -999.25  5.9120  298.16  5.4970 
  5455.500 -999.25  5.9850 -999.25  5.5370  297.72 -999.25 -999.25  5.9850  297.72  5.5370 
  5456.000 -999.25  6.0290 -999.25  5.5780  295.95 -999.25 -999.25  6.0290  295.95  5.5780 
  5456.500 -999.25  5.8890 -999.25  5.6000  294.76 -999.25 -999.25  5.8890  294.76  5.6000 
  5457.000 -999.25  5.2100 -999.25  5.5730  292.24 -999.25 -999.25  5.2100  292.24  5.5730 
  5457.500 -999.25  4.9730 -999.25  5.5460  290.20 -999.25 -999.25  4.9730  290.20  5.5460 
  5458.000 -999.25  4.9890 -999.25  5.4640  287.30 -999.25 -999.25  4.9890  287.30  5.4640 
  5458.500 -999.25  4.8590 -999.25  5.4190  281.15 -999.25 -999.25  4.8590  281.15  5.4190 
  5459.000 -999.25  4.7300 -999.25  5.4770  271.96 -999.25 -999.25  4.7300  271.96  5.4770 
  5459.500 -999.25  4.6070 -999.25  5.5200  268.69 -999.25 -999.25  4.6070  268.69  5.5200 
  5460.000 -999.25  4.5200 -999.25  5.5510  267.35 -999.25 -999.25  4.5200  267.35  5.5510 
  5460.500 -999.25  4.4340 -999.25  5.5710  265.41 -999.25 -999.25  4.4340  265.41  5.5710 
  5461.000 -999.25  4.4830 -999.25  5.5870  263.68 -999.25 -999.25  4.4830  263.68  5.5870 
  5461.500 -999.25  4.5220 -999.25  5.5940  264.73 -999.25 -999.25  4.5220  264.73  5.5940 
  5462.000 -999.25  4.5750 -999.25  5.6010  265.89 -999.25 -999.25  4.5750  265.89  5.6010 
  5462.500 -999.25  4.6270 -999.25  5.6150  267.06 -999.25 -999.25  4.6270  267.06  5.6150 
  5463.000 -999.25  4.6520 -999.25  5.6160  268.37 -999.25 -999.25  4.6520  268.37  5.6160 
  5463.500 -999.25  4.6330 -999.25  5.6160  267.71 -999.25 -999.25  4.6330  267.71  5.6160 
  5464.000 -999.25  4.6010 -999.25  5.6160  266.74 -999.25 -999.25  4.6010  266.74  5.6160 
  5464.500 -999.25  4.5610 -999.25  5.6140  265.39 -999.25 -999.25  4.5610  265.39  5.6140 
  5465.000 -999.25  4.6430 -999.25  5.6300  264.25 -999.25 -999.25  4.6430  264.25  5.6300 
  5465.500 -999.25  4.9950 -999.25  5.6670  269.73 -999.25 -999.25  4.9950  269.73  5.6670 
  5466.000 -999.25  5.1080 -999.25  5.7310  273.55 -999.25 -999.25  5.1080  273.55  5.7310 
  5466.500 -999.25  5.1900 -999.25  5.7780  280.00 -999.25 -999.25  5.1900  280.00  5.7780 
  5467.000 -999.25  5.2140 -999.25  5.8330  285.11 -999.25 -999.25  5.2140  285.11  5.8330 
