~Version Information
VERS.                     2.0: CWLS log ASCII Standard Version 2.00
WRAP.                      NO: One line per depth step
~Well Information Block
#MNEM.UNIT                               Data Type  Information
#---------                               ---------  -----------
STRT.FT                                    30.0000:
STOP.FT                                  5850.0000:
STEP.FT                                     0.5000:
NULL.                 -999.25                     :
COMP.                                             :COMPANY            
WELL.     KCL44-43                                :WELL               
FLD .                                             :FIELD              
CTRY.                                             :COUNTRY            
STAT.                                             :STATE              
LOC .                                             :LOCATION           
UWI .                                             :UNIQUE WELL ID     
SRVC.                                             :Service company    
DATE.                                             :LOG DATE           
~Curve Information
#MNEM.UNIT           API CODE  Curve Description
#---------           --------  -----------------
DEPT.FT                      :   1 DEPTH
SP  .MV                      :   2
ILD .OHMM                    :   3
SN  .OHMM                    :   4
GR  .RE/T                    :   5
NEUT.CPS                     :   6
SBL .MV                      :   7
RS  .OHMM                    :   8
RD  .OHMM                    :   9
NEUS.CPS                     :  10
GRS .RE/T                    :  11
~A
# ...
  3118.500 -999.25  2.6990 -999.25  6.7300  207.58 -999.25 -999.25  2.6990  207.94  6.7248 
  3119.000 -999.25  2.7270 -999.25  6.7030  206.45 -999.25 -999.25  2.7270  206.98  6.7157 
  3119.500 -999.25  2.7620 -999.25  6.6770  205.43 -999.25 -999.25  2.7620  205.91  6.6892 
  3120.000 -999.25  2.7800 -999.25  6.5330  203.45 -999.25 -999.25  2.7800  204.37  6.6002 
  3120.500 -999.25  2.8060 -999.25  6.4420  204.38 -999.25 -999.25  2.8060  203.95  6.4842 
  3121.000 -999.25  2.8190 -999.25  6.3790  206.49 -999.25 -999.25  2.8190  205.51  6.4081 
  3121.500 -999.25  2.8410 -999.25  6.3290  209.40 -999.25 -999.25  2.8410  208.06  6.3520 
  3122.000 -999.25  2.8570 -999.25  6.2290  209.80 -999.25 -999.25  2.8570  209.61  6.2747 
  3122.500 -999.25  2.8700 -999.25  6.1660  209.98 -999.25 -999.25  2.8700  209.90  6.1946 
  3123.000 -999.25  2.8210 -999.25  6.1370  210.17 -999.25 -999.25  2.8210  210.08  6.1501 
  3123.500 -999.25  2.7200 -999.25  6.1080  210.78 -999.25 -999.25  2.7200  210.50  6.1210 
  3124.000 -999.25  2.6430 -999.25  6.0900  211.60 -999.25 -999.25  2.6430  211.23  6.0980 
  3124.500 -999.25  2.5130 -999.25  6.1080  212.59 -999.25 -999.25  2.5130  212.15  6.1000 
  3125.000 -999.25  2.4500 -999.25  6.1940  213.15 -999.25 -999.25  2.4500  212.90  6.1560 
  3125.500 -999.25  2.3980 -999.25  6.2850  213.44 -999.25 -999.25  2.3980  213.31  6.2450 
  3126.000 -999.25  2.3710 -999.25  6.3380  213.73 -999.25 -999.25  2.3710  213.60  6.3148 
  3126.500 -999.25  2.3690 -999.25  6.4010  213.70 -999.25 -999.25  2.3690  213.71  6.3736 
  3127.000 -999.25  2.3670 -999.25  6.4510  213.08 -999.25 -999.25  2.3670  213.35  6.4294 
  3127.500 -999.25  2.3580 -999.25  6.5030  212.47 -999.25 -999.25  2.3580  212.73  6.4807 
  3128.000 -999.25  2.3380 -999.25  6.5270  211.69 -999.25 -999.25  2.3380  212.02  6.5167 
  3128.500 -999.25  2.3260 -999.25  6.4960  210.86 -999.25 -999.25  2.3260  211.21  6.5092 
  3129.000 -999.25  2.3130 -999.25  6.5450  210.24 -999.25 -999.25  2.3130  210.50  6.5243 
  3129.500 -999.25  2.4000 -999.25  6.6420  209.94 -999.25 -999.25  2.4000  210.07  6.6013 
  3130.000 -999.25  2.4800 -999.25  6.6690  209.32 -999.25 -999.25  2.4800  209.58  6.6577 
  3130.500 -999.25  2.5360 -999.25  6.6820  208.98 -999.25 -999.25  2.5360  209.12  6.6766 
  3131.000 -999.25  2.5880 -999.25  6.6820  208.69 -999.25 -999.25  2.5880  208.81  6.6820 
  3131.500 -999.25  2.6220 -999.25  6.6730  208.67 -999.25 -999.25  2.6220  208.68  6.6767 
  3132.000 -999.25  2.6630 -999.25  6.6540  208.70 -999.25 -999.25  2.6630  208.68  6.6617 
  3132.500 -999.25  2.7150 -999.25  6.6360  209.90 -999.25 -999.25  2.7150  209.41  6.6433 
  3133.000 -999.25  2.7560 -999.25  6.6020  211.32 -999.25 -999.25  2.7560  210.75  6.6157 
  3133.500 -999.25  2.7930 -999.25  6.5800  212.47 -999.25 -999.25  2.7930  212.01  6.5888 
  3134.000 -999.25  2.8420 -999.25  6.5390  213.14 -999.25 -999.25  2.8420  212.88  6.5553 
  3134.500 -999.25  2.8720 -999.25  6.4900  213.81 -999.25 -999.25  2.8720  213.55  6.5094 
  3135.000 -999.25  2.8670 -999.25  6.4830  214.22 -999.25 -999.25  2.8670  214.06  6.4858 
  3135.500 -999.25  2.7980 -999.25  6.5120  214.30 -999.25 -999.25  2.7980  214.27  6.5007 
  3136.000 -999.25  2.7210 -999.25  6.5410  213.69 -999.25 -999.25  2.7210  213.93  6.5297 
  3136.500 -999.25  2.5880 -999.25  6.5870  213.13 -999.25 -999.25  2.5880  213.34  6.5693 
  3137.000 -999.25  2.5360 -999.25  6.5630  212.73 -999.25 -999.25  2.5360  212.88  6.5722 
  3137.500 -999.25  2.4600 -999.25  6.5030  212.34 -999.25 -999.25  2.4600  212.49  6.5258 
  3138.000 -999.25  2.4260 -999.25  6.4210  211.72 -999.25 -999.25  2.4260  211.95  6.4520 
  3138.500 -999.25  2.3930 -999.25  6.2710  211.48 -999.25 -999.25  2.3930  211.57  6.3274 
  3139.000 -999.25  2.3660 -999.25  6.1990  210.98 -999.25 -999.25  2.3660  211.17  6.2259 
  3139.500 -999.25  2.5750 -999.25  6.1510  210.42 -999.25 -999.25  2.5750  210.63  6.1688 
  3140.000 -999.25  2.6230 -999.25  6.1760  209.80 -999.25 -999.25  2.6230  210.03  6.1668 
  3140.500 -999.25  2.6190 -999.25  6.2110  209.59 -999.25 -999.25  2.6190  209.67  6.1982 
  3141.000 -999.25  2.6230 -999.25  6.2500  209.32 -999.25 -999.25  2.6230  209.42  6.2358 
  3141.500 -999.25  2.6330 -999.25  6.2830  209.37 -999.25 -999.25  2.6330  209.35  6.2711 
  3142.000 -999.25  2.6510 -999.25  6.3300  209.63 -999.25 -999.25  2.6510  209.54  6.3131 
  3142.500 -999.25  2.6680 -999.25  6.5000  209.79 -999.25 -999.25  2.6680  209.74  6.4394 
  3143.000 -999.25  2.6970 -999.25  6.6640  209.84 -999.25 -999.25  2.6970  209.83  6.6060 
  3143.500 -999.25  2.7140 -999.25  6.7400  209.90 -999.25 -999.25  2.7140  209.88  6.7133 
  3144.000 -999.25  2.7210 -999.25  6.7890  208.71 -999.25 -999.25  2.7210  209.13  6.7719 
  3144.500 -999.25  2.7100 -999.25  6.8120  207.70 -999.25 -999.25  2.7100  208.05  6.8040 
  3145.000 -999.25  2.6460 -999.25  6.8240  206.52 -999.25 -999.25  2.6460  206.92  6.8199 
  3145.500 -999.25  2.5820 -999.25  6.8290  205.18 -999.25 -999.25  2.5820  205.64  6.8273 
  3146.000 -999.25  2.5420 -999.25  6.8380  203.90 -999.25 -999.25  2.5420  204.33  6.8349 
  3146.500 -999.25  2.5740 -999.25  6.8500  203.20 -999.25 -999.25  2.5740  203.43  6.8460 
  3147.000 -999.25  2.5920 -999.25  6.8720  202.93 -999.25 -999.25  2.5920  203.02  6.8646 
  3147.500 -999.25  2.6060 -999.25  6.9060  203.09 -999.25 -999.25  2.6060  203.03  6.8947 
  3148.000 -999.25  2.5990 -999.25  6.9670  203.08 -999.25 -999.25  2.5990  203.08  6.9469 
  3148.500 -999.25  2.5810 -999.25  7.0800  202.38 -999.25 -999.25  2.5810  202.61  7.0431 
  3149.000 -999.25  2.5380 -999.25  7.1280  201.31 -999.25 -999.25  2.5380  201.66  7.1124 
  3149.500 -999.25  2.4980 -999.25  7.1450  200.46 -999.25 -999.25  2.4980  200.73  7.1395 
  3150.000 -999.25  2.4450 -999.25  7.1660  199.27 -999.25 -999.25  2.4450  199.65  7.1593 
  3150.500 -999.25  2.4440 -999.25  7.1750  198.63 -999.25 -999.25  2.4440  198.83  7.1721 
  3151.000 -999.25  2.5010 -999.25  7.1890  197.77 -999.25 -999.25  2.5010  198.04  7.1846 
  3151.500 -999.25  2.5510 -999.25  7.1960  197.66 -999.25 -999.25  2.5510  197.69  7.1938 
  3152.000 -999.25  2.5750 -999.25  7.2020  197.65 -999.25 -999.25  2.5750  197.65  7.2001 
  3152.500 -999.25  2.5960 -999.25  7.2150  197.59 -999.25 -999.25  2.5960  197.61  7.2110 
  3153.000 -999.25  2.5850 -999.25  7.2160  197.21 -999.25 -999.25  2.5850  197.33  7.2157 
  3153.500 -999.25  2.5710 -999.25  7.2170  196.51 -999.25 -999.25  2.5710  196.72  7.2167 
  3154.000 -999.25  2.5420 -999.25  7.1920  195.38 -999.25 -999.25  2.5420  195.72  7.1995 
  3154.500 -999.25  2.5270 -999.25  7.1430  196.55 -999.25 -999.25  2.5270  196.21  7.1576 
  3155.000 -999.25  2.5200 -999.25  7.1250  197.94 -999.25 -999.25  2.5200  197.53  7.1303 
  3155.500 -999.25  2.5010 -999.25  7.1040  199.16 -999.25 -999.25  2.5010  198.80  7.1101 
  3156.000 -999.25  2.4900 -999.25  7.2460  200.17 -999.25 -999.25  2.4900  199.88  7.2048 
  3156.500 -999.25  2.4790 -999.25  7.3510  201.02 -999.25 -999.25  2.4790  200.78  7.3208 
  3157.000 -999.25  2.4700 -999.25  7.3990  201.61 -999.25 -999.25  2.4700  201.44  7.3853 
  3157.500 -999.25  2.4610 -999.25  7.4360  201.87 -999.25 -999.25  2.4610  201.79  7.4255 
  3158.000 -999.25  2.4430 -999.25  7.4660  201.94 -999.25 -999.25  2.4430  201.92  7.4576 
  3158.500 -999.25  2.4280 -999.25  7.4310  202.02 -999.25 -999.25  2.4280  202.00  7.4407 
  3159.000 -999.25  2.4100 -999.25  7.4130  202.12 -999.25 -999.25  2.4100  202.09  7.4180 
  3159.500 -999.25  2.4630 -999.25  7.3990  201.85 -999.25 -999.25  2.4630  201.92  7.4028 
  3160.000 -999.25  2.5690 -999.25  7.3640  201.52 -999.25 -999.25  2.5690  201.61  7.3735 
  3160.500 -999.25  2.6330 -999.25  7.2840  201.19 -999.25 -999.25  2.6330  201.28  7.3055 
  3161.000 -999.25  2.6820 -999.25  7.1340  201.61 -999.25 -999.25  2.6820  201.50  7.1739 
  3161.500 -999.25  2.7210 -999.25  6.7740  202.03 -999.25 -999.25  2.7210  201.92  6.8688 
