~Version Information
VERS.                     2.0: CWLS log ASCII Standard Version 2.00
WRAP.                      NO: One line per depth step
~Well Information Block
#MNEM.UNIT                               Data Type  Information
#---------                               ---------  -----------
STRT.FT                                    30.0000:
STOP.FT                                  5850.0000:
STEP.FT                                     0.5000:
NULL.                 -999.25                     :
COMP.                                             :COMPANY            
WELL.     KCL44-43                                :WELL               
FLD .                                             :FIELD              
CTRY.                                             :COUNTRY            
STAT.                                             :STATE              
LOC .                                             :LOCATION           
UWI .                                             :UNIQUE WELL ID     
SRVC.                                             :Service company    
DATE.                                             :LOG DATE           
~Curve Information
#MNEM.UNIT           API CODE  Curve Description
#---------           --------  -----------------
DEPT.FT                      :   1 DEPTH
SP  .MV                      :   2
ILD .OHMM                    :   3
SN  .OHMM                    :   4
GR  .RE/T                    :   5
NEUT.CPS                     :   6
SBL .MV                      :   7
RS  .OHMM                    :   8
RD  .OHMM                    :   9
NEUS.CPS                     :  10
GRS .RE/T                    :  11
~A
# ...
  1552.500 -48.030  1.6260  1.4410 -999.25 -999.25 -22.957  1.4410  1.6260 -999.25 -999.25 
  1553.000 -47.431  1.6150  1.4240 -999.25 -999.25 -22.362  1.4240  1.6150 -999.25 -999.25 
  1553.500 -47.152  1.6040  1.4080 -999.25 -999.25 -22.087  1.4080  1.6040 -999.25 -999.25 
  1554.000 -47.334  1.6040  1.3830 -999.25 -999.25 -22.273  1.3830  1.6040 -999.25 -999.25 
  1554.500 -47.942  1.6010  1.3720 -999.25 -999.25 -22.885  1.3720  1.6010 -999.25 -999.25 
  1555.000 -48.621  1.5990  1.3500 -999.25 -999.25 -23.569  1.3500  1.5990 -999.25 -999.25 
  1555.500 -48.093  1.5700  1.3460 -999.25 -999.25 -23.045  1.3460  1.5700 -999.25 -999.25 
  1556.000 -46.819  1.5490  1.3490 -999.25 -999.25 -21.775  1.3490  1.5490 -999.25 -999.25 
  1556.500 -45.439  1.5230  1.3670 -999.25 -999.25 -20.399  1.3670  1.5230 -999.25 -999.25 
  1557.000 -45.124  1.4980  1.3770 -999.25 -999.25 -20.088  1.3770  1.4980 -999.25 -999.25 
  1557.500 -44.880  1.5830  1.3870 -999.25 -999.25 -19.849  1.3870  1.5830 -999.25 -999.25 
  1558.000 -45.914  1.6080  1.4050 -999.25 -999.25 -20.887  1.4050  1.6080 -999.25 -999.25 
  1558.500 -48.332  1.6250  1.4190 -999.25 -999.25 -23.309  1.4190  1.6250 -999.25 -999.25 
  1559.000 -48.976  1.6250  1.4270 -999.25 -999.25 -23.957  1.4270  1.6250 -999.25 -999.25 
  1559.500 -49.299  1.6070  1.4360 -999.25 -999.25 -24.285  1.4360  1.6070 -999.25 -999.25 
  1560.000 -50.298  1.5960  1.4460 -999.25 -999.25 -25.288  1.4460  1.5960 -999.25 -999.25 
  1560.500 -50.835  1.5830  1.4320 -999.25 -999.25 -25.829  1.4320  1.5830 -999.25 -999.25 
  1561.000 -49.632  1.5700  1.4100 -999.25 -999.25 -24.630  1.4100  1.5700 -999.25 -999.25 
  1561.500 -48.962  1.5380  1.3850 -999.25 -999.25 -23.964  1.3850  1.5380 -999.25 -999.25 
  1562.000 -48.825  1.5190  1.3560 -999.25 -999.25 -23.832  1.3560  1.5190 -999.25 -999.25 
  1562.500 -48.723  1.5050  1.3270 -999.25 -999.25 -23.734  1.3270  1.5050 -999.25 -999.25 
  1563.000 -48.656  1.4800  1.3020 -999.25 -999.25 -23.671  1.3020  1.4800 -999.25 -999.25 
  1563.500 -48.625  1.4650  1.2730 -999.25 -999.25 -23.644  1.2730  1.4650 -999.25 -999.25 
  1564.000 -48.630  1.4540  1.2540 -999.25 -999.25 -23.653  1.2540  1.4540 -999.25 -999.25 
  1564.500 -49.486  1.4680  1.2510 -999.25 -999.25 -24.514  1.2510  1.4680 -999.25 -999.25 
  1565.000 -51.301  1.5570  1.2970 -999.25 -999.25 -26.333  1.2970  1.5570 -999.25 -999.25 
  1565.500 -52.228  1.6310  1.3500 -999.25 -999.25 -27.264  1.3500  1.6310 -999.25 -999.25 
  1566.000 -52.019  1.8550  1.4490 -999.25 -999.25 -27.059  1.4490  1.8550 -999.25 -999.25 
  1566.500 -48.865  2.0900  1.6690 -999.25 -999.25 -23.910  1.6690  2.0900 -999.25 -999.25 
  1567.000 -48.017  3.0970  1.8900 -999.25 -999.25 -23.066  1.8900  3.0970 -999.25 -999.25 
  1567.500 -47.667  3.4960  2.1960 -999.25 -999.25 -22.720  2.1960  3.4960 -999.25 -999.25 
  1568.000 -47.849  3.7410  3.3280 -999.25 -999.25 -22.906  3.3280  3.7410 -999.25 -999.25 
  1568.500 -49.628  4.4500  3.8800 -999.25 -999.25 -24.689  3.8800  4.4500 -999.25 -999.25 
  1569.000 -50.804  5.1260  4.3600 -999.25 -999.25 -25.870  4.3600  5.1260 -999.25 -999.25 
  1569.500 -51.873  5.2330  4.5310 -999.25 -999.25 -26.943  4.5310  5.2330 -999.25 -999.25 
  1570.000 -52.339  5.2720  4.5810 -999.25 -999.25 -27.413  4.5810  5.2720 -999.25 -999.25 
  1570.500 -51.849  5.2250  4.5660 -999.25 -999.25 -26.927  4.5660  5.2250 -999.25 -999.25 
  1571.000 -51.111  5.1250  4.3840 -999.25 -999.25 -26.194  4.3840  5.1250 -999.25 -999.25 
  1571.500 -48.846  4.2050  2.1820 -999.25 -999.25 -23.933  2.1820  4.2050 -999.25 -999.25 
  1572.000 -47.717  2.0850  2.0250 -999.25 -999.25 -22.808  2.0250  2.0850 -999.25 -999.25 
  1572.500 -47.334  1.8890  1.8250 -999.25 -999.25 -22.429  1.8250  1.8890 -999.25 -999.25 
  1573.000 -46.951  1.8210  1.6680 -999.25 -999.25 -22.050  1.6680  1.8210 -999.25 -999.25 
  1573.500 -46.709  1.7350  1.5500 -999.25 -999.25 -21.813  1.5500  1.7350 -999.25 -999.25 
  1574.000 -46.148  1.6670  1.5140 -999.25 -999.25 -21.256  1.5140  1.6670 -999.25 -999.25 
  1574.500 -45.268  1.6520  1.4960 -999.25 -999.25 -20.380  1.4960  1.6520 -999.25 -999.25 
  1575.000 -44.920  1.6450  1.4950 -999.25 -999.25 -20.036  1.4950  1.6450 -999.25 -999.25 
  1575.500 -44.785  1.6440  1.4950 -999.25 -999.25 -19.905  1.4950  1.6440 -999.25 -999.25 
  1576.000 -45.502  1.6540  1.4760 -999.25 -999.25 -20.627  1.4760  1.6540 -999.25 -999.25 
  1576.500 -47.959  1.6650  1.4690 -999.25 -999.25 -23.088  1.4690  1.6650 -999.25 -999.25 
  1577.000 -49.315  1.6750  1.4590 -999.25 -999.25 -24.448  1.4590  1.6750 -999.25 -999.25 
  1577.500 -49.038  1.6600  1.4500 -999.25 -999.25 -24.175  1.4500  1.6600 -999.25 -999.25 
  1578.000 -48.193  1.6380  1.4480 -999.25 -999.25 -23.335  1.4480  1.6380 -999.25 -999.25 
  1578.500 -47.348  1.6060  1.4460 -999.25 -999.25 -22.494  1.4460  1.6060 -999.25 -999.25 
  1579.000 -47.000  1.5880  1.4420 -999.25 -999.25 -22.150  1.4420  1.5880 -999.25 -999.25 
  1579.500 -46.510  1.5800  1.4410 -999.25 -999.25 -21.664  1.4410  1.5800 -999.25 -999.25 
  1580.000 -46.092  1.5760  1.4340 -999.25 -999.25 -21.250  1.4340  1.5760 -999.25 -999.25 
  1580.500 -45.850  1.5900  1.4330 -999.25 -999.25 -21.013  1.4330  1.5900 -999.25 -999.25 
  1581.000 -46.532  1.6040  1.4330 -999.25 -999.25 -21.699  1.4330  1.6040 -999.25 -999.25 
  1581.500 -47.178  1.6250  1.4320 -999.25 -999.25 -22.349  1.4320  1.6250 -999.25 -999.25 
  1582.000 -49.740  1.6460  1.4250 -999.25 -999.25 -24.915  1.4250  1.6460 -999.25 -999.25 
  1582.500 -50.528  1.6490  1.4170 -999.25 -999.25 -25.708  1.4170  1.6490 -999.25 -999.25 
  1583.000 -50.536  1.6200  1.4130 -999.25 -999.25 -25.720  1.4130  1.6200 -999.25 -999.25 
  1583.500 -48.555  1.6050  1.4090 -999.25 -999.25 -23.743  1.4090  1.6050 -999.25 -999.25 
  1584.000 -46.894  1.5760  1.4050 -999.25 -999.25 -22.086  1.4050  1.5760 -999.25 -999.25 
  1584.500 -46.297  1.5650  1.3830 -999.25 -999.25 -21.493  1.3830  1.5650 -999.25 -999.25 
  1585.000 -45.666  1.5880  1.3720 -999.25 -999.25 -20.867  1.3720  1.5880 -999.25 -999.25 
  1585.500 -45.247  1.6100  1.3610 -999.25 -999.25 -20.452  1.3610  1.6100 -999.25 -999.25 
  1586.000 -45.005  1.6460  1.3820 -999.25 -999.25 -20.214  1.3820  1.6460 -999.25 -999.25 
  1586.500 -44.657  1.6560  1.4280 -999.25 -999.25 -19.870  1.4280  1.6560 -999.25 -999.25 
  1587.000 -44.203  1.6730  1.4810 -999.25 -999.25 -19.420  1.4810  1.6730 -999.25 -999.25 
  1587.500 -43.997  1.6800  1.5160 -999.25 -999.25 -19.219  1.5160  1.6800 -999.25 -999.25 
  1588.000 -43.578  1.6920  1.5410 -999.25 -999.25 -18.804  1.5410  1.6920 -999.25 -999.25 
  1588.500 -43.373  1.7040  1.5510 -999.25 -999.25 -18.603  1.5510  1.7040 -999.25 -999.25 
  1589.000 -42.989  1.7140  1.5570 -999.25 -999.25 -18.223  1.5570  1.7140 -999.25 -999.25 
  1589.500 -42.606  1.7320  1.5460 -999.25 -999.25 -17.845  1.5460  1.7320 -999.25 -999.25 
  1590.000 -42.222  1.7310  1.5320 -999.25 -999.25 -17.465  1.5320  1.7310 -999.25 -999.25 
  1590.500 -45.952  1.6880  1.5030 -999.25 -999.25 -21.199  1.5030  1.6880 -999.25 -999.25 
  1591.000 -45.493  1.6630  1.4640 -999.25 -999.25 -20.744  1.4640  1.6630 -999.25 -999.25 
  1591.500 -45.070  1.6210  1.4350 -999.25 -999.25 -20.325  1.4350  1.6210 -999.25 -999.25 
  1592.000 -44.682  1.5850  1.4110 -999.25 -999.25 -19.942  1.4110  1.5850 -999.25 -999.25 
  1592.500 -46.105  1.5850  1.3710 -999.25 -999.25 -21.369  1.3710  1.5850 -999.25 -999.25 
  1593.000 -47.030  1.5810  1.3500 -999.25 -999.25 -22.298  1.3500  1.5810 -999.25 -999.25 
  1593.500 -45.862  1.5640  1.3290 -999.25 -999.25 -21.134  1.3290  1.5640 -999.25 -999.25 
  1594.000 -44.870  1.5420  1.3000 -999.25 -999.25 -20.147  1.3000  1.5420 -999.25 -999.25 
  1594.500 -44.483  1.5210  1.2860 -999.25 -999.25 -19.764  1.2860  1.5210 -999.25 -999.25 
  1595.000 -45.124  1.5070  1.2790 -999.25 -999.25 -20.409  1.2790  1.5070 -999.25 -999.25 
  1595.500 -48.144  1.5140  1.2680 -999.25 -999.25 -23.433  1.2680  1.5140 -999.25 -999.25 
