~Version Information
VERS.                     2.0: CWLS log ASCII Standard Version 2.00
WRAP.                      NO: One line per depth step
~Well Information Block
#MNEM.UNIT                               Data Type  Information
#---------                               ---------  -----------
STRT.FT                                   400.0000:
STOP.FT                                  3500.0000:
STEP.FT                                     0.5000:
NULL.                 -999.25                     :
COMP.                                             :COMPANY            
WELL.     KCL44-34                                :WELL               
FLD .                                             :FIELD              
CTRY.                                             :COUNTRY            
STAT.                                             :STATE              
LOC .                                             :LOCATION           
UWI .                                             :UNIQUE WELL ID     
SRVC.                                             :Service company    
DATE.                                             :LOG DATE           
~Curve Information
#MNEM.UNIT           API CODE  Curve Description
#---------           --------  -----------------
DEPT.FT                      :   1 DEPTH
SP  .MV                      :   2
SN  .OHMM                    :   3
ILD .OHMM                    :   4
SBL .MV                      :   5
RS  .OHMM                    :   6
RD  .OHMM                    :   7
DEPS.FT                      :   8
~A
# ...
  1403.000 -24.513  1.8550  1.8240 -13.780  1.8550  1.8240 -145.00 
  1403.500 -23.939  1.7780  1.7960 -13.204  1.7780  1.7960 -145.50 
  1404.000 -23.797  1.7210  1.7460 -13.059  1.7210  1.7460 -146.00 
  1404.500 -24.157  1.6720  1.7030 -13.417  1.6720  1.7030 -146.50 
  1405.000 -23.619  1.6300  1.6740 -12.877  1.6300  1.6740 -147.00 
  1405.500 -21.861  1.6170  1.6670 -11.116  1.6170  1.6670 -147.50 
  1406.000 -21.036  1.6030  1.6820 -10.289  1.6030  1.6820 -148.00 
  1406.500 -21.001  1.6400  1.6890 -10.252  1.6400  1.6890 -148.50 
  1407.000 -24.270  1.6550  1.6960 -13.519  1.6550  1.6960 -149.00 
  1407.500 -25.241  1.6700  1.6960 -14.487  1.6700  1.6960 -149.50 
  1408.000 -26.678  1.6570  1.6750 -15.922  1.6570  1.6750 -150.00 
  1408.500 -27.074  1.6330  1.7040 -16.316  1.6330  1.7040 -150.50 
  1409.000 -25.746  1.6080  1.7110 -14.985  1.6080  1.7110 -151.00 
  1409.500 -24.850  1.6310  1.7330 -14.087  1.6310  1.7330 -151.50 
  1410.000 -24.492  1.6530  1.7400 -13.727  1.6530  1.7400 -152.00 
  1410.500 -24.349  1.6760  1.7400 -13.581  1.6760  1.7400 -152.50 
  1411.000 -24.279  1.6840  1.7400 -13.509  1.6840  1.7400 -153.00 
  1411.500 -24.316  1.6920  1.7410 -13.544  1.6920  1.7410 -153.50 
  1412.000 -25.861  1.6500  1.7050 -15.086  1.6500  1.7050 -154.00 
  1412.500 -27.370  1.6300  1.6760 -16.593  1.6300  1.6760 -154.50 
  1413.000 -28.664  1.5810  1.6620 -17.885  1.5810  1.6620 -155.00 
  1413.500 -29.347  1.5600  1.6330 -18.565  1.5600  1.6330 -155.50 
  1414.000 -29.671  1.5030  1.5980 -18.887  1.5030  1.5980 -156.00 
  1414.500 -28.164  1.4690  1.5760 -17.378  1.4690  1.5760 -156.50 
  1415.000 -26.980  1.4690  1.5480 -16.192  1.4690  1.5480 -157.00 
  1415.500 -26.191  1.4990  1.5410 -15.400  1.4990  1.5410 -157.50 
  1416.000 -25.403  1.5290  1.5480 -14.610  1.5290  1.5480 -158.00 
  1416.500 -24.506  1.5580  1.5770 -13.711  1.5580  1.5770 -158.50 
  1417.000 -23.897  1.6100  1.5990 -13.099  1.6100  1.5990 -159.00 
  1417.500 -23.287  1.6250  1.6240 -12.487  1.6250  1.6240 -159.50 
  1418.000 -22.750  1.6620  1.6490 -11.948  1.6620  1.6490 -160.00 
  1418.500 -22.320  1.6770  1.6850 -11.515  1.6770  1.6850 -160.50 
  1419.000 -21.962  1.7060  1.7070 -11.155  1.7060  1.7070 -161.00 
  1419.500 -21.676  1.7250  1.7250 -10.867  1.7250  1.7250 -161.50 
  1420.000 -21.533  1.7440  1.7430 -10.721  1.7440  1.7430 -162.00 
  1420.500 -23.114  1.7670  1.7500 -12.300  1.7670  1.7500 -162.50 
  1421.000 -23.869  1.7670  1.7430 -13.053  1.7670  1.7430 -163.00 
  1421.500 -23.080  1.7400  1.7290 -12.262  1.7400  1.7290 -163.50 
  1422.000 -23.189  1.7260  1.7080 -12.368  1.7260  1.7080 -164.00 
  1422.500 -22.903  1.7050  1.6900 -12.080  1.7050  1.6900 -164.50 
  1423.000 -22.581  1.6850  1.6720 -11.756  1.6850  1.6720 -165.00 
  1423.500 -22.259  1.6570  1.6290 -11.431  1.6570  1.6290 -165.50 
  1424.000 -22.188  1.6290  1.6010 -11.358  1.6290  1.6010 -166.00 
  1424.500 -22.261  1.6020  1.5790 -11.429  1.6020  1.5790 -166.50 
  1425.000 -25.278  1.5740  1.5290 -14.443  1.5740  1.5290 -167.00 
  1425.500 -25.782  1.5460  1.4930 -14.945  1.5460  1.4930 -167.50 
  1426.000 -24.490  1.5250  1.4500 -13.651  1.5250  1.4500 -168.00 
  1426.500 -22.481  1.5050  1.4360 -11.639  1.5050  1.4360 -168.50 
  1427.000 -23.128  1.4630  1.4080 -12.284  1.4630  1.4080 -169.00 
  1427.500 -25.068  1.4430  1.3720 -14.222  1.4430  1.3720 -169.50 
  1428.000 -25.967  1.4080  1.3610 -15.118  1.4080  1.3610 -170.00 
  1428.500 -26.435  1.3940  1.3510 -15.584  1.3940  1.3510 -170.50 
  1429.000 -26.759  1.3660  1.3220 -15.906  1.3660  1.3220 -171.00 
  1429.500 -27.335  1.3460  1.3080 -16.480  1.3460  1.3080 -171.50 
  1430.000 -27.946  1.3470  1.3220 -17.088  1.3470  1.3220 -172.00 
  1430.500 -28.055  1.3480  1.3400 -17.195  1.3480  1.3400 -172.50 
  1431.000 -27.769  1.4060  1.3580 -16.907  1.4060  1.3580 -173.00 
  1431.500 -27.590  1.5070  1.4300 -16.725  1.5070  1.4300 -173.50 
  1432.000 -27.017  1.7740  1.5100 -16.150  1.7740  1.5100 -174.00 
  1432.500 -26.300  1.8610  1.5960 -15.431  1.8610  1.5960 -174.50 
  1433.000 -24.865  2.0120  1.7180 -13.993  2.0120  1.7180 -175.00 
  1433.500 -24.543  2.3070  1.8620 -13.669  2.3070  1.8620 -175.50 
  1434.000 -24.436  2.7100  2.0050 -13.560  2.7100  2.0050 -176.00 
  1434.500 -25.119  3.6860  2.1710 -14.240  3.6860  2.1710 -176.50 
  1435.000 -26.162  4.5330  2.3650 -15.281  4.5330  2.3650 -177.00 
  1435.500 -26.881  6.0970  2.6300 -15.998  6.0970  2.6300 -177.50 
  1436.000 -27.169  6.4210  2.8820 -16.283  6.4210  2.8820 -178.00 
  1436.500 -26.955  6.4930  3.0540 -16.067  6.4930  3.0540 -178.50 
  1437.000 -26.633  6.1860  3.1910 -15.743  6.1860  3.1910 -179.00 
  1437.500 -26.167  5.1970  3.2630 -15.275  5.1970  3.2630 -179.50 
  1438.000 -25.773  2.8530  3.1840 -14.878  2.8530  3.1840 -180.00 
  1438.500 -25.954  2.5600  2.9330 -15.057  2.5600  2.9330 -180.50 
  1439.000 -26.816  2.3320  2.5090 -15.917  2.3320  2.5090 -181.00 
  1439.500 -27.177  2.1390  2.2510 -16.275  2.1390  2.2510 -181.50 
  1440.000 -27.357  2.0180  1.8920 -16.453  2.0180  1.8920 -182.00 
  1440.500 -26.317  1.9330  1.6410 -15.411  1.9330  1.6410 -182.50 
  1441.000 -24.020  1.8980  1.5190 -13.111  1.8980  1.5190 -183.00 
  1441.500 -23.518  1.8770  1.4550 -12.607  1.8770  1.4550 -183.50 
  1442.000 -22.873  1.8600  1.4980 -11.960  1.8600  1.4980 -184.00 
  1442.500 -22.874  1.8430  1.5130 -11.958  1.8430  1.5130 -184.50 
  1443.000 -22.947  1.8220  1.5270 -12.029  1.8220  1.5270 -185.00 
  1443.500 -22.733  1.8020  1.5340 -11.813  1.8020  1.5340 -185.50 
  1444.000 -22.626  1.7820  1.5700 -11.703  1.7820  1.5700 -186.00 
  1444.500 -23.848  1.7540  1.5780 -12.923  1.7540  1.5780 -186.50 
  1445.000 -24.890  1.7270  1.5850 -13.963  1.7270  1.5850 -187.00 
  1445.500 -25.610  1.7200  1.5960 -14.681  1.7200  1.5960 -187.50 
  1446.000 -23.169  1.6990  1.6070 -12.237  1.6990  1.6070 -188.00 
  1446.500 -22.201  1.6790  1.6140 -11.267  1.6790  1.6140 -188.50 
  1447.000 -21.879  1.6650  1.6220 -10.943  1.6650  1.6220 -189.00 
  1447.500 -24.896  1.6510  1.6070 -13.957  1.6510  1.6070 -189.50 
  1448.000 -26.082  1.6170  1.5860 -15.141  1.6170  1.5860 -190.00 
  1448.500 -26.406  1.5890  1.5570 -15.463  1.5890  1.5570 -190.50 
  1449.000 -26.658  1.5690  1.5430 -15.712  1.5690  1.5430 -191.00 
  1449.500 -27.306  1.5620  1.4930 -16.358  1.5620  1.4930 -191.50 
  1450.000 -27.846  1.5640  1.4720 -16.896  1.5640  1.4720 -192.00 
  1450.500 -28.311  1.5650  1.4220 -17.358  1.5650  1.4220 -192.50 
  1451.000 -27.770  1.5670  1.3930 -16.815  1.5670  1.3930 -193.00 
  1451.500 -26.404  1.5900  1.3940 -15.447  1.5900  1.3940 -193.50 
  1452.000 -25.074  1.6200  1.4160 -14.114  1.6200  1.4160 -194.00 
  1452.500 -23.851  1.6360  1.4520 -12.889  1.6360  1.4520 -194.50 
  1453.000 -22.736  1.6660  1.4810 -11.772  1.6660  1.4810 -195.00 
  1453.500 -22.052  1.6970  1.5100 -11.086  1.6970  1.5100 -195.50 
  1454.000 -24.312  1.7340  1.5530 -13.343  1.7340  1.5530 -196.00 
  1454.500 -25.890  1.7580  1.6110 -14.919  1.7580  1.6110 -196.50 
  1455.000 -26.822  1.7810  1.6690 -15.849  1.7810  1.6690 -197.00 
  1455.500 -27.395  1.8030  1.7340 -16.419  1.8030  1.7340 -197.50 
  1456.000 -27.609  1.8410  1.7670 -16.631  1.8410  1.7670 -198.00 
  1456.500 -27.607  1.8790  1.7990 -16.627  1.8790  1.7990 -198.50 
  1457.000 -27.569  1.9240  1.9000 -16.586  1.9240  1.9000 -199.00 
  1457.500 -27.531  1.9430  1.9290 -16.546  1.9430  1.9290 -199.50 
  1458.000 -27.530  1.9620  1.9580 -16.543  1.9620  1.9580 -200.00 
  1458.500 -27.420  1.9790  1.9770 -16.430  1.9790  1.9770 -200.50 
  1459.000 -27.275  1.9870  1.9950 -16.283  1.9870  1.9950 -201.00 
  1459.500 -27.057  1.9750  2.0100 -16.063  1.9750  2.0100 -201.50 
  1460.000 -26.661  1.9260  2.0030 -15.664  1.9260  2.0030 -202.00 
  1460.500 -26.084  1.8780  1.9670 -15.085  1.8780  1.9670 -202.50 
  1461.000 -24.898  1.8650  1.9030 -13.897  1.8650  1.9030 -203.00 
  1461.500 -23.639  1.8240  1.8390 -12.636  1.8240  1.8390 -203.50 
