~Version Information
VERS.                     2.0: CWLS log ASCII Standard Version 2.00
WRAP.                      NO: One line per depth step
~Well Information Block
#MNEM.UNIT                               Data Type  Information
#---------                               ---------  -----------
STRT.FT                                   400.0000:
STOP.FT                                  3500.0000:
STEP.FT                                     0.5000:
NULL.                 -999.25                     :
COMP.                                             :COMPANY            
WELL.     KCL44-34                                :WELL               
FLD .                                             :FIELD              
CTRY.                                             :COUNTRY            
STAT.                                             :STATE              
LOC .                                             :LOCATION           
UWI .                                             :UNIQUE WELL ID     
SRVC.                                             :Service company    
DATE.                                             :LOG DATE           
~Curve Information
#MNEM.UNIT           API CODE  Curve Description
#---------           --------  -----------------
DEPT.FT                      :   1 DEPTH
SP  .MV                      :   2
SN  .OHMM                    :   3
ILD .OHMM                    :   4
SBL .MV                      :   5
RS  .OHMM                    :   6
RD  .OHMM                    :   7
DEPS.FT                      :   8
~A
# ...
  2878.000 -29.665  1.6980  1.3970 -23.309  1.6980  1.3970 -1620.0 
  2878.500 -32.576  1.6480  1.2960 -26.218  1.6480  1.2960 -1620.5 
  2879.000 -34.410  1.6330  1.2380 -28.050  1.6330  1.2380 -1621.0 
  2879.500 -33.010  1.6250  1.2090 -26.648  1.6250  1.2090 -1621.5 
  2880.000 -32.167  1.6250  1.2020 -25.804  1.6250  1.2020 -1622.0 
  2880.500 -31.323  1.6460  1.2010 -24.958  1.6460  1.2010 -1622.5 
  2881.000 -30.606  1.6740  1.2720 -24.239  1.6740  1.2720 -1623.0 
  2881.500 -31.182  1.7030  1.4870 -24.813  1.7030  1.4870 -1623.5 
  2882.000 -30.536  1.7880  1.7170 -24.165  1.7880  1.7170 -1624.0 
  2882.500 -28.058  1.9530  1.8090 -21.685  1.9530  1.8090 -1624.5 
  2883.000 -26.155  2.0890  1.8740 -19.780  2.0890  1.8740 -1625.0 
  2883.500 -24.467  2.2390  1.9380 -18.090  2.2390  1.9380 -1625.5 
  2884.000 -23.534  2.3610  2.0520 -17.155  2.3610  2.0520 -1626.0 
  2884.500 -22.817  2.4680  2.1020 -16.436  2.4680  2.1020 -1626.5 
  2885.000 -22.566  2.4960  2.1300 -16.183  2.4960  2.1300 -1627.0 
  2885.500 -22.711  2.4170  2.1300 -16.326  2.4170  2.1300 -1627.5 
  2886.000 -23.000  2.3090  2.1290 -16.613  2.3090  2.1290 -1628.0 
  2886.500 -23.360  2.1720  2.0500 -16.972  2.1720  2.0500 -1628.5 
  2887.000 -23.792  2.1000  1.9780 -17.402  2.1000  1.9780 -1629.0 
  2887.500 -24.224  2.0490  1.9060 -17.832  2.0490  1.9060 -1629.5 
  2888.000 -24.477  2.0060  1.7260 -18.083  2.0060  1.7260 -1630.0 
  2888.500 -24.262  2.0120  1.6390 -17.866  2.0120  1.6390 -1630.5 
  2889.000 -24.048  2.0410  1.7320 -17.650  2.0410  1.7320 -1631.0 
  2889.500 -24.193  2.1050  1.8030 -17.793  2.1050  1.8030 -1631.5 
  2890.000 -24.374  2.2480  1.9470 -17.972  2.2480  1.9470 -1632.0 
  2890.500 -24.482  2.5420  2.0680 -18.078  2.5420  2.0680 -1632.5 
  2891.000 -26.028  2.7640  2.1830 -19.622  2.7640  2.1830 -1633.0 
  2891.500 -28.940  3.0510  2.3180 -22.532  3.0510  2.3180 -1633.5 
  2892.000 -29.120  3.2730  2.4330 -22.710  3.2730  2.4330 -1634.0 
  2892.500 -29.445  3.3800  2.4900 -23.033  3.3800  2.4900 -1634.5 
  2893.000 -33.542  3.4230  2.5110 -27.129  3.4230  2.5110 -1635.0 
  2893.500 -35.950  3.2210  2.4890 -29.535  3.2210  2.4890 -1635.5 
  2894.000 -36.921  2.9340  2.4240 -30.504  2.9340  2.4240 -1636.0 
  2894.500 -37.246  2.6530  2.3020 -30.827  2.6530  2.3020 -1636.5 
  2895.000 -32.648  2.4730  2.1500 -26.227  2.4730  2.1500 -1637.0 
  2895.500 -31.068  2.2360  2.0140 -24.645  2.2360  2.0140 -1637.5 
  2896.000 -30.027  2.1420  1.8980 -23.602  2.1420  1.8980 -1638.0 
  2896.500 -29.597  2.0920  1.7970 -23.170  2.0920  1.7970 -1638.5 
  2897.000 -29.562  2.0770  1.7040 -23.133  2.0770  1.7040 -1639.0 
  2897.500 -29.204  2.0620  1.6240 -22.773  2.0620  1.6240 -1639.5 
  2898.000 -28.882  2.0620  1.5520 -22.449  2.0620  1.5520 -1640.0 
  2898.500 -29.170  2.0610  1.5300 -22.735  2.0610  1.5300 -1640.5 
  2899.000 -29.315  2.0680  1.5440 -22.878  2.0680  1.5440 -1641.0 
  2899.500 -29.136  2.0680  1.5580 -22.698  2.0680  1.5580 -1641.5 
  2900.000 -29.030  2.0670  1.5720 -22.590  2.0670  1.5720 -1642.0 
  2900.500 -28.995  2.0670  1.6360 -22.553  2.0670  1.6360 -1642.5 
  2901.000 -29.139  2.0600  1.6510 -22.695  2.0600  1.6510 -1643.0 
  2901.500 -30.577  2.0530  1.6870 -24.131  2.0530  1.6870 -1643.5 
  2902.000 -31.368  2.0460  1.7010 -24.920  2.0460  1.7010 -1644.0 
  2902.500 -31.333  2.0380  1.7440 -24.883  2.0380  1.7440 -1644.5 
  2903.000 -31.477  2.0350  1.7660 -25.025  2.0350  1.7660 -1645.0 
  2903.500 -31.622  2.0310  1.7370 -25.168  2.0310  1.7370 -1645.5 
  2904.000 -32.485  2.0240  1.7300 -26.029  2.0240  1.7300 -1646.0 
  2904.500 -33.456  2.0240  1.6800 -26.998  2.0240  1.6800 -1646.5 
  2905.000 -34.282  2.0240  1.6510 -27.822  2.0240  1.6510 -1647.0 
  2905.500 -34.571  2.0460  1.6440 -28.109  2.0460  1.6440 -1647.5 
  2906.000 -30.368  2.0740  1.6800 -23.905  2.0740  1.6800 -1648.0 
  2906.500 -25.914  2.1320  1.8090 -19.449  2.1320  1.8090 -1648.5 
  2907.000 -23.579  2.1960  1.8590 -17.112  2.1960  1.8590 -1649.0 
  2907.500 -22.933  2.2680  1.9090 -16.464  2.2680  1.9090 -1649.5 
  2908.000 -22.287  2.4120  1.9880 -15.816  2.4120  1.9880 -1650.0 
  2908.500 -21.641  2.5410  2.0600 -15.168  2.5410  2.0600 -1650.5 
  2909.000 -20.600  2.6200  2.1030 -14.125  2.6200  2.1030 -1651.0 
  2909.500 -19.451  2.7130  2.1390 -12.974  2.7130  2.1390 -1651.5 
  2910.000 -19.020  2.7200  2.1530 -12.541  2.7200  2.1530 -1652.0 
  2910.500 -20.027  2.6770  2.1530 -13.546  2.6770  2.1530 -1652.5 
  2911.000 -21.860  2.6630  2.1530 -15.377  2.6630  2.1530 -1653.0 
  2911.500 -23.909  2.6130  2.1500 -17.424  2.6130  2.1500 -1653.5 
  2912.000 -24.808  2.5980  2.1460 -18.321  2.5980  2.1460 -1654.0 
  2912.500 -23.299  2.5910  2.1170 -16.811  2.5910  2.1170 -1654.5 
  2913.000 -22.402  2.5840  2.0890 -15.912  2.5840  2.0890 -1655.0 
  2913.500 -22.438  2.5910  2.0740 -15.946  2.5910  2.0740 -1655.5 
  2914.000 -22.439  2.6270  2.0380 -15.945  2.6270  2.0380 -1656.0 
  2914.500 -22.584  2.6050  2.0310 -16.088  2.6050  2.0310 -1656.5 
  2915.000 -22.728  2.5620  2.0170 -16.230  2.5620  2.0170 -1657.0 
  2915.500 -23.016  2.5260  1.9950 -16.516  2.5260  1.9950 -1657.5 
  2916.000 -27.903  2.4760  1.9740 -21.401  2.4760  1.9740 -1658.0 
  2916.500 -30.634  2.4260  1.9450 -24.130  2.4260  1.9450 -1658.5 
  2917.000 -31.497  2.4190  1.9310 -24.991  2.4190  1.9310 -1659.0 
  2917.500 -31.893  2.4690  1.9590 -25.385  2.4690  1.9590 -1659.5 
  2918.000 -24.708  2.4830  1.9880 -18.198  2.4830  1.9880 -1660.0 
  2918.500 -22.050  2.5480  2.0100 -15.538  2.5480  2.0100 -1660.5 
  2919.000 -21.045  2.5700  2.0310 -14.532  2.5700  2.0310 -1661.0 
  2919.500 -19.860  2.6130  2.0530 -13.345  2.6130  2.0530 -1661.5 
  2920.000 -19.610  2.6200  2.0670 -13.093  2.6200  2.0670 -1662.0 
  2920.500 -19.610  2.6490  2.0810 -13.091  2.6490  2.0810 -1662.5 
  2921.000 -19.755  2.6340  2.0960 -13.234  2.6340  2.0960 -1663.0 
  2921.500 -20.043  2.5340  2.0740 -13.520  2.5340  2.0740 -1663.5 
  2922.000 -29.349  2.4730  1.9520 -22.824  2.4730  1.9520 -1664.0 
  2922.500 -35.098  2.4120  1.9450 -28.571  2.4120  1.9450 -1664.5 
  2923.000 -35.889  2.2750  1.8880 -29.360  2.2750  1.8880 -1665.0 
  2923.500 -36.177  2.2540  1.7940 -29.646  2.2540  1.7940 -1665.5 
  2924.000 -28.992  2.2540  1.8020 -22.459  2.2540  1.8020 -1666.0 
  2924.500 -24.538  2.4040  1.8300 -18.003  2.4040  1.8300 -1666.5 
  2925.000 -21.413  2.7490  1.8660 -14.876  2.7490  1.8660 -1667.0 
  2925.500 -19.474  2.9930  2.1960 -12.936  2.9930  2.1960 -1667.5 
  2926.000 -18.361  3.3380  2.6630 -11.821  3.3380  2.6630 -1668.0 
  2926.500 -17.894  3.5670  3.0150 -11.352  3.5670  3.0150 -1668.5 
  2927.000 -17.428  3.8400  3.1870 -10.884  3.8400  3.1870 -1669.0 
  2927.500 -16.926  4.2780  3.2940 -10.380  4.2780  3.2940 -1669.5 
  2928.000 -17.501  4.5360  3.3660 -10.953  4.5360  3.3660 -1670.0 
  2928.500 -18.759  4.7510  3.4090 -12.209  4.7510  3.4090 -1670.5 
  2929.000 -21.060  4.9170  3.2440 -14.508  4.9170  3.2440 -1671.0 
  2929.500 -26.701  5.0530  3.1440 -20.147  5.0530  3.1440 -1671.5 
  2930.000 -27.672  5.1030  3.1370 -21.116  5.1030  3.1370 -1672.0 
  2930.500 -24.331  4.9810  3.1220 -17.773  4.9810  3.1220 -1672.5 
  2931.000 -19.338  3.9690  3.1010 -12.778  3.9690  3.1010 -1673.0 
  2931.500 -18.045  3.7540  3.0790 -11.483  3.7540  3.0790 -1673.5 
  2932.000 -16.896  3.6460  3.0580 -10.333  3.6460  3.0580 -1674.0 
  2932.500 -16.250  3.6030  3.0500 -9.6846  3.6030  3.0500 -1674.5 
  2933.000 -15.964  3.8830  3.0500 -9.3967  3.8830  3.0500 -1675.0 
  2933.500 -18.695  4.1200  3.0580 -12.126  4.1200  3.0580 -1675.5 
  2934.000 -19.845  4.2280  3.0940 -13.274  4.2280  3.0940 -1676.0 
  2934.500 -20.277  4.2350  3.1290 -13.704  4.2350  3.1290 -1676.5 
  2935.000 -17.188  3.8830  3.1720 -10.613  3.8830  3.1720 -1677.0 
  2935.500 -16.398  3.6680  3.1720 -9.8211  3.6680  3.1720 -1677.5 
  2936.000 -16.291  3.4310  3.0720 -9.7122  3.4310  3.0720 -1678.0 
  2936.500 -16.220  3.3230  2.9140 -9.6392  3.3230  2.9140 -1678.5 
