~Version Information
VERS.                     2.0: CWLS log ASCII Standard Version 2.00
WRAP.                      NO: One line per depth step
~Well Information Block
#MNEM.UNIT                               Data Type  Information
#---------                               ---------  -----------
STRT.FT                                   400.0000:
STOP.FT                                  3500.0000:
STEP.FT                                     0.5000:
NULL.                 -999.25                     :
COMP.                                             :COMPANY            
WELL.     KCL44-34                                :WELL               
FLD .                                             :FIELD              
CTRY.                                             :COUNTRY            
STAT.                                             :STATE              
LOC .                                             :LOCATION           
UWI .                                             :UNIQUE WELL ID     
SRVC.                                             :Service company    
DATE.                                             :LOG DATE           
~Curve Information
#MNEM.UNIT           API CODE  Curve Description
#---------           --------  -----------------
DEPT.FT                      :   1 DEPTH
SP  .MV                      :   2
SN  .OHMM                    :   3
ILD .OHMM                    :   4
SBL .MV                      :   5
RS  .OHMM                    :   6
RD  .OHMM                    :   7
DEPS.FT                      :   8
~A
   400.000 -999.25  0.0500  3.8770 -999.25  0.0500  3.8770  858.00 
   400.500 -999.25  0.1730  3.6610 -999.25  0.1730  3.6610  857.50 
   401.000 -999.25  0.7900  3.2590 -999.25  0.7900  3.2590  857.00 
   401.500 -999.25  1.7950  2.2110 -999.25  1.7950  2.2110  856.50 
   402.000 -999.25  5.9480  1.7740 -999.25  5.9480  1.7740  856.00 
   402.500  3.0570  11.234  1.5370  18.057  11.234  1.5370  855.50 
   403.000 -10.159  11.643  2.2980  4.8410  11.643  2.2980  855.00 
   403.500 -17.630  11.981  10.561 -2.6300  11.981  10.561  854.50 
   404.000 -21.043  12.247  13.655 -6.0430  12.247  13.655  854.00 
   404.500 -23.811  12.291  13.727 -8.8110  12.291  13.727  853.50 
   405.000 -26.829  12.284  13.677 -11.829  12.284  13.677  853.00 
   405.500 -28.735  12.306  11.351 -13.735  12.306  11.351  852.50 
   406.000 -31.359  12.371  10.131 -16.359  12.371  10.131  852.00 
   406.500 -35.670  12.480  9.8580 -20.670  12.480  9.8580  851.50 
   407.000 -41.813  12.581  9.9090 -26.813  12.581  9.9090  851.00 
   407.500 -45.765  12.819  10.246 -30.765  12.819  10.246  850.50 
   408.000 -51.261  12.891  10.419 -36.261  12.891  10.419  850.00 
   408.500 -51.856  12.956  10.505 -36.856  12.956  10.505  849.50 
   409.000 -52.451  12.957  10.548 -37.451  12.957  10.548  849.00 
   409.500 -3.5490  12.835  10.448  11.451  12.835  10.448  848.50 
   410.000 -28.829  12.507  9.0910 -13.829  12.507  9.0910  848.00 
   410.500 -29.766  12.256  8.2080 -14.766  12.256  8.2080  847.50 
   411.000 -29.912  11.862  7.2030 -14.912  11.862  7.2030  847.00 
   411.500 -29.699  11.368  6.5930 -14.699  11.368  6.5930  846.50 
   412.000 -28.911  10.408  6.0410 -13.911  10.408  6.0410  846.00 
   412.500 -27.729  9.5630  5.4740 -12.729  9.5630  5.4740  845.50 
   413.000 -26.116  8.6380  4.8570 -11.116  8.6380  4.8570  845.00 
   413.500 -25.651  6.2290  4.2250 -10.651  6.2290  4.2250  844.50 
   414.000 -24.972  5.8220  3.8300 -9.9720  5.8220  3.8300  844.00 
   414.500 -24.723  5.4850  3.6080 -9.7230  5.4850  3.6080  843.50 
   415.000 -24.977  5.2560  3.5510 -9.9770  5.2560  3.5510  843.00 
   415.500 -25.231  5.2500  3.4930 -10.231  5.2500  3.4930  842.50 
   416.000 -25.556  5.5380  3.4790 -10.556  5.5380  3.4790  842.00 
   416.500 -26.097  5.7890  3.5370 -11.097  5.7890  3.5370  841.50 
   417.000 -27.931  6.3490  3.7520 -12.931  6.3490  3.7520  841.00 
   417.500 -29.801  6.6440  4.1330 -14.801  6.6440  4.1330  840.50 
   418.000 -33.609  6.8960  4.5130 -18.609  6.8960  4.5130  840.00 
   418.500 -37.095  7.0690  4.7940 -22.095  7.0690  4.7940  839.50 
   419.000 -38.641  7.1910  5.0810 -23.641  7.1910  5.0810  839.00 
   419.500 -39.506  7.2210  5.1100 -24.506  7.2210  5.1100  838.50 
   420.000 -39.400  6.7120  5.0020 -24.400  6.7120  5.0020  838.00 
   420.500 -37.787  6.0170  4.6000 -22.787  6.0170  4.6000  837.50 
   421.000 -36.389  5.5810  4.1480 -21.389  5.5810  4.1480  837.00 
   421.500 -35.315  5.4160  3.9900 -20.315  5.4160  3.9900  836.50 
   422.000 -34.168  5.2310  3.6750 -19.168  5.2310  3.6750  836.00 
   422.500 -33.237  5.1380  3.4520 -18.237  5.1380  3.4520  835.50 
   423.000 -32.737  5.0890  3.2940 -17.737  5.0890  3.2940  835.00 
   423.500 -32.596  5.2110  3.1870 -17.596  5.2110  3.1870  834.50 
   424.000 -32.706  5.3730  3.4170 -17.706  5.3730  3.4170  834.00 
   424.500 -32.816  5.5350  3.8550 -17.816  5.5350  3.8550  833.50 
   425.000 -32.998  6.0670  4.1710 -17.998  6.0670  4.1710  833.00 
   425.500 -33.252  6.3830  4.4370 -18.252  6.3830  4.4370  832.50 
   426.000 -34.547  6.6560  4.6740 -19.547  6.6560  4.6740  832.00 
   426.500 -36.130  6.9650  4.7890 -21.130  6.9650  4.7890  831.50 
   427.000 -37.317  7.1880  5.0470 -22.317  7.1880  5.0470  831.00 
   427.500 -38.038  7.3680  5.4640 -23.038  7.3680  5.4640  830.50 
   428.000 -38.112  7.5120  5.7870 -23.112  7.5120  5.7870  830.00 
   428.500 -37.648  7.7640  5.9950 -22.648  7.7640  5.9950  829.50 
   429.000 -37.363  7.9870  6.1820 -22.363  7.9870  6.1820  829.00 
   429.500 -37.581  8.2390  6.3260 -22.581  8.2390  6.3260  828.50 
   430.000 -39.630  8.5050  6.6630 -24.630  8.5050  6.6630  828.00 
   430.500 -41.572  8.8000  6.9080 -26.572  8.8000  6.9080  827.50 
   431.000 -43.549  9.0660  7.0660 -28.549  9.0660  7.0660  827.00 
   431.500 -45.024  9.2380  7.3530 -30.024  9.2380  7.3530  826.50 
   432.000 -45.888  9.2680  7.5540 -30.888  9.2680  7.5540  826.00 
   432.500 -42.767  8.7670  7.6690 -27.767  8.7670  7.6690  825.50 
   433.000 -40.866  7.9000  7.7050 -25.866  7.9000  7.7050  825.00 
   433.500 -39.720  7.4490  7.5900 -24.720  7.4490  7.5900  824.50 
   434.000 -39.112  7.2270  7.3390 -24.112  7.2270  7.3390  824.00 
   434.500 -38.971  6.9700  6.0760 -23.971  6.9700  6.0760  823.50 
   435.000 -39.655  6.7480  5.5880 -24.655  6.7480  5.5880  823.00 
   435.500 -39.586  6.3830  5.2720 -24.586  6.3830  5.2720  822.50 
   436.000 -37.865  5.9460  5.1140 -22.865  5.9460  5.1140  822.00 
   436.500 -37.221  5.7100  4.9570 -22.221  5.7100  4.9570  821.50 
   437.000 -36.218  5.5170  4.7920 -21.218  5.5170  4.7920  821.00 
   437.500 -35.467  5.4540  4.7270 -20.467  5.4540  4.7270  820.50 
   438.000 -35.146  5.4330  4.6630 -20.146  5.4330  4.6630  820.00 
   438.500 -35.256  5.7060  4.6130 -20.256  5.7060  4.6130  819.50 
   439.000 -35.833  6.0010  4.5840 -20.833  6.0010  4.5840  819.00 
   439.500 -38.385  6.2020  4.5840 -23.385  6.2020  4.5840  818.50 
   440.000 -39.537  6.4330  4.7640 -24.537  6.4330  4.7640  818.00 
   440.500 -40.437  6.6770  5.3380 -25.437  6.6770  5.3380  817.50 
   441.000 -41.050  6.8640  5.5820 -26.050  6.8640  5.5820  817.00 
   441.500 -41.555  6.9010  5.7910 -26.555  6.9010  5.7910  816.50 
   442.000 -41.665  6.6290  5.8840 -26.665  6.6290  5.8840  816.00 
   442.500 -41.345  6.1850  5.9420 -26.345  6.1850  5.9420  815.50 
   443.000 -41.239  5.6620  5.9710 -26.239  5.6620  5.9710  815.00 
   443.500 -41.098  5.1180  5.9490 -26.098  5.1180  5.9490  814.50 
   444.000 -38.875  4.6820  5.5400 -23.875  4.6820  5.5400  814.00 
   444.500 -37.297  4.5390  4.6290 -22.297  4.5390  4.6290  813.50 
   445.000 -36.869  4.4100  3.8820 -21.869  4.4100  3.8820  813.00 
   445.500 -36.476  4.3390  3.4950 -21.476  4.3390  3.4950  812.50 
   446.000 -36.479  4.2680  3.2870 -21.479  4.2680  3.2870  812.00 
   446.500 -36.841  4.8360  3.1430 -21.841  4.8360  3.1430  811.50 
   447.000 -37.238  5.5600  3.2080 -22.238  5.5600  3.2080  811.00 
   447.500 -39.467  6.9240  3.8900 -24.467  6.9240  3.8900  810.50 
   448.000 -40.798  7.3550  4.0980 -25.798  7.3550  4.0980  810.00 
   448.500 -41.734  7.6140  6.4030 -26.734  7.6140  6.4030  809.50 
   449.000 -42.275  7.7720  6.7330 -27.275  7.7720  6.7330  809.00 
   449.500 -40.159  7.8520  7.0710 -25.159  7.8520  7.0710  808.50 
   450.000 -38.761  7.8670  7.2510 -23.761  7.8670  7.2510  808.00 
   450.500 -38.262  7.6950  7.0700 -23.262  7.6950  7.0700  807.50 
   451.000 -37.726  5.3650  6.3580 -22.726  5.3650  6.3580  807.00 
   451.500 -37.622  4.9140  5.5460 -22.622  4.9140  5.5460  806.50 
   452.000 -37.697  4.6850  5.0280 -22.697  4.6850  5.0280  806.00 
   452.500 -35.797  4.5130  4.4380 -20.797  4.5130  4.4380  805.50 
   453.000 -35.010  4.3910  4.0500 -20.010  4.3910  4.0500  805.00 
   453.500 -34.888  4.5140  3.3310 -19.888  4.5140  3.3310  804.50 
   454.000 -34.766  4.7220  3.0850 -19.766  4.7220  3.0850  804.00 
   454.500 -34.661  5.2750  2.9620 -19.661  5.2750  2.9620  803.50 
   455.000 -35.023  5.6910  2.9180 -20.023  5.6910  2.9180  803.00 
   455.500 -35.601  6.8600  3.0820 -20.601  6.8600  3.0820  802.50 
   456.000 -36.646  8.1160  3.6770 -21.646  8.1160  3.6770  802.00 
   456.500 -37.726  10.045  4.5160 -22.726  10.045  4.5160  801.50 
   457.000 -38.878  10.935  5.3830 -23.878  10.935  5.3830  801.00 
   457.500 -40.031  11.358  6.9690 -25.031  11.358  6.9690  800.50 
   458.000 -41.326  11.710  9.3300 -26.326  11.710  9.3300  800.00 
   458.500 -42.586  12.356  10.104 -27.586  12.356  10.104  799.50 
