~Version Information
VERS.                     2.0: CWLS log ASCII Standard Version 2.00
WRAP.                      NO: One line per depth step
~Well Information Block
#MNEM.UNIT                               Data Type  Information
#---------                               ---------  -----------
STRT.FT                                    30.0000:
STOP.FT                                  5850.0000:
STEP.FT                                     0.5000:
NULL.                 -999.25                     :
COMP.                                             :COMPANY            
WELL.     KCL44-43                                :WELL               
FLD .                                             :FIELD              
CTRY.                                             :COUNTRY            
STAT.                                             :STATE              
LOC .                                             :LOCATION           
UWI .                                             :UNIQUE WELL ID     
SRVC.                                             :Service company    
DATE.                                             :LOG DATE           
~Curve Information
#MNEM.UNIT           API CODE  Curve Description
#---------           --------  -----------------
DEPT.FT                      :   1 DEPTH
SP  .MV                      :   2
ILD .OHMM                    :   3
SN  .OHMM                    :   4
GR  .RE/T                    :   5
NEUT.CPS                     :   6
SBL .MV                      :   7
RS  .OHMM                    :   8
RD  .OHMM                    :   9
NEUS.CPS                     :  10
GRS .RE/T                    :  11
~A
# ...
  1204.500 -34.592  2.4010  2.1270 -999.25 -999.25 -6.6325  2.1270  2.4010 -999.25 -999.25 
  1205.000 -34.085  2.4170  2.1350 -999.25 -999.25 -6.1053  2.1350  2.4170 -999.25 -999.25 
  1205.500 -33.756  2.4320  2.1440 -999.25 -999.25 -5.7560  2.1440  2.4320 -999.25 -999.25 
  1206.000 -33.356  2.4610  2.1440 -999.25 -999.25 -5.3602  2.1440  2.4610 -999.25 -999.25 
  1206.500 -33.133  2.4890  2.1290 -999.25 -999.25 -5.1414  2.1290  2.4890 -999.25 -999.25 
  1207.000 -32.981  2.5240  2.1250 -999.25 -999.25 -4.9936  2.1250  2.5240 -999.25 -999.25 
  1207.500 -32.936  2.5520  2.1250 -999.25 -999.25 -4.9529  2.1250  2.5520 -999.25 -999.25 
  1208.000 -32.891  2.5800  2.1350 -999.25 -999.25 -4.9121  2.1350  2.5800 -999.25 -999.25 
  1208.500 -32.810  2.6580  2.1700 -999.25 -999.25 -4.8353  2.1700  2.6580 -999.25 -999.25 
  1209.000 -32.800  2.7500  2.2230 -999.25 -999.25 -4.8295  2.2230  2.7500 -999.25 -999.25 
  1209.500 -32.790  2.8930  2.3370 -999.25 -999.25 -4.8237  2.3370  2.8930 -999.25 -999.25 
  1210.000 -32.958  3.0810  2.4260 -999.25 -999.25 -4.9960  2.4260  3.0810 -999.25 -999.25 
  1210.500 -33.294  3.2090  2.6140 -999.25 -999.25 -5.3362  2.6140  3.2090 -999.25 -999.25 
  1211.000 -33.737  3.2650  2.7240 -999.25 -999.25 -5.7834  2.7240  3.2650 -999.25 -999.25 
  1211.500 -34.002  3.3330  2.8550 -999.25 -999.25 -6.0526  2.8550  3.3330 -999.25 -999.25 
  1212.000 -34.587  3.3930  2.9760 -999.25 -999.25 -6.6418  2.9760  3.3930 -999.25 -999.25 
  1212.500 -36.521  3.4310  3.0400 -999.25 -999.25 -8.5800  3.0400  3.4310 -999.25 -999.25 
  1213.000 -38.561  3.4130  3.0640 -999.25 -999.25 -10.624  3.0640  3.4130 -999.25 -999.25 
  1213.500 -44.044  3.3450  3.0810 -999.25 -999.25 -16.111  3.0810  3.3450 -999.25 -999.25 
  1214.000 -46.688  3.2240  2.8780 -999.25 -999.25 -18.760  2.8780  3.2240 -999.25 -999.25 
  1214.500 -49.793  2.8460  2.7030 -999.25 -999.25 -21.869  2.7030  2.8460 -999.25 -999.25 
  1215.000 -52.330  2.5960  2.4320 -999.25 -999.25 -24.410  2.4320  2.5960 -999.25 -999.25 
  1215.500 -52.879  2.3320  2.2360 -999.25 -999.25 -24.963  2.2360  2.3320 -999.25 -999.25 
  1216.000 -53.287  2.1820  2.0180 -999.25 -999.25 -25.376  2.0180  2.1820 -999.25 -999.25 
  1216.500 -53.658  2.1280  1.8070 -999.25 -999.25 -25.751  1.8070  2.1280 -999.25 -999.25 
  1217.000 -53.995  2.0700  1.6930 -999.25 -999.25 -26.092  1.6930  2.0700 -999.25 -999.25 
  1217.500 -54.225  2.0340  1.6350 -999.25 -999.25 -26.326  1.6350  2.0340 -999.25 -999.25 
  1218.000 -53.602  2.0270  1.6140 -999.25 -999.25 -25.707  1.6140  2.0270 -999.25 -999.25 
  1218.500 -53.300  2.0260  1.6130 -999.25 -999.25 -25.410  1.6130  2.0260 -999.25 -999.25 
  1219.000 -52.997  2.0470  1.6550 -999.25 -999.25 -25.111  1.6550  2.0470 -999.25 -999.25 
  1219.500 -52.340  2.1710  1.8080 -999.25 -999.25 -24.458  1.8080  2.1710 -999.25 -999.25 
  1220.000 -52.037  2.2390  1.9470 -999.25 -999.25 -24.159  1.9470  2.2390 -999.25 -999.25 
  1220.500 -52.160  2.2770  2.0070 -999.25 -999.25 -24.287  2.0070  2.2770 -999.25 -999.25 
  1221.000 -52.497  2.3020  2.0600 -999.25 -999.25 -24.628  2.0600  2.3020 -999.25 -999.25 
  1221.500 -52.833  2.3160  2.1160 -999.25 -999.25 -24.968  2.1160  2.3160 -999.25 -999.25 
  1222.000 -52.992  2.3440  2.1370 -999.25 -999.25 -25.131  2.1370  2.3440 -999.25 -999.25 
  1222.500 -52.672  2.3580  2.1440 -999.25 -999.25 -24.815  2.1440  2.3580 -999.25 -999.25 
  1223.000 -52.351  2.3210  2.1430 -999.25 -999.25 -24.499  2.1430  2.3210 -999.25 -999.25 
  1223.500 -51.729  2.2070  2.0150 -999.25 -999.25 -23.881  2.0150  2.2070 -999.25 -999.25 
  1224.000 -51.001  2.1350  1.9110 -999.25 -999.25 -23.157  1.9110  2.1350 -999.25 -999.25 
  1224.500 -50.734  2.0890  1.8570 -999.25 -999.25 -22.894  1.8570  2.0890 -999.25 -999.25 
  1225.000 -51.460  2.0670  1.7930 -999.25 -999.25 -23.624  1.7930  2.0670 -999.25 -999.25 
  1225.500 -52.187  2.0490  1.7350 -999.25 -999.25 -24.356  1.7350  2.0490 -999.25 -999.25 
  1226.000 -52.772  2.0270  1.6740 -999.25 -999.25 -24.945  1.6740  2.0270 -999.25 -999.25 
  1226.500 -53.321  2.0190  1.6450 -999.25 -999.25 -25.498  1.6450  2.0190 -999.25 -999.25 
  1227.000 -53.870  2.0080  1.6380 -999.25 -999.25 -26.051  1.6380  2.0080 -999.25 -999.25 
  1227.500 -54.278  2.0080  1.6340 -999.25 -999.25 -26.464  1.6340  2.0080 -999.25 -999.25 
  1228.000 -54.508  2.0040  1.6330 -999.25 -999.25 -26.698  1.6330  2.0040 -999.25 -999.25 
  1228.500 -54.560  2.0030  1.6330 -999.25 -999.25 -26.754  1.6330  2.0030 -999.25 -999.25 
  1229.000 -54.417  2.0170  1.6390 -999.25 -999.25 -26.615  1.6390  2.0170 -999.25 -999.25 
  1229.500 -54.274  2.0310  1.6670 -999.25 -999.25 -26.476  1.6670  2.0310 -999.25 -999.25 
  1230.000 -53.120  2.1120  1.7740 -999.25 -999.25 -25.327  1.7740  2.1120 -999.25 -999.25 
  1230.500 -52.503  2.2120  1.8600 -999.25 -999.25 -24.714  1.8600  2.2120 -999.25 -999.25 
  1231.000 -52.791  2.3270  1.9670 -999.25 -999.25 -25.006  1.9670  2.3270 -999.25 -999.25 
  1231.500 -53.080  2.4490  2.1170 -999.25 -999.25 -25.299  2.1170  2.4490 -999.25 -999.25 
  1232.000 -53.492  2.6910  2.3670 -999.25 -999.25 -25.715  2.3670  2.6910 -999.25 -999.25 
  1232.500 -53.408  2.9380  2.5710 -999.25 -999.25 -25.636  2.5710  2.9380 -999.25 -999.25 
  1233.000 -53.466  3.1550  2.9130 -999.25 -999.25 -25.698  2.9130  3.1550 -999.25 -999.25 
  1233.500 -53.807  3.2590  3.0530 -999.25 -999.25 -26.043  3.0530  3.2590 -999.25 -999.25 
  1234.000 -53.936  3.3240  3.1570 -999.25 -999.25 -26.176  3.1570  3.3240 -999.25 -999.25 
  1234.500 -54.065  3.4240  3.2320 -999.25 -999.25 -26.310  3.2320  3.4240 -999.25 -999.25 
  1235.000 -54.051  3.4530  3.2890 -999.25 -999.25 -26.300  3.2890  3.4530 -999.25 -999.25 
  1235.500 -53.896  3.5250  3.3360 -999.25 -999.25 -26.149  3.3360  3.5250 -999.25 -999.25 
  1236.000 -53.563  3.5470  3.3800 -999.25 -999.25 -25.820  3.3800  3.5470 -999.25 -999.25 
  1236.500 -53.337  3.5830  3.4050 -999.25 -999.25 -25.598  3.4050  3.5830 -999.25 -999.25 
  1237.000 -53.111  3.5980  3.3060 -999.25 -999.25 -25.377  3.3060  3.5980 -999.25 -999.25 
  1237.500 -52.778  3.4770  3.0850 -999.25 -999.25 -25.048  3.0850  3.4770 -999.25 -999.25 
  1238.000 -52.516  2.6050  2.6270 -999.25 -999.25 -24.790  2.6270  2.6050 -999.25 -999.25 
  1238.500 -52.503  2.4630  2.5130 -999.25 -999.25 -24.781  2.5130  2.4630 -999.25 -999.25 
  1239.000 -52.845  2.3710  2.3320 -999.25 -999.25 -25.128  2.3320  2.3710 -999.25 -999.25 
  1239.500 -53.257  2.2900  2.1760 -999.25 -999.25 -25.544  2.1760  2.2900 -999.25 -999.25 
  1240.000 -53.563  2.2150  1.9980 -999.25 -999.25 -25.854  1.9980  2.2150 -999.25 -999.25 
  1240.500 -53.799  2.1230  1.9030 -999.25 -999.25 -26.094  1.9030  2.1230 -999.25 -999.25 
  1241.000 -53.856  2.0740  1.7860 -999.25 -999.25 -26.155  1.7860  2.0740 -999.25 -999.25 
  1241.500 -53.843  2.0710  1.7330 -999.25 -999.25 -26.147  1.7330  2.0710 -999.25 -999.25 
  1242.000 -53.688  2.0680  1.7120 -999.25 -999.25 -25.996  1.7120  2.0680 -999.25 -999.25 
  1242.500 -53.355  2.0440  1.7050 -999.25 -999.25 -25.667  1.7050  2.0440 -999.25 -999.25 
  1243.000 -53.129  2.0090  1.7200 -999.25 -999.25 -25.445  1.7200  2.0090 -999.25 -999.25 
  1243.500 -52.796  1.9770  1.7280 -999.25 -999.25 -25.116  1.7280  1.9770 -999.25 -999.25 
  1244.000 -52.463  1.9600  1.7280 -999.25 -999.25 -24.788  1.7280  1.9600 -999.25 -999.25 
  1244.500 -52.592  1.9960  1.7320 -999.25 -999.25 -24.921  1.7320  1.9960 -999.25 -999.25 
  1245.000 -53.146  2.0390  1.7290 -999.25 -999.25 -25.479  1.7290  2.0390 -999.25 -999.25 
  1245.500 -53.630  2.0400  1.7190 -999.25 -999.25 -25.967  1.7190  2.0400 -999.25 -999.25 
  1246.000 -53.972  2.0150  1.7050 -999.25 -999.25 -26.314  1.7050  2.0150 -999.25 -999.25 
  1246.500 -53.710  1.9910  1.6850 -999.25 -999.25 -26.056  1.6850  1.9910 -999.25 -999.25 
  1247.000 -53.377  1.9880  1.6820 -999.25 -999.25 -25.727  1.6820  1.9880 -999.25 -999.25 
  1247.500 -53.133  1.9880  1.6790 -999.25 -999.25 -25.487  1.6790  1.9880 -999.25 -999.25 
