~Version Information
VERS.                     2.0: CWLS log ASCII Standard Version 2.00
WRAP.                      NO: One line per depth step
~Well Information Block
#MNEM.UNIT                               Data Type  Information
#---------                               ---------  -----------
STRT.FT                                   400.0000:
STOP.FT                                  3500.0000:
STEP.FT                                     0.5000:
NULL.                 -999.25                     :
COMP.                                             :COMPANY            
WELL.     KCL44-34                                :WELL               
FLD .                                             :FIELD              
CTRY.                                             :COUNTRY            
STAT.                                             :STATE              
LOC .                                             :LOCATION           
UWI .                                             :UNIQUE WELL ID     
SRVC.                                             :Service company    
DATE.                                             :LOG DATE           
~Curve Information
#MNEM.UNIT           API CODE  Curve Description
#---------           --------  -----------------
DEPT.FT                      :   1 DEPTH
SP  .MV                      :   2
SN  .OHMM                    :   3
ILD .OHMM                    :   4
SBL .MV                      :   5
RS  .OHMM                    :   6
RD  .OHMM                    :   7
DEPS.FT                      :   8
~A
# ...
   813.000 -18.240  2.4160  1.8450 -3.2400  2.4160  1.8450  445.00 
   813.500 -18.383  2.4890  1.9750 -3.3830  2.4890  1.9750  444.50 
   814.000 -18.598  2.5680  2.1040 -3.5980  2.5680  2.1040  444.00 
   814.500 -18.812  2.7050  2.1760 -3.8120  2.7050  2.1760  443.50 
   815.000 -19.242  2.8060  2.2560 -4.2420  2.8060  2.2560  443.00 
   815.500 -19.385  2.8860  2.3130 -4.3850  2.8860  2.3130  442.50 
   816.000 -19.492  2.9300  2.4070 -4.4920  2.9300  2.4070  442.00 
   816.500 -19.456  2.9300  2.4570 -4.4560  2.9300  2.4570  441.50 
   817.000 -19.024  2.8380  2.5010 -4.0240  2.8380  2.5010  441.00 
   817.500 -18.197  2.7600  2.5010 -3.1970  2.7600  2.5010  440.50 
   818.000 -17.945  2.6530  2.4440 -2.9450  2.6530  2.4440  440.00 
   818.500 -17.657  2.6180  2.3870 -2.6570  2.6180  2.3870  439.50 
   819.000 -17.836  2.5190  2.3370 -2.8360  2.5190  2.3370  439.00 
   819.500 -18.195  2.4760  2.2650 -3.1950  2.4760  2.2650  438.50 
   820.000 -18.409  2.4340  2.2260 -3.4090  2.4340  2.2260  438.00 
   820.500 -18.804  2.3990  2.1870 -3.8040  2.3990  2.1870  437.50 
   821.000 -18.911  2.3780  2.0800 -3.9110  2.3780  2.0800  437.00 
   821.500 -18.982  2.3720  2.0510 -3.9820  2.3720  2.0510  436.50 
   822.000 -19.017  2.3580  2.0080 -4.0170  2.3580  2.0080  436.00 
   822.500 -19.052  2.3590  1.9730 -4.0520  2.3590  1.9730  435.50 
   823.000 -18.944  2.3670  1.9370 -3.9440  2.3670  1.9370  435.00 
   823.500 -18.835  2.3890  1.9370 -3.8350  2.3890  1.9370  434.50 
   824.000 -18.655  2.4040  1.9310 -3.6550  2.4040  1.9310  434.00 
   824.500 -18.439  2.4340  1.9600 -3.4495  2.4340  1.9600  433.50 
   825.000 -18.258  2.4630  2.0240 -3.2790  2.4630  2.0240  433.00 
   825.500 -18.132  2.5000  2.0680 -3.1635  2.5000  2.0680  432.50 
   826.000 -18.006  2.5360  2.1110 -3.0480  2.5360  2.1110  432.00 
   826.500 -18.903  2.6230  2.2190 -3.9554  2.6230  2.2190  431.50 
   827.000 -19.979  2.7250  2.3270 -5.0419  2.7250  2.3270  431.00 
   827.500 -21.199  2.7970  2.3780 -6.2724  2.7970  2.3780  430.50 
   828.000 -21.845  2.8480  2.4140 -6.9289  2.8480  2.4140  430.00 
   828.500 -21.162  2.9350  2.4640 -6.2564  2.9350  2.4640  429.50 
   829.000 -18.755  2.9430  2.4650 -3.8599  2.9430  2.4650  429.00 
   829.500 -17.857  2.8930  2.4250 -2.9724  2.8930  2.4250  428.50 
   830.000 -17.569  2.7580  2.3860 -2.6949  2.7580  2.3860  428.00 
   830.500 -17.389  2.6730  2.3290 -2.5254  2.6730  2.3290  427.50 
   831.000 -17.460  2.5870  2.2720 -2.6069  2.5870  2.2720  427.00 
   831.500 -17.531  2.4380  2.2000 -2.6883  2.4380  2.2000  426.50 
   832.000 -17.602  2.3600  2.1500 -2.7698  2.3600  2.1500  426.00 
   832.500 -17.494  2.3030  2.1220 -2.6723  2.3030  2.1220  425.50 
   833.000 -17.313  2.2710  2.0720 -2.5018  2.2710  2.0720  425.00 
   833.500 -17.133  2.2400  2.0510 -2.3323  2.2400  2.0510  424.50 
   834.000 -17.204  2.1690  2.0370 -2.4138  2.1690  2.0370  424.00 
   834.500 -17.365  2.1490  2.0160 -2.5853  2.1490  2.0160  423.50 
   835.000 -17.526  2.1380  2.0010 -2.7568  2.1380  2.0010  423.00 
   835.500 -17.741  2.1280  1.9870 -2.9823  2.1280  1.9870  422.50 
   836.000 -17.848  2.1180  1.9800 -3.0997  2.1180  1.9800  422.00 
   836.500 -17.883  2.1080  1.9810 -3.1452  2.1080  1.9810  421.50 
   837.000 -17.990  2.1020  1.9810 -3.2627  2.1020  1.9810  421.00 
   837.500 -18.097  2.1170  1.9810 -3.3802  2.1170  1.9810  420.50 
   838.000 -18.132  2.1390  1.9960 -3.4257  2.1390  1.9960  420.00 
   838.500 -18.239  2.1610  1.9960 -3.5432  2.1610  1.9960  419.50 
   839.000 -18.238  2.1910  2.0000 -3.5527  2.1910  2.0000  419.00 
   839.500 -18.238  2.1850  2.0040 -3.5632  2.1850  2.0040  418.50 
   840.000 -18.201  2.1710  2.0260 -3.5367  2.1710  2.0260  418.00 
   840.500 -18.200  2.1510  2.0260 -3.5462  2.1510  2.0260  417.50 
   841.000 -18.236  2.1440  2.0260 -3.5926  2.1440  2.0260  417.00 
   841.500 -18.594  2.1310  2.0200 -3.9611  2.1310  2.0200  416.50 
   842.000 -19.168  2.1250  1.9840 -4.5456  2.1250  1.9840  416.00 
   842.500 -19.598  2.1250  1.9770 -4.9861  2.1250  1.9770  415.50 
   843.000 -19.992  2.1260  1.9740 -5.3906  2.1260  1.9740  415.00 
   843.500 -20.422  2.1270  1.9700 -5.8311  2.1270  1.9700  414.50 
   844.000 -20.673  2.1280  1.9710 -6.0926  2.1280  1.9710  414.00 
   844.500 -20.924  2.1360  1.9710 -6.3541  2.1360  1.9710  413.50 
   845.000 -20.851  2.1510  1.9780 -6.2916  2.1510  1.9780  413.00 
   845.500 -20.778  2.1660  2.0000 -6.2290  2.1660  2.0000  412.50 
   846.000 -20.706  2.1950  2.0290 -6.1675  2.1950  2.0290  412.00 
   846.500 -20.669  2.2180  2.0510 -6.1410  2.2180  2.0510  411.50 
   847.000 -20.776  2.2400  2.0730 -6.2585  2.2400  2.0730  411.00 
   847.500 -20.883  2.2760  2.1160 -6.3760  2.2760  2.1160  410.50 
   848.000 -20.847  2.3130  2.1600 -6.3505  2.3130  2.1600  410.00 
   848.500 -21.025  2.3570  2.2320 -6.5390  2.3570  2.2320  409.50 
   849.000 -21.204  2.4010  2.2750 -6.7285  2.4010  2.2750  409.00 
   849.500 -21.455  2.4520  2.3110 -6.9900  2.4520  2.3110  408.50 
   850.000 -21.634  2.4950  2.3580 -7.1795  2.4950  2.3580  408.00 
   850.500 -21.312  2.5390  2.4050 -6.8679  2.5390  2.4050  407.50 
   851.000 -20.918  2.6190  2.4850 -6.4844  2.6190  2.4850  407.00 
   851.500 -20.561  2.6770  2.5500 -6.1379  2.6770  2.5500  406.50 
   852.000 -20.131  2.7420  2.5930 -5.7184  2.7420  2.5930  406.00 
   852.500 -19.953  2.7210  2.6220 -5.5509  2.7210  2.6220  405.50 
   853.000 -19.775  2.6860  2.6520 -5.3834  2.6860  2.6520  405.00 
   853.500 -19.543  2.6580  2.6520 -5.1619  2.6580  2.6520  404.50 
   854.000 -19.311  2.6090  2.6520 -4.9404  2.6090  2.6520  404.00 
   854.500 -19.133  2.5800  2.6310 -4.7729  2.5800  2.6310  403.50 
   855.000 -19.063  2.5590  2.6100 -4.7133  2.5590  2.6100  403.00 
   855.500 -18.921  2.5350  2.5890 -4.5818  2.5350  2.5890  402.50 
   856.000 -18.868  2.5100  2.5680 -4.5393  2.5100  2.5680  402.00 
   856.500 -18.816  2.4680  2.5470 -4.4978  2.4680  2.5470  401.50 
   857.000 -18.745  2.4440  2.5260 -4.4373  2.4440  2.5260  401.00 
   857.500 -18.855  2.4190  2.4470 -4.5578  2.4190  2.4470  400.50 
   858.000 -19.215  2.3980  2.4190 -4.9283  2.3980  2.4190  400.00 
   858.500 -19.450  2.3780  2.3760 -5.1738  2.3780  2.3760  399.50 
   859.000 -19.685  2.3500  2.3340 -5.4193  2.3500  2.3340  399.00 
   859.500 -20.225  2.3360  2.2980 -5.9698  2.3360  2.2980  398.50 
   860.000 -20.585  2.3220  2.2700 -6.3402  2.3220  2.2700  398.00 
   860.500 -21.269  2.3010  2.2490 -7.0347  2.3010  2.2490  397.50 
   861.000 -21.773  2.2800  2.2280 -7.5492  2.2800  2.2280  397.00 
   861.500 -22.169  2.2520  2.2070 -7.9557  2.2520  2.2070  396.50 
   862.000 -22.422  2.2390  2.1710 -8.2192  2.2390  2.1710  396.00 
   862.500 -21.670  2.2280  2.1500 -7.4777  2.2280  2.1500  395.50 
   863.000 -20.594  2.2180  2.1290 -6.4122  2.2180  2.1290  395.00 
   863.500 -20.129  2.2040  2.1080 -5.9577  2.2040  2.1080  394.50 
   864.000 -19.591  2.1910  2.0870 -5.4302  2.1910  2.0870  394.00 
   864.500 -19.306  2.1840  2.0730 -5.1557  2.1840  2.0730  393.50 
   865.000 -19.307  2.1780  2.0370 -5.1671  2.1780  2.0370  393.00 
   865.500 -18.770  2.1790  2.0230 -4.6406  2.1790  2.0230  392.50 
   866.000 -18.304  2.1720  2.0090 -4.1851  2.1720  2.0090  392.00 
   866.500 -17.983  2.1730  1.9960 -3.8746  2.1730  1.9960  391.50 
   867.000 -17.625  2.1730  1.9960 -3.5271  2.1730  1.9960  391.00 
   867.500 -17.411  2.1740  1.9960 -3.3236  2.1740  1.9960  390.50 
   868.000 -17.448  2.1890  1.9970 -3.3711  2.1890  1.9970  390.00 
   868.500 -17.522  2.2030  2.0120 -3.4556  2.2030  2.0120  389.50 
   869.000 -17.577  2.2110  2.0190 -3.5211  2.2110  2.0190  389.00 
   869.500 -17.632  2.2190  2.0270 -3.5865  2.2190  2.0270  388.50 
   870.000 -18.244  2.2560  2.0520 -4.2090  2.2560  2.0520  388.00 
   870.500 -18.569  2.2640  2.0780 -4.5445  2.2640  2.0780  387.50 
   871.000 -18.893  2.2860  2.1430 -4.8790  2.2860  2.1430  387.00 
   871.500 -19.721  2.3080  2.2080 -5.7175  2.3080  2.2080  386.50 
