~Version Information
VERS.                     2.0: CWLS log ASCII Standard Version 2.00
WRAP.                      NO: One line per depth step
~Well Information Block
#MNEM.UNIT                               Data Type  Information
#---------                               ---------  -----------
STRT.FT                                    30.0000:
STOP.FT                                  5850.0000:
STEP.FT                                     0.5000:
NULL.                 -999.25                     :
COMP.                                             :COMPANY            
WELL.     KCL44-43                                :WELL               
FLD .                                             :FIELD              
CTRY.                                             :COUNTRY            
STAT.                                             :STATE              
LOC .                                             :LOCATION           
UWI .                                             :UNIQUE WELL ID     
SRVC.                                             :Service company    
DATE.                                             :LOG DATE           
~Curve Information
#MNEM.UNIT           API CODE  Curve Description
#---------           --------  -----------------
DEPT.FT                      :   1 DEPTH
SP  .MV                      :   2
ILD .OHMM                    :   3
SN  .OHMM                    :   4
GR  .RE/T                    :   5
NEUT.CPS                     :   6
SBL .MV                      :   7
RS  .OHMM                    :   8
RD  .OHMM                    :   9
NEUS.CPS                     :  10
GRS .RE/T                    :  11
~A
# ...
  3510.000 -999.25  3.0600 -999.25  5.7560  224.63 -999.25 -999.25  3.0600  225.23  5.7861 
  3510.500 -999.25  3.1160 -999.25  5.7780  224.84 -999.25 -999.25  3.1160  226.83  5.8048 
  3511.000 -999.25  3.4570 -999.25  5.7970  225.77 -999.25 -999.25  3.4570  229.50  5.8009 
  3511.500 -999.25  3.6330 -999.25  5.8150  228.21 -999.25 -999.25  3.6330  232.46  5.7422 
  3512.000 -999.25  3.8280 -999.25  5.7830  231.13 -999.25 -999.25  3.8280  235.04  5.6518 
  3512.500 -999.25  3.9400 -999.25  5.6920  234.10 -999.25 -999.25  3.9400  237.02  5.5766 
  3513.000 -999.25  3.9850 -999.25  5.6040  236.16 -999.25 -999.25  3.9850  239.24  5.4349 
  3513.500 -999.25  4.0300 -999.25  5.5450  238.01 -999.25 -999.25  4.0300  241.26  5.2774 
  3514.000 -999.25  4.1070 -999.25  5.3120  240.61 -999.25 -999.25  4.1070  243.14  5.1946 
  3514.500 -999.25  4.2520 -999.25  5.2400  241.98 -999.25 -999.25  4.2520  245.33  5.1247 
  3515.000 -999.25  4.3610 -999.25  5.1470  244.36 -999.25 -999.25  4.3610  248.62  5.0435 
  3515.500 -999.25  4.4340 -999.25  5.1020  246.32 -999.25 -999.25  4.4340  255.26  4.8627 
  3516.000 -999.25  4.5010 -999.25  4.9860  250.89 -999.25 -999.25  4.5010  261.85  4.7206 
  3516.500 -999.25  4.5280 -999.25  4.7450  259.42 -999.25 -999.25  4.5280  265.70  4.6780 
  3517.000 -999.25  4.4730 -999.25  4.6980  264.10 -999.25 -999.25  4.4730  268.77  4.6370 
  3517.500 -999.25  4.4070 -999.25  4.6600  267.13 -999.25 -999.25  4.4070  270.98  4.5714 
  3518.000 -999.25  4.3490 -999.25  4.6170  270.20 -999.25 -999.25  4.3490  272.44  4.4426 
  3518.500 -999.25  4.3010 -999.25  4.5330  271.63 -999.25 -999.25  4.3010  273.90  4.2796 
  3519.000 -999.25  4.3100 -999.25  4.3690  273.10 -999.25 -999.25  4.3100  275.96  4.1217 
  3519.500 -999.25  4.5010 -999.25  4.2090  274.52 -999.25 -999.25  4.5010  278.66  4.0349 
  3520.000 -999.25  4.9560 -999.25  4.0550  277.07 -999.25 -999.25  4.9560  282.09  4.0118 
  3520.500 -999.25  5.2200 -999.25  4.0200  279.85 -999.25 -999.25  5.2200  285.59  4.0013 
  3521.000 -999.25  5.3870 -999.25  4.0060  283.69 -999.25 -999.25  5.3870  287.67  3.9962 
  3521.500 -999.25  5.4760 -999.25  3.9980  286.90 -999.25 -999.25  5.4760  288.54  4.0132 
  3522.000 -999.25  5.6760 -999.25  3.9950  288.18 -999.25 -999.25  5.6760  288.94  4.0582 
  3522.500 -999.25  6.4630 -999.25  4.0250  288.77 -999.25 -999.25  6.4630  287.31  4.1462 
  3523.000 -999.25  6.7340 -999.25  4.0790  289.04 -999.25 -999.25  6.7340  285.38  4.2462 
  3523.500 -999.25  6.9620 -999.25  4.1870  286.26 -999.25 -999.25  6.9620  284.49  4.3378 
  3524.000 -999.25  7.0360 -999.25  4.2810  284.87 -999.25 -999.25  7.0360  283.73  4.4585 
  3524.500 -999.25  7.0540 -999.25  4.3700  284.28 -999.25 -999.25  7.0540  282.62  4.5697 
  3525.000 -999.25  6.9760 -999.25  4.5070  283.42 -999.25 -999.25  6.9760  280.25  4.6665 
  3525.500 -999.25  6.7940 -999.25  4.6030  282.20 -999.25 -999.25  6.7940  277.22  4.7311 
  3526.000 -999.25  5.9430 -999.25  4.6990  279.26 -999.25 -999.25  5.9430  274.08  4.7856 
  3526.500 -999.25  5.0240 -999.25  4.7470  276.21 -999.25 -999.25  5.0240  272.29  4.8369 
  3527.000 -999.25  4.2110 -999.25  4.8040  273.06 -999.25 -999.25  4.2110  269.90  4.8991 
  3527.500 -999.25  3.8410 -999.25  4.8520  271.94 -999.25 -999.25  3.8410  263.53  4.9634 
  3528.000 -999.25  3.7020 -999.25  4.9200  269.00 -999.25 -999.25  3.7020  260.17  5.0302 
  3528.500 -999.25  3.6160 -999.25  4.9820  261.20 -999.25 -999.25  3.6160  257.99  5.1073 
  3529.000 -999.25  3.5410 -999.25  5.0500  259.75 -999.25 -999.25  3.5410  255.74  5.2061 
  3529.500 -999.25  3.5130 -999.25  5.1300  257.29 -999.25 -999.25  3.5130  252.56  5.2929 
  3530.000 -999.25  3.6310 -999.25  5.2350  255.15 -999.25 -999.25  3.6310  250.21  5.3754 
  3530.500 -999.25  3.7650 -999.25  5.3140  251.61 -999.25 -999.25  3.7650  251.55  5.4905 
  3531.000 -999.25  3.8310 -999.25  5.3970  249.72 -999.25 -999.25  3.8310  255.50  5.5847 
  3531.500 -999.25  3.8570 -999.25  5.5220  252.16 -999.25 -999.25  3.8570  257.67  5.6562 
  3532.000 -999.25  3.8820 -999.25  5.6050  256.58 -999.25 -999.25  3.8820  259.35  5.7631 
  3532.500 -999.25  3.9340 -999.25  5.6720  258.00 -999.25 -999.25  3.9340  260.44  5.8586 
  3533.000 -999.25  3.9490 -999.25  5.7900  259.74 -999.25 -999.25  3.9490  261.71  6.0536 
  3533.500 -999.25  3.9640 -999.25  5.8780  260.64 -999.25 -999.25  3.9640  262.80  6.1622 
  3534.000 -999.25  3.9310 -999.25  6.1010  262.01 -999.25 -999.25  3.9310  263.46  6.2085 
  3534.500 -999.25  3.8830 -999.25  6.1780  263.00 -999.25 -999.25  3.8830  264.08  6.2444 
  3535.000 -999.25  3.8350 -999.25  6.2160  263.57 -999.25 -999.25  3.8350  264.57  6.2649 
  3535.500 -999.25  3.8230 -999.25  6.2510  264.20 -999.25 -999.25  3.8230  265.08  6.2110 
  3536.000 -999.25  3.8830 -999.25  6.2680  264.66 -999.25 -999.25  3.8830  265.52  6.0997 
  3536.500 -999.25  3.9530 -999.25  6.1990  265.17 -999.25 -999.25  3.9530  266.11  5.8938 
  3537.000 -999.25  4.1150 -999.25  6.0800  265.58 -999.25 -999.25  4.1150  266.46  5.5716 
  3537.500 -999.25  4.1680 -999.25  5.8590  266.20 -999.25 -999.25  4.1680  266.95  4.6327 
  3538.000 -999.25  4.2300 -999.25  5.5210  266.51 -999.25 -999.25  4.2300  267.38  4.7380 
  3538.500 -999.25  4.2720 -999.25  4.4860  267.02 -999.25 -999.25  4.2720  267.65  4.8050 
  3539.000 -999.25  4.3100 -999.25  4.7770  267.43 -999.25 -999.25  4.3100  267.57  4.8443 
  3539.500 -999.25  4.3510 -999.25  4.8090  267.68 -999.25 -999.25  4.3510  267.37  4.8766 
  3540.000 -999.25  4.3790 -999.25  4.8490  267.55 -999.25 -999.25  4.3790  267.01  4.9123 
  3540.500 -999.25  4.4220 -999.25  4.8800  267.35 -999.25 -999.25  4.4220  265.67  4.9794 
  3541.000 -999.25  4.3760 -999.25  4.9160  266.98 -999.25 -999.25  4.3760  263.98  5.0600 
  3541.500 -999.25  4.2300 -999.25  4.9860  265.54 -999.25 -999.25  4.2300  263.89  5.1343 
  3542.000 -999.25  4.0590 -999.25  5.0670  263.83 -999.25 -999.25  4.0590  264.00  5.1604 
  3542.500 -999.25  3.8600 -999.25  5.1400  263.89 -999.25 -999.25  3.8600  262.76  5.1770 
  3543.000 -999.25  3.6110 -999.25  5.1620  264.01 -999.25 -999.25  3.6110  261.31  5.1818 
  3543.500 -999.25  3.4160 -999.25  5.1780  262.67 -999.25 -999.25  3.4160  260.27  5.1506 
  3544.000 -999.25  3.2980 -999.25  5.1820  261.23 -999.25 -999.25  3.2980  259.05  5.0990 
  3544.500 -999.25  3.2060 -999.25  5.1490  260.23 -999.25 -999.25  3.2060  257.97  5.0321 
  3545.000 -999.25  3.1820 -999.25  5.0970  259.00 -999.25 -999.25  3.1820  256.75  4.9861 
  3545.500 -999.25  3.2780 -999.25  5.0300  257.94 -999.25 -999.25  3.2780  255.51  4.9230 
  3546.000 -999.25  3.6630 -999.25  4.9850  256.72 -999.25 -999.25  3.6630  254.49  4.8456 
  3546.500 -999.25  3.8990 -999.25  4.9220  255.49 -999.25 -999.25  3.8990  258.87  4.8140 
  3547.000 -999.25  4.0060 -999.25  4.8450  254.48 -999.25 -999.25  4.0060  261.02  4.7705 
  3547.500 -999.25  4.0490 -999.25  4.8140  258.87 -999.25 -999.25  4.0490  262.27  4.7116 
  3548.000 -999.25  4.0920 -999.25  4.7710  261.01 -999.25 -999.25  4.0920  263.51  4.6853 
  3548.500 -999.25  4.1210 -999.25  4.7120  262.25 -999.25 -999.25  4.1210  264.52  4.6571 
  3549.000 -999.25  4.0540 -999.25  4.6860  263.48 -999.25 -999.25  4.0540  265.06  4.6613 
  3549.500 -999.25  3.8150 -999.25  4.6570  264.50 -999.25 -999.25  3.8150  265.45  4.6683 
  3550.000 -999.25  3.5450 -999.25  4.6610  265.04 -999.25 -999.25  3.5450  263.83  4.6753 
  3550.500 -999.25  3.4170 -999.25  4.6680  265.52 -999.25 -999.25  3.4170  262.09  4.6816 
  3551.000 -999.25  3.4240 -999.25  4.6750  263.92 -999.25 -999.25  3.4240  260.19  4.6903 
  3551.500 -999.25  3.4450 -999.25  4.6810  262.21 -999.25 -999.25  3.4450  259.62  4.6943 
  3552.000 -999.25  3.4770 -999.25  4.6900  260.23 -999.25 -999.25  3.4770  260.35  4.6990 
  3552.500 -999.25  3.8010 -999.25  4.6940  259.59 -999.25 -999.25  3.8010  265.36  4.7113 
  3553.000 -999.25  3.9970 -999.25  4.6980  259.91 -999.25 -999.25  3.9970  269.57  4.7269 
