~Version Information
VERS.                     2.0: CWLS log ASCII Standard Version 2.00
WRAP.                      NO: One line per depth step
~Well Information Block
#MNEM.UNIT                               Data Type  Information
#---------                               ---------  -----------
STRT.FT                                    30.0000:
STOP.FT                                  5850.0000:
STEP.FT                                     0.5000:
NULL.                 -999.25                     :
COMP.                                             :COMPANY            
WELL.     KCL44-43                                :WELL               
FLD .                                             :FIELD              
CTRY.                                             :COUNTRY            
STAT.                                             :STATE              
LOC .                                             :LOCATION           
UWI .                                             :UNIQUE WELL ID     
SRVC.                                             :Service company    
DATE.                                             :LOG DATE           
~Curve Information
#MNEM.UNIT           API CODE  Curve Description
#---------           --------  -----------------
DEPT.FT                      :   1 DEPTH
SP  .MV                      :   2
ILD .OHMM                    :   3
SN  .OHMM                    :   4
GR  .RE/T                    :   5
NEUT.CPS                     :   6
SBL .MV                      :   7
RS  .OHMM                    :   8
RD  .OHMM                    :   9
NEUS.CPS                     :  10
GRS .RE/T                    :  11
~A
# ...
  4293.000 -999.25  2.4330 -999.25  5.3250  269.80 -999.25 -999.25  2.4330  269.13  5.3030 
  4293.500 -999.25  2.3960 -999.25  5.3030  269.13 -999.25 -999.25  2.3960  267.34  5.2790 
  4294.000 -999.25  2.4010 -999.25  5.2790  267.34 -999.25 -999.25  2.4010  264.59  5.2540 
  4294.500 -999.25  2.4170 -999.25  5.2540  264.59 -999.25 -999.25  2.4170  262.85  5.2420 
  4295.000 -999.25  2.4620 -999.25  5.2420  262.85 -999.25 -999.25  2.4620  261.92  5.2320 
  4295.500 -999.25  2.6060 -999.25  5.2320  261.92 -999.25 -999.25  2.6060  262.69  5.2370 
  4296.000 -999.25  2.8430 -999.25  5.2370  262.69 -999.25 -999.25  2.8430  264.11  5.2240 
  4296.500 -999.25  3.0800 -999.25  5.2240  264.11 -999.25 -999.25  3.0800  265.20  5.1960 
  4297.000 -999.25  3.2420 -999.25  5.1960  265.20 -999.25 -999.25  3.2420  267.05  5.1650 
  4297.500 -999.25  3.4650 -999.25  5.1650  267.05 -999.25 -999.25  3.4650  268.73  5.1450 
  4298.000 -999.25  3.8730 -999.25  5.1450  268.73 -999.25 -999.25  3.8730  269.72  5.1310 
  4298.500 -999.25  4.2020 -999.25  5.1310  269.72 -999.25 -999.25  4.2020  270.39  5.1270 
  4299.000 -999.25  4.3890 -999.25  5.1270  270.39 -999.25 -999.25  4.3890  273.41  5.1740 
  4299.500 -999.25  4.4910 -999.25  5.1740  273.41 -999.25 -999.25  4.4910  275.62  5.2210 
  4300.000 -999.25  4.6030 -999.25  5.2210  275.62 -999.25 -999.25  4.6030  277.55  5.2540 
  4300.500 -999.25  4.6390 -999.25  5.2540  277.55 -999.25 -999.25  4.6390  278.19  5.2510 
  4301.000 -999.25  4.3820 -999.25  5.2510  278.19 -999.25 -999.25  4.3820  278.51  5.2420 
  4301.500 -999.25  4.2010 -999.25  5.2420  278.51 -999.25 -999.25  4.2010  278.51  5.2350 
  4302.000 -999.25  3.9160 -999.25  5.2350  278.51 -999.25 -999.25  3.9160  277.23  5.2310 
  4302.500 -999.25  3.4240 -999.25  5.2310  277.23 -999.25 -999.25  3.4240  274.39  5.2230 
  4303.000 -999.25  3.0430 -999.25  5.2230  274.39 -999.25 -999.25  3.0430  273.11  5.2190 
  4303.500 -999.25  2.8790 -999.25  5.2190  273.11 -999.25 -999.25  2.8790  272.85  5.1670 
  4304.000 -999.25  2.7430 -999.25  5.1670  272.85 -999.25 -999.25  2.7430  272.31  5.0950 
  4304.500 -999.25  2.6220 -999.25  5.0950  272.31 -999.25 -999.25  2.6220  270.71  5.0450 
  4305.000 -999.25  2.5580 -999.25  5.0450  270.71 -999.25 -999.25  2.5580  269.58  5.0240 
  4305.500 -999.25  2.5150 -999.25  5.0240  269.58 -999.25 -999.25  2.5150  269.27  5.0040 
  4306.000 -999.25  2.5010 -999.25  5.0040  269.27 -999.25 -999.25  2.5010  268.57  4.9570 
  4306.500 -999.25  2.5650 -999.25  4.9570  268.57 -999.25 -999.25  2.5650  267.29  4.9390 
  4307.000 -999.25  2.6120 -999.25  4.9390  267.29 -999.25 -999.25  2.6120  265.90  4.9270 
  4307.500 -999.25  2.6350 -999.25  4.9270  265.90 -999.25 -999.25  2.6350  264.88  4.9120 
  4308.000 -999.25  2.6580 -999.25  4.9120  264.88 -999.25 -999.25  2.6580  264.08  4.9060 
  4308.500 -999.25  2.6400 -999.25  4.9060  264.08 -999.25 -999.25  2.6400  263.17  4.9110 
  4309.000 -999.25  2.6080 -999.25  4.9110  263.17 -999.25 -999.25  2.6080  262.10  4.9330 
  4309.500 -999.25  2.5900 -999.25  4.9330  262.10 -999.25 -999.25  2.5900  261.46  5.0030 
  4310.000 -999.25  2.5970 -999.25  5.0030  261.46 -999.25 -999.25  2.5970  260.80  5.1130 
  4310.500 -999.25  2.6250 -999.25  5.1130  260.80 -999.25 -999.25  2.6250  260.41  5.1380 
  4311.000 -999.25  2.6430 -999.25  5.1380  260.41 -999.25 -999.25  2.6430  261.30  5.1450 
  4311.500 -999.25  2.6610 -999.25  5.1450  261.30 -999.25 -999.25  2.6610  261.55  5.1500 
  4312.000 -999.25  2.6990 -999.25  5.1500  261.55 -999.25 -999.25  2.6990  261.85  5.1660 
  4312.500 -999.25  2.7090 -999.25  5.1660  261.85 -999.25 -999.25  2.7090  261.83  5.1950 
  4313.000 -999.25  2.7320 -999.25  5.1950  261.83 -999.25 -999.25  2.7320  260.74  5.2270 
  4313.500 -999.25  2.7350 -999.25  5.2270  260.74 -999.25 -999.25  2.7350  258.74  5.2940 
  4314.000 -999.25  2.7150 -999.25  5.2940  258.74 -999.25 -999.25  2.7150  257.77  5.3330 
  4314.500 -999.25  2.6960 -999.25  5.3330  257.77 -999.25 -999.25  2.6960  254.76  5.3670 
  4315.000 -999.25  2.6770 -999.25  5.3670  254.76 -999.25 -999.25  2.6770  251.96  5.3950 
  4315.500 -999.25  2.6440 -999.25  5.3950  251.96 -999.25 -999.25  2.6440  250.18  5.4220 
  4316.000 -999.25  2.6250 -999.25  5.4220  250.18 -999.25 -999.25  2.6250  249.14  5.4290 
  4316.500 -999.25  2.5810 -999.25  5.4290  249.14 -999.25 -999.25  2.5810  249.23  5.4220 
  4317.000 -999.25  2.5510 -999.25  5.4220  249.23 -999.25 -999.25  2.5510  249.85  5.4010 
  4317.500 -999.25  2.5250 -999.25  5.4010  249.85 -999.25 -999.25  2.5250  252.02  5.2980 
  4318.000 -999.25  2.4990 -999.25  5.2980  252.02 -999.25 -999.25  2.4990  254.95  5.2380 
  4318.500 -999.25  2.5080 -999.25  5.2380  254.95 -999.25 -999.25  2.5080  256.58  5.1960 
  4319.000 -999.25  2.5680 -999.25  5.1960  256.58 -999.25 -999.25  2.5680  258.27  5.1920 
  4319.500 -999.25  2.6060 -999.25  5.1920  258.27 -999.25 -999.25  2.6060  260.61  5.2550 
  4320.000 -999.25  2.6540 -999.25  5.2550  260.61 -999.25 -999.25  2.6540  261.63  5.2860 
  4320.500 -999.25  2.6850 -999.25  5.2860  261.63 -999.25 -999.25  2.6850  262.66  5.3080 
  4321.000 -999.25  2.7120 -999.25  5.3080  262.66 -999.25 -999.25  2.7120  263.70  5.3110 
  4321.500 -999.25  2.7400 -999.25  5.3110  263.70 -999.25 -999.25  2.7400  264.01  5.2850 
  4322.000 -999.25  2.7560 -999.25  5.2850  264.01 -999.25 -999.25  2.7560  264.57  5.2400 
  4322.500 -999.25  2.7590 -999.25  5.2400  264.57 -999.25 -999.25  2.7590  266.11  5.1840 
  4323.000 -999.25  2.7640 -999.25  5.1840  266.11 -999.25 -999.25  2.7640  268.49  5.1750 
  4323.500 -999.25  2.7520 -999.25  5.1750  268.49 -999.25 -999.25  2.7520  271.41  5.1460 
  4324.000 -999.25  2.7010 -999.25  5.1460  271.41 -999.25 -999.25  2.7010  272.46  5.1340 
  4324.500 -999.25  2.6250 -999.25  5.1340  272.46 -999.25 -999.25  2.6250  273.19  5.1040 
  4325.000 -999.25  2.5740 -999.25  5.1040  273.19 -999.25 -999.25  2.5740  273.65  5.0810 
  4325.500 -999.25  2.5020 -999.25  5.0810  273.65 -999.25 -999.25  2.5020  273.85  5.0610 
  4326.000 -999.25  2.4150 -999.25  5.0610  273.85 -999.25 -999.25  2.4150  271.26  5.0330 
  4326.500 -999.25  2.3530 -999.25  5.0330  271.26 -999.25 -999.25  2.3530  269.59  5.0540 
  4327.000 -999.25  2.3980 -999.25  5.0540  269.59 -999.25 -999.25  2.3980  267.70  5.1020 
  4327.500 -999.25  2.5180 -999.25  5.1020  267.70 -999.25 -999.25  2.5180  266.56  5.1410 
  4328.000 -999.25  2.5560 -999.25  5.1410  266.56 -999.25 -999.25  2.5560  265.90  5.1730 
  4328.500 -999.25  2.5970 -999.25  5.1730  265.90 -999.25 -999.25  2.5970  265.83  5.1850 
  4329.000 -999.25  2.6420 -999.25  5.1850  265.83 -999.25 -999.25  2.6420  265.92  5.1960 
  4329.500 -999.25  2.6160 -999.25  5.1960  265.92 -999.25 -999.25  2.6160  266.38  5.2170 
  4330.000 -999.25  2.5620 -999.25  5.2170  266.38 -999.25 -999.25  2.5620  266.66  5.2420 
  4330.500 -999.25  2.5320 -999.25  5.2420  266.66 -999.25 -999.25  2.5320  266.73  5.2530 
  4331.000 -999.25  2.5030 -999.25  5.2530  266.73 -999.25 -999.25  2.5030  266.42  5.2690 
  4331.500 -999.25  2.4080 -999.25  5.2690  266.42 -999.25 -999.25  2.4080  265.31  5.2800 
  4332.000 -999.25  2.3120 -999.25  5.2800  265.31 -999.25 -999.25  2.3120  264.31  5.2940 
  4332.500 -999.25  2.2670 -999.25  5.2940  264.31 -999.25 -999.25  2.2670  263.36  5.3060 
  4333.000 -999.25  2.2430 -999.25  5.3060  263.36 -999.25 -999.25  2.2430  260.54  5.3260 
  4333.500 -999.25  2.2540 -999.25  5.3260  260.54 -999.25 -999.25  2.2540  260.45  5.3460 
  4334.000 -999.25  2.3030 -999.25  5.3460  260.45 -999.25 -999.25  2.3030  261.21  5.3600 
  4334.500 -999.25  2.3530 -999.25  5.3600  261.21 -999.25 -999.25  2.3530  262.08  5.3740 
  4335.000 -999.25  2.4320 -999.25  5.3740  262.08 -999.25 -999.25  2.4320  262.84  5.3850 
  4335.500 -999.25  2.4890 -999.25  5.3850  262.84 -999.25 -999.25  2.4890  263.49  5.3020 
  4336.000 -999.25  2.5400 -999.25  5.3020  263.49 -999.25 -999.25  2.5400  262.49  5.2260 
