~Version Information
VERS.                     2.0: CWLS log ASCII Standard Version 2.00
WRAP.                      NO: One line per depth step
~Well Information Block
#MNEM.UNIT                               Data Type  Information
#---------                               ---------  -----------
STRT.FT                                    30.0000:
STOP.FT                                  5850.0000:
STEP.FT                                     0.5000:
NULL.                 -999.25                     :
COMP.                                             :COMPANY            
WELL.     KCL44-43                                :WELL               
FLD .                                             :FIELD              
CTRY.                                             :COUNTRY            
STAT.                                             :STATE              
LOC .                                             :LOCATION           
UWI .                                             :UNIQUE WELL ID     
SRVC.                                             :Service company    
DATE.                                             :LOG DATE           
~Curve Information
#MNEM.UNIT           API CODE  Curve Description
#---------           --------  -----------------
DEPT.FT                      :   1 DEPTH
SP  .MV                      :   2
ILD .OHMM                    :   3
SN  .OHMM                    :   4
GR  .RE/T                    :   5
NEUT.CPS                     :   6
SBL .MV                      :   7
RS  .OHMM                    :   8
RD  .OHMM                    :   9
NEUS.CPS                     :  10
GRS .RE/T                    :  11
~A
# ...
   813.000 -45.696  13.555  14.908 -999.25 -999.25 -19.696  14.908  13.555 -999.25 -999.25 
   813.500 -45.091  12.733  14.514 -999.25 -999.25 -19.091  14.514  12.733 -999.25 -999.25 
   814.000 -44.203  11.483  12.267 -999.25 -999.25 -18.203  12.267  11.483 -999.25 -999.25 
   814.500 -42.889  10.911  11.287 -999.25 -999.25 -16.889  11.287  10.911 -999.25 -999.25 
   815.000 -41.078  10.766  10.306 -999.25 -999.25 -15.078  10.306  10.766 -999.25 -999.25 
   815.500 -39.657  10.728  9.3260 -999.25 -999.25 -13.657  9.3260  10.728 -999.25 -999.25 
   816.000 -39.053  10.867  8.1540 -999.25 -999.25 -13.053  8.1540  10.867 -999.25 -999.25 
   816.500 -39.549  11.007  8.0820 -999.25 -999.25 -13.549  8.0820  11.007 -999.25 -999.25 
   817.000 -40.045  12.251  9.1650 -999.25 -999.25 -14.045  9.1650  12.251 -999.25 -999.25 
   817.500 -41.251  13.246  9.2780 -999.25 -999.25 -15.251  9.2780  13.246 -999.25 -999.25 
   818.000 -41.001  13.706  13.065 -999.25 -999.25 -15.001  13.065  13.706 -999.25 -999.25 
   818.500 -40.894  14.202  13.383 -999.25 -999.25 -14.894  13.383  14.202 -999.25 -999.25 
   819.000 -42.810  14.413  13.808 -999.25 -999.25 -16.810  13.808  14.413 -999.25 -999.25 
   819.500 -43.306  14.553  14.090 -999.25 -999.25 -17.306  14.090  14.553 -999.25 -999.25 
   820.000 -45.009  13.838  13.838 -999.25 -999.25 -19.009  13.838  13.838 -999.25 -999.25 
   820.500 -46.144  12.874  12.873 -999.25 -999.25 -20.144  12.873  12.874 -999.25 -999.25 
   821.000 -46.569  11.589  12.087 -999.25 -999.25 -20.569  12.087  11.589 -999.25 -999.25 
   821.500 -46.284  11.257  10.553 -999.25 -999.25 -20.284  10.553  11.257 -999.25 -999.25 
   822.000 -45.112  10.925  9.8310 -999.25 -999.25 -19.112  9.8310  10.925 -999.25 -999.25 
   822.500 -40.496  10.594  9.1080 -999.25 -999.25 -14.496  9.1080  10.594 -999.25 -999.25 
   823.000 -37.585  10.262  8.3530 -999.25 -999.25 -11.585  8.3530  10.262 -999.25 -999.25 
   823.500 -36.626  9.9300  7.3620 -999.25 -999.25 -10.626  7.3620  9.9300 -999.25 -999.25 
   824.000 -35.737  7.4230  6.1900 -999.25 -999.25 -9.7370  6.1900  7.4230 -999.25 -999.25 
   824.500 -34.707  7.1200  5.3100 -999.25 -999.25 -8.7070  5.3100  7.1200 -999.25 -999.25 
   825.000 -33.961  6.7310  5.0250 -999.25 -999.25 -7.9610  5.0250  6.7310 -999.25 -999.25 
   825.500 -33.427  6.5560  4.8680 -999.25 -999.25 -7.4270  4.8680  6.5560 -999.25 -999.25 
   826.000 -32.575  6.3960  4.8180 -999.25 -999.25 -6.5750  4.8180  6.3960 -999.25 -999.25 
   826.500 -31.828  6.4240  5.0240 -999.25 -999.25 -5.8280  5.0240  6.4240 -999.25 -999.25 
   827.000 -31.402  7.1430  5.1310 -999.25 -999.25 -5.4020  5.1310  7.1430 -999.25 -999.25 
   827.500 -31.046  7.3890  5.3690 -999.25 -999.25 -5.0460  5.3690  7.3890 -999.25 -999.25 
   828.000 -30.903  7.5340  5.6110 -999.25 -999.25 -4.9030  5.6110  7.5340 -999.25 -999.25 
   828.500 -30.866  7.7230  5.9710 -999.25 -999.25 -4.8660  5.9710  7.7230 -999.25 -999.25 
   829.000 -31.114  8.0040  6.2270 -999.25 -999.25 -5.1140  6.2270  8.0040 -999.25 -999.25 
   829.500 -31.681  8.3960  6.9000 -999.25 -999.25 -5.6810  6.9000  8.3960 -999.25 -999.25 
   830.000 -33.597  8.7370  7.0700 -999.25 -999.25 -7.5970  7.0700  8.7370 -999.25 -999.25 
   830.500 -35.861  8.8940  7.1950 -999.25 -999.25 -9.8610  7.1950  8.8940 -999.25 -999.25 
   831.000 -37.840  8.9680  7.2340 -999.25 -999.25 -11.840  7.2340  8.9680 -999.25 -999.25 
   831.500 -39.394  9.0220  7.2750 -999.25 -999.25 -13.394  7.2750  9.0220 -999.25 -999.25 
   832.000 -40.522  9.0360  7.3150 -999.25 -999.25 -14.522  7.3150  9.0360 -999.25 -999.25 
   832.500 -40.798  9.0210  7.3620 -999.25 -999.25 -14.798  7.3620  9.0210 -999.25 -999.25 
   833.000 -40.400  8.9780  7.3580 -999.25 -999.25 -14.400  7.3580  8.9780 -999.25 -999.25 
   833.500 -39.398  8.6360  7.3500 -999.25 -999.25 -13.398  7.3500  8.6360 -999.25 -999.25 
   834.000 -38.644  8.3480  7.3180 -999.25 -999.25 -12.644  7.3180  8.3480 -999.25 -999.25 
   834.500 -38.175  8.2090  7.0650 -999.25 -999.25 -12.175  7.0650  8.2090 -999.25 -999.25 
   835.000 -37.741  8.1440  6.7760 -999.25 -999.25 -11.741  6.7760  8.1440 -999.25 -999.25 
   835.500 -37.485  8.1010  6.6590 -999.25 -999.25 -11.485  6.6590  8.1010 -999.25 -999.25 
   836.000 -37.157  8.0550  6.5370 -999.25 -999.25 -11.157  6.5370  8.0550 -999.25 -999.25 
   836.500 -36.404  8.0120  6.4840 -999.25 -999.25 -10.404  6.4840  8.0120 -999.25 -999.25 
   837.000 -35.757  7.9690  6.4300 -999.25 -999.25 -9.7570  6.4300  7.9690 -999.25 -999.25 
   837.500 -36.388  7.8980  6.3050 -999.25 -999.25 -10.388  6.3050  7.8980 -999.25 -999.25 
   838.000 -37.374  7.6120  6.2590 -999.25 -999.25 -11.374  6.2590  7.6120 -999.25 -999.25 
   838.500 -37.046  7.3170  6.1880 -999.25 -999.25 -11.046  6.1880  7.3170 -999.25 -999.25 
   839.000 -35.263  7.0140  6.1160 -999.25 -999.25 -9.2630  6.1160  7.0140 -999.25 -999.25 
   839.500 -34.546  6.9240  5.9630 -999.25 -999.25 -8.5460  5.9630  6.9240 -999.25 -999.25 
   840.000 -34.786  6.8600  5.4350 -999.25 -999.25 -8.7860  5.4350  6.8600 -999.25 -999.25 
   840.500 -35.807  6.7140  4.8400 -999.25 -999.25 -9.8070  4.8400  6.7140 -999.25 -999.25 
   841.000 -33.847  6.4250  4.5520 -999.25 -999.25 -7.8470  4.5520  6.4250 -999.25 -999.25 
   841.500 -32.952  5.6910  4.2670 -999.25 -999.25 -6.9520  4.2670  5.6910 -999.25 -999.25 
   842.000 -32.624  5.4170  4.1450 -999.25 -999.25 -6.6240  4.1450  5.4170 -999.25 -999.25 
   842.500 -32.297  5.3880  4.0490 -999.25 -999.25 -6.2970  4.0490  5.3880 -999.25 -999.25 
   843.000 -31.934  6.0430  3.9920 -999.25 -999.25 -5.9340  3.9920  6.0430 -999.25 -999.25 
   843.500 -31.536  6.3070  4.3510 -999.25 -999.25 -5.5360  4.3510  6.3070 -999.25 -999.25 
   844.000 -31.208  6.5520  4.7320 -999.25 -999.25 -5.2080  4.7320  6.5520 -999.25 -999.25 
   844.500 -31.307  7.0080  5.0990 -999.25 -999.25 -5.3070  5.0990  7.0080 -999.25 -999.25 
   845.000 -31.867  7.9700  5.5410 -999.25 -999.25 -5.8670  5.5410  7.9700 -999.25 -999.25 
   845.500 -32.355  8.4650  6.3420 -999.25 -999.25 -6.3550  6.3420  8.4650 -999.25 -999.25 
   846.000 -33.483  9.0740  6.9190 -999.25 -999.25 -7.4830  6.9190  9.0740 -999.25 -999.25 
   846.500 -34.718  9.2370  7.0720 -999.25 -999.25 -8.7180  7.0720  9.2370 -999.25 -999.25 
   847.000 -35.597  9.3440  7.1500 -999.25 -999.25 -9.5970  7.1500  9.3440 -999.25 -999.25 
   847.500 -36.122  9.4010  7.2030 -999.25 -999.25 -10.122  7.2030  9.4010 -999.25 -999.25 
   848.000 -36.469  7.9540  7.2560 -999.25 -999.25 -10.469  7.2560  7.9540 -999.25 -999.25 
   848.500 -35.715  7.7690  7.2380 -999.25 -999.25 -9.7150  7.2380  7.7690 -999.25 -999.25 
   849.000 -34.287  7.6550  6.5970 -999.25 -999.25 -8.2870  6.5970  7.6550 -999.25 -999.25 
   849.500 -33.214  7.7190  6.4470 -999.25 -999.25 -7.2140  6.4470  7.7190 -999.25 -999.25 
   850.000 -32.852  7.7400  6.3400 -999.25 -999.25 -6.8520  6.3400  7.7400 -999.25 -999.25 
   850.500 -33.794  7.7200  6.3120 -999.25 -999.25 -7.7940  6.3120  7.7200 -999.25 -999.25 
   851.000 -34.630  7.7010  6.3650 -999.25 -999.25 -8.6300  6.3650  7.7010 -999.25 -999.25 
   851.500 -35.430  7.6410  6.4080 -999.25 -999.25 -9.4300  6.4080  7.6410 -999.25 -999.25 
   852.000 -34.917  7.7260  6.5110 -999.25 -999.25 -8.9170  6.5110  7.7260 -999.25 -999.25 
   852.500 -34.440  7.9010  6.6110 -999.25 -999.25 -8.4400  6.6110  7.9010 -999.25 -999.25 
   853.000 -33.998  8.0330  6.7000 -999.25 -999.25 -7.9980  6.7000  8.0330 -999.25 -999.25 
   853.500 -33.840  8.2360  6.8000 -999.25 -999.25 -7.8400  6.8000  8.2360 -999.25 -999.25 
   854.000 -34.960  8.3960  6.8930 -999.25 -999.25 -8.9600  6.8930  8.3960 -999.25 -999.25 
   854.500 -37.500  8.5390  6.9570 -999.25 -999.25 -11.500  6.9570  8.5390 -999.25 -999.25 
   855.000 -39.436  8.6990  6.9960 -999.25 -999.25 -13.436  6.9960  8.6990 -999.25 -999.25 
   855.500 -40.378  8.8170  7.0360 -999.25 -999.25 -14.378  7.0360  8.8170 -999.25 -999.25 
   856.000 -40.895  8.8740  7.0960 -999.25 -999.25 -14.895  7.0960  8.8740 -999.25 -999.25 
