~Version Information
VERS.                     2.0: CWLS log ASCII Standard Version 2.00
WRAP.                      NO: One line per depth step
~Well Information Block
#MNEM.UNIT                               Data Type  Information
#---------                               ---------  -----------
STRT.FT                                   400.0000:
STOP.FT                                  3500.0000:
STEP.FT                                     0.5000:
NULL.                 -999.25                     :
COMP.                                             :COMPANY            
WELL.     KCL44-34                                :WELL               
FLD .                                             :FIELD              
CTRY.                                             :COUNTRY            
STAT.                                             :STATE              
LOC .                                             :LOCATION           
UWI .                                             :UNIQUE WELL ID     
SRVC.                                             :Service company    
DATE.                                             :LOG DATE           
~Curve Information
#MNEM.UNIT           API CODE  Curve Description
#---------           --------  -----------------
DEPT.FT                      :   1 DEPTH
SP  .MV                      :   2
SN  .OHMM                    :   3
ILD .OHMM                    :   4
SBL .MV                      :   5
RS  .OHMM                    :   6
RD  .OHMM                    :   7
DEPS.FT                      :   8
~A
# ...
   990.000 -26.747  3.7550  3.2120 -15.423  3.7550  3.2120  268.00 
   990.500 -27.502  3.8560  3.5990 -16.193  3.8560  3.5990  267.50 
   991.000 -28.473  4.0280  3.8930 -17.179  4.0280  3.8930  267.00 
   991.500 -29.766  4.5380  4.0870 -18.487  4.5380  4.0870  266.50 
   992.000 -31.634  4.6890  4.2380 -20.369  4.6890  4.2380  266.00 
   992.500 -33.215  4.7760  4.3310 -21.965  4.7760  4.3310  265.50 
   993.000 -35.012  4.8550  4.4100 -23.777  4.8550  4.4100  265.00 
   993.500 -39.178  5.0350  4.4630 -27.957  5.0350  4.4630  264.50 
   994.000 -39.969  5.2000  4.5170 -28.763  5.2000  4.5170  264.00 
   994.500 -41.406  5.2800  4.6030 -30.215  5.2800  4.6030  263.50 
   995.000 -41.803  5.3160  4.6460 -30.627  5.3160  4.6460  263.00 
   995.500 -39.721  5.3090  4.6390 -28.559  5.3090  4.6390  262.50 
   996.000 -38.932  4.6140  4.6100 -27.785  4.6140  4.6100  262.00 
   996.500 -38.395  4.3570  4.5520 -27.263  4.3570  4.5520  261.50 
   997.000 -37.390  4.3430  4.4520 -26.272  4.3430  4.4520  261.00 
   997.500 -35.129  4.3500  4.3510 -24.026  4.3500  4.3510  260.50 
   998.000 -32.760  4.3650  4.2430 -21.672  4.3650  4.2430  260.00 
   998.500 -31.541  4.2150  4.0560 -20.467  4.2150  4.0560  259.50 
   999.000 -30.249  3.7710  3.7980 -19.190  3.7710  3.7980  259.00 
   999.500 -29.604  3.5350  3.4530 -18.560  3.5350  3.4530  258.50 
  1000.000 -29.263  3.3990  3.2300 -18.234  3.3990  3.2300  258.00 
  1000.500 -28.923  3.3430  3.0220 -17.908  3.3430  3.0220  257.50 
  1001.000 -28.456  3.2790  2.9420 -17.456  3.2790  2.9420  257.00 
  1001.500 -28.097  3.1660  2.8920 -17.112  3.1660  2.8920  256.50 
  1002.000 -27.702  3.1200  2.8050 -16.731  3.1200  2.8050  256.00 
  1002.500 -27.307  3.0740  2.6970 -16.351  3.0740  2.6970  255.50 
  1003.000 -26.302  2.9530  2.6240 -15.361  2.9530  2.6240  255.00 
  1003.500 -25.404  2.8830  2.5380 -14.478  2.8830  2.5380  254.50 
  1004.000 -24.434  2.8550  2.4800 -13.522  2.8550  2.4800  254.00 
  1004.500 -24.075  2.8560  2.4360 -13.178  2.8560  2.4360  253.50 
  1005.000 -23.824  2.8570  2.4210 -12.942  2.8570  2.4210  253.00 
  1005.500 -24.255  2.8580  2.4500 -13.387  2.8580  2.4500  252.50 
  1006.000 -26.373  2.8660  2.4920 -15.520  2.8660  2.4920  252.00 
  1006.500 -27.163  2.8740  2.5420 -16.325  2.8740  2.5420  251.50 
  1007.000 -27.774  2.8820  2.5560 -16.950  2.8820  2.5560  251.00 
  1007.500 -28.133  2.8900  2.5910 -17.324  2.8900  2.5910  250.50 
  1008.000 -24.901  2.8980  2.6120 -14.107  2.8980  2.6120  250.00 
  1008.500 -23.465  2.9150  2.6480 -12.686  2.9150  2.6480  249.50 
  1009.000 -22.424  2.9150  2.6610 -11.659  2.9150  2.6610  249.00 
  1009.500 -21.346  2.9160  2.6680 -10.596  2.9160  2.6680  248.50 
  1010.000 -20.808  2.8460  2.6390 -10.073  2.8460  2.6390  248.00 
  1010.500 -20.341  2.7320  2.6200 -9.6204  2.7320  2.6200  247.50 
  1011.000 -19.946  2.6680  2.6020 -9.2401  2.6680  2.6020  247.00 
  1011.500 -19.587  2.6410  2.5370 -8.8958  2.6410  2.5370  246.50 
  1012.000 -19.264  2.6060  2.4930 -8.5875  2.6060  2.4930  246.00 
  1012.500 -18.905  2.5420  2.4350 -8.2432  2.5420  2.4350  245.50 
  1013.000 -18.725  2.4720  2.3630 -8.0779  2.4720  2.3630  245.00 
  1013.500 -18.546  2.4580  2.3410 -7.9136  2.4580  2.3410  244.50 
  1014.000 -18.366  2.4590  2.2900 -7.7484  2.4590  2.2900  244.00 
  1014.500 -18.115  2.4750  2.2680 -7.5121  2.4750  2.2680  243.50 
  1015.000 -18.079  2.4970  2.2610 -7.4908  2.4970  2.2610  243.00 
  1015.500 -18.079  2.5050  2.2530 -7.5055  2.5050  2.2530  242.50 
  1016.000 -18.761  2.5210  2.2850 -8.2022  2.5210  2.2850  242.00 
  1016.500 -19.156  2.5290  2.3170 -8.6119  2.5290  2.3170  241.50 
  1017.000 -19.551  2.5330  2.3590 -9.0216  2.5330  2.3590  241.00 
  1017.500 -20.700  2.5380  2.3870 -10.185  2.5380  2.3870  240.50 
  1018.000 -21.203  2.5540  2.4010 -10.703  2.5540  2.4010  240.00 
  1018.500 -20.592  2.5540  2.4150 -10.107  2.5540  2.4150  239.50 
  1019.000 -19.120  2.5550  2.4360 -8.6494  2.5550  2.4360  239.00 
  1019.500 -18.187  2.5350  2.4360 -7.7311  2.5350  2.4360  238.50 
  1020.000 -17.576  2.5290  2.4350 -7.1348  2.5290  2.4350  238.00 
  1020.500 -18.079  2.5080  2.4350 -7.6525  2.5080  2.4350  237.50 
  1021.000 -17.971  2.4950  2.3690 -7.5592  2.4950  2.3690  237.00 
  1021.500 -16.571  2.4530  2.2470 -6.1739  2.4530  2.2470  236.50 
  1022.000 -15.925  2.4470  2.2030 -5.5426  2.4470  2.2030  236.00 
  1022.500 -15.422  2.4480  2.1240 -5.0544  2.4480  2.1240  235.50 
  1023.000 -15.189  2.4490  2.0950 -4.8361  2.4490  2.0950  235.00 
  1023.500 -14.955  2.5000  2.1340 -4.6168  2.5000  2.1340  234.50 
  1024.000 -15.278  2.5290  2.1730 -4.9545  2.5290  2.1730  234.00 
  1024.500 -15.350  2.6240  2.2730 -5.0412  2.6240  2.2730  233.50 
  1025.000 -15.063  2.6890  2.3300 -4.7689  2.6890  2.3300  233.00 
  1025.500 -14.345  2.7620  2.3940 -4.0656  2.7620  2.3940  232.50 
  1026.000 -13.842  2.8020  2.4510 -3.5773  2.8020  2.4510  232.00 
  1026.500 -13.734  2.8420  2.5290 -3.4840  2.8420  2.5290  231.50 
  1027.000 -13.986  2.8940  2.5640 -3.7507  2.8940  2.5640  231.00 
  1027.500 -14.237  2.8950  2.6140 -4.0164  2.8950  2.6140  230.50 
  1028.000 -14.847  2.8740  2.6280 -4.6411  2.8740  2.6280  230.00 
  1028.500 -14.919  2.8040  2.6420 -4.7278  2.8040  2.6420  229.50 
  1029.000 -14.488  2.6260  2.6050 -4.3115  2.6260  2.6050  229.00 
  1029.500 -14.237  2.5480  2.4830 -4.0752  2.5480  2.4830  228.50 
  1030.000 -14.201  2.5130  2.3100 -4.0539  2.5130  2.3100  228.00 
  1030.500 -14.165  2.5210  2.1730 -4.0326  2.5210  2.1730  227.50 
  1031.000 -14.452  2.5800  2.0870 -4.3344  2.5800  2.0870  227.00 
  1031.500 -14.345  2.6240  2.0570 -4.2421  2.6240  2.0570  226.50 
  1032.000 -14.201  2.6670  2.0710 -4.1128  2.6670  2.0710  226.00 
  1032.500 -13.878  2.7690  2.1570 -3.8045  2.7690  2.1570  225.50 
  1033.000 -13.411  2.9130  2.3140 -3.3522  2.9130  2.3140  225.00 
  1033.500 -13.106  3.1300  2.4570 -3.0619  3.1300  2.4570  224.50 
  1034.000 -12.801  3.2810  2.6000 -2.7716  3.2810  2.6000  224.00 
  1034.500 -12.370  3.3540  2.7150 -2.3553  3.3540  2.7150  223.50 
  1035.000 -12.154  3.3910  2.7930 -2.1540  3.3910  2.7930  223.00 
  1035.500 -11.975  3.3130  2.8790 -0.3750  3.3130  2.8790  222.50 
  1036.000 -12.370  3.1420  2.9720  0.8300  3.1420  2.9720  222.00 
  1036.500 -13.483  3.0060  3.0430  1.3170  3.0060  3.0430  221.50 
  1037.000 -14.883  3.0360  3.0710  1.5170  3.0360  3.0710  221.00 
  1037.500 -19.623  3.0730  3.0850 -1.6230  3.0730  3.0850  220.50 
  1038.000 -28.205  2.9380  3.0410 -8.6050  2.9380  3.0410  220.00 
  1038.500 -31.077  2.7590  2.8690 -9.8770  2.7590  2.8690  219.50 
  1039.000 -33.088  2.6240  2.6670 -10.288  2.6240  2.6670  219.00 
  1039.500 -34.452  2.5030  2.4510 -10.052  2.5030  2.4510  218.50 
  1040.000 -34.847  2.4470  2.1710 -8.8470  2.4470  2.1710  218.00 
  1040.500 -34.488  2.4660  2.0050 -8.5271  2.4660  2.0050  217.50 
  1041.000 -36.248  2.4840  1.9330 -10.326  2.4840  1.9330  217.00 
  1041.500 -37.504  2.5580  1.9180 -11.621  2.5580  1.9180  216.50 
  1042.000 -37.864  2.6020  1.9390 -12.020  2.6020  1.9390  216.00 
  1042.500 -37.935  2.6380  2.0680 -12.131  2.6380  2.0680  215.50 
  1043.000 -37.253  2.6750  2.1530 -11.488  2.6750  2.1530  215.00 
  1043.500 -34.991  2.6980  2.2280 -9.2648  2.6980  2.2280  214.50 
  1044.000 -33.232  2.7060  2.3030 -7.5450  2.7060  2.3030  214.00 
  1044.500 -31.221  2.5350  2.3600 -5.5731  2.5350  2.3600  213.50 
  1045.000 -30.323  2.3930  2.3740 -4.7142  2.3930  2.3740  213.00 
  1045.500 -30.215  2.2790  2.3160 -4.6453  2.2790  2.3160  212.50 
  1046.000 -32.190  2.2510  2.2370 -6.6594  2.2510  2.2370  212.00 
  1046.500 -34.129  2.2230  2.1570 -8.6376  2.2230  2.1570  211.50 
  1047.000 -35.889  2.2030  2.1170 -10.437  2.2030  2.1170  211.00 
  1047.500 -36.930  2.1820  2.0770 -11.517  2.1820  2.0770  210.50 
  1048.000 -38.115  2.1470  1.9620 -12.741  2.1470  1.9620  210.00 
  1048.500 -38.761  2.1120  1.9330 -13.426  2.1120  1.9330  209.50 
