~Version Information
VERS.                     2.0: CWLS log ASCII Standard Version 2.00
WRAP.                      NO: One line per depth step
~Well Information Block
#MNEM.UNIT                               Data Type  Information
#---------                               ---------  -----------
STRT.FT                                   500.0000:
STOP.FT                                  2702.0000:
STEP.FT                                     0.5000:
NULL.                 -999.25                     :
COMP.                                             :COMPANY            
WELL.     KCL 55-33                               :WELL               
FLD .                                             :FIELD              
CTRY.                                             :COUNTRY            
STAT.                                             :STATE              
LOC .                                             :LOCATION           
UWI .                                             :UNIQUE WELL ID     
SRVC.                                             :Service company    
DATE.                                             :LOG DATE           
~Curve Information
#MNEM.UNIT           API CODE  Curve Description
#---------           --------  -----------------
DEPT.FT                      :   1 DEPTH
SP  .MV                      :   2
ILD .OHMM                    :   3
SN  .OHMM                    :   4
SBL .MV                      :   5
RD  .OHMM                    :   6
RS  .OHMM                    :   7
~A
# ...
  2376.000 -42.390  2.8540  3.5550 -40.980  2.8540  3.5550 
  2376.500 -41.969  2.9700  3.8200 -40.566  2.9700  3.8200 
  2377.000 -41.495  3.0120  3.9470 -40.099  3.0120  3.9470 
  2377.500 -41.391  2.9790  4.0730 -40.002  2.9790  4.0730 
  2378.000 -41.393  3.0320  4.2000 -40.011  3.0320  4.2000 
  2378.500 -41.711  3.1050  4.2840 -40.336  3.1050  4.2840 
  2379.000 -55.489  3.1680  4.1130 -54.121  3.1680  4.1130 
  2379.500 -56.494  3.2310  3.9530 -55.133  3.2310  3.9530 
  2380.000 -46.044  3.3260  3.8670 -44.690  3.3260  3.8670 
  2380.500 -42.298  3.3670  3.9720 -40.951  3.3670  3.9720 
  2381.000 -39.291  3.4090  4.0140 -37.951  3.4090  4.0140 
  2381.500 -36.707  3.3340  4.0560 -35.374  3.3340  4.0560 
  2382.000 -35.916  3.2370  4.0970 -34.590  3.2370  4.0970 
  2382.500 -34.598  3.0130  3.9800 -33.279  3.0130  3.9800 
  2383.000 -33.755  2.7580  3.6710 -32.443  2.7580  3.6710 
  2383.500 -33.070  2.5760  3.3090 -31.765  2.5760  3.3090 
  2384.000 -33.072  2.4690  3.0960 -31.774  2.4690  3.0960 
  2384.500 -39.830  2.3520  2.9890 -38.539  2.3520  2.9890 
  2385.000 -42.734  2.3090  2.8600 -41.450  2.3090  2.8600 
  2385.500 -44.637  2.2650  2.7850 -43.360  2.2650  2.7850 
  2386.000 -45.324  2.2010  2.7000 -44.053  2.2010  2.7000 
  2386.500 -28.699  2.2530  2.6350 -27.435  2.2530  2.6350 
  2387.000 -27.750  2.3260  2.5710 -26.493  2.3260  2.5710 
  2387.500 -27.066  2.4000  2.5800 -25.816  2.4000  2.5800 
  2388.000 -26.381  2.5050  2.6540 -25.138  2.5050  2.6540 
  2388.500 -25.907  2.5260  2.7170 -24.671  2.5260  2.7170 
  2389.000 -25.592  2.5460  2.7800 -24.363  2.5460  2.7800 
  2389.500 -25.383  2.4920  2.8210 -24.161  2.4920  2.8210 
  2390.000 -25.596  2.4380  2.8310 -24.381  2.4380  2.8310 
  2390.500 -26.494  2.3210  2.7450 -25.286  2.3210  2.7450 
  2391.000 -27.499  2.2880  2.7020 -26.298  2.2880  2.7020 
  2391.500 -29.876  2.2550  2.6580 -28.682  2.2550  2.6580 
  2392.000 -33.360  2.2220  2.6040 -32.173  2.2220  2.6040 
  2392.500 -36.845  2.1900  2.5820 -35.665  2.1900  2.5820 
  2393.000 -40.068  2.1890  2.5610 -38.895  2.1890  2.5610 
  2393.500 -40.967  2.2090  2.4740 -39.801  2.2090  2.4740 
  2394.000 -41.549  2.2140  2.4520 -40.390  2.2140  2.4520 
  2394.500 -41.101  2.2180  2.4200 -39.949  2.2180  2.4200 
  2395.000 -40.654  2.2230  2.3970 -39.509  2.2230  2.3970 
  2395.500 -39.707  2.2270  2.3810 -38.569  2.2270  2.3810 
  2396.000 -39.391  2.2260  2.3640 -38.260  2.2260  2.3640 
  2396.500 -39.129  2.2250  2.3420 -38.005  2.2250  2.3420 
  2397.000 -39.342  2.2250  2.3360 -38.225  2.2250  2.3360 
  2397.500 -39.448  2.2340  2.3300 -38.338  2.2340  2.3300 
  2398.000 -36.758  2.2440  2.3290 -35.655  2.2440  2.3290 
  2398.500 -34.596  2.2430  2.3280 -33.500  2.2430  2.3280 
  2399.000 -33.489  2.2420  2.3270 -32.400  2.2420  2.3270 
  2399.500 -33.121  2.2420  2.3260 -32.039  2.2420  2.3260 
  2400.000 -32.806  2.2340  2.3260 -31.731  2.2340  2.3260 
  2400.500 -32.754  2.2270  2.3360 -31.686  2.2270  2.3360 
  2401.000 -33.071  2.2190  2.3360 -32.010  2.2190  2.3360 
  2401.500 -34.074  2.2190  2.3360 -33.020  2.2190  2.3360 
  2402.000 -35.077  2.2190  2.3350 -34.030  2.2190  2.3350 
  2402.500 -33.442  2.2190  2.3360 -32.402  2.2190  2.3360 
  2403.000 -30.486  2.2190  2.3360 -29.453  2.2190  2.3360 
  2403.500 -30.012  2.2130  2.3350 -28.986  2.2130  2.3350 
  2404.000 -27.638  2.2080  2.3350 -26.619  2.2080  2.3350 
  2404.500 -25.896  2.2130  2.3240 -24.884  2.2130  2.3240 
  2405.000 -25.052  2.2180  2.3240 -24.047  2.2180  2.3240 
  2405.500 -24.155  2.2180  2.3240 -23.157  2.2180  2.3240 
  2406.000 -23.733  2.2180  2.3240 -22.742  2.2180  2.3240 
  2406.500 -23.259  2.2180  2.3240 -22.275  2.2180  2.3240 
  2407.000 -22.942  2.2180  2.3240 -21.965  2.2180  2.3240 
  2407.500 -22.521  2.2180  2.3240 -21.551  2.2180  2.3240 
  2408.000 -23.313  2.2390  2.3240 -22.350  2.2390  2.3240 
  2408.500 -24.475  2.2380  2.3130 -23.519  2.2380  2.3130 
  2409.000 -24.951  2.2310  2.3020 -24.002  2.2310  2.3020 
  2409.500 -24.159  2.2240  2.3020 -23.217  2.2240  2.3020 
  2410.000 -23.051  2.2170  2.3020 -22.116  2.2170  2.3020 
  2410.500 -22.419  2.2170  2.3070 -21.491  2.2170  2.3070 
  2411.000 -23.579  2.2170  2.3130 -22.658  2.2170  2.3130 
  2411.500 -24.740  2.2170  2.3230 -23.826  2.2170  2.3230 
  2412.000 -26.907  2.2170  2.3340 -25.999  2.2170  2.3340 
  2412.500 -25.482  2.2380  2.3440 -24.581  2.2380  2.3440 
  2413.000 -23.425  2.2590  2.3490 -22.531  2.2590  2.3490 
  2413.500 -22.739  2.2800  2.3540 -21.852  2.2800  2.3540 
  2414.000 -22.475  2.2850  2.3540 -21.595  2.2850  2.3540 
  2414.500 -22.106  2.2900  2.3540 -21.233  2.2900  2.3540 
  2415.000 -21.632  2.2900  2.3540 -20.766  2.2900  2.3540 
  2415.500 -21.421  2.2910  2.3540 -20.562  2.2910  2.3540 
  2416.000 -21.975  2.3110  2.3540 -21.123  2.3110  2.3540 
  2416.500 -22.529  2.3110  2.3540 -21.684  2.3110  2.3540 
  2417.000 -24.061  2.3110  2.3540 -23.223  2.3110  2.3540 
  2417.500 -25.118  2.3110  2.3540 -24.287  2.3110  2.3540 
  2418.000 -25.488  2.3110  2.3530 -24.664  2.3110  2.3530 
  2418.500 -25.303  2.3110  2.3530 -24.486  2.3110  2.3530 
  2419.000 -25.118  2.3110  2.3530 -24.308  2.3110  2.3530 
  2419.500 -24.750  2.3110  2.3530 -23.947  2.3110  2.3530 
  2420.000 -24.592  2.3030  2.3530 -23.796  2.3030  2.3530 
  2420.500 -24.225  2.2960  2.3480 -23.436  2.2960  2.3480 
  2421.000 -24.066  2.2890  2.3420 -23.284  2.2890  2.3420 
  2421.500 -23.907  2.2890  2.3310 -23.132  2.2890  2.3310 
  2422.000 -23.749  2.2890  2.3310 -22.981  2.2890  2.3310 
  2422.500 -23.909  2.2780  2.3310 -23.148  2.2780  2.3310 
  2423.000 -24.808  2.2730  2.3100 -24.054  2.2730  2.3100 
  2423.500 -24.860  2.2670  2.3100 -24.113  2.2670  2.3100 
  2424.000 -23.858  2.2670  2.2990 -23.118  2.2670  2.2990 
  2424.500 -21.483  2.2460  2.2880 -20.750  2.2460  2.2880 
  2425.000 -19.794  2.2460  2.2720 -19.068  2.2460  2.2720 
  2425.500 -17.526  2.2460  2.2560 -16.807  2.2460  2.2560 
  2426.000 -16.048  2.2350  2.2350 -15.336  2.2350  2.2350 
  2426.500 -15.046  2.2300  2.2240 -14.341  2.2300  2.2240 
  2427.000 -14.491  2.2240  2.2140 -13.793  2.2240  2.2140 
  2427.500 -13.936  2.2240  2.2030 -13.245  2.2240  2.2030 
  2428.000 -13.094  2.2240  2.1710 -12.410  2.2240  2.1710 
  2428.500 -12.673  2.2100  2.1550 -11.996  2.2100  2.1550 
  2429.000 -12.514  2.1960  2.1390 -11.844  2.1960  2.1390 
  2429.500 -12.355  2.1810  2.1170 -11.692  2.1810  2.1170 
  2430.000 -12.462  2.1810  2.1070 -11.806  2.1810  2.1070 
  2430.500 -12.569  2.1700  2.1070 -11.920  2.1700  2.1070 
  2431.000 -12.437  2.1650  2.0850 -11.795  2.1650  2.0850 
  2431.500 -12.305  2.1600  2.0850 -11.670  2.1600  2.0850 
  2432.000 -11.937  2.1490  2.0850 -11.309  2.1490  2.0850 
  2432.500 -11.621  2.1490  2.0850 -11.000  2.1490  2.0850 
  2433.000 -11.357  2.1330  2.0850 -10.743  2.1330  2.0850 
  2433.500 -11.358  2.1170  2.0850 -10.751  2.1170  2.0850 
  2434.000 -10.989  2.1060  2.0850 -10.389  2.1060  2.0850 
  2434.500 -10.356  2.1060  2.0950 -9.7626  2.1060  2.0950 
  2435.000 -9.9860  2.1060  2.0950 -9.3996  2.1060  2.0950 
  2435.500 -9.6170  2.1060  2.1060 -9.0376  2.1060  2.1060 
  2436.000 -9.3550  2.1270  2.1270 -8.7826  2.1270  2.1270 
  2436.500 -9.3550  2.2960  2.2430 -8.7896  2.2960  2.2430 
  2437.000 -9.6200  2.4240  2.3810 -9.0615  2.4240  2.3810 
  2437.500 -9.9370  2.7100  2.7630 -9.3855  2.7100  2.7630 
  2438.000 -10.677  3.0500  3.6340 -10.132  3.0500  3.6340 
  2438.500 -10.941  3.4000  3.8570 -10.403  3.4000  3.8570 
  2439.000 -11.786  3.7510  4.0270 -11.255  3.7510  4.0270 
  2439.500 -14.373  3.8730  4.1330 -13.849  3.8730  4.1330 
  2440.000 -17.858  3.9950  4.1010 -17.341  3.9950  4.1010 
  2440.500 -20.180  4.0370  3.9730 -19.670  4.0370  3.9730 
  2441.000 -21.342  3.9730  3.7180 -20.839  3.9730  3.7180 
  2441.500 -21.712  3.8250  3.4950 -21.216  3.8250  3.4950 
  2442.000 -21.819  3.6760  3.3200 -21.330  3.6760  3.3200 
  2442.500 -21.555  3.2610  3.1450 -21.073  3.2610  3.1450 
