~Version Information
VERS.                     2.0: CWLS log ASCII Standard Version 2.00
WRAP.                      NO: One line per depth step
~Well Information Block
#MNEM.UNIT                               Data Type  Information
#---------                               ---------  -----------
STRT.FT                                   500.0000:
STOP.FT                                  2702.0000:
STEP.FT                                     0.5000:
NULL.                 -999.25                     :
COMP.                                             :COMPANY            
WELL.     KCL 55-33                               :WELL               
FLD .                                             :FIELD              
CTRY.                                             :COUNTRY            
STAT.                                             :STATE              
LOC .                                             :LOCATION           
UWI .                                             :UNIQUE WELL ID     
SRVC.                                             :Service company    
DATE.                                             :LOG DATE           
~Curve Information
#MNEM.UNIT           API CODE  Curve Description
#---------           --------  -----------------
DEPT.FT                      :   1 DEPTH
SP  .MV                      :   2
ILD .OHMM                    :   3
SN  .OHMM                    :   4
SBL .MV                      :   5
RD  .OHMM                    :   6
RS  .OHMM                    :   7
~A
# ...
   902.000 -18.937  4.3340  4.0570 -4.9798  4.3340  4.0570 
   902.500 -18.751  4.1100  3.9070 -4.8009  4.1100  3.9070 
   903.000 -18.565  4.0240  3.7260 -4.6220  4.0240  3.7260 
   903.500 -18.246  3.8860  3.6620 -4.3102  3.8860  3.6620 
   904.000 -18.300  3.8110  3.6190 -4.3713  3.8110  3.6190 
   904.500 -18.354  3.7680  3.6300 -4.4324  3.7680  3.6300 
   905.000 -18.354  3.8210  3.6720 -4.4396  3.8210  3.6720 
   905.500 -18.408  3.8630  3.7140 -4.5007  3.8630  3.7140 
   906.000 -18.408  3.9480  3.7570 -4.5078  3.9480  3.7570 
   906.500 -18.516  4.0120  3.9480 -4.6230  4.0120  3.9480 
   907.000 -18.622  4.1180  4.1080 -4.7361  4.1180  4.1080 
   907.500 -18.676  4.2250  4.1610 -4.7972  4.2250  4.1610 
   908.000 -18.730  4.4160  4.2350 -4.8583  4.4160  4.2350 
   908.500 -18.731  4.6500  4.2670 -4.8665  4.6500  4.2670 
   909.000 -18.785  4.7990  4.2670 -4.9276  4.7990  4.2670 
   909.500 -18.945  4.8950  4.2660 -5.0947  4.8950  4.2660 
   910.000 -19.025  4.9900  4.2980 -5.1819  4.9900  4.2980 
   910.500 -19.106  5.3100  4.3300 -5.2700  5.3100  4.3300 
   911.000 -19.213  5.7570  4.4360 -5.3841  5.7570  4.4360 
   911.500 -19.480  5.9910  4.7020 -5.6583  5.9910  4.7020 
   912.000 -19.640  6.0920  4.9470 -5.8254  6.0920  4.9470 
   912.500 -19.747  6.1930  5.1810 -5.9395  6.1930  5.1810 
   913.000 -20.120  6.3310  5.2660 -6.3196  6.3310  5.2660 
   913.500 -20.281  6.4270  5.3510 -6.4878  6.4270  5.3510 
   914.000 -20.654  6.4260  5.4250 -6.8679  6.4260  5.4250 
   914.500 -20.921  6.3410  5.4570 -7.1420  6.3410  5.4570 
   915.000 -20.868  6.2450  5.4680 -7.0962  6.2450  5.4680 
   915.500 -19.164  6.0320  5.4410 -5.3993  6.0320  5.4410 
   916.000 -18.206  5.7230  5.4140 -4.4484  5.7230  5.4140 
   916.500 -17.621  5.6110  5.2650 -3.8706  5.6110  5.2650 
   917.000 -17.595  5.4990  5.1050 -3.8517  5.4990  5.1050 
   917.500 -17.569  5.2530  5.0090 -3.8328  5.2530  5.0090 
   918.000 -17.889  5.1360  4.8270 -4.1599  5.1360  4.8270 
   918.500 -18.209  5.0290  4.7630 -4.4871  5.0290  4.7630 
   919.000 -19.115  4.9650  4.6990 -5.4002  4.9650  4.6990 
   919.500 -19.541  5.0400  4.5820 -5.8333  5.0400  4.5820 
   920.000 -19.915  5.1780  4.5070 -6.2145  5.1780  4.5070 
   920.500 -20.022  5.3270  4.8690 -6.3286  5.3270  4.8690 
   921.000 -20.182  5.5080  5.2730 -6.4957  5.5080  5.2730 
   921.500 -20.662  5.7950  5.4750 -6.9829  5.7950  5.4750 
   922.000 -21.994  6.3380  5.7520 -8.3220  6.3380  5.7520 
   922.500 -23.539  7.1580  5.8900 -9.8741  7.1580  5.8900 
   923.000 -24.126  7.6580  6.0290 -10.468  7.6580  6.0290 
   923.500 -24.872  7.8920  6.1560 -11.221  7.8920  6.1560 
   924.000 -24.659  8.0200  6.2410 -11.016  8.0200  6.2410 
   924.500 -23.328  8.1150  6.2940 -9.6916  8.1150  6.2940 
   925.000 -21.252  8.1900  6.3470 -7.6228  8.1900  6.3470 
   925.500 -20.986  8.2750  6.4640 -7.3639  8.2750  6.4640 
   926.000 -20.187  8.3170  6.5060 -6.5720  8.3170  6.5060 
   926.500 -19.602  8.3490  6.5490 -5.9942  8.3490  6.5490 
   927.000 -19.310  8.3480  6.6550 -5.7093  8.3480  6.6550 
   927.500 -19.018  8.3060  6.6760 -5.4244  8.3060  6.6760 
   928.000 -18.006  8.2520  6.6970 -4.4195  8.2520  6.6970 
   928.500 -17.687  8.1240  6.6970 -4.1077  8.1240  6.6970 
   929.000 -18.220  7.7190  6.4840 -4.6478  7.7190  6.4840 
   929.500 -18.593  5.7910  6.0470 -5.0279  5.7910  6.0470 
   930.000 -18.700  5.3230  5.5570 -5.1421  5.3230  5.5570 
   930.500 -18.701  5.1520  5.1630 -5.1502  5.1520  5.1630 
   931.000 -18.702  5.1200  4.9600 -5.1583  5.1200  4.9600 
   931.500 -18.702  5.0770  4.8320 -5.1655  5.0770  4.8320 
   932.000 -18.702  5.0770  4.7360 -5.1726  5.0770  4.7360 
   932.500 -18.703  5.0450  4.7150 -5.1807  5.0450  4.7150 
   933.000 -18.704  5.0450  4.6930 -5.1888  5.0450  4.6930 
   933.500 -18.810  5.0340  4.7250 -5.3020  5.0340  4.7250 
   934.000 -18.811  5.0330  4.7250 -5.3101  5.0330  4.7250 
   934.500 -18.865  5.0230  4.6920 -5.3712  5.0230  4.6920 
   935.000 -18.865  5.0120  4.6390 -5.3784  5.0120  4.6390 
   935.500 -18.972  4.9480  4.5430 -5.4925  4.9480  4.5430 
   936.000 -19.026  4.8620  4.4360 -5.5536  4.8620  4.4360 
   936.500 -19.027  4.6170  4.3930 -5.5618  4.6170  4.3930 
   937.000 -19.081  4.4360  4.3510 -5.6229  4.4360  4.3510 
   937.500 -19.188  4.2650  4.2970 -5.7370  4.2650  4.2970 
   938.000 -19.241  4.1580  4.2440 -5.7971  4.1580  4.2440 
   938.500 -19.136  4.1160  4.2220 -5.6993  4.1160  4.2220 
   939.000 -18.763  4.0410  4.1790 -5.3334  4.0410  4.1790 
   939.500 -18.604  3.8490  4.0410 -5.1815  3.8490  4.0410 
   940.000 -18.232  3.7740  3.8910 -4.8167  3.7740  3.8910 
   940.500 -18.658  3.6780  3.7100 -5.2498  3.6780  3.7100 
   941.000 -19.032  3.7100  3.5930 -5.6309  3.7100  3.5930 
   941.500 -19.352  3.7840  3.6250 -5.9581  3.7840  3.6250 
   942.000 -19.832  3.9860  3.7520 -6.4452  3.9860  3.7520 
   942.500 -20.125  4.1030  3.8900 -6.7453  4.1030  3.8900 
   943.000 -20.419  4.2310  3.9650 -7.0465  4.2310  3.9650 
   943.500 -20.845  4.3370  4.0280 -7.4796  4.3370  4.0280 
   944.000 -21.272  4.3900  4.0710 -7.9137  4.3900  4.0710 
   944.500 -21.432  4.4010  4.1020 -8.0808  4.4010  4.1020 
   945.000 -21.273  4.2510  4.1020 -7.9290  4.2510  4.1020 
   945.500 -20.581  4.1020  4.1020 -7.2441  4.1020  4.1020 
   946.000 -20.155  4.0170  4.1020 -6.8252  4.0170  4.1020 
   946.500 -19.677  3.9740  4.0590 -6.3544  3.9740  4.0590 
   947.000 -19.038  3.9310  4.0060 -5.7225  3.9310  4.0060 
   947.500 -18.932  3.8560  3.9680 -5.6236  3.8560  3.9680 
   948.000 -19.146  3.8130  3.9310 -5.8448  3.8130  3.9310 
   948.500 -19.412  3.8030  3.7920 -6.1179  3.8030  3.7920 
   949.000 -19.839  3.7920  3.7280 -6.5520  3.7920  3.7280 
   949.500 -20.319  3.8340  3.7060 -7.0391  3.8340  3.7060 
   950.000 -20.586  3.8870  3.7010 -7.3133  3.8870  3.7010 
   950.500 -20.372  3.9410  3.6960 -7.1064  3.9410  3.6960 
   951.000 -20.159  4.0000  3.6540 -6.9005  4.0000  3.6540 
   951.500 -19.919  4.0590  3.6540 -6.6677  4.0590  3.6540 
   952.000 -19.678  4.1230  3.6550 -6.4338  4.1230  3.6550 
   952.500 -20.210  4.1340  3.6760 -6.9729  4.1340  3.6760 
   953.000 -20.636  4.1450  3.7410 -7.4061  4.1450  3.7410 
   953.500 -20.902  4.1780  3.8690 -7.6792  4.1780  3.8690 
   954.000 -20.555  4.1890  3.9330 -7.3393  4.1890  3.9330 
   954.500 -20.208  4.4550  4.0610 -6.9994  4.4550  4.0610 
   955.000 -19.835  4.8710  4.1470 -6.6336  4.8710  4.1470 
   955.500 -19.648  5.3510  4.3280 -6.4537  5.3510  4.3280 
   956.000 -19.461  5.6810  4.4780 -6.2738  5.6810  4.4780 
   956.500 -19.194  6.0120  4.5740 -6.0140  6.0120  4.5740 
   957.000 -19.353  6.2890  4.9790 -6.1801  6.2890  4.9790 
   957.500 -19.885  6.5560  5.3100 -6.7192  6.5560  5.3100 
   958.000 -20.577  6.7480  5.5340 -7.4184  6.7480  5.5340 
   958.500 -21.695  6.8230  5.6780 -8.5435  6.8230  5.6780 
   959.000 -22.494  6.8660  5.8220 -9.3496  6.8660  5.8220 
   959.500 -21.428  6.8770  6.0570 -8.2907  6.8770  6.0570 
   960.000 -19.883  6.0580  6.1000 -6.7529  6.0580  6.1000 
   960.500 -18.977  5.1850  5.5040 -5.8540  5.1850  5.5040 
   961.000 -18.390  4.7800  4.8340 -5.2741  4.7800  4.8340 
   961.500 -18.017  4.4720  4.5250 -4.9083  4.4720  4.5250 
   962.000 -19.295  4.2810  4.2270 -6.1934  4.2810  4.2270 
   962.500 -20.093  4.1640  4.1370 -6.9985  4.1640  4.1370 
   963.000 -20.838  4.0150  4.0470 -7.7507  4.0150  4.0470 
   963.500 -21.637  3.8990  3.8560 -8.5568  3.8990  3.8560 
   964.000 -21.956  3.8460  3.7610 -8.8829  3.8460  3.7610 
   964.500 -22.008  3.7930  3.7180 -8.9420  3.7930  3.7180 
   965.000 -22.008  3.7300  3.6980 -8.9492  3.7300  3.6980 
   965.500 -21.848  3.7300  3.6770 -8.7963  3.7300  3.6770 
   966.000 -21.687  3.7730  3.7090 -8.6424  3.7730  3.7090 
   966.500 -21.314  3.9440  3.8590 -8.2766  3.9440  3.8590 
   967.000 -21.127  4.2420  3.9340 -8.0967  4.2420  3.9340 
   967.500 -20.940  4.9990  4.1580 -7.9168  4.9990  4.1580 
   968.000 -20.407  5.4790  4.4460 -7.3910  5.4790  4.4460 
   968.500 -20.193  6.5650  5.2980 -7.1841  6.5650  5.2980 
