~Version Information
VERS.                     2.0: CWLS log ASCII Standard Version 2.00
WRAP.                      NO: One line per depth step
~Well Information Block
#MNEM.UNIT                               Data Type  Information
#---------                               ---------  -----------
STRT.FT                                   500.0000:
STOP.FT                                  2702.0000:
STEP.FT                                     0.5000:
NULL.                 -999.25                     :
COMP.                                             :COMPANY            
WELL.     KCL 55-33                               :WELL               
FLD .                                             :FIELD              
CTRY.                                             :COUNTRY            
STAT.                                             :STATE              
LOC .                                             :LOCATION           
UWI .                                             :UNIQUE WELL ID     
SRVC.                                             :Service company    
DATE.                                             :LOG DATE           
~Curve Information
#MNEM.UNIT           API CODE  Curve Description
#---------           --------  -----------------
DEPT.FT                      :   1 DEPTH
SP  .MV                      :   2
ILD .OHMM                    :   3
SN  .OHMM                    :   4
SBL .MV                      :   5
RD  .OHMM                    :   6
RS  .OHMM                    :   7
~A
# ...
   768.000 -26.924  6.7280  5.7160 -7.2438  6.7280  5.7160 
   768.500 -27.457  7.0050  5.6730 -7.7985  7.0050  5.6730 
   769.000 -27.723  7.3460  5.6310 -8.0861  7.3460  5.6310 
   769.500 -26.285  7.5480  5.8440 -6.6698  7.5480  5.8440 
   770.000 -25.166  7.6440  6.0790 -5.5725  7.6440  6.0790 
   770.500 -24.900  7.6230  6.2280 -5.3282  7.6230  6.2280 
   771.000 -25.273  7.5490  6.2920 -5.7229  7.5490  6.2920 
   771.500 -25.859  7.0910  6.3140 -6.3305  7.0910  6.3140 
   772.000 -26.498  6.1970  6.2930 -6.9912  6.1970  6.2930 
   772.500 -26.924  5.9090  5.9950 -7.4389  5.9090  5.9950 
   773.000 -25.752  5.6330  5.7070 -6.2886  5.6330  5.7070 
   773.500 -25.273  5.4090  5.3560 -5.8313  5.4090  5.3560 
   774.000 -25.166  5.2610  5.1330 -5.7459  5.2610  5.1330 
   774.500 -25.087  5.1220  4.9630 -5.6886  5.1220  4.9630 
   775.000 -25.007  5.3250  4.7500 -5.6303  5.3250  4.7500 
   775.500 -24.927  5.5380  4.8140 -5.5720  5.5380  4.8140 
   776.000 -24.847  5.9220  5.0480 -5.5137  5.9220  5.0480 
   776.500 -24.687  6.1770  5.1340 -5.3753  6.1770  5.1340 
   777.000 -24.634  6.5290  5.3470 -5.3440  6.5290  5.3470 
   777.500 -24.581  6.7960  5.4750 -5.3127  6.7960  5.4750 
   778.000 -25.113  7.0830  5.6240 -5.8664  7.0830  5.6240 
   778.500 -25.513  7.2540  5.7520 -6.2881  7.2540  5.7520 
   779.000 -25.912  7.4030  5.8380 -6.7087  7.4030  5.8380 
   779.500 -27.670  7.5520  5.8810 -8.4884  7.5520  5.8810 
   780.000 -28.415  7.6430  5.9020 -9.2551  7.6430  5.9020 
   780.500 -28.415  7.7340  5.9020 -9.2768  7.7340  5.9020 
   781.000 -27.670  7.8830  5.9130 -8.5535  7.8830  5.9130 
   781.500 -26.764  7.9580  6.0730 -7.6691  7.9580  6.0730 
   782.000 -25.805  9.6620  6.5840 -6.7318  9.6620  6.5840 
   782.500 -25.060  10.152  7.2770 -6.0085  10.152  7.2770 
   783.000 -24.261  10.557  7.8100 -5.2312  10.557  7.8100 
   783.500 -23.941  10.898  8.0230 -4.9329  10.898  8.0230 
   784.000 -25.433  11.207  8.1720 -6.4466  11.207  8.1720 
   784.500 -26.445  11.431  8.3000 -7.4802  11.431  8.3000 
   785.000 -26.818  11.570  8.3540 -7.8749  11.570  8.3540 
   785.500 -27.084  11.495  8.4390 -8.1626  11.495  8.4390 
   786.000 -27.297  11.272  8.5030 -8.3973  11.272  8.5030 
   786.500 -27.510  11.070  8.5350 -8.6320  11.070  8.5350 
   787.000 -27.563  11.017  8.4930 -8.7066  11.017  8.4930 
   787.500 -27.617  10.964  8.3330 -8.7823  10.964  8.3330 
   788.000 -27.670  11.678  8.2700 -8.8570  11.678  8.2700 
   788.500 -27.830  11.806  8.2060 -9.0387  11.806  8.2060 
   789.000 -28.043  11.997  8.2490 -9.2734  11.997  8.2490 
   789.500 -28.575  12.157  8.3240 -9.8270  12.157  8.3240 
   790.000 -29.001  12.232  8.4200 -10.275  12.232  8.4200 
   790.500 -29.161  12.307  8.4940 -10.456  12.307  8.4940 
   791.000 -29.108  10.859  8.5050 -10.425  10.859  8.5050 
   791.500 -27.883  9.6240  7.4940 -9.2218  9.6240  7.4940 
   792.000 -26.711  9.3580  6.9830 -8.0714  9.3580  6.9830 
   792.500 -26.551  8.4950  6.7590 -7.9331  8.4950  6.7590 
   793.000 -26.285  8.1120  6.5360 -7.6888  8.1120  6.5360 
   793.500 -25.965  7.9950  6.4400 -7.3905  7.9950  6.4400 
   794.000 -25.646  8.1870  6.3550 -7.0932  8.1870  6.3550 
   794.500 -25.060  9.0390  6.3130 -6.5288  9.0390  6.3130 
   795.000 -24.687  9.7850  6.9410 -6.1775  9.7850  6.9410 
   795.500 -24.367  10.168  7.1650 -5.8792  10.168  7.1650 
   796.000 -24.048  10.296  7.3680 -5.5819  10.296  7.3680 
   796.500 -26.711  10.339  7.5170 -8.2666  10.339  7.5170 
   797.000 -27.457  10.254  7.5810 -9.0342  10.254  7.5810 
   797.500 -27.829  10.020  7.6350 -9.4279  10.020  7.6350 
   798.000 -28.362  8.8700  7.6240 -9.9826  8.8700  7.6240 
   798.500 -28.788  8.4980  7.5070 -10.430  8.4980  7.5070 
   799.000 -29.055  7.9230  7.4120 -10.719  7.9230  7.4120 
   799.500 -28.415  7.2100  7.2100 -10.101  7.2100  7.2100 
   800.000 -27.190  6.6350  5.8250 -8.8973  6.6350  5.8250 
   800.500 -26.391  6.1870  5.4630 -8.1200  6.1870  5.4630 
   801.000 -25.804  5.8470  5.3140 -7.5547  5.8470  5.3140 
   801.500 -25.324  5.7080  5.1440 -7.0964  5.7080  5.1440 
   802.000 -25.058  5.5700  4.9950 -6.8520  5.5700  4.9950 
   802.500 -24.738  5.2180  4.8560 -6.5537  5.2180  4.8560 
   803.000 -25.376  5.1220  4.7180 -7.2134  5.1220  4.7180 
   803.500 -25.802  4.9950  4.6750 -7.6611  4.9950  4.6750 
   804.000 -26.227  5.1120  5.0050 -8.1078  5.1120  5.0050 
   804.500 -25.641  5.2290  5.2500 -7.5434  5.2290  5.2500 
   805.000 -25.161  5.5590  5.3300 -7.0851  5.5590  5.3300 
   805.500 -24.734  5.7930  5.4100 -6.6798  5.7930  5.4100 
   806.000 -24.521  6.5390  5.5700 -6.4885  6.5390  5.5700 
   806.500 -24.733  7.7210  5.6440 -6.7222  7.7210  5.6440 
   807.000 -24.733  7.9550  5.7190 -6.7438  7.9550  5.7190 
   807.500 -24.786  8.0510  5.9110 -6.8185  8.0510  5.9110 
   808.000 -24.732  8.1580  6.1020 -6.7862  8.1580  6.1020 
   808.500 -24.838  8.4660  6.4430 -6.9139  8.4660  6.4430 
   809.000 -24.997  9.5630  7.2200 -7.0946  9.5630  7.2200 
   809.500 -25.156  8.5620  7.5930 -7.2752  8.5620  7.5930 
   810.000 -26.993  10.266  7.8060 -9.1339  10.266  7.8060 
   810.500 -28.831  10.532  7.9660 -10.994  10.532  7.9660 
   811.000 -29.682  10.682  8.0830 -11.866  10.682  8.0830 
   811.500 -29.895  10.809  8.1360 -12.101  10.809  8.1360 
   812.000 -29.947  10.937  8.2320 -12.175  10.937  8.2320 
   812.500 -30.000  10.990  8.2960 -12.249  10.990  8.2960 
   813.000 -30.106  11.044  8.3710 -12.377  11.044  8.3710 
   813.500 -30.159  11.118  8.3970 -12.452  11.118  8.3970 
   814.000 -30.158  11.097  8.4240 -12.472  11.097  8.4240 
   814.500 -30.158  10.873  8.4880 -12.494  10.873  8.4880 
   815.000 -29.465  8.7430  8.4980 -11.823  8.7430  8.4980 
   815.500 -28.133  8.3710  8.4770 -10.512  8.3710  8.4770 
   816.000 -27.120  7.7320  8.2640 -9.5211  7.7320  8.2640 
   816.500 -26.401  6.9860  6.3900 -8.8238  6.9860  6.3900 
   817.000 -25.681  6.3580  6.0600 -8.1254  6.3580  6.0600 
   817.500 -24.562  5.9320  5.7290 -7.0281  5.9320  5.7290 
   818.000 -24.189  5.6120  5.2610 -6.6768  5.6120  5.2610 
   818.500 -23.709  5.2400  5.1330 -6.2185  5.2400  5.1330 
   819.000 -23.229  5.0480  5.0160 -5.7602  5.0480  5.0160 
   819.500 -22.696  4.9520  5.0050 -5.2488  4.9520  5.0050 
   820.000 -22.216  5.4850  5.5380 -4.7905  5.4850  5.5380 
   820.500 -21.895  6.5710  5.6980 -4.4912  6.5710  5.6980 
   821.000 -21.895  6.9540  5.8890 -4.5129  6.9540  5.8890 
   821.500 -22.267  7.0930  6.0810 -4.9066  7.0930  6.0810 
   822.000 -22.533  7.1990  6.1550 -5.1942  7.1990  6.1550 
   822.500 -23.332  7.2630  6.2300 -6.0149  7.2630  6.2300 
   823.000 -24.982  7.2840  6.4220 -7.6866  7.2840  6.4220 
   823.500 -25.887  7.2740  6.5390 -8.6133  7.2740  6.5390 
   824.000 -26.739  7.2420  6.5710 -9.4870  7.2420  6.5710 
   824.500 -26.472  6.5710  6.6030 -9.2416  6.5710  6.6030 
   825.000 -25.406  6.0920  6.4640 -8.1973  6.0920  6.4640 
   825.500 -24.713  5.9210  5.8470 -7.5260  5.9210  5.8470 
   826.000 -24.020  5.6440  5.5060 -6.8547  5.6440  5.5060 
   826.500 -23.167  5.4850  5.3670 -6.0234  5.4850  5.3670 
   827.000 -22.634  5.3890  5.3250 -5.5120  5.3890  5.3250 
   827.500 -22.154  7.2200  6.0600 -5.0537  7.2200  6.0600 
   828.000 -21.568  7.5610  6.5180 -4.4894  7.5610  6.5180 
   828.500 -21.461  7.7320  6.7310 -4.4041  7.7320  6.7310 
   829.000 -21.034  7.8270  6.9970 -3.9988  7.8270  6.9970 
   829.500 -20.927  7.9130  7.1250 -3.9135  7.9130  7.1250 
   830.000 -24.921  7.9450  7.2310 -7.9291  7.9450  7.2310 
   830.500 -26.146  7.9450  7.3160 -9.1758  7.9450  7.3160 
   831.000 -25.932  7.6780  7.3700 -8.9835  7.6780  7.3700 
   831.500 -24.920  7.1990  6.7410 -7.9932  7.1990  6.7410 
   832.000 -23.162  6.5500  6.4380 -6.2569  6.5500  6.4380 
   832.500 -22.096  6.2090  6.1340 -5.2125  6.2090  6.1340 
   833.000 -21.509  5.9320  5.4950 -4.6472  5.9320  5.4950 
   833.500 -21.242  5.7830  5.4950 -4.4019  5.7830  5.4950 
   834.000 -21.242  5.6980  5.5750 -4.4236  5.6980  5.5750 
   834.500 -21.401  5.9000  5.6550 -4.6043  5.9000  5.6550 
