~Version Information
VERS.                     2.0: CWLS log ASCII Standard Version 2.00
WRAP.                      NO: One line per depth step
~Well Information Block
#MNEM.UNIT                               Data Type  Information
#---------                               ---------  -----------
STRT.FT                                   500.0000:
STOP.FT                                  2702.0000:
STEP.FT                                     0.5000:
NULL.                 -999.25                     :
COMP.                                             :COMPANY            
WELL.     KCL 55-33                               :WELL               
FLD .                                             :FIELD              
CTRY.                                             :COUNTRY            
STAT.                                             :STATE              
LOC .                                             :LOCATION           
UWI .                                             :UNIQUE WELL ID     
SRVC.                                             :Service company    
DATE.                                             :LOG DATE           
~Curve Information
#MNEM.UNIT           API CODE  Curve Description
#---------           --------  -----------------
DEPT.FT                      :   1 DEPTH
SP  .MV                      :   2
ILD .OHMM                    :   3
SN  .OHMM                    :   4
SBL .MV                      :   5
RD  .OHMM                    :   6
RS  .OHMM                    :   7
~A
# ...
  1371.000 -27.418  17.432  12.617 -17.418  17.432  12.617 
  1371.500 -27.898  17.368  12.701 -17.898  17.368  12.701 
  1372.000 -28.326  16.431  12.870 -18.326  16.431  12.870 
  1372.500 -29.018  15.437  12.870 -19.018  15.437  12.870 
  1373.000 -28.548  14.443  12.859 -18.548  14.443  12.859 
  1373.500 -24.700  13.464  12.709 -14.700  13.464  12.709 
  1374.000 -23.174  11.869  12.082 -13.174  11.869  12.082 
  1374.500 -22.677  9.8920  10.869 -12.677  9.8920  10.869 
  1375.000 -22.180  8.8810  10.359 -12.180  8.8810  10.359 
  1375.500 -23.455  8.2750  9.8050 -13.455  8.2750  9.8050 
  1376.000 -25.731  8.3800  9.4320 -15.731  8.3800  9.4320 
  1376.500 -24.417  7.3280  9.0810 -14.417  7.3280  9.0810 
  1377.000 -20.939  6.9340  6.4130 -10.939  6.9340  6.4130 
  1377.500 -19.730  6.0610  6.0610 -9.7300  6.0610  6.0610 
  1378.000 -19.311  5.9230  5.7850 -9.3110  5.9230  5.7850 
  1378.500 -18.893  5.7310  5.5610 -8.8930  5.7310  5.5610 
  1379.000 -22.757  5.7940  5.3800 -12.757  5.7940  5.3800 
  1379.500 -24.188  5.8570  5.2520 -14.188  5.8570  5.2520 
  1380.000 -23.348  5.9000  5.1230 -13.348  5.9000  5.1230 
  1380.500 -19.657  5.5800  5.0490 -9.6570  5.5800  5.0490 
  1381.000 -18.397  5.1970  4.9520 -8.3970  5.1970  4.9520 
  1381.500 -18.032  5.0370  4.9200 -8.0320  5.0370  4.9200 
  1382.000 -17.563  4.9410  4.9090 -7.5630  4.9410  4.9090 
  1382.500 -17.041  5.1320  4.9620 -7.0410  5.1320  4.9620 
  1383.000 -16.783  5.2480  5.0140 -6.7830  5.2480  5.0140 
  1383.500 -16.419  5.1520  5.0770 -6.4190  5.1520  5.0770 
  1384.000 -16.344  5.5340  5.0770 -6.3440  5.5340  5.0770 
  1384.500 -16.269  5.9050  5.0440 -6.2690  5.9050  5.0440 
  1385.000 -16.277  6.1070  4.9800 -6.2770  6.1070  4.9800 
  1385.500 -16.335  6.3190  5.0010 -6.3350  6.3190  5.0010 
  1386.000 -16.393  6.6580  5.1910 -6.3930  6.6580  5.1910 
  1386.500 -16.424  6.8710  5.4670 -6.4240  6.8710  5.4670 
  1387.000 -16.456  7.2310  5.8280 -6.4560  7.2310  5.8280 
  1387.500 -16.782  7.4860  6.1780 -6.7820  7.4860  6.1780 
  1388.000 -17.317  7.7300  6.5820 -7.3170  7.7300  6.5820 
  1388.500 -18.060  7.8360  6.8900 -8.0600  7.8360  6.8900 
  1389.000 -22.608  7.9310  7.0910 -12.608  7.9310  7.0910 
  1389.500 -23.935  7.9730  7.2390 -13.935  7.9730  7.2390 
  1390.000 -21.036  7.7600  6.7180 -11.036  7.7600  6.7180 
  1390.500 -19.510  5.9310  6.0750 -9.5100  5.9310  6.0750 
  1391.000 -18.142  5.7660  5.4310 -8.1420  5.7660  5.4310 
  1391.500 -17.515  5.6010  4.8990 -7.5150  5.6010  4.8990 
  1392.000 -17.256  5.3130  4.7550 -7.2560  5.3130  4.7550 
  1392.500 -17.315  5.0260  4.6110 -7.3150  5.0260  4.6110 
  1393.000 -17.850  4.8390  4.3440 -7.8500  4.8390  4.3440 
  1393.500 -18.224  4.6520  4.2160 -8.2240  4.6520  4.2160 
  1394.000 -18.917  4.3750  4.1090 -8.9170  4.3750  4.1090 
  1394.500 -19.399  4.2900  4.0880 -9.3990  4.2900  4.0880 
  1395.000 -19.668  4.1720  4.0340 -9.6680  4.1720  4.0340 
  1395.500 -19.462  4.1500  4.0010 -9.4620  4.1500  4.0010 
  1396.000 -19.204  4.1180  3.9900 -9.2040  4.1180  3.9900 
  1396.500 -18.946  4.1920  3.9850 -8.9460  4.1920  3.9850 
  1397.000 -18.583  4.2980  3.9790 -8.5830  4.2980  3.9790 
  1397.500 -18.351  4.4040  4.0520 -8.3510  4.4040  4.0520 
  1398.000 -18.119  4.6050  4.1800 -8.1190  4.6050  4.1800 
  1398.500 -17.913  4.7640  4.4660 -7.9130  4.7640  4.4660 
  1399.000 -17.602  4.8800  4.6460 -7.6020  4.8800  4.6460 
  1399.500 -17.422  4.8690  4.7310 -7.4220  4.8690  4.7310 
  1400.000 -17.243  4.8900  4.7780 -7.2430  4.8900  4.7780 
  1400.500 -17.058  4.9000  4.8250 -7.0580  4.9000  4.8250 
  1401.000 -16.874  4.8990  4.9200 -6.8740  4.8990  4.9200 
  1401.500 -16.613  4.8870  5.0150 -6.6130  4.8870  5.0150 
  1402.000 -16.403  4.9500  5.1200 -6.4030  4.9500  5.1200 
  1402.500 -16.219  5.3110  5.2580 -6.2190  5.3110  5.2580 
  1403.000 -16.035  5.9160  5.5340 -6.0350  5.9160  5.5340 
  1403.500 -15.983  6.1650  5.8730 -5.9830  6.1650  5.8730 
  1404.000 -16.196  6.4140  6.4460 -6.1960  6.4140  6.4460 
  1404.500 -17.464  9.0920  7.6040 -7.4640  9.0920  7.6040 
  1405.000 -22.853  9.7720  8.3470 -12.853  9.7720  8.3470 
  1405.500 -24.649  10.675  8.5910 -14.649  10.675  8.5910 
  1406.000 -25.601  12.864  8.8560 -15.601  12.864  8.8560 
  1406.500 -26.342  13.107  9.0040 -16.342  13.107  9.0040 
  1407.000 -26.766  13.128  9.0890 -16.766  13.128  9.0890 
  1407.500 -26.978  9.8740  9.1620 -16.978  9.8740  9.1620 
  1408.000 -27.295  8.8000  8.7360 -17.295  8.8000  8.7360 
  1408.500 -19.057  8.3320  7.3640 -9.0570  8.3320  7.3640 
  1409.000 -16.259  8.0440  7.1190 -6.2590  8.0440  7.1190 
  1409.500 -15.837  7.9160  7.0010 -5.8370  7.9160  7.0010 
  1410.000 -15.522  9.5730  7.1390 -5.5220  9.5730  7.1390 
  1410.500 -15.523  10.806  7.5740 -5.5230  10.806  7.5740 
  1411.000 -16.369  11.719  8.1790 -6.3690  11.719  8.1790 
  1411.500 -18.641  12.356  8.5190 -8.6410  12.356  8.5190 
  1412.000 -20.438  12.812  8.9850 -10.438  12.812  8.9850 
  1412.500 -22.394  13.439  9.4210 -12.394  13.439  9.4210 
  1413.000 -23.397  13.746  9.7600 -13.397  13.746  9.7600 
  1413.500 -25.036  13.926  10.014 -15.036  13.926  10.014 
  1414.000 -24.773  14.138  10.141 -14.773  14.138  10.141 
  1414.500 -24.721  14.456  10.183 -14.721  14.456  10.183 
  1415.000 -25.038  14.509  9.9380 -15.038  14.509  9.9380 
  1415.500 -25.303  8.9380  9.3520 -15.303  8.9380  9.3520 
  1416.000 -25.569  8.0870  9.1710 -15.569  8.0870  9.1710 
  1416.500 -25.887  7.4370  9.0000 -15.887  7.4370  9.0000 
  1417.000 -25.995  6.7560  8.6910 -15.995  6.7560  8.6910 
  1417.500 -25.678  6.2240  8.0950 -15.678  6.2240  8.0950 
  1418.000 -19.606  5.9680  6.0750 -9.6060  5.9680  6.0750 
  1418.500 -18.681  5.6700  5.4790 -8.6810  5.6700  5.4790 
  1419.000 -17.757  5.4030  5.1800 -7.7570  5.4030  5.1800 
  1419.500 -16.704  5.2380  4.9460 -6.7040  5.2380  4.9460 
  1420.000 -16.441  5.0730  4.8070 -6.4410  5.0730  4.8070 
  1420.500 -16.177  6.1030  5.0720 -6.1770  6.1030  5.0720 
  1421.000 -15.914  7.5160  5.6240 -5.9140  7.5160  5.6240 
  1421.500 -15.729  8.4610  6.1330 -5.7290  8.4610  6.1330 
  1422.000 -15.545  8.8960  6.7700 -5.5450  8.8960  6.7700 
  1422.500 -15.550  9.2250  7.8860 -5.5500  9.2250  7.8860 
  1423.000 -15.761  9.5220  9.0970 -5.7610  9.5220  9.0970 
  1423.500 -18.086  9.8080  9.8510 -8.0860  9.8080  9.8510 
  1424.000 -23.684  9.9830  10.201 -13.684  9.9830  10.201 
  1424.500 -26.380  10.158  10.551 -16.380  10.158  10.551 
  1425.000 -26.750  10.539  10.805 -16.750  10.539  10.805 
  1425.500 -27.121  10.730  10.974 -17.121  10.730  10.974 
  1426.000 -26.805  10.878  11.059 -16.805  10.878  11.059 
  1426.500 -26.066  10.335  10.739 -16.066  10.335  10.739 
  1427.000 -21.632  8.6120  7.6880 -11.632  8.6120  7.6880 
  1427.500 -18.253  7.4740  7.0170 -8.2530  7.4740  7.0170 
  1428.000 -17.355  6.9630  6.5700 -7.3550  6.9630  6.5700 
  1428.500 -16.091  6.8140  6.3350 -6.0910  6.8140  6.3350 
  1429.000 -15.905  6.6530  6.2070 -5.9050  6.6530  6.2070 
  1429.500 -15.719  7.2270  6.0580 -5.7190  7.2270  6.0580 
  1430.000 -17.783  8.0550  7.2690 -7.7830  8.0550  7.2690 
  1430.500 -19.633  8.9050  7.5650 -9.6330  8.9050  7.5650 
  1431.000 -22.062  9.2660  7.7770 -12.062  9.2660  7.7770 
  1431.500 -23.490  9.5620  7.8940 -13.490  9.5620  7.8940 
  1432.000 -24.177  9.7100  8.0100 -14.177  9.7100  8.0100 
  1432.500 -23.967  9.8690  8.1260 -13.967  9.8690  8.1260 
  1433.000 -19.373  9.7510  8.1780 -9.3730  9.7510  8.1780 
  1433.500 -16.839  9.0390  8.2090 -6.8390  9.0390  8.2090 
  1434.000 -15.942  7.5280  8.1980 -5.9420  7.5280  8.1980 
  1434.500 -15.309  7.1240  7.9530 -5.3090  7.1240  7.9530 
  1435.000 -14.993  6.5920  6.4320 -4.9930  6.5920  6.4320 
  1435.500 -15.365  6.0490  6.0270 -5.3650  6.0490  6.0270 
  1436.000 -15.524  5.5910  5.5590 -5.5240  5.5910  5.5590 
  1436.500 -15.896  5.2920  5.4150 -5.8960  5.2920  5.4150 
  1437.000 -16.108  5.1430  5.2710 -6.1080  5.1430  5.2710 
  1437.500 -16.794  5.0460  4.9930 -6.7940  5.0460  4.9930 
