~Version Information
VERS.                     2.0: CWLS log ASCII Standard Version 2.00
WRAP.                      NO: One line per depth step
~Well Information Block
#MNEM.UNIT                               Data Type  Information
#---------                               ---------  -----------
STRT.FT                                   500.0000:
STOP.FT                                  2702.0000:
STEP.FT                                     0.5000:
NULL.                 -999.25                     :
COMP.                                             :COMPANY            
WELL.     KCL 55-33                               :WELL               
FLD .                                             :FIELD              
CTRY.                                             :COUNTRY            
STAT.                                             :STATE              
LOC .                                             :LOCATION           
UWI .                                             :UNIQUE WELL ID     
SRVC.                                             :Service company    
DATE.                                             :LOG DATE           
~Curve Information
#MNEM.UNIT           API CODE  Curve Description
#---------           --------  -----------------
DEPT.FT                      :   1 DEPTH
SP  .MV                      :   2
ILD .OHMM                    :   3
SN  .OHMM                    :   4
SBL .MV                      :   5
RD  .OHMM                    :   6
RS  .OHMM                    :   7
~A
# ...
  1773.000 -13.851  5.0400  4.9120 -3.8510  5.0400  4.9120 
  1773.500 -12.851  4.9970  4.8910 -2.8510  4.9970  4.8910 
  1774.000 -12.642  4.9860  5.0920 -2.6420  4.9860  5.0920 
  1774.500 -12.751  5.9530  5.5490 -2.7510  5.9530  5.5490 
  1775.000 -14.392  7.1540  5.9850 -4.3920  7.1540  5.9850 
  1775.500 -18.884  11.926  6.7600 -8.8840  11.926  6.7600 
  1776.000 -22.742  12.872  7.7690 -12.742  12.872  7.7690 
  1776.500 -24.014  14.870  8.8530 -14.014  14.870  8.8530 
  1777.000 -25.496  15.273  10.979 -15.496  15.273  10.979 
  1777.500 -29.459  15.655  11.584 -19.459  15.655  11.584 
  1778.000 -31.945  15.814  11.717 -21.945  15.814  11.717 
  1778.500 -32.740  15.910  11.850 -22.740  15.910  11.850 
  1779.000 -33.430  15.909  12.008 -23.430  15.909  12.008 
  1779.500 -33.750  15.856  12.061 -23.750  15.856  12.061 
  1780.000 -33.858  15.622  12.071 -23.858  15.622  12.071 
  1780.500 -30.535  10.136  11.582 -20.535  10.136  11.582 
  1781.000 -25.943  9.5830  9.3810 -15.943  9.5830  9.3810 
  1781.500 -23.675  9.2950  8.4340 -13.675  9.2950  8.4340 
  1782.000 -21.724  9.0400  8.0940 -11.724  9.0400  8.0940 
  1782.500 -20.778  8.9330  7.7850 -10.778  8.9330  7.7850 
  1783.000 -20.357  9.8360  8.0610 -10.357  9.8360  8.0610 
  1783.500 -24.745  10.835  8.5180 -14.745  10.835  8.5180 
  1784.000 -26.385  11.185  8.7720 -16.385  11.185  8.7720 
  1784.500 -26.864  11.334  8.9100 -16.864  11.334  8.9100 
  1785.000 -24.121  11.418  8.7720 -14.121  11.418  8.7720 
  1785.500 -23.172  11.429  8.5900 -13.172  11.429  8.5900 
  1786.000 -22.278  11.386  8.4090 -12.278  11.386  8.4090 
  1786.500 -22.915  10.864  8.2970 -12.915  10.864  8.2970 
  1787.000 -23.551  9.3440  8.1850 -13.551  9.3440  8.1850 
  1787.500 -24.347  8.7380  8.1210 -14.347  8.7380  8.1210 
  1788.000 -24.720  7.6960  8.0040 -14.720  7.6960  8.0040 
  1788.500 -20.445  6.8340  7.2060 -10.445  6.8340  7.2060 
  1789.000 -19.443  5.9940  5.5900 -9.4430  5.9940  5.5900 
  1789.500 -18.442  5.5360  5.0260 -8.4420  5.5360  5.0260 
  1790.000 -17.920  5.1850  4.7170 -7.9200  5.1850  4.7170 
  1790.500 -17.553  5.0360  4.6110 -7.5530  5.0360  4.6110 
  1791.000 -16.977  4.8760  4.6100 -6.9770  4.8760  4.6100 
  1791.500 -16.557  4.8760  4.8010 -6.5570  4.8760  4.8010 
  1792.000 -16.138  5.2150  5.0560 -6.1380  5.2150  5.0560 
  1792.500 -15.823  5.4700  5.1930 -5.8230  5.4700  5.1930 
  1793.000 -15.456  5.8200  5.3050 -5.4560  5.8200  5.3050 
  1793.500 -16.516  6.0330  5.4170 -6.5160  6.0330  5.4170 
  1794.000 -17.945  6.1810  5.5220 -7.9450  6.1810  5.5220 
  1794.500 -18.740  6.2870  5.6280 -8.7400  6.2870  5.6280 
  1795.000 -15.734  6.3180  5.6380 -5.7340  6.3180  5.6380 
  1795.500 -14.312  6.3600  5.5100 -4.3120  6.3600  5.5100 
  1796.000 -13.944  6.3810  5.4410 -3.9440  6.3810  5.4410 
  1796.500 -13.418  6.3380  5.3710 -3.4180  6.3380  5.3710 
  1797.000 -12.892  6.3270  5.2640 -2.8920  6.3270  5.2640 
  1797.500 -12.633  6.2420  5.2960 -2.6330  6.2420  5.2960 
  1798.000 -14.697  6.1670  5.3540 -4.6970  6.1670  5.3540 
  1798.500 -16.072  6.1560  5.4120 -6.0720  6.1560  5.4120 
  1799.000 -17.767  6.1550  5.4700 -7.7670  6.1550  5.4700 
  1799.500 -19.037  6.1440  5.5280 -9.0370  6.1440  5.5280 
  1800.000 -15.819  5.9740  5.6020 -5.8190  5.9740  5.6020 
  1800.500 -15.186  5.1020  4.8050 -5.1860  5.1020  4.8050 
  1801.000 -15.399  4.7510  4.4010 -5.3990  4.7510  4.4010 
  1801.500 -15.454  4.3790  4.0920 -5.4540  4.3790  4.0920 
  1802.000 -15.454  4.1620  3.9440 -5.4540  4.1620  3.9440 
  1802.500 -15.453  3.9440  3.7950 -5.4530  3.9440  3.7950 
  1803.000 -15.377  3.7630  3.6140 -5.3770  3.7630  3.6140 
  1803.500 -15.301  3.8910  3.6350 -5.3010  3.8910  3.6350 
  1804.000 -15.249  4.0180  3.9540 -5.2490  4.0180  3.9540 
  1804.500 -15.196  4.4850  4.1880 -5.1960  4.4850  4.1880 
  1805.000 -14.515  4.5920  4.4220 -4.5150  4.5920  4.4220 
  1805.500 -14.198  4.6990  4.6980 -4.1980  4.6990  4.6980 
  1806.000 -13.672  5.0390  4.8360 -3.6720  5.0390  4.8360 
  1806.500 -14.307  5.4210  4.8680 -4.3070  5.4210  4.8680 
  1807.000 -15.206  5.7930  4.8580 -5.2060  5.7930  4.8580 
  1807.500 -15.313  6.1650  4.9690 -5.3130  6.1650  4.9690 
  1808.000 -14.841  6.6010  5.0810 -4.8410  6.6010  5.0810 
  1808.500 -14.736  7.9400  5.3040 -4.7360  7.9400  5.3040 
  1809.000 -14.632  11.756  5.6760 -4.6320  11.756  5.6760 
  1809.500 -14.527  14.882  7.6530 -4.5270  14.882  7.6530 
  1810.000 -20.550  16.997  9.4600 -10.550  16.997  9.4600 
  1810.500 -23.403  17.741  12.139 -13.403  17.741  12.139 
  1811.000 -25.623  18.124  12.586 -15.623  18.124  12.586 
  1811.500 -27.208  18.272  12.756 -17.208  18.272  12.756 
  1812.000 -28.425  18.304  12.915 -18.425  18.304  12.915 
  1812.500 -28.875  18.156  13.032 -18.875  18.156  13.032 
  1813.000 -29.324  17.815  12.926 -19.324  17.815  12.926 
  1813.500 -29.697  17.358  12.841 -19.697  17.358  12.841 
  1814.000 -28.932  15.764  12.756 -18.932  15.764  12.756 
  1814.500 -28.167  12.288  12.182 -18.167  12.288  12.182 
  1815.000 -27.218  11.863  11.129 -17.218  11.863  11.129 
  1815.500 -26.269  11.746  10.162 -16.269  11.746  10.162 
  1816.000 -24.952  11.682  9.9810 -14.952  11.682  9.9810 
  1816.500 -23.898  11.682  9.8640 -13.898  11.682  9.8640 
  1817.000 -23.477  12.065  9.8540 -13.477  12.065  9.8540 
  1817.500 -24.376  12.437  10.290 -14.376  12.437  10.290 
  1818.000 -25.276  12.703  10.587 -15.276  12.703  10.587 
  1818.500 -25.646  12.830  10.885 -15.646  12.830  10.885 
  1819.000 -26.546  12.915  11.385 -16.546  12.915  11.385 
  1819.500 -29.082  12.958  11.555 -19.082  12.958  11.555 
  1820.000 -31.461  12.989  11.725 -21.461  12.989  11.725 
  1820.500 -32.625  12.990  11.884 -22.625  12.990  11.884 
  1821.000 -33.313  12.915  11.958 -23.313  12.915  11.958 
  1821.500 -33.842  11.948  11.916 -23.842  11.948  11.916 
  1822.000 -34.213  11.204  11.873 -24.213  11.204  11.873 
  1822.500 -32.948  10.630  11.767 -22.948  10.630  11.767 
  1823.000 -28.144  9.8750  11.278 -18.144  9.8750  11.278 
  1823.500 -25.134  8.8860  9.6200 -15.134  8.8860  9.6200 
  1824.000 -22.179  8.1960  8.8220 -12.179  8.1960  8.8220 
  1824.500 -19.011  6.6540  8.1740 -9.0110  6.6540  8.1740 
  1825.000 -17.218  6.1550  6.2610 -7.2180  6.1550  6.2610 
  1825.500 -16.664  5.7610  5.2090 -6.6640  5.7610  5.2090 
  1826.000 -16.110  5.2720  4.6560 -6.1100  5.2720  4.6560 
  1826.500 -15.689  4.8580  4.4640 -5.6890  4.8580  4.4640 
  1827.000 -15.269  4.5810  4.3580 -5.2690  4.5810  4.3580 
  1827.500 -14.848  4.4220  4.3580 -4.8480  4.4220  4.3580 
  1828.000 -14.428  4.2730  4.3580 -4.4280  4.2730  4.3580 
  1828.500 -14.190  4.1770  4.3900 -4.1900  4.1770  4.3900 
  1829.000 -13.953  4.2090  4.4220 -3.9530  4.2090  4.4220 
  1829.500 -13.324  4.2090  4.4430 -3.3240  4.2090  4.4430 
  1830.000 -13.113  4.2200  4.0290 -3.1130  4.2200  4.0290 
  1830.500 -12.904  4.0180  3.8050 -2.9040  4.0180  3.8050 
  1831.000 -14.756  3.7520  3.6780 -4.7560  3.7520  3.6780 
  1831.500 -15.390  3.6670  3.6350 -5.3900  3.6670  3.6350 
  1832.000 -15.814  3.9120  3.8270 -5.8140  3.9120  3.8270 
  1832.500 -15.709  4.6880  4.1990 -5.7090  4.6880  4.1990 
  1833.000 -15.605  5.4640  4.7730 -5.6050  5.4640  4.7730 
  1833.500 -15.554  6.3990  5.4640 -5.5540  6.3990  5.4640 
  1834.000 -15.608  7.6960  6.8130 -5.6080  7.6960  6.8130 
  1834.500 -15.769  8.2700  6.9940 -5.7690  8.2700  6.9940 
  1835.000 -15.875  8.6950  7.1750 -5.8750  8.6950  7.1750 
  1835.500 -19.469  8.8230  7.5040 -9.4690  8.8230  7.5040 
  1836.000 -23.959  8.9510  7.6430 -13.959  8.9510  7.6430 
  1836.500 -25.124  8.7480  7.7330 -15.124  8.7480  7.7330 
  1837.000 -25.230  7.9400  7.8240 -15.230  7.9400  7.8240 
  1837.500 -22.222  7.2710  7.7280 -12.222  7.2710  7.7280 
  1838.000 -18.420  6.8350  7.4620 -8.4200  6.8350  7.4620 
  1838.500 -15.940  6.5900  6.7920 -5.9400  6.5900  6.7920 
  1839.000 -14.780  6.2720  6.1550 -4.7800  6.2720  6.1550 
  1839.500 -14.202  7.5900  6.3780 -4.2020  7.5900  6.3780 
