~Version Information
VERS.                     2.0: CWLS log ASCII Standard Version 2.00
WRAP.                      NO: One line per depth step
~Well Information Block
#MNEM.UNIT                               Data Type  Information
#---------                               ---------  -----------
STRT.FT                                   500.0000:
STOP.FT                                  2702.0000:
STEP.FT                                     0.5000:
NULL.                 -999.25                     :
COMP.                                             :COMPANY            
WELL.     KCL 55-33                               :WELL               
FLD .                                             :FIELD              
CTRY.                                             :COUNTRY            
STAT.                                             :STATE              
LOC .                                             :LOCATION           
UWI .                                             :UNIQUE WELL ID     
SRVC.                                             :Service company    
DATE.                                             :LOG DATE           
~Curve Information
#MNEM.UNIT           API CODE  Curve Description
#---------           --------  -----------------
DEPT.FT                      :   1 DEPTH
SP  .MV                      :   2
ILD .OHMM                    :   3
SN  .OHMM                    :   4
SBL .MV                      :   5
RD  .OHMM                    :   6
RS  .OHMM                    :   7
~A
# ...
  1237.000 -31.340  30.486  15.943 -21.340  30.486  15.943 
  1237.500 -31.872  30.797  16.048 -21.872  30.797  16.048 
  1238.000 -32.036  30.685  16.122 -22.036  30.685  16.122 
  1238.500 -31.722  29.933  16.132 -21.722  29.933  16.132 
  1239.000 -31.040  29.395  16.120 -21.040  29.395  16.120 
  1239.500 -29.989  27.366  16.013 -19.989  27.366  16.013 
  1240.000 -29.042  25.021  15.811 -19.042  25.021  15.811 
  1240.500 -27.937  21.760  14.928 -17.937  21.760  14.928 
  1241.000 -26.991  18.498  13.864 -16.991  18.498  13.864 
  1241.500 -26.362  17.669  13.321 -16.362  17.669  13.321 
  1242.000 -25.786  11.747  11.822 -15.786  11.747  11.822 
  1242.500 -25.842  10.800  10.917 -15.842  10.800  10.917 
  1243.000 -26.797  9.8750  9.6090 -16.797  9.8750  9.6090 
  1243.500 -27.382  7.4080  9.1080 -17.382  7.4080  9.1080 
  1244.000 -27.069  6.1210  8.2150 -17.069  6.1210  8.2150 
  1244.500 -22.954  5.1950  6.3650 -12.954  5.1950  6.3650 
  1245.000 -20.477  4.8650  5.5350 -10.477  4.8650  5.5350 
  1245.500 -19.687  4.5880  5.1410 -9.6870  4.5880  5.1410 
  1246.000 -18.900  4.3850  4.8960 -8.9000  4.3850  4.8960 
  1246.500 -18.377  4.3210  4.6820 -8.3770  4.3210  4.6820 
  1247.000 -18.169  4.5430  4.5430 -8.1690  4.5430  4.5430 
  1247.500 -18.120  4.6590  4.7980 -8.1200  4.6590  4.7980 
  1248.000 -18.125  4.7650  4.9570 -8.1250  4.7650  4.9570 
  1248.500 -19.238  4.9660  5.1160 -9.2380  4.9660  5.1160 
  1249.000 -22.622  5.1780  5.6350 -12.622  5.1780  5.6350 
  1249.500 -23.894  5.9430  5.8260 -13.894  5.9430  5.8260 
  1250.000 -19.304  6.9310  5.8890 -9.3040  6.9310  5.8890 
  1250.500 -17.775  7.3650  5.8140 -7.7750  7.3650  5.8140 
  1251.000 -16.933  9.4160  6.0250 -6.9330  9.4160  6.0250 
  1251.500 -16.672  11.073  6.8430 -6.6720  11.073  6.8430 
  1252.000 -21.270  11.572  7.5750 -11.270  11.572  7.5750 
  1252.500 -23.121  11.784  8.2340 -13.121  11.784  8.2340 
  1253.000 -24.128  11.996  8.7330 -14.128  11.996  8.7330 
  1253.500 -24.977  12.239  9.0720 -14.977  12.239  9.0720 
  1254.000 -25.771  12.271  9.2200 -15.771  12.271  9.2200 
  1254.500 -26.567  12.025  9.3040 -16.567  12.025  9.3040 
  1255.000 -24.827  10.494  8.8140 -14.827  10.494  8.8140 
  1255.500 -20.976  7.5700  8.4730 -10.976  7.5700  8.4730 
  1256.000 -20.027  6.6230  7.8240 -10.027  6.6230  7.8240 
  1256.500 -19.291  5.8990  6.8340 -9.2910  5.8990  6.8340 
  1257.000 -18.977  5.4520  5.5900 -8.9770  5.4520  5.5900 
  1257.500 -18.663  5.1000  5.2380 -8.6630  5.1000  5.2380 
  1258.000 -18.509  4.9400  4.9290 -8.5090  4.9400  4.9290 
  1258.500 -18.566  4.8330  4.7050 -8.5660  4.8330  4.7050 
  1259.000 -18.674  4.7470  4.5980 -8.6740  4.7470  4.5980 
  1259.500 -18.941  4.7250  4.6930 -8.9410  4.7250  4.6930 
  1260.000 -18.996  4.7340  4.7610 -8.9960  4.7340  4.7610 
  1260.500 -19.051  4.7550  4.8300 -9.0510  4.7550  4.8300 
  1261.000 -18.792  4.7860  4.9240 -8.7920  4.7860  4.9240 
  1261.500 -17.793  4.8700  4.9970 -7.7930  4.8700  4.9970 
  1262.000 -17.268  5.0820  5.0070 -7.2680  5.0820  5.0070 
  1262.500 -17.111  5.1340  4.9750 -7.1110  5.1340  4.9750 
  1263.000 -17.643  5.3880  4.9310 -7.6430  5.3880  4.9310 
  1263.500 -18.809  5.7010  4.8880 -8.8090  5.7010  4.8880 
  1264.000 -19.233  6.0140  4.8770 -9.2330  6.0140  4.8770 
  1264.500 -18.023  6.3640  4.9500 -8.0230  6.3640  4.9500 
  1265.000 -17.708  6.4800  5.0230 -7.7080  6.4800  5.0230 
  1265.500 -17.975  6.5530  5.1400 -7.9750  6.5530  5.1400 
  1266.000 -18.667  6.6380  5.2880 -8.6670  6.6380  5.2880 
  1266.500 -18.563  6.6790  5.3930 -8.5630  6.6790  5.3930 
  1267.000 -17.669  6.6680  5.4990 -7.6690  6.6680  5.4990 
  1267.500 -17.091  6.5600  5.7740 -7.0910  6.5600  5.7740 
  1268.000 -16.409  6.3150  5.8690 -6.4090  6.3150  5.8690 
  1268.500 -16.199  5.8150  5.9640 -6.1990  5.8150  5.9640 
  1269.000 -16.201  5.6280  6.0160 -6.2010  5.6280  6.0160 
  1269.500 -16.204  5.4420  5.2810 -6.2040  5.4420  5.2810 
  1270.000 -16.261  5.2550  5.1640 -6.2610  5.2550  5.1640 
  1270.500 -16.582  5.0680  5.0470 -6.5820  5.0680  5.0470 
  1271.000 -16.798  4.9180  4.8330 -6.7980  4.9180  4.8330 
  1271.500 -17.010  4.8640  4.7790 -7.0100  4.8640  4.7790 
  1272.000 -17.066  4.8520  4.7570 -7.0660  4.8520  4.7570 
  1272.500 -17.068  4.8940  4.7560 -7.0680  4.8940  4.7560 
  1273.000 -17.070  5.1900  4.7860 -7.0700  5.1900  4.7860 
  1273.500 -17.153  5.4450  4.8710 -7.1530  5.4450  4.8710 
  1274.000 -17.236  8.2400  5.2310 -7.2360  8.2400  5.2310 
  1274.500 -17.293  8.6320  6.6440 -7.2930  8.6320  6.6440 
  1275.000 -17.350  8.7700  7.4190 -7.3500  8.7700  7.4190 
  1275.500 -18.356  8.9070  7.8010 -8.3560  8.9070  7.8010 
  1276.000 -21.898  9.1720  8.0240 -11.898  9.1720  8.0240 
  1276.500 -24.805  9.2980  8.1820 -14.805  9.2980  8.1820 
  1277.000 -28.823  9.3610  8.2880 -18.823  9.3610  8.2880 
  1277.500 -29.935  9.2970  8.3080 -19.935  9.2970  8.3080 
  1278.000 -29.674  8.5410  8.1050 -19.674  8.5410  8.1050 
  1278.500 -23.867  7.5940  7.9660 -13.867  7.5940  7.9660 
  1279.000 -19.276  6.8710  7.7320 -9.2760  6.8710  7.7320 
  1279.500 -18.487  5.8700  5.9020 -8.4870  5.8700  5.9020 
  1280.000 -17.752  5.6040  5.6150 -7.7520  5.6040  5.6150 
  1280.500 -17.305  5.4970  5.4440 -7.3050  5.4970  5.4440 
  1281.000 -16.858  6.2400  5.4430 -6.8580  6.2400  5.4430 
  1281.500 -15.912  6.7710  5.5480 -5.9120  6.7710  5.5480 
  1282.000 -15.335  7.3970  5.7070 -5.3350  7.3970  5.7070 
  1282.500 -15.125  8.1610  6.0570 -5.1250  8.1610  6.0570 
  1283.000 -14.916  9.1070  6.4710 -4.9160  9.1070  6.4710 
  1283.500 -14.657  10.711  7.1070 -4.6570  10.711  7.1070 
  1284.000 -14.608  11.656  7.7760 -4.6080  11.656  7.7760 
  1284.500 -15.456  12.846  8.4240 -5.4560  12.846  8.4240 
  1285.000 -17.835  13.366  9.3480 -7.8350  13.366  9.3480 
  1285.500 -21.272  14.013  9.9320 -11.272  14.013  9.9320 
  1286.000 -26.292  15.522  10.579 -16.292  15.522  10.579 
  1286.500 -28.567  17.392  11.216 -18.567  17.392  11.216 
  1287.000 -29.414  17.615  11.439 -19.414  17.615  11.439 
  1287.500 -30.685  17.837  11.756 -20.685  17.837  11.756 
  1288.000 -31.110  18.070  11.989 -21.110  18.070  11.989 
  1288.500 -31.588  18.303  12.148 -21.588  18.303  12.148 
  1289.000 -30.748  18.504  12.285 -20.748  18.504  12.285 
  1289.500 -30.750  18.577  12.401 -20.750  18.577  12.401 
  1290.000 -30.437  18.502  12.464 -20.437  18.502  12.464 
  1290.500 -28.960  18.374  12.495 -18.960  18.374  12.495 
  1291.000 -27.696  17.608  12.452 -17.696  17.608  12.452 
  1291.500 -27.330  11.516  12.185 -17.330  11.516  12.185 
  1292.000 -27.597  10.537  11.770 -17.597  10.537  11.770 
  1292.500 -28.023  9.7600  11.365 -18.023  9.7600  11.365 
  1293.000 -28.237  9.0900  10.673 -18.237  9.0900  10.673 
  1293.500 -21.692  7.6330  8.0260 -11.692  7.6330  8.0260 
  1294.000 -20.480  6.1110  5.6860 -10.480  6.1110  5.6860 
  1294.500 -19.268  5.5900  5.3990 -9.2680  5.5900  5.3990 
  1295.000 -18.373  5.1740  5.2490 -8.3730  5.1740  5.2490 
  1295.500 -17.426  5.0350  5.1100 -7.4260  5.0350  5.1100 
  1296.000 -16.532  5.0240  5.0770 -6.5320  5.0240  5.0770 
  1296.500 -16.008  5.3420  5.1510 -6.0080  5.3420  5.1510 
  1297.000 -15.852  6.0850  5.3310 -5.8520  6.0850  5.3310 
  1297.500 -15.749  6.5520  5.6170 -5.7490  6.5520  5.6170 
  1298.000 -15.647  6.8590  5.8180 -5.6470  6.8590  5.8180 
  1298.500 -15.544  6.9760  5.9340 -5.5440  6.9760  5.9340 
  1299.000 -15.758  7.0920  6.0500 -5.7580  7.0920  6.0500 
  1299.500 -16.290  7.1650  6.1240 -6.2900  7.1650  6.1240 
  1300.000 -17.085  7.0470  6.1440 -7.0850  7.0470  6.1440 
  1300.500 -18.150  5.5260  5.4940 -8.1500  5.5260  5.4940 
  1301.000 -19.001  5.2270  5.1950 -9.0010  5.2270  5.1950 
  1301.500 -19.747  4.9380  4.8420 -9.7470  4.9380  4.8420 
  1302.000 -20.229  4.7140  4.6600 -10.229  4.7140  4.6600 
  1302.500 -20.289  4.5840  4.5530 -10.289  4.5840  4.5530 
  1303.000 -18.869  4.8170  4.5830 -8.8690  4.8170  4.5830 
  1303.500 -17.504  5.2300  5.0390 -7.5040  5.2300  5.0390 
