~Version Information
VERS.                     2.0: CWLS log ASCII Standard Version 2.00
WRAP.                      NO: One line per depth step
~Well Information Block
#MNEM.UNIT                               Data Type  Information
#---------                               ---------  -----------
STRT.FT                                   500.0000:
STOP.FT                                  2702.0000:
STEP.FT                                     0.5000:
NULL.                 -999.25                     :
COMP.                                             :COMPANY            
WELL.     KCL 55-33                               :WELL               
FLD .                                             :FIELD              
CTRY.                                             :COUNTRY            
STAT.                                             :STATE              
LOC .                                             :LOCATION           
UWI .                                             :UNIQUE WELL ID     
SRVC.                                             :Service company    
DATE.                                             :LOG DATE           
~Curve Information
#MNEM.UNIT           API CODE  Curve Description
#---------           --------  -----------------
DEPT.FT                      :   1 DEPTH
SP  .MV                      :   2
ILD .OHMM                    :   3
SN  .OHMM                    :   4
SBL .MV                      :   5
RD  .OHMM                    :   6
RS  .OHMM                    :   7
~A
# ...
  1103.000 -28.365  25.721  15.171 -17.274  25.721  15.171 
  1103.500 -28.526  22.707  15.063 -17.442  22.707  15.063 
  1104.000 -29.325  19.693  14.935 -18.248  19.693  14.935 
  1104.500 -29.752  16.680  14.678 -18.682  16.680  14.678 
  1105.000 -30.285  13.666  14.262 -19.223  13.666  14.262 
  1105.500 -26.770  6.8920  13.409 -15.715  6.8920  13.409 
  1106.000 -24.587  4.1220  7.4660 -13.539  4.1220  7.4660 
  1106.500 -23.043  3.7160  6.3570 -12.002  3.7160  6.3570 
  1107.000 -22.298  3.4280  5.1430 -11.264  3.4280  5.1430 
  1107.500 -21.553  3.3100  4.5770 -10.526  3.3100  4.5770 
  1108.000 -20.541  3.2030  4.1930 -9.5214  3.2030  4.1930 
  1108.500 -20.435  3.2020  4.0640 -9.4225  3.2020  4.0640 
  1109.000 -20.702  3.8720  3.9890 -9.6967  3.8720  3.9890 
  1109.500 -21.129  4.8510  3.9560 -10.131  4.8510  3.9560 
  1110.000 -21.076  5.4890  4.7750 -10.085  5.4890  4.7750 
  1110.500 -19.585  6.2230  5.0730 -8.6010  6.2230  5.0730 
  1111.000 -18.201  6.9890  5.4020 -7.2242  6.9890  5.4020 
  1111.500 -16.710  8.5110  5.6990 -5.7403  8.5110  5.6990 
  1112.000 -16.125  10.203  6.2100 -5.1624  10.203  6.2100 
  1112.500 -15.699  12.599  8.1790 -4.7436  12.599  8.1790 
  1113.000 -15.540  13.769  9.4350 -4.5917  13.769  9.4350 
  1113.500 -16.126  15.579  9.9340 -5.1848  15.579  9.9340 
  1114.000 -19.056  17.985  10.658 -8.1220  17.985  10.658 
  1114.500 -23.158  18.875  11.040 -12.231  18.875  11.040 
  1115.000 -25.129  19.766  11.923 -14.209  19.766  11.923 
  1115.500 -27.793  24.869  12.860 -16.880  24.869  12.860 
  1116.000 -30.989  26.564  13.689 -20.083  26.564  13.689 
  1116.500 -32.108  27.408  14.935 -21.210  27.408  14.935 
  1117.000 -32.588  27.825  16.393 -21.697  27.825  16.393 
  1117.500 -32.695  27.817  16.765 -21.811  27.817  16.765 
  1118.000 -32.962  27.063  17.062 -22.085  27.063  17.062 
  1118.500 -33.122  26.096  17.221 -22.252  26.096  17.221 
  1119.000 -34.295  25.715  17.380 -23.432  25.715  17.380 
  1119.500 -35.573  25.333  17.528 -24.717  25.333  17.528 
  1120.000 -36.266  25.005  17.676 -25.418  25.005  17.676 
  1120.500 -36.746  25.849  17.777 -25.905  25.849  17.777 
  1121.000 -36.960  26.905  17.877 -26.126  26.905  17.877 
  1121.500 -35.522  29.453  18.025 -24.695  29.453  18.025 
  1122.000 -34.404  32.000  18.067 -23.584  32.000  18.067 
  1122.500 -33.552  33.589  18.130 -22.739  33.589  18.130 
  1123.000 -33.180  34.219  18.172 -22.374  34.219  18.172 
  1123.500 -33.074  34.530  18.192 -22.275  34.530  18.192 
  1124.000 -32.862  33.457  18.202 -22.071  33.457  18.202 
  1124.500 -32.862  32.703  18.212 -22.078  32.703  18.212 
  1125.000 -32.863  31.949  18.179 -22.086  31.949  18.179 
  1125.500 -32.863  29.917  18.040 -22.093  29.917  18.040 
  1126.000 -32.757  28.630  17.719 -21.994  28.630  17.719 
  1126.500 -32.651  27.664  16.760 -21.895  27.664  16.760 
  1127.000 -32.599  26.697  16.120 -21.850  26.697  16.120 
  1127.500 -32.546  25.091  15.566 -21.804  25.091  15.566 
  1128.000 -32.440  20.013  15.000 -21.706  20.013  15.000 
  1128.500 -32.387  14.935  14.691 -21.660  14.935  14.691 
  1129.000 -31.962  13.305  14.242 -21.242  13.305  14.242 
  1129.500 -30.790  10.259  13.741 -20.077  10.259  13.741 
  1130.000 -28.554  9.1500  13.154 -17.848  9.1500  13.154 
  1130.500 -25.945  8.8830  11.428 -15.246  8.8830  11.428 
  1131.000 -21.791  8.7440  9.4250 -11.099  8.7440  9.4250 
  1131.500 -20.300  8.6360  8.7640 -9.6155  8.6360  8.7640 
  1132.000 -19.448  8.5180  8.5500 -8.7706  8.5180  8.5500 
  1132.500 -19.076  13.384  9.1250 -8.4058  13.384  9.1250 
  1133.000 -18.863  15.673  10.519 -8.1999  15.673  10.519 
  1133.500 -18.864  16.610  11.061 -8.2080  16.610  11.061 
  1134.000 -19.930  17.269  12.147 -9.2812  17.269  12.147 
  1134.500 -21.528  18.294  14.009 -10.886  18.294  14.009 
  1135.000 -23.020  19.318  14.818 -12.385  19.318  14.818 
  1135.500 -30.530  30.599  15.339 -19.903  30.599  15.339 
  1136.000 -31.383  32.507  15.775 -20.763  32.507  15.775 
  1136.500 -32.076  34.415  16.179 -21.463  34.415  16.179 
  1137.000 -32.716  36.324  16.412 -22.110  36.324  16.412 
  1137.500 -33.036  36.848  16.645 -22.437  36.848  16.645 
  1138.000 -33.303  35.774  16.762 -22.711  35.774  16.762 
  1138.500 -33.569  33.103  16.846 -22.984  33.103  16.846 
  1139.000 -33.623  30.220  16.898 -23.045  30.220  16.898 
  1139.500 -33.944  27.123  16.898 -23.374  27.123  16.898 
  1140.000 -32.612  21.150  16.535 -22.049  21.150  16.535 
  1140.500 -31.548  19.970  14.052 -20.992  19.970  14.052 
  1141.000 -30.696  19.429  13.849 -20.147  19.429  13.849 
  1141.500 -29.951  18.995  15.297 -19.409  18.995  15.297 
  1142.000 -29.419  18.986  15.764 -18.884  18.986  15.764 
  1142.500 -29.260  19.723  15.955 -18.732  19.723  15.955 
  1143.000 -29.260  21.206  16.018 -18.740  21.206  16.018 
  1143.500 -31.977  23.966  16.081 -21.464  23.966  16.081 
  1144.000 -32.617  25.661  16.219 -22.111  25.661  16.219 
  1144.500 -33.043  26.079  16.282 -22.544  26.079  16.282 
  1145.000 -33.204  25.644  16.324 -22.712  25.644  16.324 
  1145.500 -33.204  25.370  16.355 -22.719  25.370  16.355 
  1146.000 -33.364  25.095  16.365 -22.886  25.095  16.365 
  1146.500 -33.578  25.086  16.374 -23.107  25.086  16.374 
  1147.000 -33.419  25.717  16.075 -22.956  25.717  16.075 
  1147.500 -33.313  26.347  15.968 -22.857  26.347  15.968 
  1148.000 -33.313  27.084  16.201 -22.864  27.084  16.201 
  1148.500 -33.420  27.821  17.021 -22.978  27.821  17.021 
  1149.000 -33.794  28.878  17.382 -23.359  28.878  17.382 
  1149.500 -33.901  29.721  17.594 -23.473  29.721  17.594 
  1150.000 -33.742  29.926  17.742 -23.321  29.926  17.742 
  1150.500 -33.526  29.189  17.807 -23.112  29.189  17.807 
  1151.000 -33.310  27.600  17.850 -22.904  27.600  17.850 
  1151.500 -32.774  26.437  17.851 -22.375  26.437  17.851 
  1152.000 -32.239  25.274  17.629 -21.847  25.274  17.629 
  1152.500 -31.277  23.792  16.501 -20.892  23.792  16.501 
  1153.000 -30.368  23.374  15.884 -19.990  23.374  15.884 
  1153.500 -29.993  22.956  15.448 -19.622  22.956  15.448 
  1154.000 -29.617  22.113  15.257 -19.253  22.113  15.257 
  1154.500 -29.508  22.867  16.397 -19.151  22.867  16.397 
  1155.000 -29.398  23.941  17.059 -19.049  23.941  17.059 
  1155.500 -29.395  24.535  17.294 -19.053  24.535  17.294 
  1156.000 -29.552  25.129  17.508 -19.217  25.129  17.508 
  1156.500 -31.946  26.522  17.679 -21.618  26.522  17.679 
  1157.000 -32.742  27.915  17.829 -22.421  27.915  17.829 
  1157.500 -33.165  29.840  17.872 -22.851  29.840  17.872 
  1158.000 -33.162  29.849  17.916 -22.855  29.849  17.916 
  1158.500 -33.053  28.792  17.608 -22.754  28.792  17.608 
  1159.000 -32.517  27.097  17.321 -22.225  27.097  17.321 
  1159.500 -29.478  25.295  16.960 -19.193  25.295  16.960 
  1160.000 -27.931  22.322  16.524 -17.653  22.322  16.524 
  1160.500 -27.528  20.733  13.873 -17.257  20.733  13.873 
  1161.000 -27.126  20.123  13.203 -16.862  20.123  13.203 
  1161.500 -26.697  19.512  13.151 -16.440  19.512  13.151 
  1162.000 -26.428  18.902  13.088 -16.178  18.902  13.088 
  1162.500 -27.277  18.051  13.035 -17.035  18.051  13.035 
  1163.000 -29.618  16.156  12.919 -19.383  16.156  12.919 
  1163.500 -30.360  14.741  12.760 -20.132  14.741  12.760 
  1164.000 -30.091  11.366  12.431 -19.870  11.366  12.431 
  1164.500 -29.076  10.131  11.590 -18.862  10.131  11.590 
  1165.000 -25.025  8.9820  9.8020 -14.818  8.9820  9.8020 
  1165.500 -21.347  7.3320  8.7480 -11.147  7.3320  8.7480 
  1166.000 -18.734  6.3210  6.3320 -8.5415  6.3210  6.3320 
  1166.500 -17.879  6.0980  5.7790 -7.6936  6.0980  5.7790 
  1167.000 -17.290  5.8860  5.5030 -7.1117  5.8860  5.5030 
  1167.500 -16.702  5.6740  5.3230 -6.5309  5.6740  5.3230 
  1168.000 -16.379  5.4620  5.1850 -6.2150  5.4620  5.1850 
  1168.500 -16.057  5.2600  5.1540 -5.9001  5.2600  5.1540 
  1169.000 -15.787  4.8670  5.0700 -5.6373  4.8670  5.0700 
  1169.500 -15.731  4.2400  4.0690 -5.5884  4.2400  4.0690 
