~Version Information
VERS.                     2.0: CWLS log ASCII Standard Version 2.00
WRAP.                      NO: One line per depth step
~Well Information Block
#MNEM.UNIT                               Data Type  Information
#---------                               ---------  -----------
STRT.FT                                   500.0000:
STOP.FT                                  2702.0000:
STEP.FT                                     0.5000:
NULL.                 -999.25                     :
COMP.                                             :COMPANY            
WELL.     KCL 55-33                               :WELL               
FLD .                                             :FIELD              
CTRY.                                             :COUNTRY            
STAT.                                             :STATE              
LOC .                                             :LOCATION           
UWI .                                             :UNIQUE WELL ID     
SRVC.                                             :Service company    
DATE.                                             :LOG DATE           
~Curve Information
#MNEM.UNIT           API CODE  Curve Description
#---------           --------  -----------------
DEPT.FT                      :   1 DEPTH
SP  .MV                      :   2
ILD .OHMM                    :   3
SN  .OHMM                    :   4
SBL .MV                      :   5
RD  .OHMM                    :   6
RS  .OHMM                    :   7
~A
# ...
  1639.000 -26.492  8.1890  8.6780 -16.492  8.1890  8.6780 
  1639.500 -25.489  7.9700  7.8690 -15.489  7.9700  7.8690 
  1640.000 -24.331  7.7520  7.4320 -14.331  7.7520  7.4320 
  1640.500 -23.489  7.2400  7.1760 -13.489  7.2400  7.1760 
  1641.000 -21.800  6.8030  6.5690 -11.800  6.8030  6.5690 
  1641.500 -20.112  6.5460  5.5050 -10.112  6.5460  5.5050 
  1642.000 -18.900  6.0880  5.0780 -8.9000  6.0880  5.0780 
  1642.500 -18.242  5.6830  4.8750 -8.2420  5.6830  4.8750 
  1643.000 -17.583  5.2040  4.6190 -7.5830  5.2040  4.6190 
  1643.500 -16.636  4.7980  4.4480 -6.6360  4.7980  4.4480 
  1644.000 -16.057  4.4460  4.3510 -6.0570  4.4460  4.3510 
  1644.500 -15.637  4.2220  4.5200 -5.6370  4.2220  4.5200 
  1645.000 -15.164  4.1150  4.6460 -5.1640  4.1150  4.6460 
  1645.500 -14.954  4.1880  4.6340 -4.9540  4.1880  4.6340 
  1646.000 -14.903  4.3040  4.6010 -4.9030  4.3040  4.6010 
  1646.500 -15.011  4.6750  4.6110 -5.0110  4.6750  4.6110 
  1647.000 -15.171  5.1090  4.7690 -5.1710  5.1090  4.7690 
  1647.500 -15.385  6.7870  5.4270 -5.3850  6.7870  5.4270 
  1648.000 -15.915  7.9450  6.0960 -5.9150  7.9450  6.0960 
  1648.500 -17.607  9.1450  7.6250 -7.6070  9.1450  7.6250 
  1649.000 -21.887  10.037  7.9850 -11.887  10.037  7.9850 
  1649.500 -24.582  14.787  11.077 -14.582  14.787  11.077 
  1650.000 -27.332  15.307  11.214 -17.332  15.307  11.214 
  1650.500 -28.182  15.571  11.287 -18.182  15.571  11.287 
  1651.000 -29.193  15.612  11.382 -19.193  15.612  11.382 
  1651.500 -28.751  15.398  11.752 -18.751  15.398  11.752 
  1652.000 -28.309  15.110  12.091 -18.309  15.110  12.091 
  1652.500 -27.788  14.864  12.143 -17.788  14.864  12.143 
  1653.000 -28.165  17.063  12.195 -18.165  17.063  12.195 
  1653.500 -30.337  17.763  12.267 -20.337  17.763  12.267 
  1654.000 -31.928  18.102  12.351 -21.928  18.102  12.351 
  1654.500 -31.671  18.303  12.456 -21.671  18.303  12.456 
  1655.000 -29.618  18.450  12.604 -19.618  18.450  12.604 
  1655.500 -29.202  18.491  12.783 -19.202  18.491  12.783 
  1656.000 -29.419  18.522  12.845 -19.419  18.522  12.845 
  1656.500 -29.636  18.223  12.929 -19.636  18.223  12.929 
  1657.000 -29.434  14.852  12.938 -19.434  14.852  12.938 
  1657.500 -27.117  12.055  12.097 -17.117  12.055  12.097 
  1658.000 -23.744  8.5770  11.129 -13.744  8.5770  11.129 
  1658.500 -20.001  7.7360  8.4060 -10.001  7.7360  8.4060 
  1659.000 -18.266  7.1500  7.4050 -8.2660  7.1500  7.4050 
  1659.500 -17.270  6.8090  6.9790 -7.2700  6.8090  6.9790 
  1660.000 -16.590  6.5630  6.6480 -6.5900  6.5630  6.6480 
  1660.500 -16.226  7.4440  6.5830 -6.2260  7.4440  6.5830 
  1661.000 -16.180  8.1650  7.6550 -6.1800  8.1650  7.6550 
  1661.500 -16.240  10.959  7.9140 -6.2400  10.959  7.9140 
  1662.000 -16.933  11.872  8.1730 -6.9330  11.872  8.1730 
  1662.500 -17.678  12.711  8.7880 -7.6780  12.711  8.7880 
  1663.000 -18.423  13.049  9.0520 -8.4230  13.049  9.0520 
  1663.500 -27.516  13.202  9.3490 -17.516  13.202  9.3490 
  1664.000 -28.896  13.355  10.017 -18.896  13.355  10.017 
  1664.500 -30.066  13.566  10.388 -20.066  13.566  10.388 
  1665.000 -30.362  13.639  10.535 -20.362  13.639  10.535 
  1665.500 -30.657  13.669  10.683 -20.657  13.669  10.683 
  1666.000 -31.142  13.190  10.766 -21.142  13.190  10.766 
  1666.500 -31.307  12.327  10.850 -21.307  12.327  10.850 
  1667.000 -31.472  12.050  10.657 -21.472  12.050  10.657 
  1667.500 -31.426  11.825  10.199 -21.426  11.825  10.199 
  1668.000 -25.201  11.632  9.5600 -15.201  11.632  9.5600 
  1668.500 -23.254  11.939  9.2070 -13.254  11.939  9.2070 
  1669.000 -21.678  12.682  9.0040 -11.678  12.682  9.0040 
  1669.500 -20.945  12.851  8.8330 -10.945  12.851  8.8330 
  1670.000 -20.582  13.009  11.531 -10.582  13.009  11.531 
  1670.500 -20.430  13.103  12.104 -10.430  13.103  12.104 
  1671.000 -27.725  13.133  12.241 -17.725  13.133  12.241 
  1671.500 -29.844  12.983  12.377 -19.844  12.983  12.377 
  1672.000 -31.594  12.578  12.461 -21.594  12.578  12.461 
  1672.500 -32.499  12.098  11.386 -22.499  12.098  11.386 
  1673.000 -32.716  11.672  10.800 -22.716  11.672  10.800 
  1673.500 -22.901  10.799  8.8960 -12.901  10.799  8.8960 
  1674.000 -21.112  8.6930  8.2040 -11.112  8.6930  8.2040 
  1674.500 -20.115  7.5860  7.5330 -10.115  7.5860  7.5330 
  1675.000 -19.172  7.0950  7.3190 -9.1720  7.0950  7.3190 
  1675.500 -19.759  6.6900  6.8390 -9.7590  6.6900  6.8390 
  1676.000 -21.667  6.7310  6.7950 -11.667  6.7310  6.7950 
  1676.500 -23.312  6.8040  6.8360 -13.312  6.8040  6.8360 
  1677.000 -24.692  6.8130  6.6650 -14.692  6.8130  6.6650 
  1677.500 -21.318  6.6630  6.4290 -11.318  6.6630  6.4290 
  1678.000 -18.210  6.3110  6.1620 -8.2100  6.3110  6.1620 
  1678.500 -17.476  6.0120  6.1080 -7.4760  6.0120  6.1080 
  1679.000 -16.481  5.6490  5.7130 -6.4810  5.6490  5.7130 
  1679.500 -16.276  5.2970  5.5100 -6.2760  5.2970  5.5100 
  1680.000 -17.234  4.9870  5.3810 -7.2340  4.9870  5.3810 
  1680.500 -17.187  4.8590  5.3790 -7.1870  4.8590  5.3790 
  1681.000 -16.824  4.6440  5.2930 -6.8240  4.6440  5.2930 
  1681.500 -16.461  4.6010  4.9940 -6.4610  4.6010  4.9940 
  1682.000 -16.257  4.5350  4.8970 -6.2570  4.5350  4.8970 
  1682.500 -16.053  4.7680  5.0340 -6.0530  4.7680  5.0340 
  1683.000 -16.008  5.0110  5.6810 -6.0080  5.0110  5.6810 
  1683.500 -16.014  5.2220  6.3600 -6.0140  5.2220  6.3600 
  1684.000 -16.073  6.0180  7.2620 -6.0730  6.0180  7.2620 
  1684.500 -16.239  9.5030  7.9300 -6.2390  9.5030  7.9300 
  1685.000 -16.353  14.519  9.0660 -6.3530  14.519  9.0660 
  1685.500 -16.516  11.956  9.9890 -6.5160  11.956  9.9890 
  1686.000 -20.801  16.164  10.466 -10.801  16.164  10.466 
  1686.500 -26.037  16.482  10.943 -16.037  16.482  10.943 
  1687.000 -28.209  16.852  11.229 -18.209  16.852  11.229 
  1687.500 -29.377  17.127  11.398 -19.377  17.127  11.398 
  1688.000 -30.704  17.264  11.524 -20.704  17.264  11.524 
  1688.500 -30.869  16.678  11.650 -20.869  16.678  11.650 
  1689.000 -30.350  15.348  11.723 -20.350  15.348  11.723 
  1689.500 -29.881  11.902  11.679 -19.881  11.902  11.679 
  1690.000 -28.620  10.966  11.433 -18.620  10.966  11.433 
  1690.500 -23.028  8.2320  10.762 -13.028  8.2320  10.762 
  1691.000 -18.494  7.3270  7.2740 -8.4940  7.3270  7.2740 
  1691.500 -17.497  6.8580  6.9540 -7.4970  6.8580  6.9540 
  1692.000 -16.554  6.0390  6.4000 -6.5540  6.0390  6.4000 
  1692.500 -16.033  5.4100  5.8140 -6.0330  5.4100  5.8140 
  1693.000 -15.775  5.0360  5.3550 -5.7750  5.0360  5.3550 
  1693.500 -15.517  4.8230  5.0140 -5.5170  4.8230  5.0140 
  1694.000 -15.103  4.5550  4.8000 -5.1030  4.5550  4.8000 
  1694.500 -14.897  4.4160  4.6390 -4.8970  4.4160  4.6390 
  1695.000 -14.694  4.6910  4.6060 -4.6940  4.6910  4.6060 
  1695.500 -14.541  4.9130  4.9440 -4.5410  4.9130  4.9440 
  1696.000 -14.338  5.2040  5.4530 -4.3380  5.2040  5.4530 
  1696.500 -14.345  5.4950  5.6220 -4.3450  5.4950  5.6220 
  1697.000 -14.350  6.1730  5.7910 -4.3500  6.1730  5.7910 
  1697.500 -15.520  8.3620  6.3100 -5.5200  8.3620  6.3100 
  1698.000 -17.745  8.7320  6.5750 -7.7450  8.7320  6.5750 
  1698.500 -19.124  9.4540  6.7750 -9.1240  9.4540  6.7750 
  1699.000 -18.391  11.589  6.9330 -8.3910  11.589  6.9330 
  1699.500 -17.659  12.236  7.4000 -7.6590  12.236  7.4000 
  1700.000 -17.245  13.851  8.1210 -7.2450  13.851  8.1210 
  1700.500 -17.141  15.178  9.3750 -7.1410  15.178  9.3750 
  1701.000 -17.143  15.422  10.224 -7.1430  15.422  10.224 
  1701.500 -24.540  17.104  10.967 -14.540  17.104  10.967 
  1702.000 -26.867  18.787  12.508 -16.867  18.787  12.508 
  1702.500 -27.872  20.469  14.133 -17.872  20.469  14.133 
  1703.000 -29.248  20.943  13.983 -19.248  20.943  13.983 
  1703.500 -31.153  21.417  14.833 -21.153  21.417  14.833 
  1704.000 -32.158  21.935  15.396 -22.158  21.935  15.396 
  1704.500 -33.058  22.562  15.841 -23.058  22.562  15.841 
  1705.000 -32.321  23.512  16.074 -22.321  23.512  16.074 
  1705.500 -31.532  24.460  16.222 -21.532  24.460  16.222 
