~Version Information
VERS.                     2.0: CWLS log ASCII Standard Version 2.00
WRAP.                      NO: One line per depth step
~Well Information Block
#MNEM.UNIT                               Data Type  Information
#---------                               ---------  -----------
STRT.FT                                   500.0000:
STOP.FT                                  2702.0000:
STEP.FT                                     0.5000:
NULL.                 -999.25                     :
COMP.                                             :COMPANY            
WELL.     KCL 55-33                               :WELL               
FLD .                                             :FIELD              
CTRY.                                             :COUNTRY            
STAT.                                             :STATE              
LOC .                                             :LOCATION           
UWI .                                             :UNIQUE WELL ID     
SRVC.                                             :Service company    
DATE.                                             :LOG DATE           
~Curve Information
#MNEM.UNIT           API CODE  Curve Description
#---------           --------  -----------------
DEPT.FT                      :   1 DEPTH
SP  .MV                      :   2
ILD .OHMM                    :   3
SN  .OHMM                    :   4
SBL .MV                      :   5
RD  .OHMM                    :   6
RS  .OHMM                    :   7
~A
# ...
  2644.000 -19.365  1.9960  1.9960 -19.365  1.9960  1.9960 
  2644.500 -19.155  1.9950  1.9860 -19.155  1.9950  1.9860 
  2645.000 -18.844  1.9950  1.9750 -18.844  1.9950  1.9750 
  2645.500 -19.431  1.9950  1.9630 -19.431  1.9950  1.9630 
  2646.000 -20.712  1.9950  1.9520 -20.712  1.9950  1.9520 
  2646.500 -21.673  1.9950  1.9510 -21.673  1.9950  1.9510 
  2647.000 -22.315  1.9940  1.9350 -22.315  1.9940  1.9350 
  2647.500 -22.955  1.9930  1.9190 -22.955  1.9930  1.9190 
  2648.000 -23.437  1.9930  1.9190 -23.437  1.9930  1.9190 
  2648.500 -23.174  1.9920  1.9190 -23.174  1.9920  1.9190 
  2649.000 -22.910  2.0340  1.9490 -22.910  2.0340  1.9490 
  2649.500 -22.544  2.7790  2.2150 -22.544  2.7790  2.2150 
  2650.000 -22.178  2.9170  2.6830 -22.178  2.9170  2.6830 
  2650.500 -21.760  3.1080  2.8360 -21.760  3.1080  2.8360 
  2651.000 -21.659  3.3620  2.9900 -21.659  3.3620  2.9900 
  2651.500 -22.033  3.5200  3.6580 -22.033  3.5200  3.6580 
  2652.000 -22.596  3.6790  3.9870 -22.596  3.6790  3.9870 
  2652.500 -23.159  4.1020  4.1030 -23.159  4.1020  4.1030 
  2653.000 -23.694  3.7500  3.8240 -23.694  3.7500  3.8240 
  2653.500 -24.657  2.9710  3.4500 -24.657  2.9710  3.4500 
  2654.000 -25.032  2.6710  3.0970 -25.032  2.6710  3.0970 
  2654.500 -24.666  2.5320  2.7970 -24.666  2.5320  2.7970 
  2655.000 -24.139  2.4120  2.6260 -24.139  2.4120  2.6260 
  2655.500 -23.614  2.3260  2.4640 -23.614  2.3260  2.4640 
  2656.000 -23.458  2.2180  2.4530 -23.458  2.2180  2.4530 
  2656.500 -23.356  2.1530  2.4410 -23.356  2.1530  2.4410 
  2657.000 -23.096  2.0760  2.3530 -23.096  2.0760  2.3530 
  2657.500 -22.754  2.0430  2.2660 -22.754  2.0430  2.2660 
  2658.000 -22.413  2.0310  2.2440 -22.413  2.0310  2.2440 
  2658.500 -21.358  2.0200  2.2220 -21.358  2.0200  2.2220 
  2659.000 -20.989  2.0490  2.1990 -20.989  2.0490  2.1990 
  2659.500 -20.357  2.1860  2.1440 -20.357  2.1860  2.1440 
  2660.000 -19.832  2.3440  2.1420 -19.832  2.3440  2.1420 
  2660.500 -19.570  2.4600  2.3010 -19.570  2.4600  2.3010 
  2661.000 -21.540  2.8420  2.5650 -21.540  2.8420  2.5650 
  2661.500 -22.342  3.1920  3.0210 -22.342  3.1920  3.0210 
  2662.000 -22.931  3.7020  3.5420 -22.931  3.7020  3.5420 
  2662.500 -23.467  4.2430  3.9560 -23.467  4.2430  3.9560 
  2663.000 -23.949  4.6780  4.6570 -23.949  4.6780  4.6570 
  2663.500 -24.167  4.8900  4.9210 -24.167  4.8900  4.9210 
  2664.000 -23.268  5.1540  5.1120 -23.268  5.1540  5.1120 
  2664.500 -22.212  5.2590  5.1850 -22.212  5.2590  5.1850 
  2665.000 -21.366  5.3640  5.2590 -21.366  5.3640  5.2590 
  2665.500 -20.866  5.4590  5.4270 -20.866  5.4590  5.4270 
  2666.000 -20.365  5.4890  5.5210 -20.365  5.4890  5.5210 
  2666.500 -20.000  4.9980  4.8490 -20.000  4.9980  4.8490 
  2667.000 -19.686  3.3250  3.9850 -19.686  3.3250  3.9850 
  2667.500 -19.690  3.1430  3.3980 -19.690  3.1430  3.3980 
  2668.000 -20.385  2.9600  3.0770 -20.385  2.9600  3.0770 
  2668.500 -21.133  2.6170  2.7660 -21.133  2.6170  2.7660 
  2669.000 -20.766  2.5410  2.6160 -20.766  2.5410  2.6160 
  2669.500 -18.168  2.5930  2.6090 -18.168  2.5930  2.6090 
  2670.000 -13.606  2.6450  2.6030 -13.606  2.6450  2.6030 
  2670.500 -12.759  2.7070  2.6490 -12.759  2.7070  2.6490 
  2671.000 -11.968  2.7480  2.6950 -11.968  2.7480  2.6950 
  2671.500 -8.9980  2.7680  2.7360 -8.9980  2.7680  2.7360 
  2672.000 -5.2330  2.7890  2.7560 -5.2330  2.7890  2.7560 
  2672.500 -4.1740  2.8080  2.7550 -4.1740  2.8080  2.7550 
  2673.000 -3.3810  2.7960  2.7210 -3.3810  2.7960  2.7210 
  2673.500 -2.6430  2.6230  2.6450 -2.6430  2.6230  2.6450 
  2674.000 -2.2230  2.5150  2.5900 -2.2230  2.5150  2.5900 
  2674.500 -2.7050  2.4290  2.5360 -2.7050  2.4290  2.5360 
  2675.000 -5.3670  2.3430  2.4490 -5.3670  2.3430  2.4490 
  2675.500 -12.279  2.2660  2.4050 -12.279  2.2660  2.4050 
  2676.000 -12.812  2.2330  2.3500 -12.812  2.2330  2.3500 
  2676.500 -13.828  2.2910  2.3270 -13.828  2.2910  2.3270 
  2677.000 -14.575  2.3480  2.3580 -14.575  2.3480  2.3580 
  2677.500 -15.271  2.4840  2.4100 -15.271  2.4840  2.4100 
  2678.000 -15.968  2.5470  2.4620 -15.968  2.5470  2.4620 
  2678.500 -16.395  2.6100  2.6090 -16.395  2.6100  2.6090 
  2679.000 -17.942  2.7140  2.7350 -17.942  2.7140  2.7350 
  2679.500 -19.381  2.7970  2.7870 -19.381  2.7970  2.7870 
  2680.000 -20.448  2.7540  2.8170 -20.448  2.7540  2.8170 
  2680.500 -20.505  2.6510  2.7520 -20.505  2.6510  2.7520 
  2681.000 -19.926  2.5480  2.7070 -19.926  2.5480  2.7070 
  2681.500 -19.295  2.4180  2.6750 -19.295  2.4180  2.6750 
  2682.000 -18.874  2.3420  2.6420 -18.874  2.3420  2.6420 
  2682.500 -19.089  2.2660  2.4900 -19.089  2.2660  2.4900 
  2683.000 -20.423  2.1800  2.3830 -20.423  2.1800  2.3830 
  2683.500 -21.223  2.1040  2.2740 -21.223  2.1040  2.2740 
  2684.000 -21.972  2.0490  2.2200 -21.972  2.0490  2.2200 
  2684.500 -18.473  2.0370  2.1660 -18.473  2.0370  2.1660 
  2685.000 -17.095  2.0990  2.0890 -17.095  2.0990  2.0890 
  2685.500 -16.541  2.1720  2.0560 -16.541  2.1720  2.0560 
  2686.000 -15.986  2.2190  2.1130 -15.986  2.2190  2.1130 
  2686.500 -14.826  2.2660  2.1710 -14.826  2.2660  2.1710 
  2687.000 -13.927  2.3340  2.3280 -13.927  2.3340  2.3280 
  2687.500 -12.656  2.4010  2.4010 -12.656  2.4010  2.4010 
  2688.000 -11.970  2.4530  2.5160 -11.970  2.4530  2.5160 
  2688.500 -13.888  2.5050  2.5470 -13.888  2.5050  2.5470 
  2689.000 -16.496  2.5460  2.5780 -16.496  2.5460  2.5780 
  2689.500 -17.245  2.5540  2.6400 -17.245  2.5540  2.6400 
  2690.000 -18.365  2.5530  2.6120 -18.365  2.5530  2.6120 
  2690.500 -19.432  2.4660  2.5840 -19.432  2.4660  2.5840 
  2691.000 -20.499  2.4230  2.5180 -20.499  2.4230  2.5180 
  2691.500 -18.859  2.3790  2.4950 -18.859  2.3790  2.4950 
  2692.000 -17.694  2.3130  2.4190 -17.694  2.3130  2.4190 
  2692.500 -16.954  2.3600  2.3540 -16.954  2.3600  2.3540 
  2693.000 -16.641  2.4060  2.3950 -16.641  2.4060  2.3950 
  2693.500 -16.910  2.4630  2.5110 -16.910  2.4630  2.5110 
  2694.000 -20.263  2.5200  2.5840 -20.263  2.5200  2.5840 
  2694.500 -21.649  2.5720  2.6460 -21.649  2.5720  2.6460 
  2695.000 -22.609  2.5920  2.6660 -22.609  2.5920  2.6660 
  2695.500 -23.357  2.5470  2.5900 -23.357  2.5470  2.5900 
  2696.000 -22.778  2.4660  2.3860 -22.778  2.4660  2.3860 
  2696.500 -22.091  2.3850  2.2570 -22.091  2.3850  2.2570 
  2697.000 -21.353  2.2770  2.2240 -21.353  2.2770  2.2240 
  2697.500 -20.986  2.2440  2.2220 -20.986  2.2440  2.2220 
  2698.000 -21.310  2.2110  2.2160 -21.310  2.2110  2.2160 
  2698.500 -21.262  2.2160  2.2090 -21.262  2.2160  2.2090 
  2699.000 -21.000  2.2220  2.2070 -21.000  2.2220  2.2070 
  2699.500 -20.473  2.2270  2.2050 -20.473  2.2270  2.2050 
  2700.000 -21.967  2.2360  2.2040 -21.967  2.2360  2.2040 
  2700.500 -23.838  2.2500  2.2030 -23.838  2.2500  2.2030 
  2701.000 -24.911  2.2640  2.2000 -24.911  2.2640  2.2000 
  2701.500 -26.730  2.2730  2.1980 -26.730  2.2730  2.1980 
  2702.000 -26.211  2.2710  2.1970 -26.211  2.2710  2.1970 
