~Version Information
VERS.                     2.0: CWLS log ASCII Standard Version 2.00
WRAP.                      NO: One line per depth step
~Well Information Block
#MNEM.UNIT                               Data Type  Information
#---------                               ---------  -----------
STRT.FT                                   500.0000:
STOP.FT                                  2702.0000:
STEP.FT                                     0.5000:
NULL.                 -999.25                     :
COMP.                                             :COMPANY            
WELL.     KCL 55-33                               :WELL               
FLD .                                             :FIELD              
CTRY.                                             :COUNTRY            
STAT.                                             :STATE              
LOC .                                             :LOCATION           
UWI .                                             :UNIQUE WELL ID     
SRVC.                                             :Service company    
DATE.                                             :LOG DATE           
~Curve Information
#MNEM.UNIT           API CODE  Curve Description
#---------           --------  -----------------
DEPT.FT                      :   1 DEPTH
SP  .MV                      :   2
ILD .OHMM                    :   3
SN  .OHMM                    :   4
SBL .MV                      :   5
RD  .OHMM                    :   6
RS  .OHMM                    :   7
~A
# ...
   634.000 -48.958  18.474  12.808 -26.958  18.474  12.808 
   634.500 -47.840  18.538  12.713 -25.840  18.538  12.713 
   635.000 -47.574  18.571  12.703 -25.574  18.571  12.703 
   635.500 -47.841  18.422  12.693 -25.841  18.422  12.693 
   636.000 -47.948  17.528  12.672 -25.948  17.528  12.672 
   636.500 -48.161  16.719  12.630 -26.161  16.719  12.630 
   637.000 -48.375  15.686  12.566 -26.375  15.686  12.566 
   637.500 -48.429  14.707  12.290 -26.429  14.707  12.290 
   638.000 -48.056  12.045  11.683 -26.056  12.045  11.683 
   638.500 -47.098  11.321  10.384 -25.098  11.321  10.384 
   639.000 -46.140  11.109  10.268 -24.140  11.109  10.268 
   639.500 -47.472  11.748  10.225 -25.472  11.748  10.225 
   640.000 -48.857  13.218  10.258 -26.857  13.218  10.258 
   640.500 -49.817  13.847  10.375 -27.817  13.847  10.375 
   641.000 -49.604  15.108  10.908 -27.604  15.108  10.908 
   641.500 -49.072  16.370  11.654 -27.072  16.370  11.654 
   642.000 -48.913  17.631  13.199 -26.913  17.631  13.199 
   642.500 -48.594  18.893  15.223 -26.594  18.893  15.223 
   643.000 -48.275  30.931  16.384 -26.275  30.931  16.384 
   643.500 -48.275  67.357  17.715 -26.275  67.357  17.715 
   644.000 -48.542  71.727  19.292 -26.542  71.727  19.292 
   644.500 -49.022  74.501  18.910 -27.022  74.501  18.910 
   645.000 -49.555  76.422  26.262 -27.555  76.422  26.262 
   645.500 -49.822  77.278  29.674 -27.822  77.278  29.674 
   646.000 -50.089  77.708  32.447 -28.089  77.708  32.447 
   646.500 -50.303  96.435  34.475 -28.303  96.435  34.475 
   647.000 -50.303  115.16  36.077 -28.303  115.16  36.077 
   647.500 -50.171  133.89  37.040 -28.171  133.89  37.040 
   648.000 -50.038  152.61  37.576 -28.038  152.61  37.576 
   648.500 -49.985  171.34  37.900 -27.985  171.34  37.900 
   649.000 -50.358  176.56  37.904 -28.358  176.56  37.904 
   649.500 -50.678  177.74  37.482 -28.678  177.74  37.482 
   650.000 -50.999  178.17  33.440 -28.999  178.17  33.440 
   650.500 -51.426  177.52  28.429 -29.426  177.52  28.429 
   651.000 -51.215  54.515  25.548 -29.215  54.515  25.548 
   651.500 -50.737  53.445  24.904 -28.737  53.445  24.904 
   652.000 -50.313  52.269  22.449 -28.313  52.269  22.449 
   652.500 -49.888  51.890  21.699 -27.888  51.890  21.699 
   653.000 -49.463  51.512  21.480 -27.463  51.512  21.480 
   653.500 -49.252  50.442  21.475 -27.252  50.442  21.475 
   654.000 -49.414  49.372  21.470 -27.414  49.372  21.470 
   654.500 -49.655  47.343  21.464 -27.655  47.343  21.464 
   655.000 -49.896  46.486  20.714 -27.896  46.486  20.714 
   655.500 -49.258  44.457  20.437 -27.258  44.457  20.437 
   656.000 -48.941  42.535  20.161 -26.941  42.535  20.161 
   656.500 -48.729  37.524  19.885 -26.729  37.524  19.885 
   657.000 -48.571  27.615  19.609 -26.571  27.615  19.609 
   657.500 -48.253  22.786  17.958 -26.253  22.786  17.958 
   658.000 -47.935  17.957  16.648 -25.935  17.957  16.648 
   658.500 -47.617  16.445  15.710 -25.617  16.445  15.710 
   659.000 -45.914  16.423  14.857 -23.914  16.423  14.857 
   659.500 -44.691  16.231  13.025 -22.691  16.231  13.025 
   660.000 -43.840  15.538  12.545 -21.840  15.538  12.545 
   660.500 -44.747  15.484  12.268 -22.747  15.484  12.268 
   661.000 -45.867  15.941  12.374 -23.867  15.941  12.374 
   661.500 -46.561  16.612  12.853 -24.561  16.612  12.853 
   662.000 -46.776  17.282  13.438 -24.776  17.282  13.438 
   662.500 -46.671  17.974  13.970 -24.671  17.974  13.970 
   663.000 -46.513  19.670  14.299 -24.513  19.670  14.299 
   663.500 -46.461  28.184  15.023 -24.461  28.184  15.023 
   664.000 -46.303  33.930  16.077 -24.303  33.930  16.077 
   664.500 -46.198  46.597  17.450 -24.198  46.597  17.450 
   665.000 -46.146  61.715  19.036 -24.146  61.715  19.036 
   665.500 -45.988  109.53  19.696 -23.988  109.53  19.696 
   666.000 -45.937  163.73  23.472 -23.937  163.73  23.472 
   666.500 -45.805  168.83  26.661 -23.805  168.83  26.661 
   667.000 -45.674  170.11  28.147 -23.674  170.11  28.147 
   667.500 -45.622  169.89  28.887 -23.622  169.89  28.887 
   668.000 -45.623  168.29  29.521 -23.623  168.29  29.521 
   668.500 -45.785  165.62  29.728 -23.785  165.62  29.728 
   669.000 -45.999  159.44  28.978 -23.999  159.44  28.978 
   669.500 -46.214  152.51  27.907 -24.214  152.51  27.907 
   670.000 -46.482  143.34  28.168 -24.482  143.34  28.168 
   670.500 -46.537  129.49  28.429 -24.537  129.49  28.429 
   671.000 -46.805  112.02  29.915 -24.805  112.02  29.915 
   671.500 -46.913  105.52  30.336 -24.913  105.52  30.336 
   672.000 -46.169  102.21  30.437 -24.169  102.21  30.437 
   672.500 -45.585  96.246  29.580 -23.585  96.246  29.580 
   673.000 -44.787  91.981  28.083 -22.787  91.981  28.083 
   673.500 -44.309  85.586  26.906 -22.309  85.586  26.906 
   674.000 -43.885  80.788  24.984 -21.885  80.788  24.984 
   674.500 -43.673  77.375  24.020 -21.673  77.375  24.020 
   675.000 -43.835  72.151  23.376 -21.835  72.151  23.376 
   675.500 -44.049  65.650  23.051 -22.049  65.650  23.051 
   676.000 -44.104  59.042  22.513 -22.104  59.042  22.513 
   676.500 -44.266  51.369  21.550 -22.266  51.369  21.550 
   677.000 -44.321  38.051  20.479 -22.321  38.051  20.479 
   677.500 -40.913  33.253  19.515 -18.913  33.253  19.515 
   678.000 -39.583  30.266  19.906 -17.583  30.266  19.906 
   678.500 -39.052  28.451  17.733 -17.052  28.451  17.733 
   679.000 -38.868  27.274  17.296 -16.868  27.274  17.296 
   679.500 -38.683  26.203  17.114 -16.683  26.203  17.114 
   680.000 -42.200  28.222  17.242 -20.200  28.222  17.242 
   680.500 -43.320  30.133  18.413 -21.320  30.133  18.413 
   681.000 -43.854  33.110  18.945 -21.854  33.110  18.945 
   681.500 -44.388  39.068  19.338 -22.388  39.068  19.338 
   682.000 -44.603  47.370  19.636 -22.603  47.370  19.636 
   682.500 -44.605  54.393  18.717 -22.605  54.393  18.717 
   683.000 -43.967  60.458  19.457 -21.967  60.458  19.457 
   683.500 -45.513  65.032  20.304 -23.513  65.032  20.304 
   684.000 -46.260  67.796  20.831 -24.260  67.796  20.831 
   684.500 -45.250  70.453  21.784 -23.250  70.453  21.784 
   685.000 -44.293  70.660  22.950 -22.293  70.660  22.950 
   685.500 -43.709  65.969  23.584 -21.709  65.969  23.584 
   686.000 -43.391  62.130  23.898 -21.391  62.130  23.898 
   686.500 -43.605  60.953  24.319 -21.605  60.953  24.319 
   687.000 -43.713  61.214  23.142 -21.713  61.214  23.142 
   687.500 -43.822  61.475  22.071 -21.822  61.475  22.071 
   688.000 -44.036  61.683  21.747 -22.036  61.683  21.747 
   688.500 -44.038  61.571  21.635 -22.038  61.571  21.635 
   689.000 -43.986  60.927  21.097 -21.986  60.927  21.097 
   689.500 -43.934  58.791  20.666 -21.934  58.791  20.666 
   690.000 -43.883  32.694  19.808 -21.883  32.694  19.808 
   690.500 -43.618  31.624  19.271 -21.618  31.624  19.271 
   691.000 -43.087  31.619  18.306 -21.087  31.619  18.306 
   691.500 -42.130  31.613  18.018 -20.130  31.613  18.018 
   692.000 -43.037  31.715  17.868 -21.037  31.715  17.868 
   692.500 -44.583  31.922  18.837 -22.583  31.922  18.837 
   693.000 -46.023  34.473  19.283 -24.023  34.473  19.283 
   693.500 -46.770  43.946  19.677 -24.770  43.946  19.677 
   694.000 -46.452  62.364  19.383 -24.452  62.364  19.383 
   694.500 -46.134  65.447  19.090 -24.134  65.447  19.090 
   695.000 -45.284  66.933  18.796 -23.284  66.933  18.796 
   695.500 -44.433  68.419  19.750 -22.433  68.419  19.750 
   696.000 -43.955  71.182  20.703 -21.955  71.182  20.703 
   696.500 -43.850  75.437  21.550 -21.850  75.437  21.550 
   697.000 -43.692  78.200  21.970 -21.692  78.200  21.970 
   697.500 -43.321  80.325  22.391 -21.321  80.325  22.391 
   698.000 -42.950  81.171  23.238 -20.950  81.171  23.238 
   698.500 -41.779  82.977  23.871 -19.779  82.977  23.871 
   699.000 -40.769  83.717  24.399 -18.769  83.717  24.399 
   699.500 -40.398  84.244  24.500 -18.398  84.244  24.500 
   700.000 -39.494  84.296  24.711 -17.494  84.296  24.711 
   700.500 -39.277  84.348  24.923 -17.277  84.348  24.923 
