~Version Information
VERS.                     2.0: CWLS log ASCII Standard Version 2.00
WRAP.                      NO: One line per depth step
~Well Information Block
#MNEM.UNIT                               Data Type  Information
#---------                               ---------  -----------
STRT.FT                                   500.0000:
STOP.FT                                  2702.0000:
STEP.FT                                     0.5000:
NULL.                 -999.25                     :
COMP.                                             :COMPANY            
WELL.     KCL 55-33                               :WELL               
FLD .                                             :FIELD              
CTRY.                                             :COUNTRY            
STAT.                                             :STATE              
LOC .                                             :LOCATION           
UWI .                                             :UNIQUE WELL ID     
SRVC.                                             :Service company    
DATE.                                             :LOG DATE           
~Curve Information
#MNEM.UNIT           API CODE  Curve Description
#---------           --------  -----------------
DEPT.FT                      :   1 DEPTH
SP  .MV                      :   2
ILD .OHMM                    :   3
SN  .OHMM                    :   4
SBL .MV                      :   5
RD  .OHMM                    :   6
RS  .OHMM                    :   7
~A
# ...
  1907.000 -25.323  11.068  10.440 -15.681  11.068  10.440 
  1907.500 -27.861  11.565  10.651 -18.229  11.565  10.651 
  1908.000 -28.869  10.500  10.819 -19.247  10.500  10.819 
  1908.500 -29.453  11.005  10.923 -19.841  11.005  10.923 
  1909.000 -28.560  11.509  10.932 -18.958  11.509  10.932 
  1909.500 -28.194  12.014  10.844 -18.602  12.014  10.844 
  1910.000 -27.986  12.692  10.746 -18.404  12.692  10.746 
  1910.500 -29.628  13.306  10.713 -20.056  13.306  10.713 
  1911.000 -31.374  13.400  10.764 -21.812  13.400  10.764 
  1911.500 -32.434  13.472  10.863 -22.882  13.472  10.863 
  1912.000 -33.230  13.502  10.961 -23.688  13.502  10.961 
  1912.500 -33.813  13.532  11.023 -24.281  13.532  11.023 
  1913.000 -33.500  13.572  11.085 -23.978  13.572  11.085 
  1913.500 -30.124  13.612  11.178 -20.612  13.612  11.178 
  1914.000 -27.381  13.631  11.176 -17.879  13.631  11.176 
  1914.500 -24.481  13.630  10.876 -14.988  13.630  10.876 
  1915.000 -23.112  13.659  10.343 -13.629  13.659  10.343 
  1915.500 -22.640  13.657  10.075 -13.167  13.657  10.075 
  1916.000 -24.386  13.655  9.9560 -14.923  13.655  9.9560 
  1916.500 -27.189  13.642  9.8690 -17.736  13.642  9.8690 
  1917.000 -29.148  13.523  9.8030 -19.705  13.523  9.8030 
  1917.500 -29.678  9.4180  9.6620 -20.245  9.4180  9.6620 
  1918.000 -30.316  8.7140  9.2880 -20.893  8.7140  9.2880 
  1918.500 -16.113  8.0740  8.5950 -6.7001  8.0740  8.5950 
  1919.000 -15.536  5.9990  7.9340 -6.1330  5.9990  7.9340 
  1919.500 -15.169  5.7100  5.9550 -5.7760  5.7100  5.9550 
  1920.000 -14.803  5.5060  5.5490 -5.4199  5.5060  5.5490 
  1920.500 -14.122  5.2810  5.3230 -4.7489  5.2810  5.3230 
  1921.000 -13.755  5.2260  5.1300 -4.3918  5.2260  5.1300 
  1921.500 -13.284  5.1710  4.9580 -3.9308  5.1710  4.9580 
  1922.000 -13.023  5.0410  4.8600 -3.6797  5.0410  4.8600 
  1922.500 -12.447  4.9640  4.7620 -3.1137  4.9640  4.7620 
  1923.000 -12.134  4.8880  4.5680 -2.8106  4.8880  4.5680 
  1923.500 -12.030  4.7260  4.4490 -2.7166  4.7260  4.4490 
  1924.000 -11.771  4.5220  4.3620 -2.4675  4.5220  4.3620 
  1924.500 -11.932  4.3710  4.2970 -2.6385  4.3710  4.2970 
  1925.000 -12.202  4.2410  4.1880 -2.9184  4.2410  4.1880 
  1925.500 -12.416  4.2920  4.3670 -3.1424  4.2920  4.3670 
  1926.000 -12.683  4.6510  4.6620 -3.4193  4.6510  4.6620 
  1926.500 -12.951  4.8830  5.0640 -3.6973  4.8830  5.0640 
  1927.000 -13.324  5.1150  5.3490 -4.0802  5.1150  5.3490 
  1927.500 -13.644  5.6870  5.7400 -4.4102  5.6870  5.7400 
  1928.000 -13.859  6.4180  6.0890 -4.6351  6.4180  6.0890 
  1928.500 -14.182  7.0430  7.5850 -4.9681  7.0430  7.5850 
  1929.000 -14.395  7.8910  8.1250 -5.1910  7.8910  8.1250 
  1929.500 -14.874  11.121  9.0370 -5.6800  11.121  9.0370 
  1930.000 -20.687  12.458  9.5770 -11.503  12.458  9.5770 
  1930.500 -23.437  13.540  10.117 -14.263  13.540  10.117 
  1931.000 -23.809  13.942  10.594 -14.645  13.942  10.594 
  1931.500 -24.181  14.099  11.038 -15.027  14.099  11.038 
  1932.000 -28.888  14.511  11.248 -19.744  14.511  11.248 
  1932.500 -29.473  14.658  11.385 -20.339  14.658  11.385 
  1933.000 -30.110  14.752  11.521 -20.986  14.752  11.521 
  1933.500 -30.589  14.675  11.741 -21.475  14.675  11.741 
  1934.000 -30.329  13.376  11.739 -21.225  13.376  11.739 
  1934.500 -29.909  12.960  11.706 -20.814  12.960  11.706 
  1935.000 -29.439  12.756  11.650 -20.354  12.756  11.650 
  1935.500 -29.336  14.072  11.616 -20.261  14.072  11.616 
  1936.000 -29.868  14.622  11.593 -20.803  14.622  11.593 
  1936.500 -30.188  14.886  11.718 -21.133  14.886  11.718 
  1937.000 -29.348  15.150  11.854 -20.303  15.150  11.854 
  1937.500 -29.033  15.583  12.267 -19.998  15.583  12.267 
  1938.000 -28.718  15.825  12.658 -19.693  15.825  12.658 
  1938.500 -27.932  16.047  12.953 -18.917  16.047  12.953 
  1939.000 -28.518  16.183  13.079 -19.513  16.183  13.079 
  1939.500 -28.362  16.287  13.205 -19.367  16.287  13.205 
  1940.000 -28.683  16.359  13.500 -19.698  16.359  13.500 
  1940.500 -28.897  12.116  13.115 -19.922  12.116  13.115 
  1941.000 -29.113  10.328  12.368 -20.148  10.328  12.368 
  1941.500 -24.839  9.4120  12.186 -15.884  9.4120  12.186 
  1942.000 -20.617  8.8570  11.419 -11.672  8.8570  11.419 
  1942.500 -19.195  7.9720  8.1320 -10.260  7.9720  8.1320 
  1943.000 -18.460  7.5020  7.6940 -9.5346  7.5020  7.6940 
  1943.500 -18.041  7.2880  7.2980 -9.1256  7.2880  7.2980 
  1944.000 -17.992  6.9660  7.0730 -9.0865  6.9660  7.0730 
  1944.500 -17.890  6.8260  6.9220 -8.9945  6.8260  6.9220 
  1945.000 -17.629  6.7600  6.7500 -8.7434  6.7600  6.7500 
  1945.500 -17.316  6.7480  6.6730 -8.4404  6.7480  6.6730 
  1946.000 -17.108  6.7880  6.6290 -8.2423  6.7880  6.6290 
  1946.500 -18.855  7.0200  6.6580 -9.9993  7.0200  6.6580 
  1947.000 -20.180  7.2360  6.8790 -11.334  7.2360  6.8790 
  1947.500 -20.605  7.4520  7.1640 -11.769  7.4520  7.1640 
  1948.000 -19.236  8.3740  7.5130 -10.410  8.3740  7.5130 
  1948.500 -18.606  10.413  8.1060 -9.7901  10.413  8.1060 
  1949.000 -18.083  11.527  8.8060 -9.2770  11.527  8.8060 
  1949.500 -17.927  11.865  9.1220 -9.1310  11.865  9.1220 
  1950.000 -18.141  12.299  9.3010 -9.3549  12.299  9.3010 
  1950.500 -28.607  12.426  9.4390 -19.831  12.426  9.4390 
  1951.000 -29.408  12.478  9.5440 -20.642  12.478  9.5440 
  1951.500 -29.998  12.127  9.6070 -21.242  12.127  9.6070 
  1952.000 -30.270  10.957  9.6180 -21.524  10.957  9.6180 
  1952.500 -30.437  8.2890  9.4580 -21.701  8.2890  9.4580 
  1953.000 -30.552  7.0440  9.2450 -21.826  7.0440  9.2450 
  1953.500 -25.015  6.4480  8.8720 -16.299  6.4480  8.8720 
  1954.000 -18.739  6.1820  6.0860 -10.033  6.1820  6.0860 
  1954.500 -16.688  5.7460  5.6180 -7.9915  5.7460  5.6180 
  1955.000 -15.588  5.2990  5.3840 -6.9014  5.2990  5.3840 
  1955.500 -14.646  5.0640  5.1390 -5.9694  5.0640  5.1390 
  1956.000 -14.022  4.9570  5.0110 -5.3553  4.9570  5.0110 
  1956.500 -13.608  5.1800  5.1590 -4.9513  5.1800  5.1590 
  1957.000 -13.510  5.4990  5.5310 -4.8632  5.4990  5.5310 
  1957.500 -13.519  5.8070  5.7320 -4.8822  5.8070  5.7320 
  1958.000 -14.161  6.3060  5.8380 -5.5341  6.3060  5.8380 
  1958.500 -15.174  6.6340  5.8800 -6.5571  6.6340  5.8800 
  1959.000 -14.867  6.8570  5.9220 -6.2600  6.8570  5.9220 
  1959.500 -14.242  7.0270  5.9960 -5.6450  7.0270  5.9960 
  1960.000 -13.775  7.1960  6.1330 -5.1879  7.1960  6.1330 
  1960.500 -15.314  7.1210  6.2070 -6.7369  7.1210  6.2070 
  1961.000 -17.013  6.6000  6.3550 -8.4458  6.6000  6.3550 
  1961.500 -18.765  6.1320  6.4290 -10.208  6.1320  6.4290 
  1962.000 -19.935  5.4930  6.4710 -11.388  5.4930  6.4710 
  1962.500 -20.577  5.1000  5.3230 -12.040  5.1000  5.3230 
  1963.000 -15.200  4.7590  5.0140 -6.6726  4.7590  5.0140 
  1963.500 -14.838  4.4820  4.7260 -6.3206  4.4820  4.7260 
  1964.000 -14.608  4.3540  4.5670 -6.1005  4.3540  4.5670 
  1964.500 -14.378  4.7150  4.8640 -5.8805  4.7150  4.8640 
  1965.000 -14.337  5.2140  5.4790 -5.8494  5.2140  5.4790 
  1965.500 -14.345  5.9470  6.1270 -5.8674  5.9470  6.1270 
  1966.000 -14.354  7.1160  6.8810 -5.8863  7.1160  6.8810 
  1966.500 -14.574  8.1350  8.1990 -6.1163  8.1350  8.1990 
  1967.000 -15.639  10.633  9.3890 -7.1912  10.633  9.3890 
  1967.500 -16.757  11.908  10.090 -8.3192  11.908  10.090 
  1968.000 -17.980  13.683  10.749 -9.5521  13.683  10.749 
  1968.500 -18.517  16.084  11.418 -10.099  16.084  11.418 
  1969.000 -19.424  16.955  12.257 -11.016  16.955  12.257 
  1969.500 -23.024  17.146  12.948 -14.626  17.146  12.948 
  1970.000 -24.880  16.795  13.170 -16.492  16.795  13.170 
  1970.500 -25.865  17.815  13.287 -17.487  17.815  13.287 
  1971.000 -26.849  18.027  13.764 -18.481  18.027  13.764 
  1971.500 -27.495  18.122  14.753 -19.137  18.122  14.753 
  1972.000 -27.503  18.228  15.406 -19.155  18.228  15.406 
  1972.500 -28.779  18.334  16.059 -20.441  18.334  16.059 
  1973.000 -29.739  18.413  17.504 -21.411  18.413  17.504 
  1973.500 -30.276  18.492  18.683 -21.958  18.492  18.683 
