~Version Information
VERS.                     2.0: CWLS log ASCII Standard Version 2.00
WRAP.                      NO: One line per depth step
~Well Information Block
#MNEM.UNIT                               Data Type  Information
#---------                               ---------  -----------
STRT.FT                                   500.0000:
STOP.FT                                  2702.0000:
STEP.FT                                     0.5000:
NULL.                 -999.25                     :
COMP.                                             :COMPANY            
WELL.     KCL 55-33                               :WELL               
FLD .                                             :FIELD              
CTRY.                                             :COUNTRY            
STAT.                                             :STATE              
LOC .                                             :LOCATION           
UWI .                                             :UNIQUE WELL ID     
SRVC.                                             :Service company    
DATE.                                             :LOG DATE           
~Curve Information
#MNEM.UNIT           API CODE  Curve Description
#---------           --------  -----------------
DEPT.FT                      :   1 DEPTH
SP  .MV                      :   2
ILD .OHMM                    :   3
SN  .OHMM                    :   4
SBL .MV                      :   5
RD  .OHMM                    :   6
RS  .OHMM                    :   7
~A
# ...
  2242.000 -14.897  2.8290  2.9350 -11.616  2.8290  2.9350 
  2242.500 -14.743  2.7970  2.9450 -11.469  2.7970  2.9450 
  2243.000 -14.167  2.8270  2.9550 -10.900  2.8270  2.9550 
  2243.500 -13.960  2.8370  2.9320 -10.700  2.8370  2.9320 
  2244.000 -14.492  2.7930  2.8570 -11.239  2.7930  2.8570 
  2244.500 -16.027  2.7610  2.8140 -12.781  2.7610  2.8140 
  2245.000 -16.823  2.7170  2.7490 -13.584  2.7170  2.7490 
  2245.500 -17.408  2.6740  2.6950 -14.176  2.6740  2.6950 
  2246.000 -16.039  2.6520  2.6620 -12.814  2.6520  2.6620 
  2246.500 -14.408  2.6290  2.6560 -11.190  2.6290  2.6560 
  2247.000 -13.884  2.6280  2.6500 -10.673  2.6280  2.6500 
  2247.500 -13.783  2.6430  2.6700 -10.579  2.6430  2.6700 
  2248.000 -13.786  2.6580  2.6690 -10.589  2.6580  2.6690 
  2248.500 -14.160  2.5720  2.5940 -10.970  2.5720  2.5940 
  2249.000 -14.429  2.4550  2.5190 -11.246  2.4550  2.5190 
  2249.500 -14.116  2.3800  2.3260 -10.940  2.3800  2.3260 
  2250.000 -13.381  2.3040  2.2610 -10.212  2.3040  2.2610 
  2250.500 -12.064  2.1650  2.2290 -8.9017  2.1650  2.2290 
  2251.000 -11.064  2.1740  2.2590 -7.9087  2.1740  2.2590 
  2251.500 -10.486  2.2050  2.2640 -7.3377  2.2050  2.2640 
  2252.000 -11.122  2.2150  2.2680 -7.9806  2.2150  2.2680 
  2252.500 -12.392  2.2350  2.2670 -9.2576  2.2350  2.2670 
  2253.000 -13.239  2.2340  2.2660 -10.112  2.2340  2.2660 
  2253.500 -14.298  2.2330  2.2650 -11.178  2.2330  2.2650 
  2254.000 -14.881  2.2110  2.2530 -11.768  2.2110  2.2530 
  2254.500 -14.698  2.1990  2.2420 -11.592  2.1990  2.2420 
  2255.000 -14.515  2.1820  2.2300 -11.416  2.1820  2.2300 
  2255.500 -14.044  2.1650  2.2070 -10.952  2.1650  2.2070 
  2256.000 -13.783  2.1210  2.0890 -10.697  2.1210  2.0890 
  2256.500 -13.574  2.0890  2.0730 -10.495  2.0890  2.0730 
  2257.000 -13.365  2.0720  2.0560 -10.293  2.0720  2.0560 
  2257.500 -13.052  2.0550  2.0010 -9.9874  2.0550  2.0010 
  2258.000 -12.816  1.9790  1.9900 -9.7584  1.9790  1.9900 
  2258.500 -12.580  1.9250  1.9670 -9.5294  1.9250  1.9670 
  2259.000 -12.214  1.8600  1.9450 -9.1704  1.8600  1.9450 
  2259.500 -11.953  1.8380  1.9440 -8.9164  1.8380  1.9440 
  2260.000 -12.590  1.8370  1.9220 -9.5603  1.8370  1.9220 
  2260.500 -13.279  1.8520  1.9210 -10.256  1.8520  1.9210 
  2261.000 -12.648  1.8670  1.9200 -9.6323  1.8670  1.9200 
  2261.500 -12.175  1.9290  1.9290 -9.1663  1.9290  1.9290 
  2262.000 -11.992  1.9550  1.9810 -8.9903  1.9550  1.9810 
  2262.500 -11.809  1.9810  2.0070 -8.8142  1.9810  2.0070 
  2263.000 -11.549  2.0750  2.0330 -8.5612  2.0750  2.0330 
  2263.500 -11.447  2.1060  2.1160 -8.4662  2.1060  2.1160 
  2264.000 -11.344  2.1360  2.1790 -8.3702  2.1360  2.1790 
  2264.500 -11.320  2.1570  2.2040 -8.3532  2.1570  2.2040 
  2265.000 -11.295  2.2080  2.2300 -8.3351  2.2080  2.2300 
  2265.500 -11.193  2.2230  2.2820 -8.2401  2.2230  2.2820 
  2266.000 -15.420  2.2380  2.3070 -12.474  2.2380  2.3070 
  2266.500 -16.266  2.2580  2.3330 -13.327  2.2580  2.3330 
  2267.000 -18.433  2.2680  2.3420 -15.501  2.2680  2.3420 
  2267.500 -19.174  2.2670  2.3090 -16.249  2.2670  2.3090 
  2268.000 -19.811  2.2980  2.2870 -16.893  2.2980  2.2870 
  2268.500 -20.235  2.2750  2.2760 -17.324  2.2750  2.2760 
  2269.000 -20.659  2.2420  2.2740 -17.755  2.2420  2.2740 
  2269.500 -21.138  2.2100  2.2730 -18.241  2.2100  2.2730 
  2270.000 -20.665  2.1820  2.2300 -17.775  2.1820  2.2300 
  2270.500 -17.765  2.1550  2.1650 -14.882  2.1550  2.1650 
  2271.000 -17.134  2.1000  2.1430 -14.258  2.1000  2.1430 
  2271.500 -15.870  2.0830  2.1370 -13.001  2.0830  2.1370 
  2272.000 -14.764  2.0670  2.1300 -11.902  2.0670  2.1300 
  2272.500 -13.817  2.0440  2.1080 -10.962  2.0440  2.1080 
  2273.000 -13.343  2.0220  2.1070 -10.495  2.0220  2.1070 
  2273.500 -12.870  2.0000  2.0950 -10.029  2.0000  2.0950 
  2274.000 -14.142  1.9770  2.0940 -11.308  1.9770  2.0940 
  2274.500 -14.935  1.9550  2.0720 -12.108  1.9550  2.0720 
  2275.000 -15.835  1.9540  2.0700 -13.015  1.9540  2.0700 
  2275.500 -15.891  1.9530  2.0480 -13.078  1.9530  2.0480 
  2276.000 -13.149  1.9520  2.0470 -10.343  1.9520  2.0470 
  2276.500 -12.966  1.9510  2.0460 -10.167  1.9510  2.0460 
  2277.000 -12.783  1.9500  2.0340 -9.9907  1.9500  2.0340 
  2277.500 -13.421  1.9490  2.0330 -10.636  1.9490  2.0330 
  2278.000 -13.107  1.9480  2.0320 -10.329  1.9480  2.0320 
  2278.500 -12.582  2.0420  2.0310 -9.8106  2.0420  2.0310 
  2279.000 -12.109  2.2000  2.1580 -9.3446  2.2000  2.1580 
  2279.500 -11.478  2.3370  2.5070 -8.7206  2.3370  2.5070 
  2280.000 -10.848  2.5060  2.7930 -8.0976  2.5060  2.7930 
  2280.500 -10.533  2.6750  2.7700 -7.7895  2.6750  2.7700 
  2281.000 -10.061  2.9180  2.7480 -7.3245  2.9180  2.7480 
  2281.500 -9.9580  2.9490  2.7580 -7.2285  2.9490  2.7580 
  2282.000 -10.805  2.9480  2.9580 -8.0825  2.9480  2.9580 
  2282.500 -11.651  2.9680  3.0950 -8.9355  2.9680  3.0950 
  2283.000 -13.661  2.9140  3.1900 -10.952  2.9140  3.1900 
  2283.500 -14.719  2.6470  2.8810 -12.017  2.6470  2.8810 
  2284.000 -15.724  2.4230  2.4970 -13.029  2.4230  2.4970 
  2284.500 -14.567  2.2520  2.3050 -11.879  2.2520  2.3050 
  2285.000 -14.041  2.0280  2.2090 -11.360  2.0280  2.2090 
  2285.500 -13.674  1.9210  2.0910 -11.000  1.9210  2.0910 
  2286.000 -13.677  1.9520  2.0790 -11.010  1.9520  2.0790 
  2286.500 -13.996  1.9820  2.0990 -11.336  1.9820  2.0990 
  2287.000 -14.527  2.0240  2.1620 -11.874  2.0240  2.1620 
  2287.500 -14.846  2.0540  2.1870 -12.200  2.0540  2.1870 
  2288.000 -15.430  2.0640  2.2130 -12.791  2.0640  2.2130 
  2288.500 -15.961  2.0950  2.2330 -13.329  2.0950  2.2330 
  2289.000 -16.490  2.1150  2.1790 -13.865  2.1150  2.1790 
  2289.500 -17.708  2.1140  2.1350 -15.090  2.1140  2.1350 
  2290.000 -19.029  2.0870  2.1130 -16.418  2.0870  2.1130 
  2290.500 -20.404  2.0590  2.0850 -17.800  2.0590  2.0850 
  2291.000 -21.304  2.0050  2.0580 -18.707  2.0050  2.0580 
  2291.500 -22.204  1.9720  2.0040 -19.614  1.9720  2.0040 
  2292.000 -21.415  1.9390  1.9810 -18.832  1.9390  1.9810 
  2292.500 -20.838  1.9060  1.9590 -18.262  1.9060  1.9590 
  2293.000 -20.259  1.8520  1.9260 -17.690  1.8520  1.9260 
  2293.500 -20.420  1.8190  1.8930 -17.858  1.8190  1.8930 
  2294.000 -21.690  1.7970  1.8760 -19.135  1.7970  1.8760 
  2294.500 -21.323  1.7950  1.8590 -18.775  1.7950  1.8590 
  2295.000 -20.850  1.7940  1.8580 -18.309  1.7940  1.8580 
  2295.500 -20.376  1.7930  1.8570 -17.842  1.7930  1.8570 
  2296.000 -19.113  1.8240  1.8560 -16.586  1.8240  1.8560 
  2296.500 -18.219  1.8340  1.8550 -15.699  1.8340  1.8550 
  2297.000 -17.693  1.8490  1.8540 -15.180  1.8490  1.8540 
  2297.500 -17.167  1.8640  1.8640 -14.661  1.8640  1.8640 
  2298.000 -16.379  1.9150  1.9050 -13.880  1.9150  1.9050 
  2298.500 -16.171  1.9460  1.9360 -13.679  1.9460  1.9360 
  2299.000 -16.173  1.9880  1.9670 -13.688  1.9880  1.9670 
  2299.500 -16.176  2.0400  2.0400 -13.698  2.0400  2.0400 
  2300.000 -15.520  2.0920  2.1130 -13.049  2.0920  2.1130 
  2300.500 -14.863  2.1650  2.1970 -12.399  2.1650  2.1970 
  2301.000 -13.287  2.1970  2.1650 -10.830  2.1970  2.1650 
  2301.500 -12.238  2.1590  2.1000 -9.7877  2.1590  2.1000 
  2302.000 -11.610  2.1210  2.0890 -9.1667  2.1210  2.0890 
  2302.500 -11.035  2.0830  2.0830 -8.5987  2.0830  2.0830 
  2303.000 -10.777  2.0450  2.0780 -8.3477  2.0450  2.0780 
  2303.500 -11.153  2.0340  2.0560 -8.7307  2.0340  2.0560 
  2304.000 -11.475  2.0340  2.0340 -9.0596  2.0340  2.0340 
  2304.500 -11.745  2.0330  2.0280 -9.3366  2.0330  2.0280 
  2305.000 -11.855  2.0220  2.0220 -9.4536  2.0220  2.0220 
  2305.500 -11.965  1.9890  1.9890 -9.5706  1.9890  1.9890 
  2306.000 -11.920  1.9780  1.9880 -9.5326  1.9780  1.9880 
  2306.500 -11.874  1.9350  1.9880 -9.4935  1.9350  1.9880 
  2307.000 -11.774  1.9240  1.9870 -9.4005  1.9240  1.9870 
  2307.500 -11.780  1.9130  1.9870 -9.4135  1.9130  1.9870 
  2308.000 -11.785  1.9010  2.0070 -9.4255  1.9010  2.0070 
  2308.500 -11.791  1.8950  2.0060 -9.4385  1.8950  2.0060 
