~Version Information
VERS.                     2.0: CWLS log ASCII Standard Version 2.00
WRAP.                      NO: One line per depth step
~Well Information Block
#MNEM.UNIT                               Data Type  Information
#---------                               ---------  -----------
STRT.FT                                   500.0000:
STOP.FT                                  2702.0000:
STEP.FT                                     0.5000:
NULL.                 -999.25                     :
COMP.                                             :COMPANY            
WELL.     KCL 55-33                               :WELL               
FLD .                                             :FIELD              
CTRY.                                             :COUNTRY            
STAT.                                             :STATE              
LOC .                                             :LOCATION           
UWI .                                             :UNIQUE WELL ID     
SRVC.                                             :Service company    
DATE.                                             :LOG DATE           
~Curve Information
#MNEM.UNIT           API CODE  Curve Description
#---------           --------  -----------------
DEPT.FT                      :   1 DEPTH
SP  .MV                      :   2
ILD .OHMM                    :   3
SN  .OHMM                    :   4
SBL .MV                      :   5
RD  .OHMM                    :   6
RS  .OHMM                    :   7
~A
# ...
  2510.000 -16.257  2.4490  2.5130 -16.257  2.4490  2.5130 
  2510.500 -14.094  2.5110  2.5640 -14.094  2.5110  2.5640 
  2511.000 -14.156  2.5510  2.5990 -14.156  2.5510  2.5990 
  2511.500 -13.794  2.5920  2.6350 -13.794  2.5920  2.6350 
  2512.000 -13.059  2.6330  2.6590 -13.059  2.6330  2.6590 
  2512.500 -12.484  2.7040  2.6840 -12.484  2.7040  2.6840 
  2513.000 -11.591  2.7130  2.7240 -11.591  2.7130  2.7240 
  2513.500 -10.910  2.7060  2.7540 -10.910  2.7060  2.7540 
  2514.000 -11.343  2.6990  2.7620 -11.343  2.6990  2.7620 
  2514.500 -11.775  2.6750  2.7700 -11.775  2.6750  2.7700 
  2515.000 -13.117  2.6520  2.7690 -13.117  2.6520  2.7690 
  2515.500 -13.924  2.6060  2.6920 -13.924  2.6060  2.6920 
  2516.000 -14.569  2.5510  2.6150 -14.569  2.5510  2.6150 
  2516.500 -15.376  2.4530  2.5700 -15.376  2.4530  2.5700 
  2517.000 -16.236  2.3980  2.5260 -16.236  2.3980  2.5260 
  2517.500 -16.937  2.3740  2.4380 -16.937  2.3740  2.4380 
  2518.000 -17.532  2.3400  2.3930 -17.532  2.3400  2.3930 
  2518.500 -17.858  2.4760  2.3590 -17.858  2.4760  2.3590 
  2519.000 -18.133  2.5920  2.3470 -18.133  2.5920  2.3470 
  2519.500 -18.302  2.7070  2.6320 -18.302  2.7070  2.6320 
  2520.000 -18.418  2.8850  2.7260 -18.418  2.8850  2.7260 
  2520.500 -17.099  2.9470  2.8300 -17.099  2.9470  2.8300 
  2521.000 -15.621  3.0830  2.9400 -15.621  3.0830  2.9400 
  2521.500 -14.038  3.3370  3.0500 -14.038  3.3370  3.0500 
  2522.000 -12.880  3.5580  3.3560 -12.880  3.5580  3.3560 
  2522.500 -12.253  3.7370  3.5980 -12.253  3.7370  3.5980 
  2523.000 -11.835  3.8740  3.6930 -11.835  3.8740  3.6930 
  2523.500 -11.473  3.9880  3.7870 -11.473  3.9880  3.7870 
  2524.000 -11.270  4.0720  3.9760 -11.270  4.0720  3.9760 
  2524.500 -11.651  4.1760  4.1120 -11.651  4.1760  4.1120 
  2525.000 -12.617  4.2270  4.2060 -12.617  4.2270  4.2060 
  2525.500 -16.824  4.3210  4.2890 -16.824  4.3210  4.2890 
  2526.000 -18.266  4.3930  4.3610 -18.266  4.3930  4.3610 
  2526.500 -19.234  4.2740  4.4230 -19.234  4.2740  4.4230 
  2527.000 -19.828  4.0910  4.0690 -19.828  4.0910  4.0690 
  2527.500 -20.526  3.8440  3.8550 -20.526  3.8440  3.8550 
  2528.000 -21.494  3.6180  3.5650 -21.494  3.6180  3.5650 
  2528.500 -21.980  3.4780  3.3710 -21.980  3.4780  3.3710 
  2529.000 -22.468  3.4120  3.1340 -22.468  3.4120  3.1340 
  2529.500 -22.689  3.1860  3.0370 -22.689  3.1860  3.0370 
  2530.000 -22.380  3.1090  3.0030 -22.380  3.1090  3.0030 
  2530.500 -22.071  3.1070  3.0320 -22.071  3.1070  3.0320 
  2531.000 -21.497  3.0830  3.0570 -21.497  3.0830  3.0570 
  2531.500 -20.177  3.0820  3.0820 -20.177  3.0820  3.0820 
  2532.000 -15.142  3.0800  3.1060 -15.142  3.0800  3.1060 
  2532.500 -13.716  3.0780  3.1310 -13.716  3.0780  3.1310 
  2533.000 -13.142  3.0760  3.0850 -13.142  3.0760  3.0850 
  2533.500 -12.938  3.0740  3.0460 -12.938  3.0740  3.0460 
  2534.000 -16.349  3.0720  3.0080 -16.349  3.0720  3.0080 
  2534.500 -16.942  3.0690  2.9830 -16.942  3.0690  2.9830 
  2535.000 -17.162  3.0670  2.9810 -17.162  3.0670  2.9810 
  2535.500 -17.382  3.0960  3.0010 -17.382  3.0960  3.0010 
  2536.000 -18.193  3.1160  3.0360 -18.193  3.1160  3.0360 
  2536.500 -18.839  3.1240  3.0710 -18.839  3.1240  3.0710 
  2537.000 -19.511  3.1430  3.1110 -19.511  3.1430  3.1110 
  2537.500 -20.183  3.1090  3.1300 -20.183  3.1090  3.1300 
  2538.000 -20.379  3.0750  3.1390 -20.379  3.0750  3.1390 
  2538.500 -20.576  3.0090  2.9980 -20.576  3.0090  2.9980 
  2539.000 -20.372  2.8250  2.7620 -20.372  2.8250  2.7620 
  2539.500 -20.168  2.7060  2.5680 -20.168  2.7060  2.5680 
  2540.000 -18.906  2.6090  2.4590 -18.906  2.6090  2.4590 
  2540.500 -17.588  2.5110  2.3830 -17.588  2.5110  2.3830 
  2541.000 -14.997  2.4770  2.4340 -14.997  2.4770  2.4340 
  2541.500 -14.155  2.6550  2.5810 -14.155  2.6550  2.5810 
  2542.000 -13.315  2.7810  2.6430 -13.315  2.7810  2.6430 
  2542.500 -13.110  2.9390  2.8640 -13.110  2.9390  2.8640 
  2543.000 -12.904  3.0430  3.0110 -12.904  3.0430  3.0110 
  2543.500 -15.627  3.1690  3.0940 -15.627  3.1690  3.0940 
  2544.000 -17.070  3.3160  3.1020 -17.070  3.3160  3.1020 
  2544.500 -18.195  3.3770  3.1750 -18.195  3.3770  3.1750 
  2545.000 -17.514  3.4920  3.2370 -17.514  3.4920  3.2370 
  2545.500 -17.366  3.5440  3.3200 -17.366  3.5440  3.3200 
  2546.000 -17.506  3.5950  3.4040 -17.506  3.5950  3.4040 
  2546.500 -17.645  3.6460  3.4820 -17.645  3.6460  3.4820 
  2547.000 -16.757  3.6860  3.5590 -16.757  3.6860  3.5590 
  2547.500 -16.075  3.5990  3.6520 -16.075  3.5990  3.6520 
  2548.000 -14.546  3.4260  3.5330 -14.546  3.4260  3.5330 
  2548.500 -13.493  3.2970  3.3280 -13.493  3.2970  3.3280 
  2549.000 -13.978  3.1130  3.1770 -13.978  3.1130  3.1770 
  2549.500 -14.464  2.9730  2.9510 -14.464  2.9730  2.9510 
  2550.000 -18.142  2.8320  2.7890 -18.142  2.8320  2.7890 
  2550.500 -17.193  2.7620  2.7140 -17.193  2.7620  2.7140 
  2551.000 -16.615  2.6920  2.6430 -16.615  2.6920  2.6430 
  2551.500 -15.773  2.5620  2.5730 -15.773  2.5620  2.5730 
  2552.000 -16.097  2.6670  2.7300 -16.097  2.6670  2.7300 
  2552.500 -16.476  2.7930  2.9100 -16.476  2.7930  2.9100 
  2553.000 -16.539  3.0150  3.0050 -16.539  3.0150  3.0050 
  2553.500 -16.171  3.1950  3.2690 -16.171  3.1950  3.2690 
  2554.000 -15.804  3.3430  3.3860 -15.804  3.3430  3.3860 
  2554.500 -15.438  3.4640  3.5760 -15.438  3.4640  3.5760 
  2555.000 -18.265  3.5860  3.7130 -18.265  3.5860  3.7130 
  2555.500 -19.227  3.8180  3.9990 -19.227  3.8180  3.9990 
  2556.000 -17.428  3.9440  4.2430 -17.428  3.9440  4.2430 
  2556.500 -15.416  3.9960  4.6780 -15.416  3.9960  4.6780 
  2557.000 -13.457  4.0050  4.8790 -13.457  4.0050  4.8790 
  2557.500 -11.604  4.0040  5.0260 -11.604  4.0040  5.0260 
  2558.000 -10.178  4.0030  4.9610 -10.178  4.0030  4.9610 
  2558.500 -8.7510  4.0340  4.8960 -8.7510  4.0340  4.8960 
  2559.000 -8.1210  4.0650  4.7130 -8.1210  4.0650  4.7130 
  2559.500 -7.8080  4.2860  4.8400 -7.8080  4.2860  4.8400 
  2560.000 -12.223  4.4650  4.7430 -12.223  4.4650  4.7430 
  2560.500 -13.027  4.5180  4.8900 -13.027  4.5180  4.8900 
  2561.000 -13.991  4.5700  5.0060 -13.991  4.5700  5.0060 
  2561.500 -15.273  4.7270  5.1210 -15.273  4.7270  5.1210 
  2562.000 -17.033  4.7690  5.1630 -17.033  4.7690  5.1630 
  2562.500 -17.413  4.7780  4.8420 -17.413  4.7780  4.8420 
  2563.000 -18.747  4.5740  4.3610 -18.747  4.5740  4.3610 
  2563.500 -19.974  4.3600  4.1150 -19.974  4.3600  4.1150 
  2564.000 -21.309  4.1350  3.7830 -21.309  4.1350  3.7830 
  2564.500 -21.289  3.9640  3.6440 -21.289  3.9640  3.6440 
  2565.000 -21.268  3.7810  3.5360 -21.268  3.7810  3.5360 
  2565.500 -20.956  3.5450  3.5090 -20.956  3.5450  3.5090 
  2566.000 -20.644  3.2240  3.4810 -20.644  3.2240  3.4810 
  2566.500 -20.491  2.9680  3.4040 -20.491  2.9680  3.4040 
  2567.000 -20.338  2.7320  3.3660 -20.338  2.7320  3.3660 
  2567.500 -19.926  2.6560  3.3270 -19.926  2.6560  3.3270 
  2568.000 -19.666  2.5810  3.2300 -19.666  2.5810  3.2300 
  2568.500 -19.406  2.3970  3.1000 -19.406  2.3970  3.1000 
  2569.000 -18.936  2.3220  3.0030 -18.936  2.3220  3.0030 
  2569.500 -18.624  2.2460  2.9170 -18.624  2.2460  2.9170 
  2570.000 -19.214  2.2230  2.8620 -19.214  2.2230  2.8620 
  2570.500 -20.499  2.3280  2.7650 -20.499  2.3280  2.7650 
  2571.000 -20.824  2.4650  2.6780 -20.824  2.4650  2.6780 
  2571.500 -20.590  2.6340  2.8100 -20.590  2.6340  2.8100 
  2572.000 -20.356  2.8030  2.9420 -20.356  2.8030  2.9420 
  2572.500 -20.098  2.9830  3.1110 -20.098  2.9830  3.1110 
  2573.000 -20.265  3.2480  3.2800 -20.265  3.2480  3.2800 
  2573.500 -21.175  3.5760  3.5660 -21.175  3.5760  3.5660 
  2574.000 -21.925  3.8410  3.7140 -21.925  3.8410  3.7140 
  2574.500 -22.357  4.8200  4.0310 -22.357  4.8200  4.0310 
  2575.000 -21.781  5.5000  4.3180 -21.781  5.5000  4.3180 
  2575.500 -19.290  5.7430  5.0620 -19.290  5.7430  5.0620 
  2576.000 -17.172  5.8800  5.8690 -17.172  5.8800  5.8690 
  2576.500 -15.321  6.0380  6.0710 -15.321  6.0380  6.0710 
