~Version Information
VERS.                     2.0: CWLS log ASCII Standard Version 2.00
WRAP.                      NO: One line per depth step
~Well Information Block
#MNEM.UNIT                               Data Type  Information
#---------                               ---------  -----------
STRT.FT                                   500.0000:
STOP.FT                                  2702.0000:
STEP.FT                                     0.5000:
NULL.                 -999.25                     :
COMP.                                             :COMPANY            
WELL.     KCL 55-33                               :WELL               
FLD .                                             :FIELD              
CTRY.                                             :COUNTRY            
STAT.                                             :STATE              
LOC .                                             :LOCATION           
UWI .                                             :UNIQUE WELL ID     
SRVC.                                             :Service company    
DATE.                                             :LOG DATE           
~Curve Information
#MNEM.UNIT           API CODE  Curve Description
#---------           --------  -----------------
DEPT.FT                      :   1 DEPTH
SP  .MV                      :   2
ILD .OHMM                    :   3
SN  .OHMM                    :   4
SBL .MV                      :   5
RD  .OHMM                    :   6
RS  .OHMM                    :   7
~A
# ...
  2041.000 -19.044  8.4970  8.2520 -12.069  8.4970  8.2520 
  2041.500 -18.940  8.2420  8.1780 -11.975  8.2420  8.1780 
  2042.000 -18.995  7.7430  8.0190 -12.040  7.7430  8.0190 
  2042.500 -19.103  7.3810  7.5830 -12.158  7.3810  7.5830 
  2043.000 -17.100  7.1480  7.2860 -10.165  7.1480  7.2860 
  2043.500 -15.518  6.7230  6.9350 -8.5926  6.7230  6.9350 
  2044.000 -13.726  6.4680  6.7490 -6.8106  6.4680  6.7490 
  2044.500 -12.883  6.2660  6.5640 -5.9775  6.2660  6.5640 
  2045.000 -11.144  6.1390  6.0850 -4.2485  6.1390  6.0850 
  2045.500 -10.564  5.8940  5.8520 -3.6784  5.8940  5.8520 
  2046.000 -10.408  5.7770  5.6600 -3.5324  5.7770  5.6600 
  2046.500 -10.885  6.3290  6.2440 -4.0193  6.3290  6.2440 
  2047.000 -11.944  7.4550  6.7110 -5.0883  7.4550  6.7110 
  2047.500 -12.578  7.9640  6.9340 -5.7322  7.9640  6.9340 
  2048.000 -13.213  8.2830  7.1470 -6.3772  8.2830  7.1470 
  2048.500 -14.748  8.3840  7.2100 -7.9221  8.3840  7.2100 
  2049.000 -15.013  8.4850  7.2530 -8.1971  8.4850  7.2530 
  2049.500 -15.279  8.5850  7.2950 -8.4730  8.5850  7.2950 
  2050.000 -14.121  8.6860  7.2840 -7.3250  8.6860  7.2840 
  2050.500 -13.065  6.7110  6.6790 -6.2789  6.7110  6.6790 
  2051.000 -12.431  6.3390  6.3180 -5.6549  6.3390  6.3180 
  2051.500 -11.640  6.0850  6.0840 -4.8738  6.0850  6.0840 
  2052.000 -11.375  5.8300  5.9200 -4.6188  5.8300  5.9200 
  2052.500 -11.323  5.3620  5.7550 -4.5767  5.3620  5.7550 
  2053.000 -11.323  5.2140  5.0970 -4.5867  5.2140  5.0970 
  2053.500 -11.428  5.0650  4.5660 -4.7016  5.0650  4.5660 
  2054.000 -11.534  4.7040  4.2900 -4.8176  4.7040  4.2900 
  2054.500 -11.692  4.5340  4.1940 -4.9855  4.5340  4.1940 
  2055.000 -11.797  4.3540  4.0560 -5.1005  4.3540  4.0560 
  2055.500 -11.957  4.1840  4.3220 -5.2704  4.1840  4.3220 
  2056.000 -12.114  4.5020  4.4600 -5.4374  4.5020  4.4600 
  2056.500 -12.801  4.6510  4.5980 -6.1343  4.6510  4.5980 
  2057.000 -13.856  4.8950  4.8950 -7.1993  4.8950  4.8950 
  2057.500 -16.337  5.1610  5.1930 -9.6902  5.1610  5.1930 
  2058.000 -18.184  5.3410  5.6490 -11.547  5.3410  5.6490 
  2058.500 -19.293  5.5220  5.8400 -12.666  5.5220  5.8400 
  2059.000 -18.712  5.7290  5.9890 -12.095  5.7290  5.9890 
  2059.500 -16.496  5.9360  5.9890 -9.8890  5.9360  5.9890 
  2060.000 -14.701  5.8610  5.8400 -8.1040  5.8610  5.8400 
  2060.500 -13.117  5.6280  5.6070 -6.5299  5.6280  5.6070 
  2061.000 -13.434  5.2980  5.4050 -6.8569  5.2980  5.4050 
  2061.500 -13.962  5.2030  5.1500 -7.3948  5.2030  5.1500 
  2062.000 -14.120  5.0440  5.0540 -7.5628  5.0440  5.0540 
  2062.500 -12.907  4.9270  4.9270 -6.3597  4.9270  4.9270 
  2063.000 -12.167  4.9060  4.8840 -5.6297  4.9060  4.8840 
  2063.500 -11.797  5.0120  5.1390 -5.2696  5.0120  5.1390 
  2064.000 -11.639  5.1180  5.6280 -5.1216  5.1180  5.6280 
  2064.500 -12.009  5.4790  5.8930 -5.5015  5.4790  5.8930 
  2065.000 -12.642  5.7760  6.1800 -6.1445  5.7760  6.1800 
  2065.500 -18.659  6.1160  6.2970 -12.171  6.1160  6.2970 
  2066.000 -23.040  6.3390  6.4670 -16.562  6.3390  6.4670 
  2066.500 -25.416  6.4140  6.6150 -18.948  6.4140  6.6150 
  2067.000 -26.841  6.4880  6.7210 -20.383  6.4880  6.7210 
  2067.500 -24.149  6.5780  6.7530 -17.701  6.5780  6.7530 
  2068.000 -20.982  6.6690  6.6150 -14.544  6.6690  6.6150 
  2068.500 -19.188  6.7210  6.4770 -12.760  6.7210  6.4770 
  2069.000 -18.923  6.5620  6.3870 -12.505  6.5620  6.3870 
  2069.500 -18.871  6.4240  6.2970 -12.463  6.4240  6.2970 
  2070.000 -18.396  6.3070  6.0630 -11.998  6.3070  6.0630 
  2070.500 -18.079  6.2120  5.9990 -11.691  6.2120  5.9990 
  2071.000 -18.079  6.2440  6.3820 -11.701  6.2440  6.3820 
  2071.500 -24.519  6.3500  6.5730 -18.151  6.3500  6.5730 
  2072.000 -27.105  6.4560  6.6310 -20.747  6.4560  6.6310 
  2072.500 -29.586  6.6790  6.6900 -23.238  6.6790  6.6900 
  2073.000 -31.222  6.7320  6.7850 -24.884  6.7320  6.7850 
  2073.500 -33.017  6.7850  6.8170 -26.689  6.7850  6.8170 
  2074.000 -33.545  6.8280  6.8490 -27.227  6.8280  6.8490 
  2074.500 -31.909  6.8590  6.8910 -25.601  6.8590  6.8910 
  2075.000 -30.905  6.8700  6.9020 -24.606  6.8700  6.9020 
  2075.500 -31.697  6.8810  6.9130 -25.408  6.8810  6.9130 
  2076.000 -32.647  6.7640  6.8590 -26.368  6.7640  6.8590 
  2076.500 -35.867  6.4990  6.4450 -29.598  6.4990  6.4450 
  2077.000 -37.187  6.0100  6.2120 -30.928  6.0100  6.2120 
  2077.500 -20.296  5.7920  5.8510 -14.047  5.7920  5.8510 
  2078.000 -18.818  5.5750  5.5640 -12.579  5.5750  5.5640 
  2078.500 -18.079  4.9910  5.4150 -11.850  4.9910  5.4150 
  2079.000 -17.551  4.8150  5.0010 -11.332  4.8150  5.0010 
  2079.500 -17.023  4.6400  4.8000 -10.814  4.6400  4.8000 
  2080.000 -16.284  4.1940  4.5980 -10.085  4.1940  4.5980 
  2080.500 -15.546  3.9980  4.3960 -9.3569  3.9980  4.3960 
  2081.000 -15.017  3.8020  4.0350 -8.8379  3.8020  4.0350 
  2081.500 -14.648  3.6210  3.8860 -8.4788  3.6210  3.8860 
  2082.000 -14.068  3.4720  3.6850 -7.9088  3.4720  3.6850 
  2082.500 -13.645  3.3980  3.5250 -7.4957  3.3980  3.5250 
  2083.000 -13.064  3.6210  3.6000 -6.9247  3.6210  3.6000 
  2083.500 -12.378  4.0770  4.2370 -6.2486  4.0770  4.2370 
  2084.000 -12.167  4.3850  4.6400 -6.0476  4.3850  4.6400 
  2084.500 -11.745  4.7140  4.8420 -5.6355  4.7140  4.8420 
  2085.000 -11.534  4.9480  4.9480 -5.4345  4.9480  4.9480 
  2085.500 -11.533  5.0330  5.0330 -5.4434  5.0330  5.0330 
  2086.000 -12.272  5.1180  5.3200 -6.1924  5.1180  5.3200 
  2086.500 -14.648  5.2770  5.5750 -8.5783  5.2770  5.5750 
  2087.000 -19.557  5.2880  5.7970 -13.497  5.2880  5.7970 
  2087.500 -22.566  5.2560  5.8930 -16.516  5.2560  5.8930 
  2088.000 -20.402  5.0860  4.9380 -14.362  5.0860  4.9380 
  2088.500 -17.129  4.7780  4.6510 -11.099  4.7780  4.6510 
  2089.000 -13.856  4.6080  4.5340 -7.8361  4.6080  4.5340 
  2089.500 -12.590  4.4600  4.3640 -6.5800  4.4600  4.3640 
  2090.000 -12.115  4.5230  4.5770 -6.1150  4.5230  4.5770 
  2090.500 -17.234  4.6080  4.7360 -11.244  4.6080  4.7360 
  2091.000 -18.184  4.6990  4.7890 -12.204  4.6990  4.7890 
  2091.500 -17.340  4.7890  4.8320 -11.370  4.7890  4.8320 
  2092.000 -16.706  4.8420  4.8740 -10.746  4.8420  4.8740 
  2092.500 -17.604  4.9160  4.9110 -11.654  4.9160  4.9110 
  2093.000 -21.774  4.9270  4.9480 -15.834  4.9270  4.9480 
  2093.500 -23.515  4.9060  4.9700 -17.585  4.9060  4.9700 
  2094.000 -24.149  4.8210  4.9910 -18.229  4.8210  4.9910 
  2094.500 -22.725  4.6930  5.0010 -16.815  4.6930  5.0010 
  2095.000 -17.287  4.6140  4.7360 -11.387  4.6140  4.7360 
  2095.500 -15.071  4.5340  4.5660 -9.1805  4.5340  4.5660 
  2096.000 -14.331  4.4170  4.5020 -8.4504  4.4170  4.5020 
  2096.500 -13.698  4.5760  4.5340 -7.8274  4.5760  4.5340 
  2097.000 -14.120  4.9060  4.9270 -8.2593  4.9060  4.9270 
  2097.500 -14.806  5.4050  5.5110 -8.9553  5.4050  5.5110 
  2098.000 -15.229  5.8080  5.9040 -9.3882  5.8080  5.9040 
  2098.500 -15.810  5.9990  6.0210 -9.9792  5.9990  6.0210 
  2099.000 -16.812  6.2540  6.2220 -10.991  6.2540  6.2220 
  2099.500 -21.615  6.3450  6.3180 -15.804  6.3450  6.3180 
  2100.000 -24.835  6.4350  6.3920 -19.034  6.4350  6.3920 
  2100.500 -26.528  5.9450  6.1470 -20.737  5.9450  6.1470 
  2101.000 -17.295  5.5510  5.7420 -11.514  5.5510  5.7420 
  2101.500 -16.085  5.1570  5.2850 -10.314  5.1570  5.2850 
  2102.000 -15.191  4.7850  4.9550 -9.4298  4.7850  4.9550 
  2102.500 -14.667  4.5290  4.6560 -8.9158  4.5290  4.6560 
  2103.000 -14.670  4.4000  4.4530 -8.9287  4.4000  4.4530 
  2103.500 -14.411  4.2720  4.1970 -8.6797  4.2720  4.1970 
  2104.000 -14.229  4.1440  4.0580 -8.5076  4.1440  4.0580 
  2104.500 -14.047  3.8980  3.8660 -8.3356  3.8980  3.8660 
  2105.000 -13.260  3.7910  3.8230 -7.5585  3.7910  3.8230 
  2105.500 -12.894  3.7580  3.7580 -7.2025  3.7580  3.7580 
  2106.000 -12.476  3.7360  3.7250 -6.7944  3.7360  3.7250 
  2106.500 -12.479  3.8300  3.7030 -6.8074  3.8300  3.7030 
  2107.000 -12.799  3.9250  3.8180 -7.1373  3.9250  3.8180 
  2107.500 -13.121  4.0460  4.0300 -7.4693  4.0460  4.0300 
