~Version Information
VERS.                     2.0: CWLS log ASCII Standard Version 2.00
WRAP.                      NO: One line per depth step
~Well Information Block
#MNEM.UNIT                               Data Type  Information
#---------                               ---------  -----------
STRT.FT                                   500.0000:
STOP.FT                                  2702.0000:
STEP.FT                                     0.5000:
NULL.                 -999.25                     :
COMP.                                             :COMPANY            
WELL.     KCL 55-33                               :WELL               
FLD .                                             :FIELD              
CTRY.                                             :COUNTRY            
STAT.                                             :STATE              
LOC .                                             :LOCATION           
UWI .                                             :UNIQUE WELL ID     
SRVC.                                             :Service company    
DATE.                                             :LOG DATE           
~Curve Information
#MNEM.UNIT           API CODE  Curve Description
#---------           --------  -----------------
DEPT.FT                      :   1 DEPTH
SP  .MV                      :   2
ILD .OHMM                    :   3
SN  .OHMM                    :   4
SBL .MV                      :   5
RD  .OHMM                    :   6
RS  .OHMM                    :   7
~A
# ...
  1505.000 -16.469  7.7330  6.8720 -6.4690  7.7330  6.8720 
  1505.500 -16.258  11.868  7.5200 -6.2580  11.868  7.5200 
  1506.000 -15.890  12.898  8.2320 -5.8900  12.898  8.2320 
  1506.500 -15.893  13.323  8.8260 -5.8930  13.323  8.8260 
  1507.000 -15.999  15.863  9.4320 -5.9990  15.863  9.4320 
  1507.500 -16.635  16.808  9.9620 -6.6350  16.808  9.9620 
  1508.000 -18.325  13.885  10.281 -8.3250  13.885  10.281 
  1508.500 -21.813  17.094  11.025 -11.813  17.094  11.025 
  1509.000 -23.821  17.593  11.726 -13.821  17.593  11.726 
  1509.500 -27.149  17.965  12.469 -17.149  17.965  12.469 
  1510.000 -29.634  18.251  13.000 -19.634  18.251  13.000 
  1510.500 -31.272  18.548  13.532 -21.272  18.548  13.532 
  1511.000 -31.432  23.375  14.147 -21.432  23.375  14.147 
  1511.500 -31.381  24.009  14.349 -21.381  24.009  14.349 
  1512.000 -31.488  24.643  14.550 -21.488  24.643  14.550 
  1512.500 -32.440  25.482  14.953 -22.440  25.482  14.953 
  1513.000 -35.083  26.008  15.123 -25.083  26.008  15.123 
  1513.500 -35.824  26.323  15.303 -25.824  26.323  15.303 
  1514.000 -36.142  26.638  15.430 -26.142  26.638  15.430 
  1514.500 -36.355  27.267  15.536 -26.355  27.267  15.536 
  1515.000 -36.567  27.106  15.642 -26.567  27.106  15.642 
  1515.500 -36.779  26.944  15.843 -26.779  26.944  15.843 
  1516.000 -36.941  26.509  15.949 -26.941  26.509  15.949 
  1516.500 -36.996  26.184  16.033 -26.996  26.184  16.033 
  1517.000 -37.155  25.969  16.118 -27.155  25.969  16.118 
  1517.500 -34.992  25.961  15.979 -24.992  25.961  15.979 
  1518.000 -34.148  25.849  15.862 -24.148  25.849  15.862 
  1518.500 -33.515  25.737  15.745 -23.515  25.737  15.745 
  1519.000 -32.936  25.519  15.329 -22.936  25.519  15.329 
  1519.500 -32.304  25.514  15.222 -22.304  25.514  15.222 
  1520.000 -31.937  25.507  15.020 -21.937  25.507  15.020 
  1520.500 -31.726  25.825  15.381 -21.726  25.825  15.381 
  1521.000 -31.675  27.307  15.646 -21.675  27.307  15.646 
  1521.500 -31.889  28.045  15.794 -21.889  28.045  15.794 
  1522.000 -32.153  28.572  15.884 -22.153  28.572  15.884 
  1522.500 -33.106  27.610  15.974 -23.106  27.610  15.974 
  1523.000 -33.952  27.072  16.122 -23.952  27.072  16.122 
  1523.500 -35.011  26.431  16.196 -25.011  26.431  16.196 
  1524.000 -35.434  25.790  16.259 -25.434  25.790  16.259 
  1524.500 -36.016  25.149  15.961 -26.016  25.149  15.961 
  1525.000 -36.335  24.823  15.801 -26.335  24.823  15.801 
  1525.500 -36.179  24.498  15.684 -26.179  24.498  15.684 
  1526.000 -35.915  24.382  15.396 -25.915  24.382  15.396 
  1526.500 -35.651  24.165  15.247 -25.651  24.165  15.247 
  1527.000 -34.440  24.160  15.023 -24.440  24.160  15.023 
  1527.500 -33.650  24.209  14.916 -23.650  24.209  14.916 
  1528.000 -33.017  24.258  14.841 -23.017  24.258  14.841 
  1528.500 -32.648  24.464  14.767 -22.648  24.464  14.767 
  1529.000 -32.279  24.512  14.692 -22.279  24.512  14.692 
  1529.500 -31.703  24.561  14.617 -21.703  24.561  14.617 
  1530.000 -31.623  24.661  14.488 -21.623  24.661  14.488 
  1530.500 -31.544  24.761  14.360 -21.544  24.761  14.360 
  1531.000 -31.286  20.822  14.030 -21.286  20.822  14.030 
  1531.500 -31.233  19.961  13.785 -21.233  19.961  13.785 
  1532.000 -31.179  19.100  13.476 -21.179  19.100  13.476 
  1532.500 -30.864  18.249  13.136 -20.864  18.249  13.136 
  1533.000 -30.549  16.664  13.018 -20.549  16.664  13.018 
  1533.500 -29.866  11.870  12.901 -19.866  11.870  12.901 
  1534.000 -28.918  10.721  11.986 -18.918  10.721  11.986 
  1534.500 -27.915  9.5410  10.699 -17.915  9.5410  10.699 
  1535.000 -24.327  8.5200  9.1040 -14.327  8.5200  9.1040 
  1535.500 -19.363  8.0730  8.4550 -9.3630  8.0730  8.4550 
  1536.000 -17.729  7.7740  7.9340 -7.7290  7.7740  7.9340 
  1536.500 -17.095  7.6150  7.6570 -7.0950  7.6150  7.6570 
  1537.000 -16.700  7.4550  7.4120 -6.7000  7.4550  7.4120 
  1537.500 -16.304  7.4010  7.2630 -6.3040  7.4010  7.2630 
  1538.000 -16.097  8.0280  7.7300 -6.0970  8.0280  7.7300 
  1538.500 -16.415  10.025  8.8030 -6.4150  10.025  8.8030 
  1539.000 -20.800  15.861  9.7060 -10.800  15.861  9.7060 
  1539.500 -24.657  16.540  10.492 -14.657  16.540  10.492 
  1540.000 -27.669  17.444  11.321 -17.669  17.444  11.321 
  1540.500 -28.593  17.783  13.765 -18.593  17.783  13.765 
  1541.000 -29.518  22.842  14.030 -19.518  22.842  14.030 
  1541.500 -30.473  25.707  14.189 -20.473  25.707  14.189 
  1542.000 -30.104  27.403  14.348 -20.104  27.403  14.348 
  1542.500 -30.000  29.204  14.443 -20.000  29.204  14.443 
  1543.000 -30.161  29.944  14.581 -20.161  29.944  14.581 
  1543.500 -30.374  30.150  14.697 -20.374  30.150  14.697 
  1544.000 -30.586  29.082  14.771 -20.586  29.082  14.771 
  1544.500 -30.957  14.908  14.813 -20.957  14.908  14.813 
  1545.000 -31.223  13.622  14.600 -21.223  13.622  14.600 
  1545.500 -30.485  12.601  13.664 -20.485  12.601  13.664 
  1546.000 -19.926  8.1570  11.654 -9.9260  8.1570  11.654 
  1546.500 -19.292  7.1150  8.0400 -9.2920  7.1150  8.0400 
  1547.000 -18.343  6.4240  7.0290 -8.3430  6.4240  7.0290 
  1547.500 -17.975  5.8490  5.8380 -7.9750  5.8490  5.8380 
  1548.000 -17.501  5.4660  5.4230 -7.5010  5.4660  5.4230 
  1548.500 -16.976  5.1360  5.1890 -6.9760  5.1360  5.1890 
  1549.000 -16.501  4.9120  4.8900 -6.5010  4.9120  4.8900 
  1549.500 -16.028  4.8050  4.7200 -6.0280  4.8050  4.7200 
  1550.000 -15.556  4.8580  4.6450 -5.5560  4.8580  4.6450 
  1550.500 -15.084  5.1970  4.7290 -5.0840  5.1970  4.7290 
  1551.000 -14.826  5.8450  4.8670 -4.8260  5.8450  4.8670 
  1551.500 -14.779  6.8110  5.3870 -4.7790  6.8110  5.3870 
  1552.000 -14.785  7.6720  6.0980 -4.7850  7.6720  6.0980 
  1552.500 -14.790  10.424  6.9270 -4.7900  10.424  6.9270 
  1553.000 -14.850  11.210  7.5850 -4.8500  11.210  7.5850 
  1553.500 -15.225  11.464  7.9240 -5.2250  11.464  7.9240 
  1554.000 -19.984  11.803  8.1260 -9.9840  11.803  8.1260 
  1554.500 -24.163  11.973  8.2740 -14.163  11.973  8.2740 
  1555.000 -26.703  12.132  8.3850 -16.703  12.132  8.3850 
  1555.500 -28.398  12.227  8.4960 -18.398  12.227  8.4960 
  1556.000 -27.981  12.268  8.6540 -17.981  12.268  8.6540 
  1556.500 -27.089  12.268  8.7280 -17.089  12.268  8.7280 
  1557.000 -27.200  8.5990  8.7700 -17.200  8.5990  8.7700 
  1557.500 -27.310  8.0250  8.7160 -17.310  8.0250  8.7160 
  1558.000 -29.220  7.7370  8.5660 -19.220  7.7370  8.5660 
  1558.500 -29.860  6.1950  7.5880 -19.860  6.1950  7.5880 
  1559.000 -18.457  5.6740  5.9180 -8.4570  5.6740  5.9180 
  1559.500 -17.090  5.1520  5.4600 -7.0900  5.1520  5.4600 
  1560.000 -16.093  4.6830  5.0130 -6.0930  4.6830  5.0130 
  1560.500 -15.729  4.5760  4.7040 -5.7290  4.5760  4.7040 
  1561.000 -15.577  5.7340  4.6180 -5.5770  5.7340  4.6180 
  1561.500 -15.476  6.6690  5.0960 -5.4760  6.6690  5.0960 
  1562.000 -15.376  8.3580  5.9980 -5.3760  8.3580  5.9980 
  1562.500 -15.330  9.3670  6.2740 -5.3300  9.3670  6.2740 
  1563.000 -15.388  10.759  6.8150 -5.3880  10.759  6.8150 
  1563.500 -18.404  14.405  8.7490 -8.4040  14.405  8.7490 
  1564.000 -21.843  17.061  11.045 -11.843  17.061  11.045 
  1564.500 -24.384  17.273  12.096 -14.384  17.273  12.096 
  1565.000 -28.245  17.506  12.446 -18.245  17.506  12.446 
  1565.500 -30.416  17.803  12.775 -20.416  17.803  12.775 
  1566.000 -30.316  18.004  12.987 -20.316  18.004  12.987 
  1566.500 -30.321  18.301  13.188 -20.321  18.301  13.188 
  1567.000 -35.767  18.428  13.251 -25.767  18.428  13.251 
  1567.500 -36.301  18.427  13.304 -26.301  18.427  13.304 
  1568.000 -36.096  17.821  13.324 -26.096  17.821  13.324 
  1568.500 -35.679  16.183  13.249 -25.679  16.183  13.249 
  1569.000 -30.192  14.513  12.929 -20.192  14.513  12.929 
  1569.500 -28.718  12.833  12.259 -18.718  12.833  12.259 
  1570.000 -27.244  11.078  12.078 -17.244  11.078  12.078 
  1570.500 -26.143  10.206  11.024 -16.143  10.206  11.024 
  1571.000 -25.462  10.014  9.9080 -15.462  10.014  9.9080 
  1571.500 -23.462  9.7580  8.6100 -13.462  9.7580  8.6100 
