~Version Information
VERS.                     2.0: CWLS log ASCII Standard Version 2.00
WRAP.                      NO: One line per depth step
~Well Information Block
#MNEM.UNIT                               Data Type  Information
#---------                               ---------  -----------
STRT.FT                                   500.0000:
STOP.FT                                  2702.0000:
STEP.FT                                     0.5000:
NULL.                 -999.25                     :
COMP.                                             :COMPANY            
WELL.     KCL 55-33                               :WELL               
FLD .                                             :FIELD              
CTRY.                                             :COUNTRY            
STAT.                                             :STATE              
LOC .                                             :LOCATION           
UWI .                                             :UNIQUE WELL ID     
SRVC.                                             :Service company    
DATE.                                             :LOG DATE           
~Curve Information
#MNEM.UNIT           API CODE  Curve Description
#---------           --------  -----------------
DEPT.FT                      :   1 DEPTH
SP  .MV                      :   2
ILD .OHMM                    :   3
SN  .OHMM                    :   4
SBL .MV                      :   5
RD  .OHMM                    :   6
RS  .OHMM                    :   7
~A
   500.000  0.0270  22.471 -999.25  22.027  22.471 -999.25 
   500.500  0.0820  23.435 -999.25  22.082  23.435 -999.25 
   501.000  0.0840  23.759  0.0760  22.084  23.759  0.0760 
   501.500  0.0860  23.552  0.0760  22.086  23.552  0.0760 
   502.000 -0.0180  23.131  0.2470  21.982  23.131  0.2470 
   502.500 -0.0690  22.178  0.7590  21.931  22.178  0.7590 
   503.000 -0.1200  21.331  1.7390  21.880  21.331  1.7390 
   503.500 -0.2250  20.911  3.7100  21.775  20.911  3.7100 
   504.000 -0.2760  20.809  4.5090  21.724  20.809  4.5090 
   504.500 -0.3800  20.815  16.235  21.620  20.815  16.235 
   505.000 -0.3780  26.890  16.587  21.622  26.890  16.587 
   505.500 -0.3760  43.509  16.992  21.624  43.509  16.992 
   506.000 -18.590  47.987  17.557  3.4100  47.987  17.557 
   506.500 -19.227  55.341  18.314  2.7730  55.341  18.314 
   507.000 -19.864  97.945  18.857  2.1360  97.945  18.857 
   507.500 -20.660  114.78  19.326  1.3400  114.78  19.326 
   508.000 -22.096  120.53  19.583 -0.0960  120.53  19.583 
   508.500 -23.612  122.46  19.732 -1.6120  122.46  19.732 
   509.000 -25.128  123.42  19.775 -3.1280  123.42  19.775 
   509.500 -27.469  124.28  19.765 -5.4690  124.28  19.765 
   510.000 -29.917  122.68  19.542 -7.9170  122.68  19.542 
   510.500 -30.554  20.240  19.276 -8.5540  20.240  19.276 
   511.000 -34.494  19.713  19.117 -12.494  19.713  19.117 
   511.500 -34.705  19.398  18.969 -12.705  19.398  18.969 
   512.000 -34.703  27.923  18.905 -12.703  27.923  18.905 
   512.500 -34.860  30.698  18.842 -12.860  30.698  18.842 
   513.000 -36.296  32.726  18.768 -14.296  32.726  18.768 
   513.500 -36.720  33.530  18.992 -14.720  33.530  18.992 
   514.000 -37.144  34.334  19.344 -15.144  34.334  19.344 
   514.500 -37.248  35.192  19.621 -15.248  35.192  19.621 
   515.000 -37.246  33.600  19.952 -15.246  33.600  19.952 
   515.500 -37.084  32.540  19.953 -15.084  32.540  19.953 
   516.000 -37.029  32.013  19.953 -15.029  32.013  19.953 
   516.500 -37.027  31.805  19.954 -15.027  31.805  19.954 
   517.000 -37.930  31.597  19.954 -15.930  31.597  19.954 
   517.500 -41.124  31.177  19.955 -19.124  31.177  19.955 
   518.000 -43.252  30.969  19.306 -21.252  30.969  19.306 
   518.500 -44.049  30.761  19.083 -22.049  30.761  19.083 
   519.000 -44.739  30.660  18.955 -22.739  30.660  18.955 
   519.500 -45.536  30.346  19.105 -23.536  30.346  19.105 
   520.000 -45.960  30.351  19.276 -23.960  30.351  19.276 
   520.500 -46.224  32.806  19.489 -24.224  32.806  19.489 
   521.000 -46.489  37.285  19.612 -24.489  37.285  19.612 
   521.500 -46.806  39.207  19.735 -24.806  39.207  19.735 
   522.000 -46.804  39.957  19.380 -24.804  39.957  19.380 
   522.500 -46.642  40.602  19.024 -24.642  40.602  19.024 
   523.000 -46.373  41.246  18.669 -24.373  41.246  18.669 
   523.500 -46.318  41.997  19.455 -24.318  41.997  19.455 
   524.000 -47.487  42.215  20.241 -25.487  42.215  20.241 
   524.500 -48.391  42.221  21.028 -26.391  42.221  21.028 
   525.000 -49.401  41.693  21.246 -27.401  41.693  21.246 
   525.500 -49.878  33.924  21.145 -27.878  33.924  21.145 
   526.000 -50.249  29.670  19.766 -28.249  29.670  19.766 
   526.500 -49.927  28.184  19.091 -27.927  28.184  19.091 
   527.000 -49.659  27.125  18.186 -27.659  27.125  18.186 
   527.500 -49.390  27.662  17.953 -27.390  27.662  17.953 
   528.000 -48.802  29.265  17.857 -26.802  29.265  17.857 
   528.500 -48.480  29.803  18.231 -26.480  29.803  18.231 
   529.000 -48.265  29.489  19.413 -26.265  29.489  19.413 
   529.500 -49.914  45.682  19.776 -27.914  45.682  19.776 
   530.000 -50.764  50.053  20.234 -28.764  50.053  20.234 
   530.500 -50.975  51.443  20.879 -28.975  51.443  20.879 
   531.000 -51.346  52.460  21.310 -29.346  52.460  21.310 
   531.500 -51.770  53.477  21.741 -29.770  53.477  21.741 
   532.000 -52.140  52.844  22.226 -30.140  52.844  22.226 
   532.500 -52.138  52.423  22.710 -30.138  52.423  22.710 
   533.000 -52.136  54.026  23.035 -30.136  54.026  23.035 
   533.500 -52.187  55.841  23.360 -30.187  55.841  23.360 
   534.000 -52.398  57.551  23.898 -30.398  57.551  23.898 
   534.500 -52.609  59.366  24.223 -30.609  59.366  24.223 
   535.000 -52.767  60.863  24.441 -30.767  60.863  24.441 
   535.500 -53.031  61.933  24.766 -31.031  61.933  24.766 
   536.000 -53.029  62.364  25.197 -31.029  62.364  25.197 
   536.500 -52.920  60.879  25.309 -30.920  60.879  25.309 
   537.000 -53.344  56.944  25.421 -31.344  56.944  25.421 
   537.500 -53.609  53.328  25.213 -31.609  53.328  25.213 
   538.000 -54.086  50.458  24.686 -32.086  50.458  24.686 
   538.500 -54.510  48.014  22.561 -32.510  48.014  22.561 
   539.000 -54.188  43.546  20.650 -32.188  43.546  20.650 
   539.500 -53.547  39.931  19.697 -31.547  39.931  19.697 
   540.000 -53.651  36.954  19.806 -31.651  36.954  19.806 
   540.500 -53.915  35.256  19.915 -31.915  35.256  19.915 
   541.000 -54.233  34.303  19.373 -32.233  34.303  19.373 
   541.500 -54.390  33.562  19.160 -32.390  33.562  19.160 
   542.000 -54.654  33.355  18.958 -32.654  33.355  18.958 
   542.500 -54.865  33.147  18.895 -32.865  33.147  18.895 
   543.000 -54.890  33.578  18.917 -32.890  33.578  18.917 
   543.500 -54.915  33.956  18.949 -32.915  33.956  18.949 
   544.000 -54.859  34.334  19.110 -32.859  34.334  19.110 
   544.500 -54.697  34.872  19.238 -32.697  34.872  19.238 
   545.000 -54.535  35.889  19.409 -32.535  35.889  19.409 
   545.500 -54.453  36.906  19.633 -32.453  36.906  19.633 
   546.000 -54.371  39.468  19.857 -32.371  39.468  19.857 
   546.500 -54.316  41.922  19.996 -32.316  41.922  19.996 
   547.000 -54.314  44.484  19.850 -32.314  44.484  19.850 
   547.500 -54.285  45.128  19.704 -32.285  45.128  19.704 
   548.000 -54.256  46.198  19.557 -32.256  46.198  19.557 
   548.500 -54.254  50.357  19.411 -32.254  50.357  19.411 
   549.000 -55.264  51.853  19.265 -33.264  51.853  19.265 
   549.500 -55.954  53.349  21.614 -33.954  53.349  21.614 
   550.000 -56.325  55.272  22.258 -34.325  55.272  22.258 
   550.500 -56.537  55.909  22.789 -34.537  55.909  22.789 
   551.000 -56.377  56.547  23.108 -34.377  56.547  23.108 
   551.500 -56.323  57.718  23.107 -34.323  57.718  23.107 
   552.000 -56.269  58.143  23.105 -34.269  58.143  23.105 
   552.500 -56.429  57.077  23.104 -34.429  57.077  23.104 
   553.000 -57.653  54.413  22.890 -35.653  54.413  22.890 
   553.500 -58.292  53.028  22.889 -36.292  53.028  22.889 
   554.000 -58.877  52.920  22.888 -36.877  52.920  22.888 
   554.500 -59.782  52.919  22.887 -37.782  52.919  22.887 
   555.000 -59.569  53.131  22.780 -37.569  53.131  22.780 
   555.500 -59.355  53.236  22.725 -37.355  53.236  22.725 
   556.000 -58.768  53.235  22.671 -36.768  53.235  22.671 
   556.500 -58.608  53.128  22.563 -36.608  53.128  22.563 
   557.000 -58.821  50.464  22.456 -36.821  50.464  22.456 
   557.500 -59.406  45.671  22.401 -37.406  45.671  22.401 
   558.000 -59.192  40.665  22.347 -37.192  40.665  22.347 
   558.500 -58.127  39.599  21.494 -36.127  39.599  21.494 
   559.000 -57.434  39.810  20.961 -35.434  39.810  20.961 
   559.500 -57.433  40.022  20.108 -35.433  40.022  20.108 
   560.000 -57.539  35.868  19.468 -35.539  35.868  19.468 
   560.500 -57.911  35.228  19.689 -35.911  35.228  19.689 
   561.000 -58.071  27.879  19.540 -36.071  27.879  19.540 
   561.500 -58.390  26.174  19.486 -36.390  26.174  19.486 
   562.000 -58.123  24.682  19.422 -36.123  24.682  19.422 
   562.500 -56.844  23.722  19.092 -34.844  23.722  19.092 
   563.000 -55.725  22.656  17.889 -33.725  22.656  17.889 
   563.500 -54.926  21.590  14.885 -32.926  21.590  14.885 
   564.000 -53.913  18.517  14.257 -31.913  18.517  14.257 
   564.500 -53.593  18.037  13.873 -31.593  18.037  13.873 
   565.000 -53.379  18.016  13.761 -31.379  18.016  13.761 
   565.500 -53.272  17.973  13.649 -31.272  17.973  13.649 
   566.000 -53.272  17.952  13.458 -31.272  17.952  13.458 
   566.500 -53.272  17.920  13.340 -31.272  17.920  13.340 
