~Version Information
VERS.                     2.0: CWLS log ASCII Standard Version 2.00
WRAP.                      NO: One line per depth step
~Well Information Block
#MNEM.UNIT                               Data Type  Information
#---------                               ---------  -----------
STRT.FT                                   360.0000:
STOP.FT                                  7900.0000:
STEP.FT                                     0.5000:
NULL.                 -999.25                     :
COMP.                                             :COMPANY            
WELL.     LLU 38-21                               :WELL               
FLD .                                             :FIELD              
CTRY.                                             :COUNTRY            
STAT.                                             :STATE              
LOC .                                             :LOCATION           
UWI .                                             :UNIQUE WELL ID     
SRVC.                                             :Service company    
DATE.                                             :LOG DATE           
~Curve Information
#MNEM.UNIT           API CODE  Curve Description
#---------           --------  -----------------
DEPT.FT                      :   1 DEPTH
SP  .MV                      :   2
AM16.OHMM                    :   3
AO10.OHMM                    :   4
AO19.OHMM                    :   5
SBL .MV                      :   6
RS  .OHMM                    :   7
RM  .OHMM                    :   8
RD  .OHMM                    :   9
~A
# ...
  6349.000 -20.403  1.6140  1.7220  1.3100 -10.379  1.6140  1.7220  1.3100 
  6349.500 -20.401  1.6150  1.7220  1.3100 -10.375  1.6150  1.7220  1.3100 
  6350.000 -20.220  1.6150  1.7410  1.3100 -10.193  1.6150  1.7410  1.3100 
  6350.500 -20.220  1.6150  1.7590  1.3460 -10.192  1.6150  1.7590  1.3460 
  6351.000 -20.219  1.5980  1.7590  1.3460 -10.189  1.5980  1.7590  1.3460 
  6351.500 -20.128  1.5800  1.7780  1.3460 -10.097  1.5800  1.7780  1.3460 
  6352.000 -20.037  1.5630  1.7960  1.3650 -10.005  1.5630  1.7960  1.3650 
  6352.500 -20.036  1.5450  1.8140  1.3830 -10.002  1.5450  1.8140  1.3830 
  6353.000 -20.035  1.5450  1.8330  1.3830 -10.000  1.5450  1.8330  1.3830 
  6353.500 -20.033  1.5460  1.8510  1.3830 -9.9968  1.5460  1.8510  1.3830 
  6354.000 -20.032  1.5460  1.8690  1.3830 -9.9944  1.5460  1.8690  1.3830 
  6354.500 -20.031  1.5820  1.9050  1.3830 -9.9921  1.5820  1.9050  1.3830 
  6355.000 -20.031  1.5650  1.9060  1.3840 -9.9907  1.5650  1.9060  1.3840 
  6355.500 -20.030  1.5470  1.9060  1.3840 -9.9884  1.5470  1.9060  1.3840 
  6356.000 -20.119  1.5480  1.9070  1.3660 -10.076  1.5480  1.9070  1.3660 
  6356.500 -20.208  1.5480  1.9070  1.3480 -10.164  1.5480  1.9070  1.3480 
  6357.000 -20.207  1.5480  1.9070  1.3130 -10.161  1.5480  1.9070  1.3130 
  6357.500 -20.207  1.5310  1.8720  1.3130 -10.160  1.5310  1.8720  1.3130 
  6358.000 -20.206  1.5130  1.8360  1.3130 -10.158  1.5130  1.8360  1.3130 
  6358.500 -20.206  1.5140  1.8540  1.2770 -10.156  1.5140  1.8540  1.2770 
  6359.000 -20.204  1.4960  1.8730  1.2770 -10.153  1.4960  1.8730  1.2770 
  6359.500 -20.203  1.4780  1.8730  1.2780 -10.151  1.4780  1.8730  1.2780 
  6360.000 -20.203  1.4790  1.8740  1.2780 -10.149  1.4790  1.8740  1.2780 
  6360.500 -20.202  1.4790  1.8740  1.2780 -10.147  1.4790  1.8740  1.2780 
  6361.000 -20.201  1.4790  1.8740  1.2780 -10.145  1.4790  1.8740  1.2780 
  6361.500 -20.110  1.4800  1.8750  1.2780 -10.052  1.4800  1.8750  1.2780 
  6362.000 -20.019  1.4800  1.8750  1.2780 -9.9599  1.4800  1.8750  1.2780 
  6362.500 -20.017  1.4810  1.8750  1.2780 -9.9566  1.4810  1.8750  1.2780 
  6363.000 -20.107  1.4810  1.8760  1.2790 -10.045  1.4810  1.8760  1.2790 
  6363.500 -20.197  1.4810  1.8400  1.2430 -10.134  1.4810  1.8400  1.2430 
  6364.000 -20.014  1.4820  1.8410  1.2610 -9.9496  1.4820  1.8410  1.2610 
  6364.500 -20.104  1.4820  1.8410  1.2790 -10.038  1.4820  1.8410  1.2790 
  6365.000 -20.193  1.4820  1.8410  1.2790 -10.126  1.4820  1.8410  1.2790 
  6365.500 -20.282  1.4830  1.8240  1.2800 -10.214  1.4830  1.8240  1.2800 
  6366.000 -20.372  1.4830  1.8060  1.2440 -10.302  1.4830  1.8060  1.2440 
  6366.500 -20.371  1.4830  1.8240  1.2440 -10.300  1.4830  1.8240  1.2440 
  6367.000 -20.371  1.4840  1.8430  1.2440 -10.299  1.4840  1.8430  1.2440 
  6367.500 -20.460  1.4840  1.8430  1.2450 -10.386  1.4840  1.8430  1.2450 
  6368.000 -20.549  1.4660  1.8080  1.2450 -10.474  1.4660  1.8080  1.2450 
  6368.500 -20.548  1.4490  1.8080  1.2450 -10.471  1.4490  1.8080  1.2450 
  6369.000 -20.548  1.4490  1.8080  1.2450 -10.470  1.4490  1.8080  1.2450 
  6369.500 -20.546  1.4500  1.8090  1.2450 -10.467  1.4500  1.8090  1.2450 
  6370.000 -20.545  1.4500  1.7910  1.2100 -10.464  1.4500  1.7910  1.2100 
  6370.500 -20.635  1.4680  1.7730  1.2100 -10.553  1.4680  1.7730  1.2100 
  6371.000 -20.725  1.4870  1.7620  1.2100 -10.642  1.4870  1.7620  1.2100 
  6371.500 -20.904  1.5050  1.7500  1.2100 -10.819  1.5050  1.7500  1.2100 
  6372.000 -21.173  1.5230  1.7380  1.1740 -11.087  1.5230  1.7380  1.1740 
  6372.500 -21.443  1.5240  1.7030  1.1750 -11.356  1.5240  1.7030  1.1750 
  6373.000 -21.804  1.5240  1.6670  1.1570 -11.715  1.5240  1.6670  1.1570 
  6373.500 -21.803  1.5240  1.6680  1.1390 -11.713  1.5240  1.6680  1.1390 
  6374.000 -21.803  1.5250  1.6680  1.1570 -11.712  1.5250  1.6680  1.1570 
  6374.500 -21.981  1.5250  1.6680  1.1750 -11.888  1.5250  1.6680  1.1750 
  6375.000 -21.891  1.5250  1.6810  1.1750 -11.797  1.5250  1.6810  1.1750 
  6375.500 -21.800  1.5260  1.6930  1.1750 -11.705  1.5260  1.6930  1.1750 
  6376.000 -21.799  1.5260  1.7050  1.2120 -11.702  1.5260  1.7050  1.2120 
  6376.500 -21.798  1.5260  1.7420  1.2120 -11.700  1.5260  1.7420  1.2120 
  6377.000 -21.797  1.5270  1.7420  1.2480 -11.698  1.5270  1.7420  1.2480 
  6377.500 -21.706  1.5270  1.7420  1.2480 -11.605  1.5270  1.7420  1.2480 
  6378.000 -21.614  1.5280  1.7430  1.2480 -11.512  1.5280  1.7430  1.2480 
  6378.500 -21.613  1.5280  1.7610  1.2660 -11.510  1.5280  1.7610  1.2660 
  6379.000 -21.432  1.5280  1.7790  1.2840 -11.327  1.5280  1.7790  1.2840 
  6379.500 -21.251  1.5280  1.7800  1.2850 -11.145  1.5280  1.7800  1.2850 
  6380.000 -21.249  1.5290  1.7800  1.2850 -11.142  1.5290  1.7800  1.2850 
  6380.500 -21.249  1.5290  1.7800  1.2850 -11.140  1.5290  1.7800  1.2850 
  6381.000 -21.248  1.5300  1.7810  1.2850 -11.138  1.5300  1.7810  1.2850 
  6381.500 -21.247  1.5300  1.7810  1.2850 -11.136  1.5300  1.7810  1.2850 
  6382.000 -21.246  1.5300  1.7820  1.2860 -11.133  1.5300  1.7820  1.2860 
  6382.500 -21.245  1.5310  1.7820  1.3040 -11.131  1.5310  1.7820  1.3040 
  6383.000 -21.244  1.5310  1.7820  1.3220 -11.129  1.5310  1.7820  1.3220 
  6383.500 -21.244  1.5310  1.7830  1.3400 -11.127  1.5310  1.7830  1.3400 
  6384.000 -21.242  1.5320  1.7830  1.3580 -11.124  1.5320  1.7830  1.3580 
  6384.500 -21.332  1.5320  1.7830  1.3580 -11.213  1.5320  1.7830  1.3580 
  6385.000 -21.422  1.5320  1.7840  1.3940 -11.301  1.5320  1.7840  1.3940 
  6385.500 -21.601  1.5330  1.7840  1.3940 -11.479  1.5330  1.7840  1.3940 
  6386.000 -21.600  1.5150  1.7840  1.3950 -11.477  1.5150  1.7840  1.3950 
  6386.500 -21.779  1.4980  1.7850  1.4310 -11.654  1.4980  1.7850  1.4310 
  6387.000 -21.778  1.4980  1.7850  1.4130 -11.652  1.4980  1.7850  1.4130 
  6387.500 -21.958  1.4980  1.7850  1.3950 -11.830  1.4980  1.7850  1.3950 
  6388.000 -21.957  1.4990  1.7860  1.3770 -11.828  1.4990  1.7860  1.3770 
  6388.500 -21.956  1.4810  1.7860  1.3600 -11.826  1.4810  1.7860  1.3600 
  6389.000 -22.046  1.4630  1.7870  1.3600 -11.914  1.4630  1.7870  1.3600 
  6389.500 -22.136  1.4640  1.8050  1.3420 -12.003  1.4640  1.8050  1.3420 
  6390.000 -22.225  1.4640  1.8230  1.3250 -12.091  1.4640  1.8230  1.3250 
  6390.500 -22.314  1.4650  1.8060  1.3250 -12.178  1.4650  1.8060  1.3250 
  6391.000 -22.403  1.5010  1.7880  1.3250 -12.266  1.5010  1.7880  1.3250 
  6391.500 -22.492  1.5010  1.7880  1.2890 -12.354  1.5010  1.7880  1.2890 
  6392.000 -22.853  1.5020  1.7890  1.2890 -12.713  1.5020  1.7890  1.2890 
  6392.500 -23.213  1.5020  1.7530  1.2890 -13.072  1.5020  1.7530  1.2890 
  6393.000 -23.573  1.5020  1.7900  1.2540 -13.431  1.5020  1.7900  1.2540 
  6393.500 -23.753  1.5150  1.7900  1.2360 -13.609  1.5150  1.7900  1.2360 
  6394.000 -23.933  1.5270  1.7900  1.2180 -13.788  1.5270  1.7900  1.2180 
  6394.500 -24.293  1.5390  1.7910  1.2000 -14.147  1.5390  1.7910  1.2000 
  6395.000 -24.653  1.5400  1.7910  1.1830 -14.505  1.5400  1.7910  1.1830 
  6395.500 -25.193  1.5400  1.7910  1.1470 -15.044  1.5400  1.7910  1.1470 
  6396.000 -25.553  1.5410  1.8040  1.1110 -15.403  1.5410  1.8040  1.1110 
  6396.500 -26.094  1.5410  1.8160  1.0760 -15.942  1.5410  1.8160  1.0760 
  6397.000 -26.635  1.5410  1.8280  1.0580 -16.482  1.5410  1.8280  1.0580 
  6397.500 -27.176  1.5410  1.8470  1.0400 -17.022  1.5410  1.8470  1.0400 
  6398.000 -27.356  1.5420  1.8650  1.0220 -17.200  1.5420  1.8650  1.0220 
  6398.500 -27.536  1.5780  1.8470  1.0040 -17.379  1.5780  1.8470  1.0040 
  6399.000 -27.715  1.5790  1.8300  0.9690 -17.557  1.5790  1.8300  0.9690 
  6399.500 -27.894  1.5790  1.8300  0.9690 -17.734  1.5790  1.8300  0.9690 
  6400.000 -27.893  1.5430  1.7950  0.9690 -17.732  1.5430  1.7950  0.9690 
  6400.500 -27.892  1.5440  1.7950  0.9700 -17.730  1.5440  1.7950  0.9700 
  6401.000 -27.890  1.5440  1.7950  0.9700 -17.726  1.5440  1.7950  0.9700 
  6401.500 -27.708  1.5440  1.7960  0.9700 -17.543  1.5440  1.7960  0.9700 
