~Version Information
VERS.                     2.0: CWLS log ASCII Standard Version 2.00
WRAP.                      NO: One line per depth step
~Well Information Block
#MNEM.UNIT                               Data Type  Information
#---------                               ---------  -----------
STRT.FT                                   360.0000:
STOP.FT                                  7900.0000:
STEP.FT                                     0.5000:
NULL.                 -999.25                     :
COMP.                                             :COMPANY            
WELL.     LLU 38-21                               :WELL               
FLD .                                             :FIELD              
CTRY.                                             :COUNTRY            
STAT.                                             :STATE              
LOC .                                             :LOCATION           
UWI .                                             :UNIQUE WELL ID     
SRVC.                                             :Service company    
DATE.                                             :LOG DATE           
~Curve Information
#MNEM.UNIT           API CODE  Curve Description
#---------           --------  -----------------
DEPT.FT                      :   1 DEPTH
SP  .MV                      :   2
AM16.OHMM                    :   3
AO10.OHMM                    :   4
AO19.OHMM                    :   5
SBL .MV                      :   6
RS  .OHMM                    :   7
RM  .OHMM                    :   8
RD  .OHMM                    :   9
~A
# ...
  1367.000 -18.125  4.2410  5.1040  3.9060 -6.1250  4.2410  5.1040  3.9060 
  1367.500 -18.393  4.1700  5.2120  4.0140 -6.3930  4.1700  5.2120  4.0140 
  1368.000 -18.750  4.1340  5.2130  4.0500 -6.7500  4.1340  5.2130  4.0500 
  1368.500 -18.927  4.0990  5.2490  4.0140 -6.9270  4.0990  5.2490  4.0140 
  1369.000 -19.106  4.0450  5.2140  3.9780 -7.1060  4.0450  5.2140  3.9780 
  1369.500 -19.284  3.9920  5.1780  3.9420 -7.2840  3.9920  5.1780  3.9420 
  1370.000 -19.462  3.9390  5.1070  3.9780 -7.4620  3.9390  5.1070  3.9780 
  1370.500 -19.639  3.8850  4.9640  4.0150 -7.6390  3.8850  4.9640  4.0150 
  1371.000 -20.176  3.7420  4.7850  4.0510 -8.1760  3.7420  4.7850  4.0510 
  1371.500 -19.993  3.6710  4.4260  4.0150 -7.9930  3.6710  4.4260  4.0150 
  1372.000 -18.007  3.5640  3.9590  3.4760 -6.0070  3.5640  3.9590  3.4760 
  1372.500 -17.643  3.4920  3.6720  3.0450 -5.6430  3.4920  3.6720  3.0450 
  1373.000 -17.280  3.3850  3.5650  2.9730 -5.2800  3.3850  3.5650  2.9730 
  1373.500 -16.918  3.3500  3.5290  2.9380 -4.9180  3.3500  3.5290  2.9380 
  1374.000 -16.825  3.3500  3.4940  2.9200 -4.8250  3.3500  3.4940  2.9200 
  1374.500 -16.732  3.3870  3.4590  2.9020 -4.7320  3.3870  3.4590  2.9020 
  1375.000 -17.089  3.4230  3.5670  2.8660 -5.0890  3.4230  3.5670  2.8660 
  1375.500 -17.447  3.4960  3.5680  2.9020 -5.4470  3.4960  3.5680  2.9020 
  1376.000 -17.805  3.7120  3.6580  3.0100 -5.8050  3.7120  3.6580  3.0100 
  1376.500 -18.884  3.7840  3.7480  3.1540 -6.8840  3.7840  3.7480  3.1540 
  1377.000 -19.423  4.0720  4.0000  3.3340 -7.4230  4.0720  4.0000  3.3340 
  1377.500 -21.043  4.2530  4.1090  3.6220 -9.0430  4.2530  4.1090  3.6220 
  1378.000 -21.762  4.3970  4.2170  3.8020 -9.7620  4.3970  4.2170  3.8020 
  1378.500 -21.850  4.5050  4.4690  3.9820 -9.8500  4.5050  4.4690  3.9820 
  1379.000 -21.938  4.6130  4.5770  4.0540 -9.9380  4.6130  4.5770  4.0540 
  1379.500 -21.934  4.9730  4.6860  4.0180 -9.9340  4.9730  4.6860  4.0180 
  1380.000 -21.390  5.0820  4.8300  3.9460 -9.3900  5.0820  4.8300  3.9460 
  1380.500 -21.207  5.3700  4.9030  3.8740 -9.2070  5.3700  4.9030  3.8740 
  1381.000 -21.204  5.9100  4.9750  3.8390 -9.2040  5.9100  4.9750  3.8390 
  1381.500 -21.382  6.1980  5.1190  3.9830 -9.3820  6.1980  5.1190  3.9830 
  1382.000 -21.740  6.4500  5.1740  4.1620 -9.7400  6.4500  5.1740  4.1620 
  1382.500 -22.639  7.4930  5.2280  4.4140 -10.639  7.4930  5.2280  4.4140 
  1383.000 -23.358  8.1760  5.5880  4.5940 -11.358  8.1760  5.5880  4.5940 
  1383.500 -24.437  8.5000  5.6970  4.9540 -12.437  8.5000  5.6970  4.9540 
  1384.000 -25.336  8.6080  5.7690  5.1340 -13.336  8.6080  5.7690  5.1340 
  1384.500 -26.416  8.6090  5.8410  5.3140 -14.416  8.6090  5.8410  5.3140 
  1385.000 -26.593  8.5730  5.9500  5.5290 -14.593  8.5730  5.9500  5.5290 
  1385.500 -26.501  8.4660  5.8790  5.6730 -14.501  8.4660  5.8790  5.6730 
  1386.000 -26.409  8.2510  5.8430  5.6730 -14.409  8.2510  5.8430  5.6730 
  1386.500 -26.225  7.8920  5.8440  5.6730 -14.225  7.8920  5.8440  5.6730 
  1387.000 -25.861  7.1020  5.8440  5.6740 -13.861  7.1020  5.8440  5.6740 
  1387.500 -24.957  6.4920  5.8450  5.6740 -12.957  6.4920  5.8450  5.6740 
  1388.000 -23.691  6.1690  5.9170  5.4590 -11.691  6.1690  5.9170  5.4590 
  1388.500 -21.885  5.8100  5.8460  5.3150 -9.8850  5.8100  5.8460  5.3150 
  1389.000 -20.981  5.6490  5.7030  5.1000 -8.9810  5.6490  5.7030  5.1000 
  1389.500 -19.716  5.4870  5.4870  4.8840 -7.7160  5.4870  5.4870  4.8840 
  1390.000 -19.172  4.8770  5.0570  3.8060 -7.1720  4.8770  5.0570  3.8060 
  1390.500 -18.808  4.5540  4.3740  3.2670 -6.8080  4.5540  4.3740  3.2670 
  1391.000 -19.257  4.4470  4.0510  2.8720 -7.2570  4.4470  4.0510  2.8720 
  1391.500 -19.706  4.4470  3.9080  2.9080 -7.7060  4.4470  3.9080  2.9080 
  1392.000 -21.145  4.4480  3.8730  3.1600 -9.1450  4.4480  3.8730  3.1600 
  1392.500 -21.774  4.4480  3.9090  3.3040 -9.7740  4.4480  3.9090  3.3040 
  1393.000 -22.403  4.4670  4.2690  3.3580 -10.403  4.4670  4.2690  3.3580 
  1393.500 -22.039  4.4850  4.5570  3.4120 -10.039  4.4850  4.5570  3.4120 
  1394.000 -21.405  4.4860  4.7730  3.3040 -9.4050  4.4860  4.7730  3.3040 
  1394.500 -20.772  4.4320  4.8460  3.0890 -8.7720  4.4320  4.8460  3.0890 
  1395.000 -20.048  4.3790  4.8820  2.9090 -8.0480  4.3790  4.8820  2.9090 
  1395.500 -19.324  4.2000  4.8830  2.6940 -7.3240  4.2000  4.8830  2.6940 
  1396.000 -18.959  4.0930  4.8120  2.5860 -6.9590  4.0930  4.8120  2.5860 
  1396.500 -18.956  4.0210  4.8300  2.6580 -6.9560  4.0210  4.8300  2.6580 
  1397.000 -19.495  3.9860  4.8480  2.8020 -7.4950  3.9860  4.8480  2.8020 
  1397.500 -19.672  3.9500  5.2080  2.8380 -7.6720  3.9500  5.2080  2.8380 
  1398.000 -19.400  3.8790  5.2450  2.8740 -7.4000  3.8790  5.2450  2.8740 
  1398.500 -19.127  3.8620  5.2810  2.8390 -7.1270  3.8620  5.2810  2.8390 
  1399.000 -18.221  3.8440  5.1380  2.8030 -6.2210  3.8440  5.1380  2.8030 
  1399.500 -17.678  3.7370  4.9230  2.5520 -5.6780  3.7370  4.9230  2.5520 
  1400.000 -17.314  3.7020  4.6720  2.3720 -5.3140  3.7020  4.6720  2.3720 
  1400.500 -17.311  3.6660  4.3850  2.1210 -5.3110  3.6660  4.3850  2.1210 
  1401.000 -17.127  3.5950  4.1700  2.1220 -5.1270  3.5950  4.1700  2.1220 
  1401.500 -17.214  3.5600  3.9910  2.1950 -5.2140  3.5600  3.9910  2.1950 
  1402.000 -17.301  3.5250  3.9560  2.2680 -5.3010  3.5250  3.9560  2.2680 
  1402.500 -17.477  3.4540  3.9570  2.5200 -5.4770  3.4540  3.9570  2.5200 
  1403.000 -17.564  3.4550  3.9750  2.6650 -5.5640  3.4550  3.9750  2.6650 
  1403.500 -17.651  3.4550  3.9940  2.8460 -5.6510  3.4550  3.9940  2.8460 
  1404.000 -17.737  3.4560  4.1030  2.9180 -5.7370  3.4560  4.1030  2.9180 
  1404.500 -17.823  3.4740  4.1750  2.9910 -5.8230  3.4740  4.1750  2.9910 
  1405.000 -17.819  3.4930  4.2120  3.0640 -5.8190  3.4930  4.2120  3.0640 
  1405.500 -17.996  3.5300  4.2130  3.1370 -5.9960  3.5300  4.2130  3.1370 
  1406.000 -18.173  3.5670  4.2130  3.1730 -6.1730  3.5670  4.2130  3.1730 
  1406.500 -18.350  3.5850  4.1780  3.2100 -6.3500  3.5850  4.1780  3.2100 
  1407.000 -18.617  3.6040  4.1430  3.2830 -6.6170  3.6040  4.1430  3.2830 
  1407.500 -18.885  3.6400  4.1800  3.3560 -6.8850  3.6400  4.1800  3.3560 
  1408.000 -19.601  3.6770  4.3240  3.5010 -7.6010  3.6770  4.3240  3.5010 
  1408.500 -19.958  3.7320  4.5050  3.6810 -7.9580  3.7320  4.5050  3.6810 
  1409.000 -20.135  3.7870  4.5770  3.8620 -8.1350  3.7870  4.5770  3.8620 
  1409.500 -20.312  3.8950  4.5780  3.8990 -8.3120  3.8950  4.5780  3.8990 
  1410.000 -20.669  3.9680  4.5430  3.7560 -8.6690  3.9680  4.5430  3.7560 
  1410.500 -21.387  4.1120  4.4000  3.6130 -9.3870  4.1120  4.4000  3.6130 
  1411.000 -21.744  4.2210  4.3290  3.7930 -9.7440  4.2210  4.3290  3.7930 
  1411.500 -22.462  4.4730  4.3290  3.9380 -10.462  4.4730  4.3290  3.9380 
  1412.000 -23.360  4.5820  4.4020  4.0830 -11.360  4.5820  4.4020  4.0830 
  1412.500 -24.078  4.6540  4.5820  4.2990 -12.078  4.6540  4.5820  4.2990 
  1413.000 -24.435  4.7270  4.8350  4.4800 -12.435  4.7270  4.8350  4.4800 
  1413.500 -24.612  4.7630  5.0870  5.0560 -12.612  4.7630  5.0870  5.0560 
  1414.000 -25.330  4.6560  5.3390  5.4160 -13.330  4.6560  5.3390  5.4160 
  1414.500 -25.867  4.6030  5.7350  6.0640 -13.867  4.6030  5.7350  6.0640 
  1415.000 -24.421  4.5500  5.9880  6.2090 -12.421  4.5500  5.9880  6.2090 
  1415.500 -22.613  4.4790  6.0960  6.2450 -10.613  4.4790  6.0960  6.2450 
  1416.000 -21.528  4.4790  6.0250  5.4560 -9.5280  4.4790  6.0250  5.4560 
  1416.500 -20.441  4.4800  5.5580  4.8820 -8.4410  4.4800  5.5580  4.8820 
  1417.000 -20.618  4.5350  4.5890  4.3070 -8.6180  4.5350  4.5890  4.3070 
  1417.500 -20.796  4.5890  4.0150  3.8050 -8.7960  4.5890  4.0150  3.8050 
  1418.000 -21.693  4.6260  3.9430  3.5540 -9.6930  4.6260  3.9430  3.5540 
  1418.500 -22.050  4.6630  3.9440  3.6990 -10.050  4.6630  3.9440  3.6990 
  1419.000 -22.408  4.7350  3.9450  3.8440 -10.408  4.7350  3.9450  3.8440 
  1419.500 -23.125  4.8800  4.0530  4.0600 -11.125  4.8800  4.0530  4.0600 
