~Version Information
VERS.                     2.0: CWLS log ASCII Standard Version 2.00
WRAP.                      NO: One line per depth step
~Well Information Block
#MNEM.UNIT                               Data Type  Information
#---------                               ---------  -----------
STRT.FT                                   360.0000:
STOP.FT                                  7900.0000:
STEP.FT                                     0.5000:
NULL.                 -999.25                     :
COMP.                                             :COMPANY            
WELL.     LLU 38-21                               :WELL               
FLD .                                             :FIELD              
CTRY.                                             :COUNTRY            
STAT.                                             :STATE              
LOC .                                             :LOCATION           
UWI .                                             :UNIQUE WELL ID     
SRVC.                                             :Service company    
DATE.                                             :LOG DATE           
~Curve Information
#MNEM.UNIT           API CODE  Curve Description
#---------           --------  -----------------
DEPT.FT                      :   1 DEPTH
SP  .MV                      :   2
AM16.OHMM                    :   3
AO10.OHMM                    :   4
AO19.OHMM                    :   5
SBL .MV                      :   6
RS  .OHMM                    :   7
RM  .OHMM                    :   8
RD  .OHMM                    :   9
~A
# ...
  1844.000 -21.304  3.8460  3.5940  3.1430 -9.1544  3.8460  3.5940  3.1430 
  1844.500 -22.204  4.0250  3.8460  3.3220 -10.048  4.0250  3.8460  3.3220 
  1845.000 -23.825  4.3130  4.2050  3.7540 -11.662  4.3130  4.2050  3.7540 
  1845.500 -24.906  4.5640  4.5640  3.9700 -12.737  4.5640  4.5640  3.9700 
  1846.000 -25.806  4.7080  4.7800  4.2220 -13.630  4.7080  4.7800  4.2220 
  1846.500 -25.804  4.9600  4.9600  4.3650 -13.622  4.9600  4.9600  4.3650 
  1847.000 -25.893  5.1750  5.0680  4.5810 -13.704  5.1750  5.0680  4.5810 
  1847.500 -25.982  5.4270  5.1390  4.6530 -13.787  5.4270  5.1390  4.6530 
  1848.000 -25.618  5.6070  5.2110  4.5820 -13.416  5.6070  5.2110  4.5820 
  1848.500 -25.256  5.6960  5.2830  4.5100 -13.048  5.6960  5.2830  4.5100 
  1849.000 -25.615  5.7860  5.3910  4.4740 -13.400  5.7860  5.3910  4.4740 
  1849.500 -26.515  5.8580  5.4990  4.6540 -14.294  5.8580  5.4990  4.6540 
  1850.000 -29.759  5.7140  5.8580  4.9060 -17.531  5.7140  5.8580  4.9060 
  1850.500 -30.118  5.4270  6.2530  5.1580 -17.884  5.4270  6.2530  5.1580 
  1851.000 -28.673  5.2470  6.2530  5.3730 -16.432  5.2470  6.2530  5.3730 
  1851.500 -27.048  4.9600  6.1460  5.1580 -14.801  4.9600  6.1460  5.1580 
  1852.000 -25.063  4.6000  5.5710  4.9070 -12.809  4.6000  5.5710  4.9070 
  1852.500 -25.061  4.3490  4.8520  3.7570 -12.801  4.3490  4.8520  3.7570 
  1853.000 -25.420  4.2050  4.2050  3.4330 -13.153  4.2050  4.2050  3.4330 
  1853.500 -25.418  3.9530  3.6300  3.1820 -13.145  3.9530  3.6300  3.1820 
  1854.000 -23.251  3.8460  3.4140  3.0740 -10.971  3.8460  3.4140  3.0740 
  1854.500 -21.265  3.7020  3.2710  2.9490 -8.9788  3.7020  3.2710  2.9490 
  1855.000 -20.181  3.6300  3.1990  2.8230 -7.8883  3.6300  3.1990  2.8230 
  1855.500 -19.639  3.6300  3.1990  2.5720 -7.3398  3.6300  3.1990  2.5720 
  1856.000 -19.456  3.6660  3.2350  2.4280 -7.1503  3.6660  3.2350  2.4280 
  1856.500 -19.455  3.7200  3.2880  2.3560 -7.1428  3.7200  3.2880  2.3560 
  1857.000 -19.814  3.7740  3.3420  2.2850 -7.4953  3.7740  3.3420  2.2850 
  1857.500 -20.263  3.8460  3.4860  2.2490 -7.9378  3.8460  3.4860  2.2490 
  1858.000 -20.713  3.9170  3.6660  2.3930 -8.3813  3.9170  3.6660  2.3930 
  1858.500 -22.333  3.9890  3.8460  2.5370 -9.9948  3.9890  3.8460  2.5370 
  1859.000 -23.413  4.0970  4.1330  2.8250 -11.068  4.0970  4.1330  2.8250 
  1859.500 -24.854  4.2770  4.5640  2.9690 -12.503  4.2770  4.5640  2.9690 
  1860.000 -25.575  4.4210  4.9960  3.1300 -13.217  4.4210  4.9960  3.1300 
  1860.500 -26.295  4.4930  5.4270  3.2920 -13.931  4.4930  5.4270  3.2920 
  1861.000 -29.358  4.8880  5.8220  3.6520 -16.987  4.8880  5.8220  3.6520 
  1861.500 -32.063  5.3190  6.3610  3.9400 -19.686  5.3190  6.3610  3.9400 
  1862.000 -35.307  6.6840  6.5770  4.0120 -22.923  6.6840  6.5770  4.0120 
  1862.500 -37.830  7.1700  6.8640  4.1920 -25.440  7.1700  6.8640  4.1920 
  1863.000 -39.091  7.6550  6.9720  4.3710 -26.694  7.6550  6.9720  4.3710 
  1863.500 -39.541  7.7270  7.0080  4.5870 -27.138  7.7270  7.0080  4.5870 
  1864.000 -39.990  7.7450  7.0800  4.8030 -27.580  7.7450  7.0800  4.8030 
  1864.500 -38.725  7.7630  7.0080  4.9470 -26.309  7.7630  7.0080  4.9470 
  1865.000 -37.280  7.7270  6.8280  5.0730 -24.857  7.7270  6.8280  5.0730 
  1865.500 -36.016  7.7270  6.5770  5.1990 -23.587  7.7270  6.5770  5.1990 
  1866.000 -34.751  7.7630  6.4690  5.5220 -22.315  7.7630  6.4690  5.5220 
  1866.500 -34.749  7.9780  6.2530  5.4870 -22.307  7.9780  6.2530  5.4870 
  1867.000 -34.748  8.3740  6.1100  5.4870 -22.299  8.3740  6.1100  5.4870 
  1867.500 -37.813  8.6970  6.0380  5.4870 -25.358  8.6970  6.0380  5.4870 
  1868.000 -42.320  9.0930  6.0020  5.4870 -29.858  9.0930  6.0020  5.4870 
  1868.500 -42.318  9.7040  6.0380  5.5590 -29.850  9.7040  6.0380  5.5590 
  1869.000 -41.955  10.386  6.0740  5.6310 -29.480  10.386  6.0740  5.6310 
  1869.500 -41.593  10.926  6.2530  5.7750 -29.112  10.926  6.2530  5.7750 
  1870.000 -41.591  11.285  6.5770  5.9910 -29.103  11.285  6.5770  5.9910 
  1870.500 -41.770  11.285  7.1880  6.7460 -29.276  11.285  7.1880  6.7460 
  1871.000 -42.309  11.213  7.6550  7.5370 -29.808  11.213  7.6550  7.5370 
  1871.500 -42.487  11.069  9.0570  7.8970 -29.980  11.069  9.0570  7.8970 
  1872.000 -42.305  10.961  9.1290  7.8610 -29.791  10.961  9.1290  7.8610 
  1872.500 -42.123  10.315  9.2360  7.6810 -29.603  10.315  9.2360  7.6810 
  1873.000 -41.941  9.9550  9.3440  7.5370 -29.414  9.9550  9.3440  7.5370 
  1873.500 -41.397  9.5960  9.4880  6.7470 -28.864  9.5960  9.4880  6.7470 
  1874.000 -40.313  9.0930  9.9910  6.4600 -27.773  9.0930  9.9910  6.4600 
  1874.500 -38.868  8.6260  10.171  6.3880 -26.322  8.6260  10.171  6.3880 
  1875.000 -36.522  7.9790  10.350  6.3160 -23.969  7.9790  10.350  6.3160 
  1875.500 -34.356  7.5830  10.315  6.2810 -21.797  7.5830  10.315  6.2810 
  1876.000 -33.092  7.2600  10.225  6.1010 -20.526  7.2600  10.225  6.1010 
  1876.500 -30.926  6.7570  10.135  5.9930 -18.354  6.7570  10.135  5.9930 
  1877.000 -27.678  6.0740  9.4880  5.7060 -15.099  6.0740  9.4880  5.7060 
  1877.500 -26.413  5.7860  8.4280  4.9160 -13.828  5.7860  8.4280  4.9160 
  1878.000 -26.412  5.4630  7.3670  4.4130 -13.820  5.4630  7.3670  4.4130 
  1878.500 -26.501  5.4270  6.6850  3.5500 -13.903  5.4270  6.6850  3.5500 
  1879.000 -26.590  5.3910  6.3610  2.6520 -13.985  5.3910  6.3610  2.6520 
  1879.500 -27.490  5.3550  6.1460  2.4550 -14.879  5.3550  6.1460  2.4550 
  1880.000 -28.389  5.3550  5.9660  2.2570 -15.771  5.3550  5.9660  2.2570 
  1880.500 -31.633  5.4630  5.8580  2.5810 -19.009  5.4630  5.8580  2.5810 
  1881.000 -31.811  5.7860  6.0020  2.8680 -19.180  5.7860  6.0020  2.8680 
  1881.500 -31.990  6.2170  6.7570  3.0480 -19.353  6.2170  6.7570  3.0480 
  1882.000 -32.529  6.6490  8.1220  3.2280 -19.885  6.6490  8.1220  3.2280 
  1882.500 -32.888  6.8640  8.6250  3.5520 -20.238  6.8640  8.6250  3.5520 
  1883.000 -33.247  6.9720  9.3080  3.7500 -20.590  6.9720  9.3080  3.7500 
  1883.500 -33.967  7.0080  9.6680  3.9470 -21.304  7.0080  9.6680  3.9470 
  1884.000 -34.506  6.9000  9.8830  4.6660 -21.836  6.9000  9.8830  4.6660 
  1884.500 -31.979  6.7920  9.9190  5.1340 -19.303  6.7920  9.9190  5.1340 
  1885.000 -31.256  6.5410  9.8830  5.4930 -18.573  6.5410  9.8830  5.4930 
  1885.500 -30.624  6.2530  9.6680  5.7090 -17.935  6.2530  9.6680  5.7090 
  1886.000 -29.991  6.0740  9.3440  5.8530 -17.295  6.0740  9.3440  5.8530 
  1886.500 -29.358  5.7860  8.9130  5.7090 -16.656  5.7860  8.9130  5.7090 
  1887.000 -28.725  5.5710  8.3380  5.2780 -16.016  5.5710  8.3380  5.2780 
  1887.500 -28.362  5.4270  7.9430  4.3800 -15.647  5.4270  7.9430  4.3800 
  1888.000 -27.999  5.2110  7.4040  3.9130 -15.277  5.2110  7.4040  3.9130 
  1888.500 -27.637  5.1030  6.5770  3.5540 -14.909  5.1030  6.5770  3.5540 
  1889.000 -27.635  4.9600  5.9300  3.3380 -14.900  4.9600  5.9300  3.3380 
  1889.500 -27.453  4.8880  5.4990  3.2670 -14.712  4.8880  5.4990  3.2670 
  1890.000 -26.910  4.8160  5.3190  3.6260 -14.162  4.8160  5.3190  3.6260 
  1890.500 -26.096  4.7440  5.2110  3.8420 -13.342  4.7440  5.2110  3.8420 
  1891.000 -25.283  4.6720  5.3190  4.0580 -12.522  4.6720  5.3190  4.0580 
  1891.500 -24.921  4.6000  5.4990  4.4530 -12.154  4.6000  5.4990  4.4530 
  1892.000 -24.558  4.5280  5.8580  4.7410 -11.784  4.5280  5.8580  4.7410 
  1892.500 -24.194  4.4920  6.0380  4.9930 -11.414  4.4920  6.0380  4.9930 
  1893.000 -24.012  4.4560  6.2170  5.1730 -11.225  4.4560  6.2170  5.1730 
  1893.500 -23.830  4.3490  6.1810  5.2810 -11.037  4.3490  6.1810  5.2810 
  1894.000 -23.648  4.3130  6.0740  5.1010 -10.848  4.3130  6.0740  5.1010 
  1894.500 -24.368  4.2770  5.8580  4.8860 -11.561  4.2770  5.8580  4.8860 
  1895.000 -24.727  4.2770  5.6780  3.9160 -11.914  4.2770  5.6780  3.9160 
  1895.500 -25.446  4.3130  5.6420  3.8440 -12.626  4.3130  5.6420  3.8440 
  1896.000 -26.346  4.3480  5.7140  3.9880 -13.520  4.3480  5.7140  3.9880 
  1896.500 -27.607  4.4210  5.9660  4.2040 -14.774  4.4210  5.9660  4.2040 
