~Version Information
VERS.                     2.0: CWLS log ASCII Standard Version 2.00
WRAP.                      NO: One line per depth step
~Well Information Block
#MNEM.UNIT                               Data Type  Information
#---------                               ---------  -----------
STRT.FT                                   360.0000:
STOP.FT                                  7900.0000:
STEP.FT                                     0.5000:
NULL.                 -999.25                     :
COMP.                                             :COMPANY            
WELL.     LLU 38-21                               :WELL               
FLD .                                             :FIELD              
CTRY.                                             :COUNTRY            
STAT.                                             :STATE              
LOC .                                             :LOCATION           
UWI .                                             :UNIQUE WELL ID     
SRVC.                                             :Service company    
DATE.                                             :LOG DATE           
~Curve Information
#MNEM.UNIT           API CODE  Curve Description
#---------           --------  -----------------
DEPT.FT                      :   1 DEPTH
SP  .MV                      :   2
AM16.OHMM                    :   3
AO10.OHMM                    :   4
AO19.OHMM                    :   5
SBL .MV                      :   6
RS  .OHMM                    :   7
RM  .OHMM                    :   8
RD  .OHMM                    :   9
~A
# ...
   837.000 -50.434  16.112  15.465  5.9850 -38.434  16.112  15.465  5.9850 
   837.500 -50.250  16.616  16.184  7.1000 -38.250  16.616  16.184  7.1000 
   838.000 -50.247  17.299  16.831  7.8550 -38.247  17.299  16.831  7.8550 
   838.500 -50.423  18.126  17.623  8.5740 -38.423  18.126  17.623  8.5740 
   839.000 -50.962  18.845  17.839  9.5810 -38.962  18.845  17.839  9.5810 
   839.500 -51.501  19.133  18.451  10.587 -39.501  19.133  18.451  10.587 
   840.000 -51.858  19.493  18.847  10.983 -39.858  19.493  18.847  10.983 
   840.500 -52.215  19.602  19.242  13.248 -40.215  19.602  19.242  13.248 
   841.000 -52.029  19.710  19.530  14.901 -40.029  19.710  19.530  14.901 
   841.500 -51.483  19.567  19.818  16.123 -39.483  19.567  19.818  16.123 
   842.000 -49.858  19.460  20.653  16.339 -37.858  19.460  20.653  16.339 
   842.500 -48.953  19.209  22.185  17.130 -36.953  19.209  22.185  17.130 
   843.000 -48.049  18.778  23.718  17.634 -36.049  18.778  23.718  17.634 
   843.500 -44.802  15.041  25.250  18.641 -32.802  15.041  25.250  18.641 
   844.000 -39.574  13.891  26.783  21.736 -27.574  13.891  26.783  21.736 
   844.500 -37.409  13.281  26.788  24.831 -25.409  13.281  26.788  24.831 
   845.000 -33.079  11.628  26.075  27.926 -21.079  11.628  26.075  27.926 
   845.500 -31.365  10.730  25.002  25.414 -19.365  10.730  25.002  25.414 
   846.000 -29.651  10.156  22.852  22.184 -17.651  10.156  22.852  22.184 
   846.500 -28.567  9.4730  22.138  21.952 -16.567  9.4730  22.138  21.952 
   847.000 -27.482  8.7190  20.730  21.721 -15.482  8.7190  20.730  21.721 
   847.500 -27.296  8.5040  19.321  21.489 -15.296  8.5040  19.321  21.489 
   848.000 -27.473  8.5410  17.597  21.257 -15.473  8.5410  17.597  21.257 
   848.500 -28.010  8.5770  16.448  21.026 -16.010  8.5770  16.448  21.026 
   849.000 -32.150  8.6860  14.831  20.794 -20.150  8.6860  14.831  20.794 
   849.500 -34.849  9.0090  13.394  20.563 -22.849  9.0090  13.394  20.563 
   850.000 -36.108  9.1720  11.670  20.331 -24.108  9.1720  11.670  20.331 
   850.500 -37.368  9.3340  11.886  20.099 -25.368  9.3340  11.886  20.099 
   851.000 -40.605  10.017  12.425  19.868 -28.605  10.017  12.425  19.868 
   851.500 -42.763  10.413  13.001  18.575 -30.763  10.413  13.001  18.575 
   852.000 -44.921  10.630  14.044  5.9600 -32.921  10.630  14.044  5.9600 
   852.500 -46.359  10.738  14.332  6.9670 -34.359  10.738  14.332  6.9670 
   853.000 -45.636  10.631  14.907  8.0810 -33.636  10.631  14.907  8.0810 
   853.500 -44.913  10.559  15.483  8.4770 -32.913  10.559  15.483  8.4770 
   854.000 -43.646  10.165  16.490  8.8730 -31.646  10.165  16.490  8.8730 
   854.500 -42.021  9.7690  17.928  9.5200 -30.021  9.7690  17.928  9.5200 
   855.000 -40.756  9.3750  18.431  9.5920 -28.756  9.3750  18.431  9.5920 
   855.500 -38.951  9.0880  18.216  6.6810 -26.951  9.0880  18.216  6.6810 
   856.000 -37.144  8.9090  17.372  5.8190 -25.144  8.9090  17.372  5.8190 
   856.500 -36.059  8.6220  16.528  4.3460 -24.059  8.6220  16.528  4.3460 
   857.000 -35.335  8.4790  13.186  3.8440 -23.335  8.4790  13.186  3.8440 
   857.500 -34.971  8.3350  9.3770  3.5210 -22.971  8.3350  9.3770  3.5210 
   858.000 -35.509  8.2280  9.2340  3.4130 -23.509  8.2280  9.2340  3.4130 
   858.500 -36.047  8.2280  8.8390  3.9880 -24.047  8.2280  8.8390  3.9880 
   859.000 -36.942  8.2290  8.3730  4.5280 -24.942  8.2290  8.3730  4.5280 
   859.500 -37.479  8.4450  8.3020  4.7440 -25.479  8.4450  8.3020  4.7440 
   860.000 -38.019  8.5540  8.4640  5.4270 -26.019  8.5540  8.4640  5.4270 
   860.500 -38.558  8.9140  8.6260  6.0740 -26.558  8.9140  8.6260  6.0740 
   861.000 -39.814  9.2020  9.1300  6.6860 -27.814  9.2020  9.1300  6.6860 
   861.500 -40.173  9.4180  9.7060  7.1540 -28.173  9.4180  9.7060  7.1540 
   862.000 -40.532  9.4550  10.390  7.8740 -28.532  9.4550  10.390  7.8740 
   862.500 -39.806  9.3480  10.786  8.2700 -27.806  9.3480  10.786  8.2700 
   863.000 -38.180  9.2410  11.146  8.9530 -26.180  9.2410  11.146  8.9530 
   863.500 -37.728  9.1690  11.254  9.2410 -25.728  9.1690  11.254  9.2410 
   864.000 -37.276  9.0980  11.237  9.8530 -25.276  9.0980  11.237  9.8530 
   864.500 -36.190  9.0270  11.219  10.357 -24.190  9.0270  11.219  10.357 
   865.000 -35.647  9.0640  10.789  10.034 -23.647  9.0640  10.789  10.034 
   865.500 -37.086  9.3880  10.502  9.7470 -25.086  9.3880  10.502  9.7470 
   866.000 -37.984  9.4420  10.395  9.4600 -25.984  9.4420  10.395  9.4600 
   866.500 -39.062  9.4970  10.432  8.8140 -27.062  9.4970  10.432  8.8140 
   867.000 -39.780  9.6060  10.469  8.9950 -27.780  9.6060  10.469  8.9950 
   867.500 -40.498  9.6420  10.505  9.1930 -28.498  9.6420  10.505  9.1930 
   868.000 -39.955  9.6070  10.470  9.3910 -27.955  9.6070  10.470  9.3910 
   868.500 -39.231  9.5960  10.399  10.004 -27.231  9.5960  10.399  10.004 
   869.000 -38.508  9.5840  10.292  10.040 -26.508  9.5840  10.292  10.040 
   869.500 -38.325  9.5730  10.184  10.041 -26.325  9.5730  10.184  10.041 
   870.000 -38.683  9.6100  9.9690  9.8980 -26.683  9.6100  9.9690  9.8980 
   870.500 -39.041  9.6460  9.8800  9.4670 -27.041  9.6460  9.8800  9.4670 
   871.000 -39.398  9.8630  9.7910  9.1080 -27.398  9.8630  9.7910  9.1080 
   871.500 -39.756  9.9720  9.8280  9.0730 -27.756  9.9720  9.8280  9.0730 
   872.000 -39.934  10.116  9.9000  9.1100 -27.934  10.116  9.9000  9.1100 
   872.500 -40.113  10.368  9.9730  9.3270 -28.113  10.368  9.9730  9.3270 
   873.000 -40.829  10.549  10.189  9.3270 -28.829  10.549  10.189  9.3270 
   873.500 -42.087  10.729  10.334  9.1480 -30.087  10.729  10.334  9.1480 
   874.000 -43.348  10.910  10.478  9.0050 -31.348  10.910  10.478  9.0050 
   874.500 -44.426  10.983  10.659  8.8980 -32.426  10.983  10.659  8.8980 
   875.000 -47.666  11.486  10.839  8.8270 -35.666  11.486  10.839  8.8270 
   875.500 -49.285  11.954  11.164  8.7550 -37.285  11.954  11.164  8.7550 
   876.000 -50.543  12.386  11.272  9.1880 -38.543  12.386  11.272  9.1880 
   876.500 -51.261  12.926  11.632  9.5480 -39.261  12.926  11.632  9.5480 
   877.000 -51.078  13.466  11.741  9.8000 -39.078  13.466  11.741  9.8000 
   877.500 -50.535  14.221  12.101  10.160 -38.535  14.221  12.101  10.160 
   878.000 -49.992  15.192  12.299  10.358 -37.992  15.192  12.299  10.358 
   878.500 -49.989  15.516  12.497  10.556 -37.989  15.516  12.497  10.556 
   879.000 -50.527  15.697  13.289  11.240 -38.527  15.697  13.289  11.240 
   879.500 -50.435  15.913  13.613  12.284 -38.435  15.913  13.613  12.284 
   880.000 -50.344  16.022  14.656  13.111 -38.344  16.022  14.656  13.111 
   880.500 -49.438  16.004  15.412  13.938 -37.438  16.004  15.412  13.938 
   881.000 -49.256  15.987  16.059  14.801 -37.256  15.987  16.059  14.801 
   881.500 -49.075  15.629  16.922  15.988 -37.075  15.629  16.922  15.988 
   882.000 -48.890  15.234  17.678  16.168 -36.890  15.234  17.678  16.168 
   882.500 -48.708  14.768  17.876  16.348 -36.708  14.768  17.876  16.348 
   883.000 -48.526  14.085  18.074  16.350 -36.526  14.085  18.074  16.350 
   883.500 -44.195  13.044  18.057  16.171 -32.195  13.044  18.057  16.171 
   884.000 -42.211  12.470  18.040  15.956 -30.211  12.470  18.040  15.956 
   884.500 -40.767  11.716  17.682  15.346 -28.767  11.716  17.682  15.346 
   885.000 -39.503  10.925  16.819  15.040 -27.503  10.925  16.819  15.040 
   885.500 -38.420  10.603  15.095  14.735 -26.420  10.603  15.095  14.735 
   886.000 -36.976  10.460  14.449  11.933 -24.976  10.460  14.449  11.933 
   886.500 -36.433  10.406  14.198  11.395 -24.433  10.406  14.198  11.395 
   887.000 -36.341  10.353  12.618  8.8440 -24.341  10.353  12.618  8.8440 
   887.500 -36.249  10.408  11.648  7.9100 -24.249  10.408  11.648  7.9100 
   888.000 -36.425  10.462  11.361  7.2280 -24.425  10.462  11.361  7.2280 
   888.500 -36.602  10.715  11.434  6.6900 -24.602  10.715  11.434  6.6900 
   889.000 -36.960  11.399  11.506  6.3310 -24.960  11.399  11.506  6.3310 
   889.500 -37.497  12.082  11.867  6.0080 -25.497  12.082  11.867  6.0080 
