~Version Information
VERS.                     2.0: CWLS log ASCII Standard Version 2.00
WRAP.                      NO: One line per depth step
~Well Information Block
#MNEM.UNIT                               Data Type  Information
#---------                               ---------  -----------
STRT.FT                                   360.0000:
STOP.FT                                  7900.0000:
STEP.FT                                     0.5000:
NULL.                 -999.25                     :
COMP.                                             :COMPANY            
WELL.     LLU 38-21                               :WELL               
FLD .                                             :FIELD              
CTRY.                                             :COUNTRY            
STAT.                                             :STATE              
LOC .                                             :LOCATION           
UWI .                                             :UNIQUE WELL ID     
SRVC.                                             :Service company    
DATE.                                             :LOG DATE           
~Curve Information
#MNEM.UNIT           API CODE  Curve Description
#---------           --------  -----------------
DEPT.FT                      :   1 DEPTH
SP  .MV                      :   2
AM16.OHMM                    :   3
AO10.OHMM                    :   4
AO19.OHMM                    :   5
SBL .MV                      :   6
RS  .OHMM                    :   7
RM  .OHMM                    :   8
RD  .OHMM                    :   9
~A
# ...
  7356.000 -46.751  6.7890  3.5560  3.3610 -38.505  6.7890  3.5560  3.3610 
  7356.500 -49.097  7.0770  3.5920  3.3250 -40.858  7.0770  3.5920  3.3250 
  7357.000 -52.888  7.5620  3.6280  3.2540 -44.656  7.5620  3.6280  3.2540 
  7357.500 -59.025  8.0470  3.6280  3.3610 -50.800  8.0470  3.6280  3.3610 
  7358.000 -59.928  7.9390  3.6460  3.3980 -51.710  7.9390  3.6460  3.3980 
  7358.500 -60.650  7.6160  3.6640  3.5230 -52.439  7.6160  3.6640  3.5230 
  7359.000 -60.289  7.0770  3.6640  3.6490 -52.085  7.0770  3.6640  3.6490 
  7359.500 -58.483  6.7180  3.6640  3.8290 -50.286  6.7180  3.6640  3.8290 
  7360.000 -56.137  6.1430  3.6640  3.7580 -47.947  6.1430  3.6640  3.7580 
  7360.500 -54.512  5.9270  3.5920  3.6860 -46.328  5.9270  3.5920  3.6860 
  7361.000 -51.624  5.7120  3.4310  3.5780 -43.447  5.7120  3.4310  3.5780 
  7361.500 -46.390  5.1370  3.2690  3.3990 -38.220  5.1370  3.2690  3.3990 
  7362.000 -42.599  4.8140  2.9100  3.1480 -34.436  4.8140  2.9100  3.1480 
  7362.500 -41.336  4.5980  2.8380  3.0400 -33.180  4.5980  2.8380  3.0400 
  7363.000 -40.975  4.4190  2.7660  2.8960 -32.826  4.4190  2.7660  2.8960 
  7363.500 -40.975  4.3470  2.7300  2.7890 -32.833  4.3470  2.7300  2.7890 
  7364.000 -40.614  4.3110  2.7480  2.7350 -32.479  4.3110  2.7480  2.7350 
  7364.500 -40.072  4.3470  2.7660  2.6810 -31.944  4.3470  2.7660  2.6810 
  7365.000 -38.809  4.6340  2.7660  2.6100 -30.688  4.6340  2.7660  2.6100 
  7365.500 -38.989  4.7780  2.7300  2.6100 -30.875  4.7780  2.7300  2.6100 
  7366.000 -39.892  5.2450  2.7120  2.6100 -31.785  5.2450  2.7120  2.6100 
  7366.500 -42.419  5.4600  2.6940  2.6460 -34.319  5.4600  2.6940  2.6460 
  7367.000 -45.487  5.6760  2.6220  2.7180 -37.393  5.6760  2.6220  2.7180 
  7367.500 -57.220  5.8200  2.6400  2.7900 -49.133  5.8200  2.6400  2.7900 
  7368.000 -58.664  6.0710  2.6580  2.8260 -50.584  6.0710  2.6580  2.8260 
  7368.500 -58.664  6.1070  2.7660  2.8270 -50.591  6.1070  2.7660  2.8270 
  7369.000 -57.942  6.1430  2.8020  2.8270 -49.876  6.1430  2.8020  2.8270 
  7369.500 -55.956  6.1430  2.9100  2.8630 -47.897  6.1430  2.9100  2.8630 
  7370.000 -53.429  6.0710  3.0180  2.8630 -45.377  6.0710  3.0180  2.8630 
  7370.500 -51.624  5.9630  3.1250  2.8630 -43.579  5.9630  3.1250  2.8630 
  7371.000 -50.361  5.5680  3.1970  2.8630 -42.323  5.5680  3.1970  2.8630 
  7371.500 -47.834  5.3890  3.3410  2.8640 -39.803  5.3890  3.3410  2.8640 
  7372.000 -44.585  5.1370  3.4310  2.9000 -36.561  5.1370  3.4310  2.9000 
  7372.500 -41.516  4.9220  3.5200  2.9360 -33.499  4.9220  3.5200  2.9360 
  7373.000 -30.866  4.7780  3.6280  3.0800 -22.856  4.7780  3.6280  3.0800 
  7373.500 -29.603  4.6700  3.6640  3.2240 -21.600  4.6700  3.6640  3.2240 
  7374.000 -29.783  4.4190  3.6280  3.2060 -21.786  4.4190  3.6280  3.2060 
  7374.500 -29.964  4.1310  3.3410  3.1880 -21.974  4.1310  3.3410  3.1880 
  7375.000 -29.513  3.9870  3.1610  3.1160 -21.530  3.9870  3.1610  3.1160 
  7375.500 -29.062  3.8080  3.0890  2.8650 -21.086  3.8080  3.0890  2.8650 
  7376.000 -27.798  3.5920  2.8380  2.6860 -19.829  3.5920  2.8380  2.6860 
  7376.500 -26.354  3.4130  2.7300  2.4700 -18.392  3.4130  2.7300  2.4700 
  7377.000 -25.271  3.3410  2.5860  2.4340 -17.316  3.3410  2.5860  2.4340 
  7377.500 -24.368  3.1970  2.5510  2.3630 -16.420  3.1970  2.5510  2.3630 
  7378.000 -23.285  3.1610  2.4970  2.3990 -15.344  3.1610  2.4970  2.3990 
  7378.500 -22.744  3.1610  2.4430  2.4350 -14.810  3.1610  2.4430  2.4350 
  7379.000 -21.841  3.1610  2.4430  2.4710 -13.914  3.1610  2.4430  2.4710 
  7379.500 -21.480  3.1610  2.4430  2.5070 -13.560  3.1610  2.4430  2.5070 
  7380.000 -21.119  3.1610  2.4790  2.5430 -13.206  3.1610  2.4790  2.5430 
  7380.500 -21.300  3.1610  2.5150  2.5790 -13.394  3.1610  2.5150  2.5790 
  7381.000 -21.481  3.2330  2.6580  2.6160 -13.581  3.2330  2.6580  2.6160 
  7381.500 -21.841  3.2330  2.9100  2.6880 -13.948  3.2330  2.9100  2.6880 
  7382.000 -21.841  3.2690  3.0530  2.8320 -13.955  3.2690  3.0530  2.8320 
  7382.500 -22.924  3.3050  3.1250  2.9040 -15.045  3.3050  3.1250  2.9040 
  7383.000 -23.646  3.3230  3.2690  2.9400 -15.774  3.3230  3.2690  2.9400 
  7383.500 -23.917  3.3410  3.4130  2.9760 -16.052  3.3410  3.4130  2.9760 
  7384.000 -24.188  3.3410  3.4850  2.9760 -16.330  3.3410  3.4850  2.9760 
  7384.500 -24.188  3.3410  3.4840  2.9400 -16.337  3.3410  3.4840  2.9400 
  7385.000 -23.826  3.3410  3.4840  2.7970 -15.982  3.3410  3.4840  2.7970 
  7385.500 -24.187  3.3050  3.4660  2.7610 -16.350  3.3050  3.4660  2.7610 
  7386.000 -24.729  3.2330  3.4490  2.7250 -16.899  3.2330  3.4490  2.7250 
  7386.500 -25.271  3.1610  3.3410  2.7250 -17.448  3.1610  3.3410  2.7250 
  7387.000 -25.451  3.1250  3.2330  2.7250 -17.635  3.1250  3.2330  2.7250 
  7387.500 -25.451  3.1070  3.1250  2.7260 -17.641  3.1070  3.1250  2.7260 
  7388.000 -25.451  3.0890  3.1250  2.7620 -17.648  3.0890  3.1250  2.7620 
  7388.500 -24.548  3.0890  3.1250  2.8340 -16.752  3.0890  3.1250  2.8340 
  7389.000 -24.187  3.0890  3.1430  2.8340 -16.398  3.0890  3.1430  2.8340 
  7389.500 -24.007  3.0890  3.1610  2.8700 -16.225  3.0890  3.1610  2.8700 
  7390.000 -23.827  3.0890  3.1610  2.9060 -16.052  3.0890  3.1610  2.9060 
  7390.500 -23.917  3.0890  3.1610  2.9420 -16.149  3.0890  3.1610  2.9420 
  7391.000 -24.007  3.0890  3.1610  2.9780 -16.246  3.0890  3.1610  2.9780 
  7391.500 -24.098  3.0890  3.1250  2.9790 -16.344  3.0890  3.1250  2.9790 
  7392.000 -24.188  3.0710  3.1250  2.9790 -16.441  3.0710  3.1250  2.9790 
  7392.500 -24.368  3.0540  3.1070  2.9790 -16.628  3.0540  3.1070  2.9790 
  7393.000 -23.826  3.0180  3.0890  2.9790 -16.093  3.0180  3.0890  2.9790 
  7393.500 -23.465  2.9820  3.0710  2.9790 -15.739  2.9820  3.0710  2.9790 
  7394.000 -23.465  2.9100  3.0530  2.9790 -15.746  2.9100  3.0530  2.9790 
  7394.500 -23.375  2.8560  3.0180  2.9440 -15.662  2.8560  3.0180  2.9440 
  7395.000 -23.285  2.8020  2.9820  2.8720 -15.579  2.8020  2.9820  2.8720 
  7395.500 -23.104  2.6940  2.9460  2.8360 -15.405  2.6940  2.9460  2.8360 
  7396.000 -22.924  2.6220  2.9100  2.8010 -15.232  2.6220  2.9100  2.8010 
  7396.500 -22.743  2.5860  2.8560  2.7650 -15.058  2.5860  2.8560  2.7650 
  7397.000 -22.473  2.5500  2.8020  2.7290 -14.795  2.5500  2.8020  2.7290 
  7397.500 -22.202  2.5150  2.7840  2.6930 -14.531  2.5150  2.7840  2.6930 
  7398.000 -21.841  2.4790  2.7660  2.6580 -14.177  2.4790  2.7660  2.6580 
  7398.500 -21.480  2.4430  2.7300  2.6220 -13.823  2.4430  2.7300  2.6220 
  7399.000 -21.480  2.4250  2.7300  2.6220 -13.830  2.4250  2.7300  2.6220 
  7399.500 -21.480  2.4070  2.6940  2.6040 -13.837  2.4070  2.6940  2.6040 
  7400.000 -21.480  2.3890  2.6580  2.5860 -13.844  2.3890  2.6580  2.5860 
  7400.500 -21.479  2.3710  2.6400  2.5690 -13.850  2.3710  2.6400  2.5690 
  7401.000 -21.479  2.3710  2.6220  2.5520 -13.856  2.3710  2.6220  2.5520 
  7401.500 -21.568  2.3710  2.5870  2.5340 -13.952  2.3710  2.5870  2.5340 
  7402.000 -21.657  2.4070  2.6220  2.5170 -14.048  2.4070  2.6220  2.5170 
  7402.500 -21.746  2.4610  2.5870  2.5170 -14.144  2.4610  2.5870  2.5170 
  7403.000 -21.835  2.5150  2.6220  2.5180 -14.240  2.5150  2.6220  2.5180 
  7403.500 -22.195  2.5870  2.6220  2.6260 -14.607  2.5870  2.6220  2.6260 
  7404.000 -22.736  2.6580  2.6220  2.6810 -15.155  2.6580  2.6220  2.6810 
  7404.500 -22.916  2.7300  2.7300  2.7350 -15.342  2.7300  2.7300  2.7350 
  7405.000 -23.456  2.7300  2.8020  2.8790 -15.889  2.7300  2.8020  2.8790 
  7405.500 -23.636  2.7300  2.8380  2.9340 -16.076  2.7300  2.8380  2.9340 
  7406.000 -23.454  2.7300  2.8740  2.9880 -15.901  2.7300  2.8740  2.9880 
  7406.500 -23.273  2.6940  2.9820  3.0070 -15.727  2.6940  2.9820  3.0070 
  7407.000 -23.092  2.6760  2.9460  3.0250 -15.553  2.6760  2.9460  3.0250 
  7407.500 -22.910  2.6580  2.9100  2.9900 -15.378  2.6580  2.9100  2.9900 
  7408.000 -22.729  2.6400  2.8380  2.9540 -15.203  2.6400  2.8380  2.9540 
  7408.500 -22.728  2.6220  2.8020  2.9010 -15.209  2.6220  2.8020  2.9010 
