~Version Information
VERS.                     2.0: CWLS log ASCII Standard Version 2.00
WRAP.                      NO: One line per depth step
~Well Information Block
#MNEM.UNIT                               Data Type  Information
#---------                               ---------  -----------
STRT.FT                                   360.0000:
STOP.FT                                  7900.0000:
STEP.FT                                     0.5000:
NULL.                 -999.25                     :
COMP.                                             :COMPANY            
WELL.     LLU 38-21                               :WELL               
FLD .                                             :FIELD              
CTRY.                                             :COUNTRY            
STAT.                                             :STATE              
LOC .                                             :LOCATION           
UWI .                                             :UNIQUE WELL ID     
SRVC.                                             :Service company    
DATE.                                             :LOG DATE           
~Curve Information
#MNEM.UNIT           API CODE  Curve Description
#---------           --------  -----------------
DEPT.FT                      :   1 DEPTH
SP  .MV                      :   2
AM16.OHMM                    :   3
AO10.OHMM                    :   4
AO19.OHMM                    :   5
SBL .MV                      :   6
RS  .OHMM                    :   7
RM  .OHMM                    :   8
RD  .OHMM                    :   9
~A
# ...
  3328.000 -53.170  17.304  17.627  6.1880 -38.358  17.304  17.627  6.1880 
  3328.500 -53.169  17.412  17.949  6.1880 -38.356  17.412  17.949  6.1880 
  3329.000 -53.169  17.519  18.558  6.0800 -38.354  17.519  18.558  6.0800 
  3329.500 -53.169  17.591  19.203  6.0440 -38.352  17.591  19.203  6.0440 
  3330.000 -53.170  17.662  19.525  5.8650 -38.351  17.662  19.525  5.8650 
  3330.500 -53.711  17.913  19.884  5.8290 -38.890  17.913  19.884  5.8290 
  3331.000 -53.982  18.056  20.779  5.7570 -39.159  18.056  20.779  5.7570 
  3331.500 -54.253  18.200  21.173  5.8280 -39.428  18.200  21.173  5.8280 
  3332.000 -54.524  18.594  21.567  6.0070 -39.697  18.594  21.567  6.0070 
  3332.500 -54.794  18.880  21.961  6.2580 -39.965  18.880  21.961  6.2580 
  3333.000 -54.975  19.131  22.356  6.5090 -40.144  19.131  22.356  6.5090 
  3333.500 -54.794  19.382  22.750  6.7050 -39.961  19.382  22.750  6.7050 
  3334.000 -54.794  19.507  23.144  6.9020 -39.959  19.507  23.144  6.9020 
  3334.500 -54.614  19.633  23.538  7.6190 -39.777  19.633  23.538  7.6190 
  3335.000 -54.433  19.651  23.932  7.9050 -39.594  19.651  23.932  7.9050 
  3335.500 -54.253  19.669  24.326  8.2990 -39.413  19.669  24.326  8.2990 
  3336.000 -54.162  19.615  24.720  8.7290 -39.320  19.615  24.720  8.7290 
  3336.500 -54.072  19.561  25.078  9.2660 -39.228  19.561  25.078  9.2660 
  3337.000 -53.982  19.418  25.436  9.8750 -39.136  19.418  25.436  9.8750 
  3337.500 -53.892  19.239  26.153  10.985 -39.044  19.239  26.153  10.985 
  3338.000 -53.892  19.131  26.870  11.702 -39.042  19.131  26.870  11.702 
  3338.500 -53.892  19.024  27.945  12.024 -39.040  19.024  27.945  12.024 
  3339.000 -53.711  18.665  28.303  12.525 -38.857  18.665  28.303  12.525 
  3339.500 -53.711  18.415  28.661  12.633 -38.855  18.415  28.661  12.633 
  3340.000 -53.531  18.021  28.661  12.668 -38.673  18.021  28.661  12.668 
  3340.500 -53.350  17.555  28.661  12.704 -38.490  17.555  28.661  12.704 
  3341.000 -53.260  17.017  28.661  12.775 -38.398  17.017  28.661  12.775 
  3341.500 -53.170  16.193  28.661  12.793 -38.306  16.193  28.661  12.793 
  3342.000 -52.628  15.835  29.019  12.811 -37.762  15.835  29.019  12.811 
  3342.500 -52.177  15.226  29.378  12.936 -37.310  15.226  29.378  12.936 
  3343.000 -51.725  14.975  29.736  13.061 -36.856  14.975  29.736  13.061 
  3343.500 -50.461  14.474  30.094  13.186 -35.590  14.474  30.094  13.186 
  3344.000 -49.739  13.793  30.094  13.312 -34.866  13.793  30.094  13.312 
  3344.500 -49.017  13.077  29.736  13.491 -34.142  13.077  29.736  13.491 
  3345.000 -46.851  12.360  29.378  13.705 -31.974  12.360  29.378  13.705 
  3345.500 -44.504  11.321  28.661  13.992 -29.625  11.321  28.661  13.992 
  3346.000 -42.879  9.6730  28.303  14.350 -27.998  9.6730  28.303  14.350 
  3346.500 -41.073  7.2370  26.870  14.672 -26.190  7.2370  26.870  14.672 
  3347.000 -38.546  6.0900  24.899  14.421 -23.661  6.0900  24.899  14.421 
  3347.500 -33.671  4.9800  22.929  14.063 -18.784  4.9800  22.929  14.063 
  3348.000 -27.894  4.5500  21.442  13.597 -13.005  4.5500  21.442  13.597 
  3348.500 -24.644  4.4420  19.955  12.808 -9.7534  4.4420  19.955  12.808 
  3349.000 -21.575  4.4420  19.346  11.948 -6.6825  4.4420  19.346  11.948 
  3349.500 -21.033  4.4780  13.041  3.1350 -6.1385  4.4780  13.041  3.1350 
  3350.000 -20.491  4.5500  5.1950  2.0240 -5.5946  4.5500  5.1950  2.0240 
  3350.500 -20.491  4.7290  4.8010  1.4150 -5.5927  4.7290  4.8010  1.4150 
  3351.000 -20.672  4.7650  4.6220  0.8420 -5.7718  4.7650  4.6220  0.8420 
  3351.500 -21.033  5.0520  4.5860  0.6260 -6.1308  5.0520  4.5860  0.6260 
  3352.000 -21.575  5.2130  4.7290  0.5550 -6.6709  5.2130  4.7290  0.5550 
  3352.500 -22.116  5.3740  4.8370  0.5540 -7.2100  5.3740  4.8370  0.5540 
  3353.000 -23.019  5.5350  5.2660  0.5540 -8.1110  5.5350  5.2660  0.5540 
  3353.500 -23.922  5.6960  5.6610  0.5900 -9.0121  5.6960  5.6610  0.5900 
  3354.000 -25.727  6.1980  5.9470  0.6260 -10.815  6.1980  5.9470  0.6260 
  3354.500 -26.269  6.4490  6.4130  0.6250 -11.355  6.4490  6.4130  0.6250 
  3355.000 -29.880  6.6280  6.7000  0.6970 -14.964  6.6280  6.7000  0.6970 
  3355.500 -31.685  6.8070  7.2370  0.7320 -16.767  6.8070  7.2370  0.7320 
  3356.000 -39.809  7.3090  7.4160  0.7680 -24.889  7.3090  7.4160  0.7680 
  3356.500 -43.059  7.9890  7.5950  0.8750 -28.138  7.9890  7.5950  0.8750 
  3357.000 -45.587  8.3480  8.0250  1.3050 -30.664  8.3480  8.0250  1.3050 
  3357.500 -46.489  8.7420  8.3480  1.5920 -31.564  8.7420  8.3480  1.5920 
  3358.000 -47.392  9.1000  8.4910  1.9140 -32.465  9.1000  8.4910  1.9140 
  3358.500 -48.114  9.4940  8.7060  4.4210 -33.185  9.4940  8.7060  4.4210 
  3359.000 -48.656  9.7810  8.8850  5.2450 -33.725  9.7810  8.8850  5.2450 
  3359.500 -49.017  10.246  8.7770  6.2480 -34.084  10.246  8.7770  6.2480 
  3360.000 -49.378  10.712  8.7600  6.9290 -34.443  10.712  8.7600  6.9290 
  3360.500 -49.920  10.891  8.7420  7.3230 -34.983  10.891  8.7420  7.3230 
  3361.000 -50.100  11.070  8.7420  7.8600 -35.161  11.070  8.7420  7.8600 
  3361.500 -50.461  11.160  8.7420  9.5440 -35.520  11.160  8.7420  9.5440 
  3362.000 -50.822  11.249  8.7420  10.582 -35.879  11.249  8.7420  10.582 
  3362.500 -50.642  11.249  8.7950  11.012 -35.697  11.249  8.7950  11.012 
  3363.000 -50.461  11.232  8.8490  11.173 -35.514  11.232  8.8490  11.173 
  3363.500 -50.281  11.214  9.0280  11.334 -35.333  11.214  9.0280  11.334 
  3364.000 -50.100  11.070  9.1360  11.334 -35.150  11.070  9.1360  11.334 
  3364.500 -49.920  10.963  9.3510  11.298 -34.968  10.963  9.3510  11.298 
  3365.000 -49.468  10.837  9.4760  11.226 -34.514  10.837  9.4760  11.226 
  3365.500 -49.017  10.712  9.6010  10.975 -34.061  10.712  9.6010  10.975 
  3366.000 -48.295  10.461  9.9960  10.760 -33.337  10.461  9.9960  10.760 
  3366.500 -47.392  10.354  10.282  10.634 -32.432  10.354  10.282  10.634 
  3367.000 -46.670  10.175  10.336  10.509 -31.708  10.175  10.336  10.509 
  3367.500 -45.587  9.9960  10.390  10.043 -30.623  9.9960  10.390  10.043 
  3368.000 -44.684  9.6370  10.712  9.6850 -29.718  9.6370  10.712  9.6850 
  3368.500 -44.323  8.9920  11.070  9.7200 -29.355  8.9920  11.070  9.7200 
  3369.000 -42.518  8.1680  11.285  9.8280 -27.548  8.1680  11.285  9.8280 
  3369.500 -41.976  7.5590  11.644  9.7910 -27.004  7.5590  11.644  9.7910 
  3370.000 -37.462  6.4130  12.468  9.0030 -22.489  6.4130  12.468  9.0030 
  3370.500 -32.227  5.3740  12.288  8.3220 -17.252  5.3740  12.288  8.3220 
  3371.000 -28.977  4.4070  11.536  6.3870 -14.000  4.4070  11.536  6.3870 
  3371.500 -22.116  4.1920  10.031  5.3480 -7.1367  4.1920  10.031  5.3480 
  3372.000 -20.853  4.0840  7.0220  4.4880 -5.8718  4.0840  7.0220  4.4880 
  3372.500 -20.853  4.0480  4.9080  3.2340 -5.8699  4.0480  4.9080  3.2340 
  3373.000 -20.853  4.0480  4.6930  2.6250 -5.8679  4.0480  4.6930  2.6250 
  3373.500 -21.123  4.1560  4.4780  2.1590 -6.1360  4.1560  4.4780  2.1590 
  3374.000 -21.394  4.3350  4.2630  1.9440 -6.4051  4.3350  4.2630  1.9440 
  3374.500 -22.658  4.5500  4.2630  1.9080 -7.6672  4.5500  4.2630  1.9080 
  3375.000 -24.283  4.6570  4.2990  1.8000 -9.2902  4.6570  4.2990  1.8000 
  3375.500 -26.630  4.9800  4.4420  1.8000 -11.635  4.9800  4.4420  1.8000 
  3376.000 -28.977  5.3740  4.8010  1.9430 -13.980  5.3740  4.8010  1.9430 
  3376.500 -33.129  5.5530  5.6610  2.4800 -18.130  5.5530  5.6610  2.4800 
  3377.000 -36.018  5.7320  6.0550  3.0180 -21.018  5.7320  6.0550  3.0180 
  3377.500 -39.629  6.4490  6.5920  3.3400 -24.627  6.4490  6.5920  3.3400 
  3378.000 -44.865  7.2370  6.8790  3.5730 -29.861  7.2370  6.8790  3.5730 
  3378.500 -45.587  7.6310  7.3800  3.8050 -30.581  7.6310  7.3800  3.8050 
  3379.000 -45.587  8.1680  7.7030  4.5570 -30.579  8.1680  7.7030  4.5570 
  3379.500 -44.865  8.7060  8.0250  5.9190 -29.855  8.7060  8.0250  5.9190 
  3380.000 -44.684  9.0280  8.2040  5.9720 -29.672  9.0280  8.2040  5.9720 
  3380.500 -43.059  9.6370  8.3480  6.0260 -28.045  9.6370  8.3480  6.0260 
