~Version Information
VERS.                     2.0: CWLS log ASCII Standard Version 2.00
WRAP.                      NO: One line per depth step
~Well Information Block
#MNEM.UNIT                               Data Type  Information
#---------                               ---------  -----------
STRT.FT                                   360.0000:
STOP.FT                                  7900.0000:
STEP.FT                                     0.5000:
NULL.                 -999.25                     :
COMP.                                             :COMPANY            
WELL.     LLU 38-21                               :WELL               
FLD .                                             :FIELD              
CTRY.                                             :COUNTRY            
STAT.                                             :STATE              
LOC .                                             :LOCATION           
UWI .                                             :UNIQUE WELL ID     
SRVC.                                             :Service company    
DATE.                                             :LOG DATE           
~Curve Information
#MNEM.UNIT           API CODE  Curve Description
#---------           --------  -----------------
DEPT.FT                      :   1 DEPTH
SP  .MV                      :   2
AM16.OHMM                    :   3
AO10.OHMM                    :   4
AO19.OHMM                    :   5
SBL .MV                      :   6
RS  .OHMM                    :   7
RM  .OHMM                    :   8
RD  .OHMM                    :   9
~A
# ...
  4335.000 -37.991  5.6360  5.3850  4.8370 -20.650  5.6360  5.3850  4.8370 
  4335.500 -39.253  5.6710  5.5280  4.8010 -21.914  5.6710  5.5280  4.8010 
  4336.000 -40.155  5.5630  5.4910  4.7290 -22.818  5.5630  5.4910  4.7290 
  4336.500 -39.976  5.4550  5.3840  4.6570 -22.641  5.4550  5.3840  4.6570 
  4337.000 -39.526  5.3650  5.3120  4.4070 -22.192  5.3650  5.3120  4.4070 
  4337.500 -39.076  5.2750  5.2400  4.2990 -21.744  5.2750  5.2400  4.2990 
  4338.000 -34.213  5.0420  4.9880  4.0480 -16.883  5.0420  4.9880  4.0480 
  4338.500 -32.412  4.8090  4.8090  3.9230 -15.084  4.8090  4.8090  3.9230 
  4339.000 -28.809  4.5220  4.5940  3.7980 -11.483  4.5220  4.5940  3.7980 
  4339.500 -27.369  4.1630  4.4140  3.2240 -10.045  4.1630  4.4140  3.2240 
  4340.000 -26.378  3.8410  4.2700  3.0090 -9.0553  3.8410  4.2700  3.0090 
  4340.500 -25.388  3.6970  4.0910  2.9200 -8.0672  3.6970  4.0910  2.9200 
  4341.000 -24.849  3.5530  3.9120  2.8300 -7.5300  3.5530  3.9120  2.8300 
  4341.500 -24.940  3.4100  3.5530  2.7590 -7.6228  3.4100  3.5530  2.7590 
  4342.000 -25.031  3.2660  3.3730  2.6510 -7.7157  3.2660  3.3730  2.6510 
  4342.500 -25.032  3.1940  3.3010  2.6150 -7.7185  3.1940  3.3010  2.6150 
  4343.000 -25.032  3.1940  3.1940  2.5440 -7.7203  3.1940  3.1940  2.5440 
  4343.500 -25.484  3.1930  3.1570  2.4360 -8.1742  3.1930  3.1570  2.4360 
  4344.000 -25.935  3.1930  3.1210  2.2570 -8.6270  3.1930  3.1210  2.2570 
  4344.500 -26.477  3.1930  3.0490  2.1500 -9.1708  3.1930  3.0490  2.1500 
  4345.000 -27.559  3.4070  3.0850  2.0420 -10.255  3.4070  3.0850  2.0420 
  4345.500 -29.181  3.5860  3.1200  2.0240 -11.878  3.5860  3.1200  2.0240 
  4346.000 -35.128  3.8000  3.1910  2.0060 -17.827  3.8000  3.1910  2.0060 
  4346.500 -38.913  4.1940  3.4060  2.4000 -21.614  4.1940  3.4060  2.4000 
  4347.000 -41.797  4.6950  3.6210  2.7230 -24.500  4.6950  3.6210  2.7230 
  4347.500 -43.059  5.1970  4.1580  2.9380 -25.764  5.1970  4.1580  2.9380 
  4348.000 -44.681  5.5900  4.5160  3.1530 -27.388  5.5900  4.5160  3.1530 
  4348.500 -45.763  5.9840  4.9090  3.4750 -28.471  5.9840  4.9090  3.4750 
  4349.000 -46.485  6.6290  5.1240  3.6540 -29.195  6.6290  5.1240  3.6540 
  4349.500 -47.567  6.9860  5.1950  3.7980 -30.279  6.9860  5.1950  3.7980 
  4350.000 -47.568  7.3800  5.2660  3.8690 -30.282  7.3800  5.2660  3.8690 
  4350.500 -47.568  7.6310  5.2840  3.9050 -30.284  7.6310  5.2840  3.9050 
  4351.000 -46.488  7.9170  5.3020  3.9770 -29.206  7.9170  5.3020  3.9770 
  4351.500 -46.219  7.9520  5.3370  4.0480 -28.938  7.9520  5.3370  4.0480 
  4352.000 -45.949  7.9880  5.3370  4.1200 -28.670  7.9880  5.3370  4.1200 
  4352.500 -45.230  7.8440  5.3360  4.1920 -27.953  7.8440  5.3360  4.1920 
  4353.000 -43.970  7.7010  5.3360  4.2630 -26.695  7.7010  5.3360  4.2630 
  4353.500 -43.430  7.5570  5.3000  4.2990 -26.157  7.5570  5.3000  4.2990 
  4354.000 -42.350  6.7320  5.2990  4.3710 -25.079  6.7320  5.2990  4.3710 
  4354.500 -39.107  6.3380  5.2990  4.4070 -21.837  6.3380  5.2990  4.4070 
  4355.000 -37.487  5.9080  5.1910  4.4420 -20.219  5.9080  5.1910  4.4420 
  4355.500 -35.866  5.5850  5.1370  4.4420 -18.600  5.5850  5.1370  4.4420 
  4356.000 -33.885  5.4050  5.0830  4.2630 -16.621  5.4050  5.0830  4.2630 
  4356.500 -31.904  5.0470  4.8320  3.9770 -14.642  5.0470  4.8320  3.9770 
  4357.000 -29.743  4.7960  4.6520  3.1170 -12.483  4.7960  4.6520  3.1170 
  4357.500 -30.104  4.7240  3.9350  2.8300 -12.845  4.7240  3.9350  2.8300 
  4358.000 -30.465  4.6520  3.7920  2.6150 -13.208  4.6520  3.7920  2.6150 
  4358.500 -31.907  4.6690  3.6480  2.5440 -14.652  4.6690  3.6480  2.5440 
  4359.000 -33.350  4.6870  3.6480  2.5790 -16.097  4.6870  3.6480  2.5790 
  4359.500 -34.972  4.8660  3.7190  2.7590 -17.721  4.8660  3.7190  2.7590 
  4360.000 -36.234  5.0080  3.8620  2.8120 -18.985  5.0080  3.8620  2.8120 
  4360.500 -37.857  5.1160  4.0410  2.8660 -20.609  5.1160  4.0410  2.8660 
  4361.000 -38.218  5.2410  4.7570  2.9740 -20.972  5.2410  4.7570  2.9740 
  4361.500 -38.219  5.3660  5.0790  3.0810 -20.975  5.3660  5.0790  3.0810 
  4362.000 -38.220  5.5440  5.3650  3.2240 -20.978  5.5440  5.3650  3.2240 
  4362.500 -37.500  5.5080  5.6870  3.3680 -20.260  5.5080  5.6870  3.3680 
  4363.000 -37.231  5.4720  5.8300  3.5110 -19.993  5.4720  5.8300  3.5110 
  4363.500 -36.961  5.1850  6.0450  3.5830 -19.724  5.1850  6.0450  3.5830 
  4364.000 -34.980  5.0060  6.0450  3.4570 -17.745  5.0060  6.0450  3.4570 
  4364.500 -31.198  4.5750  5.9370  3.3320 -13.965  4.5750  5.9370  3.3320 
  4365.000 -29.036  4.1450  5.7210  3.0090 -11.805  4.1450  5.7210  3.0090 
  4365.500 -26.515  3.8580  5.5420  2.7590 -9.2857  3.8580  5.5420  2.7590 
  4366.000 -24.714  3.6790  4.9680  2.2570 -7.4865  3.6790  4.9680  2.2570 
  4366.500 -23.093  3.4630  4.6100  1.9350 -5.8674  3.4630  4.6100  1.9350 
  4367.000 -23.004  3.3910  4.2870  1.7550 -5.7802  3.3910  4.2870  1.7550 
  4367.500 -22.915  3.3550  3.8210  1.7550 -5.6930  3.3550  3.8210  1.7550 
  4368.000 -23.096  3.3550  3.6410  1.7560 -5.8759  3.3550  3.6410  1.7560 
  4368.500 -24.178  3.3540  3.3900  1.6840 -6.9597  3.3540  3.3900  1.6840 
  4369.000 -24.899  3.4260  3.2110  1.6480 -7.6825  3.4260  3.2110  1.6480 
  4369.500 -25.981  3.5690  3.0670  1.8630 -8.7664  3.5690  3.0670  1.8630 
  4370.000 -26.703  3.6940  3.1030  2.0780 -9.4902  3.6940  3.1030  2.0780 
  4370.500 -28.866  3.8190  3.1380  2.4360 -11.655  3.8190  3.1380  2.4360 
  4371.000 -32.471  4.3560  3.1740  2.8660 -15.262  4.3560  3.1740  2.8660 
  4371.500 -36.976  4.7140  3.4960  3.0450 -19.769  4.7140  3.4960  3.0450 
  4372.000 -40.941  5.0720  3.7460  3.1880 -23.736  5.0720  3.7460  3.1880 
  4372.500 -42.563  5.3400  3.9610  3.4030 -25.359  5.3400  3.9610  3.4030 
  4373.000 -44.185  5.6080  4.2470  3.6180 -26.983  5.6080  4.2470  3.6180 
  4373.500 -46.889  6.3240  4.4260  3.7620 -29.689  6.3240  4.4260  3.7620 
  4374.000 -48.152  7.0050  4.6040  3.8870 -30.954  7.0050  4.6040  3.8870 
  4374.500 -50.675  7.3270  5.1410  4.0130 -33.479  7.3270  5.1410  4.0130 
  4375.000 -51.577  7.6130  5.4630  4.2630 -34.382  7.6130  5.4630  4.2630 
  4375.500 -52.478  7.7560  5.4990  4.3710 -35.285  7.7560  5.4990  4.3710 
  4376.000 -53.561  7.9710  5.5340  4.4070 -36.370  7.9710  5.5340  4.4070 
  4376.500 -54.282  8.0060  5.5700  4.4420 -37.093  8.0060  5.5700  4.4420 
  4377.000 -54.463  8.0950  5.4980  4.5500 -37.276  8.0950  5.4980  4.5500 
  4377.500 -55.005  8.1850  5.4260  4.5680 -37.820  8.1850  5.4260  4.5680 
  4378.000 -55.186  8.2560  5.3720  4.5860 -38.002  8.2560  5.3720  4.5860 
  4378.500 -55.367  8.3630  5.3180  4.6570 -38.185  8.3630  5.3180  4.6570 
  4379.000 -55.368  8.4340  5.1740  4.6930 -38.188  8.4340  5.1740  4.6930 
  4379.500 -55.369  8.4700  5.0840  4.8010 -38.191  8.4700  5.0840  4.8010 
  4380.000 -55.370  8.6130  4.9940  4.8540 -38.194  8.6130  4.9940  4.8540 
  4380.500 -55.190  8.7200  5.0650  4.9080 -38.016  8.7200  5.0650  4.9080 
  4381.000 -55.011  8.8450  5.1370  5.0870 -37.838  8.8450  5.1370  5.0870 
  4381.500 -54.561  8.9700  5.3510  5.1590 -37.390  8.9700  5.3510  5.1590 
  4382.000 -54.111  8.8260  5.6380  5.2660 -36.942  8.8260  5.6380  5.2660 
  4382.500 -53.211  8.6820  5.9240  5.1950 -36.044  8.6820  5.9240  5.1950 
  4383.000 -52.312  8.3240  5.9950  5.1230 -35.147  8.3240  5.9950  5.1230 
  4383.500 -50.331  8.0010  6.0660  4.9080 -33.168  8.0010  6.0660  4.9080 
  4384.000 -49.070  7.3560  6.0660  4.7830 -31.908  7.3560  6.0660  4.7830 
  4384.500 -46.549  6.9260  6.0660  4.6570 -29.389  6.9260  6.0660  4.6570 
  4385.000 -43.307  6.5310  6.0650  4.3350 -26.149  6.5310  6.0650  4.3350 
  4385.500 -41.325  6.1370  6.0650  4.2270 -24.169  6.1370  6.0650  4.2270 
  4386.000 -40.245  5.8680  6.0650  4.1920 -23.091  5.8680  6.0650  4.1920 
  4386.500 -38.625  5.5990  6.0640  4.1560 -21.473  5.5990  6.0640  4.1560 
  4387.000 -36.643  4.7030  6.0280  4.1560 -19.492  4.7030  6.0280  4.1560 
  4387.500 -33.942  4.0930  5.9920  3.8330 -16.793  4.0930  5.9920  3.8330 
