~Version Information
VERS.                     2.0: CWLS log ASCII Standard Version 2.00
WRAP.                      NO: One line per depth step
~Well Information Block
#MNEM.UNIT                               Data Type  Information
#---------                               ---------  -----------
STRT.FT                                   360.0000:
STOP.FT                                  7900.0000:
STEP.FT                                     0.5000:
NULL.                 -999.25                     :
COMP.                                             :COMPANY            
WELL.     LLU 38-21                               :WELL               
FLD .                                             :FIELD              
CTRY.                                             :COUNTRY            
STAT.                                             :STATE              
LOC .                                             :LOCATION           
UWI .                                             :UNIQUE WELL ID     
SRVC.                                             :Service company    
DATE.                                             :LOG DATE           
~Curve Information
#MNEM.UNIT           API CODE  Curve Description
#---------           --------  -----------------
DEPT.FT                      :   1 DEPTH
SP  .MV                      :   2
AM16.OHMM                    :   3
AO10.OHMM                    :   4
AO19.OHMM                    :   5
SBL .MV                      :   6
RS  .OHMM                    :   7
RM  .OHMM                    :   8
RD  .OHMM                    :   9
~A
   360.000 -0.3590 -999.25 -999.25 -999.25  11.641 -999.25 -999.25 -999.25 
   360.500 -52.428 -999.25 -999.25 -999.25 -40.428 -999.25 -999.25 -999.25 
   361.000 -104.50 -999.25 -999.25 -999.25 -92.496 -999.25 -999.25 -999.25 
   361.500 -107.55  44.944 -999.25 -999.25 -95.554  44.944 -999.25 -999.25 
   362.000 -108.81  47.468 -999.25 -999.25 -96.811  47.468 -999.25 -999.25 
   362.500 -112.77  49.993 -999.25 -999.25 -100.77  49.993 -999.25 -999.25 
   363.000 -114.57  51.797 -999.25 -999.25 -102.57  51.797 -999.25 -999.25 
   363.500 -115.46  52.523  5.0850 -999.25 -103.46  52.523  5.0850 -999.25 
   364.000 -117.08  53.608  5.0920 -999.25 -105.08  53.608  5.0920 -999.25 
   364.500 -118.34  53.613  4.7400 -999.25 -106.34  53.613  4.7400 -999.25 
   365.000 -119.23  53.618  5.1070 -999.25 -107.23  53.618  5.1070 -999.25 
   365.500 -120.40  53.629  6.9110 -999.25 -108.40  53.629  6.9110 -999.25 
   366.000 -121.57  53.635  11.589 -999.25 -109.57  53.635  11.589 -999.25 
   366.500 -124.99  53.640  54.003 -999.25 -112.99  53.640  54.003 -999.25 
   367.000 -126.78  53.651  64.072 -999.25 -114.78  53.651  64.072 -999.25 
   367.500 -128.40  53.658  73.786 -999.25 -116.40  53.658  73.786 -999.25 
   368.000 -129.12  53.306  96.072 -999.25 -117.12  53.306  96.072 -999.25 
   368.500 -130.73  53.313  101.47 -999.25 -118.73  53.313  101.47 -999.25 
   369.000 -131.45  52.961  104.00 -999.25 -119.45  52.961  104.00 -999.25 
   369.500 -132.89  52.607  105.44 -999.25 -120.89  52.607  105.44 -999.25 
   370.000 -133.87  52.253  106.53 -999.25 -121.87  52.253  106.53 -999.25 
   370.500 -134.86  51.903  107.61 -999.25 -122.86  51.903  107.61 -999.25 
   371.000 -135.94  51.552  110.13 -999.25 -123.94  51.552  110.13 -999.25 
   371.500 -136.65  51.380  113.73 -999.25 -124.65  51.380  113.73 -999.25 
   372.000 -137.01  51.207  116.98 -999.25 -125.01  51.207  116.98 -999.25 
   372.500 -138.26  51.035  123.81 -999.25 -126.26  51.035  123.81 -999.25 
   373.000 -139.16  50.863  126.33 -999.25 -127.16  50.863  126.33 -999.25 
   373.500 -140.42  50.688  128.14 -999.25 -128.42  50.688  128.14 -999.25 
   374.000 -141.85  50.514  129.22 -999.25 -129.85  50.514  129.22 -999.25 
   374.500 -142.75  50.341  129.95 -999.25 -130.75  50.341  129.95 -999.25 
   375.000 -143.65  50.169  130.68 -999.25 -131.65  50.169  130.68 -999.25 
   375.500 -144.36  50.178  130.87  27.389 -132.36  50.178  130.87  27.389 
   376.000 -144.54  50.187  131.05  35.660 -132.54  50.187  131.05  35.660 
   376.500 -144.72  50.372  131.06  43.931 -132.72  50.372  131.06  43.931 
   377.000 -145.25  50.557  131.07  56.520 -133.25  50.557  131.07  56.520 
   377.500 -146.15  50.568  130.71  64.078 -134.15  50.568  130.71  64.078 
   378.000 -147.58  50.753  130.36  68.398 -135.58  50.753  130.36  68.398 
   378.500 -148.12  50.938  129.65  70.920 -136.12  50.938  129.65  70.920 
   379.000 -148.66  50.949  128.93  73.441 -136.66  50.949  128.93  73.441 
   379.500 -149.10  50.954  128.58  84.593 -137.10  50.954  128.58  84.593 
   380.000 -149.55  50.959  128.23  107.24 -137.55  50.959  128.23  107.24 
   380.500 -150.45  50.787  127.52  117.67 -138.45  50.787  127.52  117.67 
   381.000 -151.07  50.614  127.34  124.51 -139.07  50.614  127.34  124.51 
   381.500 -151.70  50.442  127.17  131.71 -139.70  50.442  127.17  131.71 
   382.000 -152.77  50.269  127.54  139.98 -140.77  50.269  127.54  139.98 
   382.500 -153.13  49.737  128.27  144.30 -141.13  49.737  128.27  144.30 
   383.000 -154.03  49.206  128.99  146.82 -142.03  49.206  128.99  146.82 
   383.500 -154.92  48.139  130.80  149.35 -142.92  48.139  130.80  149.35 
   384.000 -155.46  47.785  133.32  152.59 -143.46  47.785  133.32  152.59 
   384.500 -155.63  47.430  134.77  155.83 -143.63  47.430  134.77  155.83 
   385.000 -155.99  46.362  135.13  162.67 -143.99  46.362  135.13  162.67 
   385.500 -156.16  45.293  135.50  165.55 -144.16  45.293  135.50  165.55 
   386.000 -156.52  44.759  136.04  168.80 -144.52  44.759  136.04  168.80 
   386.500 -156.88  44.225  136.59  172.76 -144.88  44.225  136.59  172.76 
   387.000 -157.95  43.334  137.68  174.20 -145.95  43.334  137.68  174.20 
   387.500 -158.31  42.443  140.20  177.80 -146.31  42.443  140.20  177.80 
   388.000 -158.67  41.376  142.36  190.39 -146.67  41.376  142.36  190.39 
   388.500 -159.02  40.305  143.81  193.64 -147.02  40.305  143.81  193.64 
   389.000 -159.38  39.412  145.97  195.80 -147.38  39.412  145.97  195.80 
   389.500 -159.91  38.519  147.78  197.24 -147.91  38.519  147.78  197.24 
   390.000 -160.00  37.268  148.50  197.61 -148.00  37.268  148.50  197.61 
   390.500 -160.09  36.018  149.22  197.98 -148.09  36.018  149.22  197.98 
   391.000 -160.44  34.947  150.67  197.99 -148.44  34.947  150.67  197.99 
   391.500 -160.53  33.876  149.60  197.99 -148.53  33.876  149.60  197.99 
   392.000 -160.62  32.625  146.73  197.65 -148.62  32.625  146.73  197.65 
   392.500 -159.17  31.375  142.79  197.29 -147.17  31.375  142.79  197.29 
   393.000 -160.06  30.661  139.56  196.58 -148.06  30.661  139.56  196.58 
   393.500 -160.78  29.948  134.54  194.43 -148.78  29.948  134.54  194.43 
   394.000 -161.13  28.522  130.23  193.01 -149.13  28.522  130.23  193.01 
   394.500 -161.04  28.168  127.36  190.50 -149.04  28.168  127.36  190.50 
   395.000 -160.95  27.813  121.62  187.99 -148.95  27.813  121.62  187.99 
   395.500 -160.76  27.463  110.49  184.04 -148.76  27.463  110.49  184.04 
   396.000 -160.58  27.113  96.475  180.82 -148.58  27.113  96.475  180.82 
   396.500 -160.57  26.761  79.593  168.61 -148.57  26.761  79.593  168.61 
   397.000 -161.38  26.409  74.210  143.46 -149.38  26.409  74.210  143.46 
   397.500 -162.19  26.416  64.874  130.17 -150.19  26.416  64.874  130.17 
   398.000 -165.60  26.421  63.080  123.88 -153.60  26.421  63.080  123.88 
   398.500 -167.22  26.426  60.213  117.60 -155.22  26.426  60.213  117.60 
   399.000 -168.12  26.615  58.423  100.72 -156.12  26.615  58.423  100.72 
   399.500 -168.83  26.804  57.710  83.834 -156.83  26.804  57.710  83.834 
   400.000 -169.37  27.169  56.996  79.893 -157.37  27.169  56.996  79.893 
   400.500 -168.64  27.533  55.929  79.901 -156.64  27.533  55.929  79.901 
   401.000 -168.10  27.904  55.396  78.110 -156.10  27.904  55.396  78.110 
   401.500 -168.09  28.268  54.862  76.320 -156.09  28.268  54.862  76.320 
   402.000 -168.45  28.633  54.330  76.330 -156.45  28.633  54.330  76.330 
   402.500 -169.52  29.003  53.798  76.340 -157.52  29.003  53.798  76.340 
   403.000 -170.06  29.188  53.450  77.426 -158.06  29.188  53.450  77.426 
   403.500 -170.06  29.373  54.176  78.510 -158.06  29.373  54.176  78.510 
   404.000 -170.32  29.384  55.261  79.594 -158.32  29.384  55.261  79.594 
   404.500 -170.59  29.751  55.805  81.044 -158.59  29.751  55.805  81.044 
   405.000 -170.40  29.398  56.349  82.852 -158.40  29.398  56.349  82.852 
   405.500 -170.04  29.046  56.177  83.938 -158.04  29.046  56.177  83.938 
   406.000 -169.67  29.053  56.004  85.384 -157.67  29.053  56.004  85.384 
   406.500 -169.13  28.879  55.297  86.470 -157.13  28.879  55.297  86.470 
   407.000 -168.76  28.705  54.945  86.117 -156.76  28.705  54.945  86.117 
   407.500 -168.40  28.712  53.874  85.763 -156.40  28.712  53.874  85.763 
   408.000 -168.21  28.719  53.522  84.338 -156.21  28.719  53.522  84.338 
   408.500 -167.49  29.265  53.529  83.268 -155.49  29.265  53.529  83.268 
   409.000 -167.12  29.811  53.895  81.839 -155.12  29.811  53.895  81.839 
   409.500 -166.40  30.901  53.901  80.765 -154.40  30.901  53.901  80.765 
   410.000 -166.03  31.626  53.906  79.695 -154.03  31.626  53.906  79.695 
   410.500 -165.85  32.352  55.354  78.982 -153.85  32.352  55.354  78.982 
   411.000 -165.67  32.723  56.440  78.270 -153.67  32.723  56.440  78.270 
   411.500 -165.30  32.908  58.603  77.379 -153.30  32.908  58.603  77.379 
   412.000 -165.30  33.093  60.047  76.489 -153.30  33.093  60.047  76.489 
   412.500 -165.29  32.922  63.289  79.735 -153.29  32.922  63.289  79.735 
