~Version Information
VERS.                     2.0: CWLS log ASCII Standard Version 2.00
WRAP.                      NO: One line per depth step
~Well Information Block
#MNEM.UNIT                               Data Type  Information
#---------                               ---------  -----------
STRT.FT                                   360.0000:
STOP.FT                                  7900.0000:
STEP.FT                                     0.5000:
NULL.                 -999.25                     :
COMP.                                             :COMPANY            
WELL.     LLU 38-21                               :WELL               
FLD .                                             :FIELD              
CTRY.                                             :COUNTRY            
STAT.                                             :STATE              
LOC .                                             :LOCATION           
UWI .                                             :UNIQUE WELL ID     
SRVC.                                             :Service company    
DATE.                                             :LOG DATE           
~Curve Information
#MNEM.UNIT           API CODE  Curve Description
#---------           --------  -----------------
DEPT.FT                      :   1 DEPTH
SP  .MV                      :   2
AM16.OHMM                    :   3
AO10.OHMM                    :   4
AO19.OHMM                    :   5
SBL .MV                      :   6
RS  .OHMM                    :   7
RM  .OHMM                    :   8
RD  .OHMM                    :   9
~A
# ...
  5342.000 -29.896  3.0340  2.4960  1.8150 -16.242  3.0340  2.4960  1.8150 
  5342.500 -30.437  3.1600  2.4960  1.7780 -16.785  3.1600  2.4960  1.7780 
  5343.000 -31.159  3.2850  2.4600  1.7420 -17.509  3.2850  2.4600  1.7420 
  5343.500 -31.880  3.4640  2.4240  1.7240 -18.231  3.4640  2.4240  1.7240 
  5344.000 -33.143  3.5180  2.3880  1.7060 -19.496  3.5180  2.3880  1.7060 
  5344.500 -36.026  3.5720  2.3880  1.7600 -22.381  3.5720  2.3880  1.7600 
  5345.000 -41.433  3.9660  2.4590  1.8130 -27.790  3.9660  2.4590  1.8130 
  5345.500 -45.037  4.1810  2.5310  1.9570 -31.396  4.1810  2.5310  1.9570 
  5346.000 -47.200  4.4320  2.8530  1.9920 -33.561  4.4320  2.8530  1.9920 
  5346.500 -50.264  4.8980  2.9970  2.0460 -36.626  4.8980  2.9970  2.0460 
  5347.000 -54.770  5.1130  3.1040  2.1000 -41.134  5.1130  3.1040  2.1000 
  5347.500 -57.473  5.3280  3.1760  2.1350 -43.839  5.3280  3.1760  2.1350 
  5348.000 -58.735  5.9020  3.2470  2.1350 -45.103  5.9020  3.2470  2.1350 
  5348.500 -60.538  6.1530  3.2830  2.0990 -46.908  6.1530  3.2830  2.0990 
  5349.000 -62.160  6.2960  3.2830  2.0630 -48.532  6.2960  3.2830  2.0630 
  5349.500 -63.783  6.5470  3.2830  2.2420 -50.156  6.5470  3.2830  2.2420 
  5350.000 -65.586  6.6190  3.2820  2.2780 -51.961  6.6190  3.2820  2.2780 
  5350.500 -66.487  6.7980  3.2460  2.3320 -52.864  6.7980  3.2460  2.3320 
  5351.000 -67.569  6.9410  3.2280  2.3850 -53.948  6.9410  3.2280  2.3850 
  5351.500 -68.111  7.0850  3.2100  2.4210 -54.492  7.0850  3.2100  2.4210 
  5352.000 -68.112  7.2280  3.2100  2.5280 -54.495  7.2280  3.2100  2.5280 
  5352.500 -68.113  7.3350  3.2100  2.5280 -54.497  7.3350  3.2100  2.5280 
  5353.000 -68.113  7.4430  3.2280  2.5460 -54.499  7.4430  3.2280  2.5460 
  5353.500 -67.484  7.4430  3.2450  2.5640 -53.872  7.4430  3.2450  2.5640 
  5354.000 -66.854  7.4420  3.2810  2.5640 -53.244  7.4420  3.2810  2.5640 
  5354.500 -66.314  7.3170  3.2810  2.5630 -52.706  7.3170  3.2810  2.5630 
  5355.000 -66.315  7.1910  3.3170  2.5630 -52.709  7.1910  3.3170  2.5630 
  5355.500 -66.496  7.0830  3.3520  2.5630 -52.891  7.0830  3.3520  2.5630 
  5356.000 -67.218  7.0830  3.3520  2.5630 -53.615  7.0830  3.3520  2.5630 
  5356.500 -68.480  7.1900  3.3700  2.5630 -54.879  7.1900  3.3700  2.5630 
  5357.000 -68.841  7.3340  3.3880  2.5630 -55.242  7.3340  3.3880  2.5630 
  5357.500 -69.203  7.4770  3.4230  2.5980 -55.606  7.4770  3.4230  2.5980 
  5358.000 -69.204  7.7280  3.4950  2.5980 -55.609  7.7280  3.4950  2.5980 
  5358.500 -69.205  7.8350  3.6020  2.5980 -55.611  7.8350  3.6020  2.5980 
  5359.000 -69.205  7.8350  3.7100  2.5980 -55.613  7.8350  3.7100  2.5980 
  5359.500 -69.026  7.8350  3.7450  2.5620 -55.436  7.8350  3.7450  2.5620 
  5360.000 -68.667  7.7630  3.7450  2.5260 -55.079  7.7630  3.7450  2.5260 
  5360.500 -67.586  7.7270  3.7090  2.6690 -54.000  7.7270  3.7090  2.6690 
  5361.000 -65.065  7.5830  3.6910  2.5880 -51.481  7.5830  3.6910  2.5880 
  5361.500 -64.165  7.4040  3.6730  2.5070 -50.582  7.4040  3.6730  2.5070 
  5362.000 -63.265  7.1890  3.6190  2.4260 -49.684  7.1890  3.6190  2.4260 
  5362.500 -62.635  6.5780  3.5650  2.3450 -49.056  6.5780  3.5650  2.3450 
  5363.000 -62.005  6.2550  3.5290  2.2730 -48.428  6.2550  3.5290  2.2730 
  5363.500 -61.105  6.0760  3.4570  2.1660 -47.530  6.0760  3.4570  2.1660 
  5364.000 -60.566  6.0040  3.4210  2.0220 -46.993  6.0040  3.4210  2.0220 
  5364.500 -60.206  5.9680  3.3850  1.9860 -46.634  5.9680  3.3850  1.9860 
  5365.000 -59.847  6.0390  3.3130  1.8780 -46.277  6.0390  3.3130  1.8780 
  5365.500 -59.848  6.0750  3.3130  1.8780 -46.280  6.0750  3.3130  1.8780 
  5366.000 -60.209  6.2180  3.3130  1.8420 -46.643  6.2180  3.3130  1.8420 
  5366.500 -60.570  6.4340  3.3120  1.7700 -47.006  6.4340  3.3120  1.7700 
  5367.000 -61.653  6.5410  3.2760  1.7340 -48.091  6.5410  3.2760  1.7340 
  5367.500 -62.014  6.6480  3.2940  1.6980 -48.453  6.6480  3.2940  1.6980 
  5368.000 -62.015  6.7200  3.3120  1.6620 -48.456  6.7200  3.3120  1.6620 
  5368.500 -62.016  6.7200  3.3480  1.6620 -48.459  6.7200  3.3480  1.6620 
  5369.000 -61.656  6.7200  3.3830  1.6970 -48.101  6.7200  3.3830  1.6970 
  5369.500 -60.756  6.6120  3.4550  1.6970 -47.203  6.6120  3.4550  1.6970 
  5370.000 -60.217  6.5760  3.5260  1.8400 -46.666  6.5760  3.5260  1.8400 
  5370.500 -58.956  6.5040  3.6700  1.9120 -45.406  6.5040  3.6700  1.9120 
  5371.000 -57.876  6.4320  3.7410  2.0550 -44.328  6.4320  3.7410  2.0550 
  5371.500 -56.075  5.8940  3.8130  2.0910 -42.529  5.8940  3.8130  2.0910 
  5372.000 -54.094  5.7860  3.8130  2.0910 -40.550  5.7860  3.8130  2.0910 
  5372.500 -51.753  5.4630  3.8130  2.0550 -38.211  5.4630  3.8130  2.0550 
  5373.000 -51.033  5.3190  3.7590  2.0190 -37.492  5.3190  3.7590  2.0190 
  5373.500 -49.772  5.2650  3.7050  2.0010 -36.233  5.2650  3.7050  2.0010 
  5374.000 -49.413  5.2110  3.6510  1.9820 -35.876  5.2110  3.6510  1.9820 
  5374.500 -48.963  5.1750  3.5970  2.0900 -35.428  5.1750  3.5970  2.0900 
  5375.000 -48.513  5.1390  3.6320  2.1430 -34.980  5.1390  3.6320  2.1430 
  5375.500 -47.253  5.0850  3.6320  2.1970 -33.722  5.0850  3.6320  2.1970 
  5376.000 -46.533  5.0310  3.6680  2.3760 -33.003  5.0310  3.6680  2.3760 
  5376.500 -45.813  4.8160  3.7030  2.4840 -32.285  4.8160  3.7030  2.4840 
  5377.000 -43.653  4.5280  3.7030  2.5190 -30.127  4.5280  3.7030  2.5190 
  5377.500 -42.032  4.1340  3.7390  2.3400 -28.508  4.1340  3.7390  2.3400 
  5378.000 -40.411  3.7750  3.4880  2.1960 -26.889  3.7750  3.4880  2.1960 
  5378.500 -38.070  3.6310  3.2360  2.0520 -24.550  3.6310  3.2360  2.0520 
  5379.000 -38.431  3.4870  2.9850  1.8370 -24.912  3.4870  2.9850  1.8370 
  5379.500 -39.333  3.2360  2.7700  1.6930 -25.816  3.2360  2.7700  1.6930 
  5380.000 -38.252  3.1280  2.7340  1.7470 -24.737  3.1280  2.7340  1.7470 
  5380.500 -37.172  2.9850  2.8770  1.8010 -23.659  2.9850  2.8770  1.8010 
  5381.000 -33.209  2.9130  2.9130  2.0520 -19.698  2.9130  2.9130  2.0520 
  5381.500 -30.688  2.8410  2.9120  2.0870 -17.179  2.8410  2.9120  2.0870 
  5382.000 -30.058  2.7690  2.8760  2.0870 -16.550  2.7690  2.8760  2.0870 
  5382.500 -29.428  2.6250  2.8040  2.0870 -15.922  2.6250  2.8040  2.0870 
  5383.000 -27.627  2.5170  2.7680  2.0510 -14.123  2.5170  2.7680  2.0510 
  5383.500 -26.006  2.4450  2.7320  1.8350 -12.504  2.4450  2.7320  1.8350 
  5384.000 -25.467  2.3730  2.6250  1.7640 -11.967  2.3730  2.6250  1.7640 
  5384.500 -24.927  2.3730  2.5880  1.6920 -11.429  2.3730  2.5880  1.6920 
  5385.000 -24.208  2.3730  2.5880  1.6560 -10.711  2.3730  2.5880  1.6560 
  5385.500 -24.028  2.3910  2.6240  1.6200 -10.533  2.3910  2.6240  1.6200 
  5386.000 -23.849  2.4090  2.6600  1.6550 -10.356  2.4090  2.6600  1.6550 
  5386.500 -23.670  2.4440  2.6950  1.6910 -10.179  2.4440  2.6950  1.6910 
  5387.000 -23.671  2.4800  2.7310  1.8700 -10.182  2.4800  2.7310  1.8700 
  5387.500 -23.491  2.5160  2.8740  1.9780 -10.004  2.5160  2.8740  1.9780 
  5388.000 -23.582  2.5870  2.9100  1.9950 -10.096  2.5870  2.9100  1.9950 
  5388.500 -23.673  2.6050  2.8920  2.0130 -10.189  2.6050  2.8920  2.0130 
  5389.000 -23.854  2.6230  2.8740  1.9590 -10.372  2.6230  2.8740  1.9590 
  5389.500 -24.216  2.8020  2.6580  1.9050 -10.736  2.8020  2.6580  1.9050 
  5390.000 -24.577  2.8910  2.6580  1.7610 -11.099  2.8910  2.6580  1.7610 
  5390.500 -25.118  2.9810  2.6580  1.8150 -11.642  2.9810  2.6580  1.8150 
  5391.000 -26.200  3.1600  2.8010  1.8690 -12.725  3.1600  2.8010  1.8690 
  5391.500 -26.922  3.4110  3.0160  2.0480 -13.449  3.4110  3.0160  2.0480 
  5392.000 -27.643  3.6620  3.2670  2.6580 -14.172  3.6620  3.2670  2.6580 
  5392.500 -35.212  3.9130  3.4110  2.8730 -21.743  3.9130  3.4110  2.8730 
  5393.000 -37.015  4.0560  3.4110  2.8720 -23.548  4.0560  3.4110  2.8720 
  5393.500 -38.097  4.0560  3.3030  2.7290 -24.632  4.0560  3.3030  2.7290 
  5394.000 -38.278  4.0020  3.1950  2.6930 -24.814  4.0020  3.1950  2.6930 
  5394.500 -38.098  3.9480  3.1230  2.6930 -24.636  3.9480  3.1230  2.6930 
