~Version Information
VERS.                     2.0: CWLS log ASCII Standard Version 2.00
WRAP.                      NO: One line per depth step
~Well Information Block
#MNEM.UNIT                               Data Type  Information
#---------                               ---------  -----------
STRT.FT                                   360.0000:
STOP.FT                                  7900.0000:
STEP.FT                                     0.5000:
NULL.                 -999.25                     :
COMP.                                             :COMPANY            
WELL.     LLU 38-21                               :WELL               
FLD .                                             :FIELD              
CTRY.                                             :COUNTRY            
STAT.                                             :STATE              
LOC .                                             :LOCATION           
UWI .                                             :UNIQUE WELL ID     
SRVC.                                             :Service company    
DATE.                                             :LOG DATE           
~Curve Information
#MNEM.UNIT           API CODE  Curve Description
#---------           --------  -----------------
DEPT.FT                      :   1 DEPTH
SP  .MV                      :   2
AM16.OHMM                    :   3
AO10.OHMM                    :   4
AO19.OHMM                    :   5
SBL .MV                      :   6
RS  .OHMM                    :   7
RM  .OHMM                    :   8
RD  .OHMM                    :   9
~A
# ...
  3858.000 -31.895  5.0670  6.2130  3.0600 -15.040  5.0670  6.2130  3.0600 
  3858.500 -32.257  5.0660  6.2490  3.0240 -15.400  5.0660  6.2490  3.0240 
  3859.000 -32.620  5.0660  6.2840  2.9880 -15.761  5.0660  6.2840  2.9880 
  3859.500 -32.983  5.0300  6.3200  2.9880 -16.122  5.0300  6.3200  2.9880 
  3860.000 -33.527  4.8510  6.3200  2.9880 -16.664  4.8510  6.3200  2.9880 
  3860.500 -34.251  4.7970  6.2840  3.0240 -17.386  4.7970  6.2840  3.0240 
  3861.000 -35.516  4.7430  6.2660  3.2030 -18.649  4.7430  6.2660  3.2030 
  3861.500 -36.962  4.5280  6.2480  3.5250 -20.094  4.5280  6.2480  3.5250 
  3862.000 -37.506  4.4560  6.1040  3.7750 -20.636  4.4560  6.1040  3.7750 
  3862.500 -34.619  4.3840  5.3870  4.0980 -17.747  4.3840  5.3870  4.0980 
  3863.000 -31.551  4.1330  5.1010  4.1330 -14.677  4.1330  5.1010  4.1330 
  3863.500 -30.109  4.0970  4.7780  4.0610 -13.233  4.0970  4.7780  4.0610 
  3864.000 -29.569  4.0790  4.5990  3.9180 -12.691  4.0790  4.5990  3.9180 
  3864.500 -29.029  4.0610  4.4910  3.8460 -12.149  4.0610  4.4910  3.8460 
  3865.000 -29.031  4.0610  4.3480  3.7380 -12.149  4.0610  4.3480  3.7380 
  3865.500 -29.033  4.0610  4.3120  3.7020 -12.149  4.0610  4.3120  3.7020 
  3866.000 -29.757  4.1500  4.3110  3.7740 -12.871  4.1500  4.3110  3.7740 
  3866.500 -30.120  4.2390  4.3470  3.8450 -13.232  4.2390  4.3470  3.8450 
  3867.000 -30.483  4.4010  4.3470  4.1320 -13.593  4.4010  4.3470  4.1320 
  3867.500 -31.748  4.5620  4.3470  4.1320 -14.856  4.5620  4.3470  4.1320 
  3868.000 -32.833  4.8120  4.4900  4.0960 -15.940  4.8120  4.4900  4.0960 
  3868.500 -33.377  4.9910  4.5430  3.9880 -16.482  4.9910  4.5430  3.9880 
  3869.000 -34.823  5.1700  4.5970  3.9520 -17.926  5.1700  4.5970  3.9520 
  3869.500 -36.811  5.2420  4.5970  4.0590 -19.912  5.2420  4.5970  4.0590 
  3870.000 -38.979  5.2590  4.7400  4.3820 -22.078  5.2590  4.7400  4.3820 
  3870.500 -42.231  5.2770  4.9900  4.8470 -25.328  5.2770  4.9900  4.8470 
  3871.000 -41.871  5.1340  5.2770  5.1690 -24.966  5.1340  5.2770  5.1690 
  3871.500 -38.984  5.0620  5.3480  5.1690 -22.077  5.0620  5.3480  5.1690 
  3872.000 -35.014  4.8820  5.2590  5.0970 -18.105  4.8820  5.2590  5.0970 
  3872.500 -31.586  4.8460  5.1690  4.7390 -14.675  4.8460  5.1690  4.7390 
  3873.000 -30.143  4.8280  4.9540  4.4880 -13.230  4.8280  4.9540  4.4880 
  3873.500 -28.701  4.8100  4.7740  4.1300 -11.786  4.8100  4.7740  4.1300 
  3874.000 -28.612  4.8460  4.3800  3.9140 -11.695  4.8460  4.3800  3.9140 
  3874.500 -28.524  4.8810  4.2720  3.6280 -11.605  4.8810  4.2720  3.6280 
  3875.000 -29.067  4.9170  4.2720  3.6990 -12.147  4.9170  4.2720  3.6990 
  3875.500 -29.791  4.9530  4.2720  3.8060 -12.869  4.9530  4.2720  3.8060 
  3876.000 -30.335  4.9880  4.3970  3.9490 -13.411  4.9880  4.3970  3.9490 
  3876.500 -30.697  5.0240  4.5230  4.0930 -13.771  5.0240  4.5230  4.0930 
  3877.000 -31.060  5.0600  4.7370  4.1640 -14.132  5.0600  4.7370  4.1640 
  3877.500 -30.521  5.0950  4.7370  4.2360 -13.591  5.0950  4.7370  4.2360 
  3878.000 -29.981  5.1490  4.7370  4.1280 -13.049  5.1490  4.7370  4.1280 
  3878.500 -29.260  5.2020  4.6830  4.0200 -12.326  5.2020  4.6830  4.0200 
  3879.000 -29.804  5.3100  4.6290  3.9130 -12.868  5.3100  4.6290  3.9130 
  3879.500 -29.986  5.4350  4.7010  3.8050 -13.048  5.4350  4.7010  3.8050 
  3880.000 -30.168  5.5600  4.7540  3.8050 -13.228  5.5600  4.7540  3.8050 
  3880.500 -33.781  5.7210  4.8080  3.8050 -16.839  5.7210  4.8080  3.8050 
  3881.000 -34.144  5.8820  5.0050  3.9840 -17.200  5.8820  5.0050  3.9840 
  3881.500 -34.507  6.2050  5.2010  4.0910 -17.561  6.2050  5.2010  4.0910 
  3882.000 -36.314  6.3840  5.4520  4.1980 -19.367  6.3840  5.4520  4.1980 
  3882.500 -38.121  6.5270  5.5950  4.3410 -21.172  6.5270  5.5950  4.3410 
  3883.000 -40.651  6.9920  5.7380  4.4130 -23.700  6.9920  5.7380  4.4130 
  3883.500 -44.083  7.4580  6.1320  4.4480 -27.130  7.4580  6.1320  4.4480 
  3884.000 -47.695  7.6550  6.3110  4.4840 -30.740  7.6550  6.3110  4.4840 
  3884.500 -49.503  7.8510  6.4540  4.6990 -32.546  7.8510  6.4540  4.6990 
  3885.000 -50.949  8.2100  6.5440  5.1290 -33.990  8.2100  6.5440  5.1290 
  3885.500 -51.492  8.3170  6.6330  5.4870 -34.531  8.3170  6.6330  5.4870 
  3886.000 -52.036  8.4240  6.7400  5.8450 -35.073  8.4240  6.7400  5.8450 
  3886.500 -52.669  8.5490  6.8480  5.9520 -35.704  8.5490  6.8480  5.9520 
  3887.000 -53.303  8.6750  6.8830  6.0590 -36.336  8.6750  6.8830  6.0590 
  3887.500 -53.305  8.7820  6.9190  5.8800 -36.336  8.7820  6.9190  5.8800 
  3888.000 -51.862  8.8890  6.8110  5.7010 -34.891  8.8890  6.8110  5.7010 
  3888.500 -52.135  8.9610  6.7390  5.4500 -35.162  8.9610  6.7390  5.4500 
  3889.000 -52.408  9.0320  6.6680  5.3060 -35.434  9.0320  6.6680  5.3060 
  3889.500 -52.771  9.0680  6.5240  5.2340 -35.795  9.0680  6.5240  5.2340 
  3890.000 -52.050  8.8170  6.6310  5.3420 -35.072  8.8170  6.6310  5.3420 
  3890.500 -51.330  8.5660  6.8100  5.6640 -34.350  8.5660  6.8100  5.6640 
  3891.000 -50.068  8.1720  7.0970  5.9860 -33.086  8.1720  7.0970  5.9860 
  3891.500 -48.986  7.7060  7.1500  6.1650 -32.002  7.7060  7.1500  6.1650 
  3892.000 -47.544  7.0960  7.2040  6.1290 -30.558  7.0960  7.2040  6.1290 
  3892.500 -43.935  6.5230  7.2750  5.9500 -26.947  6.5230  7.2750  5.9500 
  3893.000 -41.590  5.7350  7.2750  5.7710 -24.600  5.7350  7.2750  5.7710 
  3893.500 -39.605  5.1250  7.2750  5.3760 -22.613  5.1250  7.2750  5.3760 
  3894.000 -35.455  4.6240  6.9170  4.8750 -18.461  4.6240  6.9170  4.8750 
  3894.500 -33.471  3.9070  6.4510  4.6240 -16.475  3.9070  6.4510  4.6240 
  3895.000 -31.667  3.6920  6.0210  4.3730 -14.669  3.6920  6.0210  4.3730 
  3895.500 -28.058  3.5130  5.6260  3.6200 -11.058  3.5130  5.6260  3.6200 
  3896.000 -26.615  3.4410  4.8740  2.8680 -9.6136  3.4410  4.8740  2.8680 
  3896.500 -26.076  3.3690  4.5870  2.5450 -9.0726  3.3690  4.5870  2.5450 
  3897.000 -25.987  3.2970  4.3000  2.2220 -8.9817  3.2970  4.3000  2.2220 
  3897.500 -25.899  3.2250  3.9420  2.1500 -8.8918  3.2250  3.9420  2.1500 
  3898.000 -25.900  3.2610  3.7620  2.0790 -8.8908  3.2610  3.7620  2.0790 
  3898.500 -25.902  3.2970  3.7260  1.9710 -8.8909  3.2970  3.7260  1.9710 
  3899.000 -26.446  3.3680  3.7080  1.8630 -9.4330  3.3680  3.7080  1.8630 
  3899.500 -27.170  3.4750  3.6900  1.8270 -10.155  3.4750  3.6900  1.8270 
  3900.000 -27.533  3.5830  3.6900  1.9350 -10.516  3.5830  3.6900  1.9350 
  3900.500 -28.076  3.7980  3.8340  2.0420 -11.057  3.7980  3.8340  2.0420 
  3901.000 -29.521  3.9050  3.9770  2.1310 -12.500  3.9050  3.9770  2.1310 
  3901.500 -30.786  4.1560  4.2460  2.2200 -13.763  4.1560  4.2460  2.2200 
  3902.000 -32.052  4.5140  4.5140  2.2920 -15.027  4.5140  4.5140  2.2920 
  3902.500 -34.942  4.7120  4.6580  2.3630 -17.915  4.7120  4.6580  2.3630 
  3903.000 -35.665  4.9090  4.7300  2.3630 -18.637  4.9090  4.7300  2.3630 
  3903.500 -37.652  5.1240  4.7660  2.3630 -20.622  5.1240  4.7660  2.3630 
  3904.000 -39.459  5.4820  4.8010  2.4340 -22.427  5.4820  4.8010  2.4340 
  3904.500 -40.905  5.6610  4.8550  2.4340 -23.871  5.6610  4.8550  2.4340 
  3905.000 -42.170  5.8410  4.9090  2.6130 -25.134  5.8410  4.9090  2.6130 
  3905.500 -44.338  6.9510  5.2320  2.7560 -27.300  6.9510  5.2320  2.7560 
  3906.000 -46.145  7.3100  5.4110  3.0060 -29.105  7.3100  5.4110  3.0060 
  3906.500 -47.771  8.1700  5.6260  3.5070 -30.729  8.1700  5.6260  3.5070 
  3907.000 -53.008  8.3490  5.8050  4.2600 -35.964  8.3490  5.8050  4.2600 
  3907.500 -53.370  8.4560  5.8770  5.0830 -36.324  8.4560  5.8770  5.0830 
  3908.000 -53.372  8.3490  5.9310  5.6920 -36.324  8.3490  5.9310  5.6920 
  3908.500 -52.470  8.0620  5.9840  5.9780 -35.420  8.0620  5.9840  5.9780 
  3909.000 -50.847  7.6330  6.0920  6.1570 -33.795  7.6330  6.0920  6.1570 
  3909.500 -49.584  7.2390  6.0920  6.1570 -32.531  7.2390  6.0920  6.1570 
  3910.000 -47.419  6.7730  5.9850  6.0310 -30.364  6.7730  5.9850  6.0310 
  3910.500 -47.060  6.5580  5.7340  5.9060 -30.003  6.5580  5.7340  5.9060 
