~Version Information
VERS.                     2.0: CWLS log ASCII Standard Version 2.00
WRAP.                      NO: One line per depth step
~Well Information Block
#MNEM.UNIT                               Data Type  Information
#---------                               ---------  -----------
STRT.FT                                   360.0000:
STOP.FT                                  7900.0000:
STEP.FT                                     0.5000:
NULL.                 -999.25                     :
COMP.                                             :COMPANY            
WELL.     LLU 38-21                               :WELL               
FLD .                                             :FIELD              
CTRY.                                             :COUNTRY            
STAT.                                             :STATE              
LOC .                                             :LOCATION           
UWI .                                             :UNIQUE WELL ID     
SRVC.                                             :Service company    
DATE.                                             :LOG DATE           
~Curve Information
#MNEM.UNIT           API CODE  Curve Description
#---------           --------  -----------------
DEPT.FT                      :   1 DEPTH
SP  .MV                      :   2
AM16.OHMM                    :   3
AO10.OHMM                    :   4
AO19.OHMM                    :   5
SBL .MV                      :   6
RS  .OHMM                    :   7
RM  .OHMM                    :   8
RD  .OHMM                    :   9
~A
# ...
  4865.000 -66.000  10.074  6.7600  4.0200 -50.600  10.074  6.7600  4.0200 
  4865.500 -66.092  10.092  6.6530  4.0010 -50.693  10.092  6.6530  4.0010 
  4866.000 -66.274  10.020  6.5810  3.9650 -50.877  10.020  6.5810  3.9650 
  4866.500 -66.456  9.9480  6.5090  3.8930 -51.061  9.9480  6.5090  3.8930 
  4867.000 -66.458  9.9300  6.4370  3.8210 -51.065  9.9300  6.4370  3.8210 
  4867.500 -66.459  9.9110  6.3650  3.7130 -51.068  9.9110  6.3650  3.7130 
  4868.000 -66.281  9.8570  6.3280  3.6770 -50.892  9.8570  6.3280  3.6770 
  4868.500 -65.923  9.8030  6.2740  3.6050 -50.535  9.8030  6.2740  3.6050 
  4869.000 -65.564  9.7670  6.2200  3.5690 -50.178  9.7670  6.2200  3.5690 
  4869.500 -65.206  9.7310  6.1660  3.6760 -49.822  9.7310  6.1660  3.6760 
  4870.000 -64.847  9.6950  6.1120  3.8550 -49.465  9.6950  6.1120  3.8550 
  4870.500 -63.768  9.4790  6.0400  4.0690 -48.388  9.4790  6.0400  4.0690 
  4871.000 -61.607  9.2640  6.0400  4.1410 -46.229  9.2640  6.0400  4.1410 
  4871.500 -59.447  9.1200  6.0390  4.1050 -44.070  9.1200  6.0390  4.1050 
  4872.000 -56.566  8.6540  6.0570  4.1040 -41.191  8.6540  6.0570  4.1040 
  4872.500 -53.505  8.4750  6.0740  4.1040 -38.132  8.4750  6.0740  4.1040 
  4873.000 -51.525  8.2950  6.2530  4.2470 -36.154  8.2950  6.2530  4.2470 
  4873.500 -49.004  8.1160  6.3600  4.4610 -33.635  8.1160  6.3600  4.4610 
  4874.000 -47.925  7.7210  6.5390  5.0340 -32.557  7.7210  6.5390  5.0340 
  4874.500 -45.764  7.4700  6.7540  5.3200 -30.398  7.4700  6.7540  5.3200 
  4875.000 -43.784  7.0400  7.1830  5.5350 -28.420  7.0400  7.1830  5.5350 
  4875.500 -41.624  6.4300  7.6490  5.4270 -26.262  6.4300  7.6490  5.4270 
  4876.000 -38.202  5.7140  7.9710  5.2840 -22.842  5.7140  7.9710  5.2840 
  4876.500 -34.600  4.9610  7.8270  4.6740 -19.242  4.9610  7.8270  4.6740 
  4877.000 -31.899  4.3870  7.2180  3.8860 -16.542  4.3870  7.2180  3.8860 
  4877.500 -30.460  3.3480  5.9630  3.3480 -15.105  3.3480  5.9630  3.3480 
  4878.000 -28.299  3.2760  4.7090  2.6670 -12.946  3.2760  4.7090  2.6670 
  4878.500 -28.661  3.2040  3.6700  2.1290 -13.310  3.2040  3.6700  2.1290 
  4879.000 -29.204  3.2390  3.0240  1.6270 -13.855  3.2390  3.0240  1.6270 
  4879.500 -29.386  3.2750  2.8090  1.5910 -14.039  3.2750  2.8090  1.5910 
  4880.000 -30.288  3.3100  2.7730  1.7700 -14.942  3.3100  2.7730  1.7700 
  4880.500 -31.371  3.4350  3.2020  1.9490 -16.027  3.4350  3.2020  1.9490 
  4881.000 -31.914  3.5600  3.6680  2.1630 -16.572  3.5600  3.6680  2.1630 
  4881.500 -34.438  3.6670  3.7750  2.4140 -19.098  3.6670  3.7750  2.4140 
  4882.000 -35.701  3.6850  3.9540  2.4850 -20.363  3.6850  3.9540  2.4850 
  4882.500 -34.442  3.7030  4.0610  2.4130 -19.106  3.7030  4.0610  2.4130 
  4883.000 -31.921  3.6840  4.0600  2.3410 -16.586  3.6840  4.0600  2.3410 
  4883.500 -30.481  3.6660  3.9880  2.1260 -15.148  3.6660  3.9880  2.1260 
  4884.000 -31.024  3.5940  3.8810  1.8740 -15.693  3.5940  3.8810  1.8740 
  4884.500 -31.386  3.6300  3.7730  1.7490 -16.057  3.6300  3.7730  1.7490 
  4885.000 -32.288  3.7010  3.8080  1.6230 -16.961  3.7010  3.8080  1.6230 
  4885.500 -33.191  3.8800  3.9690  1.6580 -17.866  3.8800  3.9690  1.6580 
  4886.000 -36.256  3.9510  4.1300  1.8730 -20.932  3.9510  4.1300  1.8730 
  4886.500 -37.159  4.2730  4.6670  2.2670 -21.837  4.2730  4.6670  2.2670 
  4887.000 -39.142  4.3080  5.0970  2.9110 -23.822  4.3080  5.0970  2.9110 
  4887.500 -40.586  4.2360  5.3110  3.1970 -25.268  4.2360  5.3110  3.1970 
  4888.000 -40.227  4.1290  5.2390  3.4840 -24.911  4.1290  5.2390  3.4840 
  4888.500 -37.166  4.0210  5.1670  3.5550 -21.852  4.0210  5.1670  3.5550 
  4889.000 -34.645  3.6980  4.6290  3.4470 -19.332  3.6980  4.6290  3.4470 
  4889.500 -31.584  3.5180  4.0200  3.3390 -16.273  3.5180  4.0200  3.3390 
  4890.000 -29.964  3.4110  3.6970  2.7300 -14.655  3.4110  3.6970  2.7300 
  4890.500 -28.344  3.2670  3.1590  2.7300 -13.037  3.2670  3.1590  2.7300 
  4891.000 -28.616  3.0870  2.9080  2.7650 -13.311  3.0870  2.9080  2.7650 
  4891.500 -28.888  3.0150  2.9080  2.8720 -13.585  3.0150  2.9080  2.8720 
  4892.000 -28.890  2.9260  2.9080  2.8720 -13.588  2.9260  2.9080  2.8720 
  4892.500 -29.252  2.8360  2.9790  2.9430 -13.952  2.8360  2.9790  2.9430 
  4893.000 -29.434  2.7640  3.0140  2.9790 -14.136  2.7640  3.0140  2.9790 
  4893.500 -29.706  2.7630  3.0500  2.9420 -14.410  2.7630  3.0500  2.9420 
  4894.000 -29.979  2.7630  3.0850  2.9420 -14.685  2.7630  3.0850  2.9420 
  4894.500 -30.161  2.7630  3.0850  2.9420 -14.869  2.7630  3.0850  2.9420 
  4895.000 -30.343  2.7620  3.0490  2.9770 -15.052  2.7620  3.0490  2.9770 
  4895.500 -30.434  2.7620  3.0130  3.0480 -15.145  2.7620  3.0130  3.0480 
  4896.000 -30.526  2.7970  3.0120  3.1020 -15.239  2.7970  3.0120  3.1020 
  4896.500 -30.708  2.8330  3.0120  3.1550 -15.423  2.8330  3.0120  3.1550 
  4897.000 -30.710  2.8680  3.0120  3.0470 -15.427  2.8680  3.0120  3.0470 
  4897.500 -30.802  2.9220  3.0110  2.9040 -15.521  2.9220  3.0110  2.9040 
  4898.000 -30.894  2.9750  3.0820  2.7240 -15.614  2.9750  3.0820  2.7240 
  4898.500 -31.076  3.0820  3.1180  2.5450 -15.798  3.0820  3.1180  2.5450 
  4899.000 -31.258  3.1360  3.1530  2.4370 -15.982  3.1360  3.1530  2.4370 
  4899.500 -31.440  3.1890  3.1890  2.4010 -16.166  3.1890  3.1890  2.4010 
  4900.000 -31.621  3.2960  3.1890  2.3650 -16.349  3.2960  3.1890  2.3650 
  4900.500 -31.802  3.4040  3.1710  2.4360 -16.532  3.4040  3.1710  2.4360 
  4901.000 -32.253  3.5290  3.1530  2.5430 -16.984  3.5290  3.1530  2.5430 
  4901.500 -32.704  3.6550  3.1530  2.7580 -17.437  3.6550  3.1530  2.7580 
  4902.000 -34.687  3.8700  3.1530  2.8470 -19.422  3.8700  3.1530  2.8470 
  4902.500 -37.930  4.0130  3.1710  2.9370 -22.667  4.0130  3.1710  2.9370 
  4903.000 -39.012  4.1560  3.1890  3.0440 -23.751  4.1560  3.1890  3.0440 
  4903.500 -40.454  4.3000  3.2430  3.1520 -25.195  4.3000  3.2430  3.1520 
  4904.000 -42.076  4.7660  3.2970  3.2230 -26.818  4.7660  3.2970  3.2230 
  4904.500 -43.698  5.0880  3.4040  3.2590 -28.442  5.0880  3.4040  3.2590 
  4905.000 -46.221  5.3930  3.5120  3.2940 -30.967  5.3930  3.5120  3.2940 
  4905.500 -48.384  5.6970  3.6190  3.4730 -33.132  5.6970  3.6190  3.4730 
  4906.000 -51.087  6.3780  3.7630  3.6880 -35.837  6.3780  3.7630  3.6880 
  4906.500 -53.429  6.6290  3.9420  4.0820 -38.180  6.6290  3.9420  4.0820 
  4907.000 -56.133  7.0230  4.3720  4.2970 -40.886  7.0230  4.3720  4.2970 
  4907.500 -57.575  7.4530  4.7660  4.4040 -42.330  7.4530  4.7660  4.4040 
  4908.000 -59.377  7.4710  4.9450  4.4750 -44.134  7.4710  4.9450  4.4750 
  4908.500 -60.638  7.4890  4.9460  4.5110 -45.397  7.4890  4.9460  4.5110 
  4909.000 -61.720  7.4530  4.9460  4.3680 -46.481  7.4530  4.9460  4.3680 
  4909.500 -61.991  7.4000  4.8380  4.2240 -46.753  7.4000  4.8380  4.2240 
  4910.000 -62.261  7.3460  4.7670  4.1880 -47.025  7.3460  4.7670  4.1880 
  4910.500 -62.442  7.3100  4.6950  4.0800 -47.208  7.3100  4.6950  4.0800 
  4911.000 -62.623  7.3100  4.4800  4.0440 -47.391  7.3100  4.4800  4.0440 
  4911.500 -62.803  7.3460  4.4450  4.0080 -47.573  7.3460  4.4450  4.0080 
  4912.000 -62.984  7.3820  4.4090  3.9720 -47.756  7.3820  4.4090  3.9720 
  4912.500 -63.345  7.5970  4.3730  3.9010 -48.118  7.5970  4.3730  3.9010 
  4913.000 -63.345  7.7410  4.3370  3.8290 -48.120  7.7410  4.3370  3.8290 
  4913.500 -63.346  7.8480  4.3730  3.7750 -48.123  7.8480  4.3730  3.7750 
  4914.000 -63.346  7.8130  4.4090  3.7210 -48.125  7.8130  4.4090  3.7210 
  4914.500 -63.166  7.7770  4.4450  3.6490 -47.947  7.7770  4.4450  3.6490 
  4915.000 -62.987  7.7410  4.5530  3.5770 -47.770  7.7410  4.5530  3.5770 
  4915.500 -62.627  7.7410  4.6600  3.5410 -47.411  7.7410  4.6600  3.5410 
  4916.000 -62.267  7.8850  4.7320  3.5050 -47.053  7.8850  4.7320  3.5050 
  4916.500 -60.466  7.9560  4.7680  3.3980 -45.254  7.9560  4.7680  3.3980 
  4917.000 -57.943  8.0280  4.8040  3.3260 -42.733  8.0280  4.8040  3.3260 
  4917.500 -55.962  7.9920  4.8750  3.5050 -40.754  7.9920  4.8750  3.5050 
