~Version Information
VERS.                     2.0: CWLS log ASCII Standard Version 2.00
WRAP.                      NO: One line per depth step
~Well Information Block
#MNEM.UNIT                               Data Type  Information
#---------                               ---------  -----------
STRT.FT                                   360.0000:
STOP.FT                                  7900.0000:
STEP.FT                                     0.5000:
NULL.                 -999.25                     :
COMP.                                             :COMPANY            
WELL.     LLU 38-21                               :WELL               
FLD .                                             :FIELD              
CTRY.                                             :COUNTRY            
STAT.                                             :STATE              
LOC .                                             :LOCATION           
UWI .                                             :UNIQUE WELL ID     
SRVC.                                             :Service company    
DATE.                                             :LOG DATE           
~Curve Information
#MNEM.UNIT           API CODE  Curve Description
#---------           --------  -----------------
DEPT.FT                      :   1 DEPTH
SP  .MV                      :   2
AM16.OHMM                    :   3
AO10.OHMM                    :   4
AO19.OHMM                    :   5
SBL .MV                      :   6
RS  .OHMM                    :   7
RM  .OHMM                    :   8
RD  .OHMM                    :   9
~A
# ...
  5819.000 -34.899  2.9350  3.0070  2.0810 -22.991  2.9350  3.0070  2.0810 
  5819.500 -32.197  2.9170  2.8990  2.0090 -20.291  2.9170  2.8990  2.0090 
  5820.000 -28.955  2.8990  2.7550  1.9010 -17.051  2.8990  2.7550  1.9010 
  5820.500 -28.595  3.0780  2.6110  1.7580 -16.693  3.0780  2.6110  1.7580 
  5821.000 -28.236  3.2030  2.5040  1.6860 -16.336  3.2030  2.5040  1.6860 
  5821.500 -29.859  3.3290  2.4680  1.6860 -17.961  3.3290  2.4680  1.6860 
  5822.000 -32.202  3.4900  2.6830  1.7940 -20.305  3.4900  2.6830  1.7940 
  5822.500 -34.005  3.6510  2.8980  2.1520 -22.110  3.6510  2.8980  2.1520 
  5823.000 -35.717  3.8300  3.0770  2.4040 -23.824  3.8300  3.0770  2.4040 
  5823.500 -37.429  4.0100  3.1130  2.6550 -25.538  4.0100  3.1130  2.6550 
  5824.000 -38.692  4.2600  3.0770  2.7620 -26.803  4.2600  3.0770  2.7620 
  5824.500 -38.693  4.4040  3.0050  2.7260 -26.806  4.4040  3.0050  2.7260 
  5825.000 -39.234  4.5830  2.8250  2.6190 -27.348  4.5830  2.8250  2.6190 
  5825.500 -41.578  4.6540  2.7170  2.4390 -29.694  4.6540  2.7170  2.4390 
  5826.000 -44.461  4.7260  2.7350  2.2600 -32.579  4.7260  2.7350  2.2600 
  5826.500 -51.309  4.9770  2.7530  2.1880 -39.429  4.9770  2.7530  2.1880 
  5827.000 -55.274  5.1560  2.8600  2.2240 -43.396  5.1560  2.8600  2.2240 
  5827.500 -58.518  5.5870  2.8780  2.2600 -46.642  5.5870  2.8780  2.2600 
  5828.000 -59.600  5.8020  2.8960  2.2780 -47.725  5.8020  2.8960  2.2780 
  5828.500 -60.682  5.8010  2.8600  2.2960 -48.809  5.8010  2.8600  2.2960 
  5829.000 -62.124  5.8010  2.8240  2.3320 -50.253  5.8010  2.8240  2.3320 
  5829.500 -62.125  5.7290  2.7520  2.3680 -50.256  5.7290  2.7520  2.3680 
  5830.000 -62.126  5.6570  2.6440  2.3320 -50.259  5.6570  2.6440  2.3320 
  5830.500 -60.145  5.5140  2.5900  2.2600 -48.280  5.5140  2.5900  2.2600 
  5831.000 -58.524  5.3880  2.5360  2.2240 -46.660  5.3880  2.5360  2.2240 
  5831.500 -57.714  5.2620  2.4640  2.1880 -45.852  5.2620  2.4640  2.1880 
  5832.000 -56.904  5.1780  2.4640  2.1520 -45.044  5.1780  2.4640  2.1520 
  5832.500 -54.383  5.0940  2.5000  2.1170 -42.525  5.0940  2.5000  2.1170 
  5833.000 -52.942  5.0110  2.6070  2.0450 -41.086  5.0110  2.6070  2.0450 
  5833.500 -51.862  4.9030  2.6430  2.0450 -40.008  4.9030  2.6430  2.0450 
  5834.000 -51.503  4.7950  2.7500  2.0450 -39.650  4.7950  2.7500  2.0450 
  5834.500 -50.963  4.6510  2.8580  2.0450 -39.112  4.6510  2.8580  2.0450 
  5835.000 -50.423  4.5790  2.9290  2.0450 -38.574  4.5790  2.9290  2.0450 
  5835.500 -48.803  4.5070  2.9650  2.0630 -36.956  4.5070  2.9650  2.0630 
  5836.000 -47.903  4.4350  2.9650  2.0810 -36.058  4.4350  2.9650  2.0810 
  5836.500 -46.282  4.2920  2.9640  2.0810 -34.439  4.2920  2.9640  2.0810 
  5837.000 -45.202  4.2200  2.9460  2.0810 -33.360  4.2200  2.9460  2.0810 
  5837.500 -41.599  4.1480  2.9280  2.0810 -29.759  4.1480  2.9280  2.0810 
  5838.000 -40.159  3.9150  2.9280  2.0630 -28.321  3.9150  2.9280  2.0630 
  5838.500 -37.817  3.6810  2.8920  2.0450 -25.981  3.6810  2.8920  2.0450 
  5839.000 -35.656  3.4660  2.8560  2.0090 -23.822  3.4660  2.8560  2.0090 
  5839.500 -32.594  3.2500  2.7840  1.9730 -20.762  3.2500  2.7840  1.9730 
  5840.000 -31.153  3.2680  2.7480  1.9370 -19.322  3.2680  2.7480  1.9370 
  5840.500 -30.614  3.2860  2.6400  1.9010 -18.785  3.2860  2.6400  1.9010 
  5841.000 -30.975  3.5370  2.6040  1.7940 -19.148  3.5370  2.6040  1.7940 
  5841.500 -31.336  3.6440  2.6400  1.7940 -19.511  3.6440  2.6400  1.7940 
  5842.000 -35.481  3.7520  2.7110  1.8650 -23.658  3.7520  2.7110  1.8650 
  5842.500 -38.365  4.1820  2.8910  2.0090 -26.543  4.1820  2.8910  2.0090 
  5843.000 -42.150  4.4330  2.9260  2.1170 -30.330  4.4330  2.9260  2.1170 
  5843.500 -43.502  4.5760  3.0340  2.2240 -31.684  4.5760  3.0340  2.2240 
  5844.000 -44.854  4.6840  3.0510  2.3140 -33.038  4.6840  3.0510  2.3140 
  5844.500 -46.657  4.7190  3.0690  2.4040 -34.843  4.7190  3.0690  2.4040 
  5845.000 -46.658  4.7010  3.1050  2.4040 -34.846  4.7010  3.1050  2.4040 
  5845.500 -45.938  4.6830  3.0330  2.3320 -34.127  4.6830  3.0330  2.3320 
  5846.000 -41.254  4.5750  2.9610  2.2960 -29.445  4.5750  2.9610  2.2960 
  5846.500 -39.273  4.2880  2.8890  2.2420 -27.466  4.2880  2.8890  2.2420 
  5847.000 -37.832  4.1450  2.8890  2.1880 -26.027  4.1450  2.8890  2.1880 
  5847.500 -35.851  4.0370  2.8530  2.1170 -24.048  4.0370  2.8530  2.1170 
  5848.000 -34.591  3.9110  2.7810  2.0810 -22.790  3.9110  2.7810  2.0810 
  5848.500 -34.772  3.7850  2.7810  2.0450 -22.972  3.7850  2.7810  2.0450 
  5849.000 -35.043  3.6950  2.7810  2.1520 -23.245  3.6950  2.7810  2.1520 
  5849.500 -35.314  3.6060  2.7800  2.2960 -23.518  3.6060  2.7800  2.2960 
  5850.000 -34.955  3.4620  2.8160  2.3500 -23.161  3.4620  2.8160  2.3500 
  5850.500 -34.595  3.2820  2.8880  2.4040 -22.803  3.2820  2.8880  2.4040 
  5851.000 -32.074  3.1030  2.8700  2.3860 -20.284  3.1030  2.8700  2.3860 
  5851.500 -30.273  2.8870  2.8510  2.3680 -18.484  2.8870  2.8510  2.3680 
  5852.000 -29.733  2.7790  2.7440  2.2240 -17.946  2.7790  2.7440  2.2240 
  5852.500 -27.932  2.7080  2.7430  2.1520 -16.147  2.7080  2.7430  2.1520 
  5853.000 -26.312  2.6540  2.7250  2.1170 -14.529  2.6540  2.7250  2.1170 
  5853.500 -25.772  2.6000  2.7070  2.0810 -13.991  2.6000  2.7070  2.0810 
  5854.000 -25.503  2.5640  2.6710  2.0810 -13.724  2.5640  2.6710  2.0810 
  5854.500 -25.233  2.5280  2.7070  2.0810 -13.455  2.5280  2.7070  2.0810 
  5855.000 -24.964  2.4200  2.7610  2.1170 -13.188  2.4200  2.7610  2.1170 
  5855.500 -24.694  2.3840  2.8140  2.1520 -12.920  2.3840  2.8140  2.1520 
  5856.000 -24.785  2.3120  2.8860  2.2060 -13.013  2.3120  2.8860  2.2060 
  5856.500 -24.877  2.2580  2.9570  2.2600 -13.107  2.2580  2.9570  2.2600 
  5857.000 -24.967  2.2040  2.9030  2.2600 -13.199  2.2040  2.9030  2.2600 
  5857.500 -25.058  2.1320  2.8490  2.2600 -13.291  2.1320  2.8490  2.2600 
  5858.000 -25.059  2.0780  2.8310  2.2600 -13.294  2.0780  2.8310  2.2600 
  5858.500 -25.150  2.0240  2.8130  2.2600 -13.387  2.0240  2.8130  2.2600 
  5859.000 -25.241  1.9520  2.7410  2.2600 -13.480  1.9520  2.7410  2.2600 
  5859.500 -25.423  2.0410  2.7410  2.2600 -13.664  2.0410  2.7410  2.2600 
  5860.000 -25.604  2.1310  2.6690  2.2600 -13.847  2.1310  2.6690  2.2600 
  5860.500 -25.785  2.1850  2.5970  2.2060 -14.029  2.1850  2.5970  2.2060 
  5861.000 -25.966  2.2380  2.5250  2.1520 -14.212  2.2380  2.5250  2.1520 
  5861.500 -26.057  2.4530  2.4530  2.0450 -14.305  2.4530  2.4530  2.0450 
  5862.000 -26.147  2.4710  2.3100  1.9010 -14.397  2.4710  2.3100  1.9010 
  5862.500 -26.419  2.4890  2.2380  1.7940 -14.671  2.4890  2.2380  1.7940 
  5863.000 -26.690  2.5250  2.2020  1.6860 -14.944  2.5250  2.2020  1.6860 
  5863.500 -27.051  2.5600  2.1660  1.6500 -15.306  2.5600  2.1660  1.6500 
  5864.000 -27.232  2.5960  2.1120  1.6140 -15.489  2.5960  2.1120  1.6140 
  5864.500 -27.594  2.6320  2.0580  1.6140 -15.853  2.6320  2.0580  1.6140 
  5865.000 -27.955  2.7030  1.9500  1.6140 -16.216  2.7030  1.9500  1.6140 
  5865.500 -28.316  2.8460  1.9500  1.6140 -16.579  2.8460  1.9500  1.6140 
  5866.000 -29.398  2.9180  1.9490  1.6140 -17.663  2.9180  1.9490  1.6140 
  5866.500 -29.940  2.9900  1.9490  1.5960 -18.206  2.9900  1.9490  1.5960 
  5867.000 -31.022  3.2410  1.9490  1.5780 -19.290  3.2410  1.9490  1.5780 
  5867.500 -32.554  3.4910  1.9490  1.6140 -20.824  3.4910  1.9490  1.6140 
  5868.000 -34.086  3.8140  1.9850  1.6860 -22.358  3.8140  1.9850  1.6860 
  5868.500 -38.412  4.0650  2.0200  1.7220 -26.686  4.0650  2.0200  1.7220 
  5869.000 -43.818  4.2440  2.2350  1.8300 -32.094  4.2440  2.2350  1.8300 
  5869.500 -46.882  4.6030  2.5220  1.9370 -35.159  4.6030  2.5220  1.9370 
  5870.000 -53.730  4.6390  2.6480  1.9730 -42.009  4.6390  2.6480  1.9730 
  5870.500 -54.091  4.6740  2.7730  2.0090 -42.372  4.6740  2.7730  2.0090 
  5871.000 -53.912  4.7460  2.8090  2.0090 -42.195  4.7460  2.8090  2.0090 
  5871.500 -52.291  4.7460  2.8440  2.0090 -40.576  4.7460  2.8440  2.0090 
