~Version Information
VERS.                     2.0: CWLS log ASCII Standard Version 2.00
WRAP.                      NO: One line per depth step
~Well Information Block
#MNEM.UNIT                               Data Type  Information
#---------                               ---------  -----------
STRT.FT                                   360.0000:
STOP.FT                                  7900.0000:
STEP.FT                                     0.5000:
NULL.                 -999.25                     :
COMP.                                             :COMPANY            
WELL.     LLU 38-21                               :WELL               
FLD .                                             :FIELD              
CTRY.                                             :COUNTRY            
STAT.                                             :STATE              
LOC .                                             :LOCATION           
UWI .                                             :UNIQUE WELL ID     
SRVC.                                             :Service company    
DATE.                                             :LOG DATE           
~Curve Information
#MNEM.UNIT           API CODE  Curve Description
#---------           --------  -----------------
DEPT.FT                      :   1 DEPTH
SP  .MV                      :   2
AM16.OHMM                    :   3
AO10.OHMM                    :   4
AO19.OHMM                    :   5
SBL .MV                      :   6
RS  .OHMM                    :   7
RM  .OHMM                    :   8
RD  .OHMM                    :   9
~A
# ...
  7833.000 -61.012  7.6570  4.2450  4.0650 -57.012  7.6570  4.2450  4.0650 
  7833.500 -64.078  8.4120  4.3890  4.2450 -60.078  8.4120  4.3890  4.2450 
  7834.000 -66.061  9.5980  4.5330  4.4250 -62.061  9.5980  4.5330  4.4250 
  7834.500 -68.585  12.221  4.8570  4.6420 -64.585  12.221  4.8570  4.6420 
  7835.000 -71.110  13.371  5.0370  4.7860 -67.110  13.371  5.0370  4.7860 
  7835.500 -72.190  14.162  5.2890  5.0740 -68.190  14.162  5.2890  5.0740 
  7836.000 -73.271  15.097  5.4700  5.2900 -69.271  15.097  5.4700  5.2900 
  7836.500 -76.878  18.834  5.6500  5.4700 -72.878  18.834  5.6500  5.4700 
  7837.000 -79.402  19.193  5.9020  5.6510 -75.402  19.193  5.9020  5.6510 
  7837.500 -81.205  19.445  6.1540  5.8310 -77.205  19.445  6.1540  5.8310 
  7838.000 -84.271  19.733  6.2270  5.9630 -80.271  19.733  6.2270  5.9630 
  7838.500 -85.712  20.559  6.3530  6.0950 -81.712  20.559  6.3530  6.0950 
  7839.000 -86.341  21.384  6.4790  6.2280 -82.341  21.384  6.4790  6.2280 
  7839.500 -86.971  22.209  6.6590  6.3720 -82.971  22.209  6.6590  6.3720 
  7840.000 -87.870  23.034  6.8400  6.4090 -83.870  23.034  6.8400  6.4090 
  7840.500 -88.319  23.859  7.0560  6.4450 -84.319  23.859  7.0560  6.4450 
  7841.000 -88.767  23.326  7.1460  6.4820 -84.767  23.326  7.1460  6.4820 
  7841.500 -89.216  22.794  7.2370  6.5540 -85.216  22.794  7.2370  6.5540 
  7842.000 -89.665  22.442  7.3450  6.5910 -85.665  22.442  7.3450  6.5910 
  7842.500 -89.661  22.089  7.4530  6.6270 -85.661  22.089  7.4530  6.6270 
  7843.000 -88.756  21.377  7.8130  6.6640 -84.756  21.377  7.8130  6.6640 
  7843.500 -88.031  21.027  8.1730  6.7360 -84.031  21.027  8.1730  6.7360 
  7844.000 -86.765  20.677  8.4610  6.7550 -82.765  20.677  8.4610  6.7550 
  7844.500 -86.492  20.327  8.7490  6.7740 -82.492  20.327  8.7490  6.7740 
  7845.000 -86.219  19.977  9.1450  6.8100 -82.219  19.977  9.1450  6.8100 
  7845.500 -85.674  19.626  9.3970  6.5950 -81.674  19.626  9.3970  6.5950 
  7846.000 -85.491  19.276  9.6490  6.4880 -81.491  19.276  9.6490  6.4880 
  7846.500 -85.308  18.235  9.7930  6.2370 -81.308  18.235  9.7930  6.2370 
  7847.000 -85.035  17.589  9.9380  6.0760 -81.035  17.589  9.9380  6.0760 
  7847.500 -84.761  17.051  10.226  5.9150 -80.761  17.051  10.226  5.9150 
  7848.000 -84.217  16.585  10.298  5.6460 -80.217  16.585  10.298  5.6460 
  7848.500 -83.673  16.083  10.371  5.3780 -79.673  16.083  10.371  5.3780 
  7849.000 -82.586  13.856  10.389  5.1270 -78.586  13.856  10.389  5.1270 
  7849.500 -80.959  12.959  10.408  4.9660 -76.959  12.959  10.408  4.9660 
  7850.000 -80.415  12.061  10.193  4.8050 -76.415  12.061  10.193  4.8050 
  7850.500 -77.524  10.840  9.8700  4.5900 -73.524  10.840  9.8700  4.5900 
  7851.000 -76.438  10.661  9.2600  4.5190 -72.438  10.661  9.2600  4.5190 
  7851.500 -72.645  10.482  9.0450  4.3400 -68.645  10.482  9.0450  4.3400 
  7852.000 -72.281  9.0100  8.7950  4.1970 -68.281  9.0100  8.7950  4.1970 
  7852.500 -72.279  8.5800  8.5440  4.0530 -68.279  8.5800  8.5440  4.0530 
  7853.000 -72.637  7.9700  8.1130  3.8740 -68.637  7.9700  8.1130  3.8740 
  7853.500 -72.815  7.7190  7.6830  3.8030 -68.815  7.7190  7.6830  3.8030 
  7854.000 -73.083  7.3600  7.3960  3.6960 -69.083  7.3600  7.3960  3.6960 
  7854.500 -73.351  7.1090  7.1810  3.6970 -69.351  7.1090  7.1810  3.6970 
  7855.000 -73.078  6.7870  6.9660  3.7330 -69.078  6.7870  6.9660  3.7330 
  7855.500 -72.804  6.5000  6.4640  3.7700 -68.804  6.5000  6.4640  3.7700 
  7856.000 -70.816  6.0340  6.3210  3.8180 -66.816  6.0340  6.3210  3.8180 
  7856.500 -68.647  5.5310  6.1960  3.8670 -64.647  5.5310  6.1960  3.8670 
  7857.000 -67.020  5.0650  6.0710  3.9150 -63.020  5.0650  6.0710  3.9150 
  7857.500 -64.490  4.8500  5.8920  3.9880 -60.490  4.8500  5.8920  3.9880 
  7858.000 -60.877  4.7070  5.7130  4.0960 -56.877  4.7070  5.7130  4.0960 
  7858.500 -46.434  4.5280  5.5160  4.1690 -42.434  4.5280  5.5160  4.1690 
  7859.000 -46.611  4.3850  5.3190  4.2050 -42.611  4.3850  5.3190  4.2050 
  7859.500 -47.331  4.3500  5.2120  4.2420 -43.331  4.3500  5.2120  4.2420 
  7860.000 -47.869  4.3500  5.1410  4.3500 -43.869  4.3500  5.1410  4.3500 
  7860.500 -48.499  4.4590  5.0690  4.4590 -44.499  4.4590  5.0690  4.4590 
  7861.000 -49.129  4.7110  5.0340  4.5670 -45.129  4.7110  5.0340  4.5670 
  7861.500 -46.417  5.0710  4.9990  4.6750 -42.417  5.0710  4.9990  4.6750 
  7862.000 -39.555  5.6100  4.9280  4.7840 -35.555  5.6100  4.9280  4.7840 
  7862.500 -37.567  5.7540  4.9640  4.9280 -33.567  5.7540  4.9640  4.9280 
  7863.000 -38.106  5.9350  5.3600  5.0720 -34.106  5.9350  5.3600  5.0720 
  7863.500 -39.006  5.8990  6.2230  5.4680 -35.006  5.8990  6.2230  5.4680 
  7864.000 -39.725  5.7200  6.2590  6.6540 -35.725  5.7200  6.2590  6.6540 
  7864.500 -40.805  4.9670  6.1520  6.7270 -36.805  4.9670  6.1520  6.7270 
  7865.000 -44.955  4.6800  5.9010  6.7280 -40.955  4.6800  5.9010  6.7280 
  7865.500 -48.021  4.0700  5.5070  6.4770 -44.021  4.0700  5.5070  6.4770 
  7866.000 -50.906  3.6750  4.9330  6.1360 -46.906  3.6750  4.9330  6.1360 
  7866.500 -50.001  3.5320  3.9990  5.7950 -46.001  3.5320  3.9990  5.7950 
  7867.000 -47.110  3.4250  3.4970  4.8980 -43.110  3.4250  3.4970  4.8980 
  7867.500 -39.706  3.3540  3.1380  4.6290 -35.706  3.3540  3.1380  4.6290 
  7868.000 -40.606  3.2470  2.8520  4.3600 -36.606  3.2470  2.8520  4.3600 
  7868.500 -43.311  3.1760  2.7980  4.2350 -39.311  3.1760  2.7980  4.2350 
  7869.000 -44.392  3.1400  2.7450  4.1100 -40.392  3.1400  2.7450  4.1100 
  7869.500 -46.194  3.1410  2.7100  4.0390 -42.194  3.1410  2.7100  4.0390 
  7870.000 -38.429  3.1770  2.6740  4.0400 -34.429  3.1770  2.6740  4.0400 
  7870.500 -32.831  3.2500  2.7110  4.0400 -28.831  3.2500  2.7110  4.0400 
  7871.000 -30.662  3.2860  2.7480  4.0410 -26.662  3.2860  2.7480  4.0410 
  7871.500 -27.771  3.1790  2.7840  4.1490 -23.771  3.1790  2.7840  4.1490 
  7872.000 -25.602  3.1440  2.7850  4.2220 -21.602  3.1440  2.7850  4.2220 
  7872.500 -23.795  3.0730  2.9290  4.2940 -19.795  3.0730  2.9290  4.2940 
  7873.000 -23.341  3.1090  3.0730  4.3670 -19.341  3.1090  3.0730  4.3670 
  7873.500 -22.887  3.1460  3.2540  4.4390 -18.887  3.1460  3.2540  4.4390 
  7874.000 -22.704  3.1820  3.4700  4.5120 -18.704  3.1820  3.4700  4.5120 
  7874.500 -23.062  3.1830  3.5060  4.4940 -19.062  3.1830  3.5060  4.4940 
  7875.000 -23.781  3.1480  3.5430  4.4770 -19.781  3.1480  3.5430  4.4770 
  7875.500 -23.508  3.1480  3.5800  4.3700 -19.508  3.1480  3.5800  4.3700 
  7876.000 -23.235  3.1490  3.6160  4.3340 -19.235  3.1490  3.6160  4.3340 
  7876.500 -22.690  3.1860  3.6520  4.3350 -18.690  3.1860  3.6520  4.3350 
  7877.000 -22.507  3.2220  3.6890  4.4080 -18.507  3.2220  3.6890  4.4080 
  7877.500 -22.685  3.2950  3.7980  4.4800 -18.685  3.2950  3.7980  4.4800 
  7878.000 -22.863  3.2950  3.9420  4.6420 -18.863  3.2950  3.9420  4.6420 
  7878.500 -23.762  3.3680  4.0140  4.8040 -19.762  3.3680  4.0140  4.8040 
  7879.000 -24.301  3.3680  4.1950  4.9850 -20.301  3.3680  4.1950  4.9850 
  7879.500 -25.742  3.3690  4.3390  5.1650 -21.742  3.3690  4.3390  5.1650 
  7880.000 -24.837  3.3700  4.3400  5.2190 -20.837  3.3700  4.3400  5.2190 
  7880.500 -24.112  3.5500  4.3040  5.2740 -20.112  3.5500  4.3040  5.2740 
  7881.000 -23.027  3.5860  4.2690  4.9870 -19.027  3.5860  4.2690  4.9870 
  7881.500 -22.482  3.5510  3.8030  4.3770 -18.482  3.5510  3.8030  4.3770 
  7882.000 -22.209  3.4800  2.9770  3.8390 -18.209  3.4800  2.9770  3.8390 
  7882.500 -21.936  3.4090  2.7980  3.3730 -17.936  3.4090  2.7980  3.3730 
  7883.000 -21.391  3.4090  2.5470  3.2300 -17.391  3.4090  2.5470  3.2300 
  7883.500 -21.750  3.5180  2.5480  3.0870 -17.750  3.5180  2.5480  3.0870 
  7884.000 -22.108  3.5900  2.5480  3.0690 -18.108  3.5900  2.5480  3.0690 
  7884.500 -22.376  3.5910  2.6570  3.0520 -18.376  3.5910  2.6570  3.0520 
  7885.000 -22.644  3.4840  2.8730  3.2320 -18.644  3.4840  2.8730  3.2320 
  7885.500 -22.732  3.2690  3.1970  3.6280 -18.732  3.2690  3.1970  3.6280 
