~Version Information
VERS.                     2.0: CWLS log ASCII Standard Version 2.00
WRAP.                      NO: One line per depth step
~Well Information Block
#MNEM.UNIT                               Data Type  Information
#---------                               ---------  -----------
STRT.FT                                   360.0000:
STOP.FT                                  7900.0000:
STEP.FT                                     0.5000:
NULL.                 -999.25                     :
COMP.                                             :COMPANY            
WELL.     LLU 38-21                               :WELL               
FLD .                                             :FIELD              
CTRY.                                             :COUNTRY            
STAT.                                             :STATE              
LOC .                                             :LOCATION           
UWI .                                             :UNIQUE WELL ID     
SRVC.                                             :Service company    
DATE.                                             :LOG DATE           
~Curve Information
#MNEM.UNIT           API CODE  Curve Description
#---------           --------  -----------------
DEPT.FT                      :   1 DEPTH
SP  .MV                      :   2
AM16.OHMM                    :   3
AO10.OHMM                    :   4
AO19.OHMM                    :   5
SBL .MV                      :   6
RS  .OHMM                    :   7
RM  .OHMM                    :   8
RD  .OHMM                    :   9
~A
# ...
  6826.000 -24.549  1.7060  1.7050  1.2930 -13.244  1.7060  1.7050  1.2930 
  6826.500 -24.186  1.7060  1.7060  1.2750 -12.880  1.7060  1.7060  1.2750 
  6827.000 -23.463  1.6940  1.7060  1.2760 -12.156  1.6940  1.7060  1.2760 
  6827.500 -22.919  1.6830  1.7070  1.2760 -11.610  1.6830  1.7070  1.2760 
  6828.000 -22.556  1.6710  1.7070  1.2580 -11.246  1.6710  1.7070  1.2580 
  6828.500 -22.193  1.6710  1.7070  1.2410 -10.882  1.6710  1.7070  1.2410 
  6829.000 -22.192  1.6720  1.6900  1.2230 -10.879  1.6720  1.6900  1.2230 
  6829.500 -22.370  1.6720  1.6720  1.2050 -11.056  1.6720  1.6720  1.2050 
  6830.000 -22.459  1.6720  1.6720  1.1880 -11.144  1.6720  1.6720  1.1880 
  6830.500 -22.548  1.6730  1.6730  1.1700 -11.231  1.6730  1.6730  1.1700 
  6831.000 -22.727  1.6730  1.6730  1.1710 -11.409  1.6730  1.6730  1.1710 
  6831.500 -22.906  1.6740  1.6730  1.1530 -11.587  1.6740  1.6730  1.1530 
  6832.000 -23.264  1.6740  1.6740  1.1350 -11.943  1.6740  1.6740  1.1350 
  6832.500 -23.262  1.6740  1.6740  1.1360 -11.940  1.6740  1.6740  1.1360 
  6833.000 -23.080  1.6630  1.6750  1.1360 -11.757  1.6630  1.6750  1.1360 
  6833.500 -22.898  1.6510  1.6750  1.1190 -11.573  1.6510  1.6750  1.1190 
  6834.000 -23.076  1.6390  1.6750  1.1010 -11.750  1.6390  1.6750  1.1010 
  6834.500 -23.255  1.6400  1.6760  1.1020 -11.927  1.6400  1.6760  1.1020 
  6835.000 -23.253  1.6400  1.6760  1.1020 -11.924  1.6400  1.6760  1.1020 
  6835.500 -23.793  1.6400  1.6760  1.1020 -12.463  1.6400  1.6760  1.1020 
  6836.000 -23.972  1.6410  1.6770  1.1200 -12.640  1.6410  1.6770  1.1200 
  6836.500 -24.151  1.6410  1.6770  1.1390 -12.818  1.6410  1.6770  1.1390 
  6837.000 -24.330  1.6420  1.6780  1.1570 -12.996  1.6420  1.6780  1.1570 
  6837.500 -24.327  1.6420  1.6780  1.1750 -12.991  1.6420  1.6780  1.1750 
  6838.000 -24.145  1.6420  1.6600  1.1760 -12.808  1.6420  1.6600  1.1760 
  6838.500 -23.782  1.6430  1.6430  1.1760 -12.444  1.6430  1.6430  1.1760 
  6839.000 -23.600  1.6430  1.6430  1.2120 -12.260  1.6430  1.6430  1.2120 
  6839.500 -23.418  1.6430  1.6440  1.2130 -12.077  1.6430  1.6440  1.2130 
  6840.000 -23.236  1.6440  1.6440  1.2130 -11.894  1.6440  1.6440  1.2130 
  6840.500 -22.872  1.6440  1.6440  1.2490 -11.528  1.6440  1.6440  1.2490 
  6841.000 -22.781  1.6440  1.6450  1.2500 -11.436  1.6440  1.6450  1.2500 
  6841.500 -22.689  1.6450  1.6450  1.2500 -11.343  1.6450  1.6450  1.2500 
  6842.000 -22.687  1.6450  1.6450  1.2500 -11.339  1.6450  1.6450  1.2500 
  6842.500 -22.685  1.6100  1.6460  1.2510 -11.336  1.6100  1.6460  1.2510 
  6843.000 -22.864  1.6100  1.6460  1.2510 -11.514  1.6100  1.6460  1.2510 
  6843.500 -23.043  1.6110  1.6460  1.2510 -11.691  1.6110  1.6460  1.2510 
  6844.000 -23.221  1.6230  1.6470  1.2520 -11.868  1.6230  1.6470  1.2520 
  6844.500 -23.310  1.6350  1.6470  1.2520 -11.956  1.6350  1.6470  1.2520 
  6845.000 -23.399  1.6470  1.6650  1.2520 -12.043  1.6470  1.6650  1.2520 
  6845.500 -23.757  1.6480  1.6840  1.2890 -12.400  1.6480  1.6840  1.2890 
  6846.000 -23.756  1.6480  1.6840  1.2890 -12.398  1.6480  1.6840  1.2890 
  6846.500 -23.754  1.6480  1.6840  1.2900 -12.394  1.6480  1.6840  1.2900 
  6847.000 -23.932  1.6490  1.6850  1.2900 -12.571  1.6490  1.6850  1.2900 
  6847.500 -23.930  1.6490  1.7210  1.2900 -12.568  1.6490  1.7210  1.2900 
  6848.000 -22.845  1.6490  1.7210  1.2910 -11.481  1.6490  1.7210  1.2910 
  6848.500 -22.483  1.6860  1.7220  1.3270 -11.118  1.6860  1.7220  1.3270 
  6849.000 -22.481  1.6860  1.7400  1.3270 -11.115  1.6860  1.7400  1.3270 
  6849.500 -22.480  1.6860  1.7580  1.3280 -11.112  1.6860  1.7580  1.3280 
  6850.000 -23.741  1.6870  1.7950  1.3280 -12.372  1.6870  1.7950  1.3280 
  6850.500 -25.003  1.6870  1.7950  1.3280 -13.633  1.6870  1.7950  1.3280 
  6851.000 -25.723  1.6870  1.7950  1.3290 -14.351  1.6870  1.7950  1.3290 
  6851.500 -25.721  1.7060  1.7950  1.3650 -14.348  1.7060  1.7950  1.3650 
  6852.000 -25.178  1.7240  1.8320  1.3650 -13.804  1.7240  1.8320  1.3650 
  6852.500 -24.454  1.7420  1.8500  1.3660 -13.078  1.7420  1.8500  1.3660 
  6853.000 -23.730  1.7610  1.8680  1.3840 -12.353  1.7610  1.8680  1.3840 
  6853.500 -23.097  1.7970  1.8870  1.4020 -11.718  1.7970  1.8870  1.4020 
  6854.000 -22.464  1.8330  1.9050  1.4380 -11.084  1.8330  1.9050  1.4380 
  6854.500 -21.197  1.8690  1.9410  1.4750 -9.8158  1.8690  1.9410  1.4750 
  6855.000 -20.834  1.9060  1.9770  1.5110 -9.4514  1.9060  1.9770  1.5110 
  6855.500 -20.652  2.0140  2.0140  1.5950 -9.2681  2.0140  2.0140  1.5950 
  6856.000 -20.470  2.0500  2.0320  1.6790 -9.0848  2.0500  2.0320  1.6790 
  6856.500 -20.198  2.0680  2.0500  1.7630 -8.8114  2.0680  2.0500  1.7630 
  6857.000 -19.925  2.0870  2.0690  1.7280 -8.5371  2.0870  2.0690  1.7280 
  6857.500 -19.653  2.0870  2.0870  1.6210 -8.2637  2.0870  2.0870  1.6210 
  6858.000 -19.380  2.0520  2.0870  1.6210 -7.9894  2.0520  2.0870  1.6210 
  6858.500 -19.197  2.0340  2.0880  1.6210 -7.8051  2.0340  2.0880  1.6210 
  6859.000 -19.015  2.0160  2.0880  1.6580 -7.6217  2.0160  2.0880  1.6580 
  6859.500 -18.832  1.9990  2.0530  1.6580 -7.4374  1.9990  2.0530  1.6580 
  6860.000 -18.831  1.9810  2.0350  1.6580 -7.4350  1.9810  2.0350  1.6580 
  6860.500 -18.829  1.9640  2.0170  1.6580 -7.4317  1.9640  2.0170  1.6580 
  6861.000 -18.826  1.9460  2.0000  1.6590 -7.4273  1.9460  2.0000  1.6590 
  6861.500 -18.825  1.9110  1.9820  1.6410 -7.4250  1.9110  1.9820  1.6410 
  6862.000 -18.823  1.8750  1.9650  1.6240 -7.4217  1.8750  1.9650  1.6240 
  6862.500 -18.821  1.8750  1.9470  1.6240 -7.4183  1.8750  1.9470  1.6240 
  6863.000 -18.910  1.8760  1.9290  1.6240 -7.5060  1.8760  1.9290  1.6240 
  6863.500 -18.998  1.8760  1.9120  1.5890 -7.5926  1.8760  1.9120  1.5890 
  6864.000 -18.997  1.8760  1.8760  1.5530 -7.5903  1.8760  1.8760  1.5530 
  6864.500 -18.995  1.8770  1.8770  1.5180 -7.5869  1.8770  1.8770  1.5180 
  6865.000 -18.993  1.8770  1.8770  1.5000 -7.5836  1.8770  1.8770  1.5000 
  6865.500 -18.991  1.8770  1.8770  1.4830 -7.5803  1.8770  1.8770  1.4830 
  6866.000 -19.080  1.8780  1.8780  1.4830 -7.6679  1.8780  1.8780  1.4830 
  6866.500 -19.168  1.8780  1.8600  1.4650 -7.7546  1.8780  1.8600  1.4650 
  6867.000 -19.346  1.8960  1.8430  1.4480 -7.9312  1.8960  1.8430  1.4480 
  6867.500 -19.345  1.9150  1.8430  1.3760 -7.9289  1.9150  1.8430  1.3760 
  6868.000 -19.343  1.9150  1.8430  1.3770 -7.9256  1.9150  1.8430  1.3770 
  6868.500 -19.522  1.9150  1.8440  1.3770 -8.1032  1.9150  1.8440  1.3770 
  6869.000 -19.701  1.8980  1.8440  1.3240 -8.2809  1.8980  1.8440  1.3240 
  6869.500 -19.879  1.8800  1.8440  1.2700 -8.4575  1.8800  1.8440  1.2700 
  6870.000 -20.057  1.8810  1.8450  1.2350 -8.6342  1.8810  1.8450  1.2350 
  6870.500 -20.417  1.8810  1.8450  1.2350 -8.9928  1.8810  1.8450  1.2350 
  6871.000 -20.506  1.8810  1.8450  1.2350 -9.0805  1.8810  1.8450  1.2350 
  6871.500 -20.594  1.8640  1.8640  1.2000 -9.1672  1.8640  1.8640  1.2000 
  6872.000 -20.772  1.8460  1.8820  1.1820 -9.3438  1.8460  1.8820  1.1820 
  6872.500 -21.132  1.8470  1.8640  1.1650 -9.7025  1.8470  1.8640  1.1650 
  6873.000 -21.672  1.8470  1.8470  1.1290 -10.241  1.8470  1.8470  1.1290 
  6873.500 -22.031  1.8470  1.8470  1.1300 -10.599  1.8470  1.8470  1.1300 
  6874.000 -22.391  1.8470  1.8470  1.1300 -10.957  1.8470  1.8470  1.1300 
  6874.500 -22.660  1.8480  1.8480  1.1300 -11.225  1.8480  1.8480  1.1300 
  6875.000 -22.929  1.8480  1.8480  1.1310 -11.493  1.8480  1.8480  1.1310 
  6875.500 -23.107  1.8490  1.8490  1.1310 -11.669  1.8490  1.8490  1.1310 
  6876.000 -22.924  1.8490  1.8310  1.1310 -11.485  1.8490  1.8310  1.1310 
  6876.500 -22.652  1.8140  1.8140  1.1320 -11.212  1.8140  1.8140  1.1320 
  6877.000 -22.380  1.7780  1.7960  1.1320 -10.938  1.7780  1.7960  1.1320 
  6877.500 -21.655  1.7670  1.7780  1.1320 -10.212  1.7670  1.7780  1.1320 
  6878.000 -21.564  1.7550  1.7790  1.1330 -10.120  1.7550  1.7790  1.1330 
  6878.500 -21.472  1.7430  1.7790  1.1330 -10.026  1.7430  1.7790  1.1330 
