~Version Information
VERS.                     2.0: CWLS log ASCII Standard Version 2.00
WRAP.                      NO: One line per depth step
~Well Information Block
#MNEM.UNIT                               Data Type  Information
#---------                               ---------  -----------
STRT.FT                                   360.0000:
STOP.FT                                  7900.0000:
STEP.FT                                     0.5000:
NULL.                 -999.25                     :
COMP.                                             :COMPANY            
WELL.     LLU 38-21                               :WELL               
FLD .                                             :FIELD              
CTRY.                                             :COUNTRY            
STAT.                                             :STATE              
LOC .                                             :LOCATION           
UWI .                                             :UNIQUE WELL ID     
SRVC.                                             :Service company    
DATE.                                             :LOG DATE           
~Curve Information
#MNEM.UNIT           API CODE  Curve Description
#---------           --------  -----------------
DEPT.FT                      :   1 DEPTH
SP  .MV                      :   2
AM16.OHMM                    :   3
AO10.OHMM                    :   4
AO19.OHMM                    :   5
SBL .MV                      :   6
RS  .OHMM                    :   7
RM  .OHMM                    :   8
RD  .OHMM                    :   9
~A
# ...
  2851.000 -44.502  9.3140  9.0270  6.7840 -28.115  9.3140  9.0270  6.7840 
  2851.500 -44.411  9.3500  8.9190  6.7840 -28.029  9.3500  8.9190  6.7840 
  2852.000 -44.048  9.4220  8.8120  6.8570 -27.670  9.4220  8.8120  6.8570 
  2852.500 -43.867  9.4940  8.6330  6.9290 -27.494  9.4940  8.6330  6.9290 
  2853.000 -43.685  9.5660  8.5610  7.0730 -27.316  9.5660  8.5610  7.0730 
  2853.500 -43.414  9.6380  8.4890  7.2520 -27.050  9.6380  8.4890  7.2520 
  2854.000 -43.142  9.8170  8.7770  7.3420 -26.782  9.8170  8.7770  7.3420 
  2854.500 -42.960  9.8180  9.3510  7.4330 -26.605  9.8180  9.3510  7.4330 
  2855.000 -42.418  9.7100  10.249  7.6480 -26.067  9.7100  10.249  7.6480 
  2855.500 -42.237  9.6030  10.608  7.7560 -25.891  9.6030  10.608  7.7560 
  2856.000 -42.055  9.4950  11.720  7.9360 -25.713  9.4950  11.720  7.9360 
  2856.500 -41.332  9.1360  12.115  8.1520 -24.995  9.1360  12.115  8.1520 
  2857.000 -40.970  8.5620  12.187  8.2240 -24.637  8.5620  12.187  8.2240 
  2857.500 -40.608  8.0600  12.116  8.2240 -24.280  8.0600  12.116  8.2240 
  2858.000 -39.343  7.5220  11.901  8.0450 -23.019  7.5220  11.901  8.0450 
  2858.500 -38.440  7.1990  11.650  7.6510 -22.121  7.1990  11.650  7.6510 
  2859.000 -36.994  6.5170  11.363  6.8970 -20.679  6.5170  11.363  6.8970 
  2859.500 -34.105  5.8000  9.8190  5.8930 -17.795  5.8000  9.8190  5.8930 
  2860.000 -27.966  5.6740  8.7790  4.7450 -11.660  5.6740  8.7790  4.7450 
  2860.500 -26.701  5.5490  7.5950  4.3320 -10.400  5.5490  7.5950  4.3320 
  2861.000 -26.519  5.4410  7.1640  3.9200 -10.222  5.4410  7.1640  3.9200 
  2861.500 -27.060  5.4060  7.3440  3.9560 -10.767  5.4060  7.3440  3.9560 
  2862.000 -27.962  5.3700  7.8460  4.4230 -11.674  5.3700  7.8460  4.4230 
  2862.500 -28.322  5.3340  8.1700  4.6750 -12.038  5.3340  8.1700  4.6750 
  2863.000 -28.141  5.3340  8.2060  4.8900 -11.862  5.3340  8.2060  4.8900 
  2863.500 -26.515  5.2990  8.1340  4.8190 -10.240  5.2990  8.1340  4.8190 
  2864.000 -24.889  5.2990  7.9190  4.4960 -8.6189  5.2990  7.9190  4.4960 
  2864.500 -24.888  5.2810  7.3810  4.0300 -8.6223  5.2810  7.3810  4.0300 
  2865.000 -25.068  5.2630  7.0940  3.5640 -8.8068  5.2630  7.0940  3.5640 
  2865.500 -25.970  5.2280  6.9500  3.3850 -9.7133  5.2280  6.9500  3.3850 
  2866.000 -26.330  5.1920  7.0580  4.2470 -10.078  5.1920  7.0580  4.2470 
  2866.500 -25.968  5.0490  7.4530  4.6060 -9.7202  5.0490  7.4530  4.6060 
  2867.000 -23.981  4.9050  7.6690  4.8220 -7.7377  4.9050  7.6690  4.8220 
  2867.500 -22.897  4.8340  7.5970  4.8580 -6.6582  4.8340  7.5970  4.8580 
  2868.000 -21.993  4.7620  7.5250  4.6430 -5.7587  4.7620  7.5250  4.6430 
  2868.500 -20.909  4.6540  7.3100  4.4280 -4.6791  4.6540  7.3100  4.4280 
  2869.000 -20.367  4.6190  6.8800  3.8180 -4.1416  4.6190  6.8800  3.8180 
  2869.500 -20.907  4.6190  6.2700  3.4600 -4.6861  4.6190  6.2700  3.4600 
  2870.000 -23.614  4.7630  6.0550  3.4960 -7.3976  4.7630  6.0550  3.4960 
  2870.500 -26.141  4.8350  6.0910  4.1420 -9.9291  4.8350  6.0910  4.1420 
  2871.000 -28.126  4.9070  6.3060  4.7530 -11.919  4.9070  6.3060  4.7530 
  2871.500 -29.389  4.9430  6.7370  5.1120 -13.186  4.9430  6.7370  5.1120 
  2872.000 -30.652  4.8710  6.9530  5.5070 -14.453  4.8710  6.9530  5.5070 
  2872.500 -31.012  4.8710  7.2400  6.0100 -14.818  4.8710  7.2400  6.0100 
  2873.000 -30.470  4.6200  7.3120  6.5850 -14.280  4.6200  7.3120  6.5850 
  2873.500 -28.122  4.2610  7.2760  6.6570 -11.937  4.2610  7.2760  6.6570 
  2874.000 -23.607  4.1180  7.2050  6.5850 -7.4264  4.1180  7.2050  6.5850 
  2874.500 -21.891  3.9750  7.1330  5.5810 -5.7149  3.9750  7.1330  5.5810 
  2875.000 -20.176  3.6160  6.9900  5.0790 -4.0044  3.6160  6.9900  5.0790 
  2875.500 -19.543  3.4370  5.1950  4.3250 -3.3758  3.4370  5.1950  4.3250 
  2876.000 -18.910  3.2220  4.7290  3.6080 -2.7473  3.2220  4.7290  3.6080 
  2876.500 -18.548  3.1140  4.2980  3.3570 -2.3898  3.1140  4.2980  3.3570 
  2877.000 -18.547  3.0780  4.0830  3.1780 -2.3933  3.0780  4.0830  3.1780 
  2877.500 -18.546  3.0430  3.8680  3.2140 -2.3967  3.0430  3.8680  3.2140 
  2878.000 -18.364  3.0070  3.8500  3.2500 -2.2192  3.0070  3.8500  3.2500 
  2878.500 -18.544  2.9710  3.8330  3.3220 -2.4037  2.9710  3.8330  3.3220 
  2879.000 -18.543  2.9360  3.7970  3.3590 -2.4072  2.9360  3.7970  3.3590 
  2879.500 -18.543  2.9360  3.7430  3.3590 -2.4117  2.9360  3.7430  3.3590 
  2880.000 -18.722  2.9360  3.6900  3.3590 -2.5951  2.9360  3.6900  3.3590 
  2880.500 -18.721  2.9360  3.6900  3.3600 -2.5986  2.9360  3.6900  3.3600 
  2881.000 -18.991  2.9720  3.6900  3.3600 -2.8731  2.9720  3.6900  3.3600 
  2881.500 -19.261  3.0080  3.7620  3.3600 -3.1476  3.0080  3.7620  3.3600 
  2882.000 -19.441  3.0440  3.7980  3.3970 -3.3320  3.0440  3.7980  3.3970 
  2882.500 -19.620  3.1340  3.9780  3.4330 -3.5155  3.1340  3.9780  3.4330 
  2883.000 -19.710  3.2240  4.0850  3.4690 -3.6100  3.2240  4.0850  3.4690 
  2883.500 -19.799  3.4400  4.2290  3.5410 -3.7035  3.4400  4.2290  3.5410 
  2884.000 -19.708  3.5470  4.4090  3.6140 -3.6170  3.5470  4.4090  3.6140 
  2884.500 -19.617  3.5840  4.6600  3.6860 -3.5304  3.5840  4.6600  3.6860 
  2885.000 -19.796  3.6200  4.7320  3.7940 -3.7139  3.6200  4.7320  3.7940 
  2885.500 -20.156  3.6200  4.7320  3.9380 -4.0784  3.6200  4.7320  3.9380 
  2886.000 -20.516  3.6200  4.5170  4.0100 -4.4429  3.6200  4.5170  4.0100 
  2886.500 -21.238  3.6200  4.3740  3.9740 -5.1693  3.6200  4.3740  3.9740 
  2887.000 -21.778  3.6560  3.9070  3.8670 -5.7138  3.6560  3.9070  3.8670 
  2887.500 -22.500  3.7640  3.8360  3.7950 -6.4403  3.7640  3.8360  3.7950 
  2888.000 -23.222  3.8720  3.8360  3.7240 -7.1668  3.8720  3.8360  3.7240 
  2888.500 -25.387  3.9440  3.8360  3.6890 -9.3363  3.9440  3.8360  3.6890 
  2889.000 -26.108  4.0160  3.8720  3.6890 -10.062  4.0160  3.8720  3.6890 
  2889.500 -27.913  4.1060  3.9080  4.1920 -11.871  4.1060  3.9080  4.1920 
  2890.000 -28.634  4.1960  4.0160  4.5510 -12.597  4.1960  4.0160  4.5510 
  2890.500 -29.897  4.2140  4.2680  4.8740 -13.864  4.2140  4.2680  4.8740 
  2891.000 -31.160  4.2320  4.4290  4.9460 -15.132  4.2320  4.4290  4.9460 
  2891.500 -31.610  4.1960  4.5910  5.0550 -15.586  4.1960  4.5910  5.0550 
  2892.000 -32.061  4.1600  4.4480  4.9830 -16.042  4.1600  4.4480  4.9830 
  2892.500 -27.907  3.9090  4.3400  4.8760 -11.892  3.9090  4.3400  4.8760 
  2893.000 -26.642  3.8380  4.2690  4.6610 -10.632  3.8380  4.2690  4.6610 
  2893.500 -25.920  3.7300  4.1250  4.5000 -9.9140  3.7300  4.1250  4.5000 
  2894.000 -25.197  3.6230  4.0530  4.3380 -9.1955  3.6230  4.0530  4.3380 
  2894.500 -26.640  3.5150  3.9820  4.1950 -10.643  3.5150  3.9820  4.1950 
  2895.000 -28.083  3.4080  4.0180  4.0520 -12.090  3.4080  4.0180  4.0520 
  2895.500 -28.082  3.3540  4.0180  3.9990 -12.094  3.3540  4.0180  3.9990 
  2896.000 -26.637  3.3000  3.9820  3.9450 -10.653  3.3000  3.9820  3.9450 
  2896.500 -25.011  3.2830  3.9470  3.8020 -9.0319  3.2830  3.9470  3.8020 
  2897.000 -22.302  3.2650  3.7670  3.6590 -6.3274  3.2650  3.7670  3.6590 
  2897.500 -22.241  3.2470  3.6240  3.4800 -6.2709  3.2470  3.6240  3.4800 
  2898.000 -22.180  3.2290  3.5170  3.2290 -6.2143  3.2290  3.5170  3.2290 
  2898.500 -22.119  3.1940  3.4450  3.0140 -6.1578  3.1940  3.4450  3.0140 
  2899.000 -22.119  3.1940  3.4810  2.9780 -6.1623  3.1940  3.4810  2.9780 
  2899.500 -22.118  3.1940  3.5170  2.9790 -6.1658  3.1940  3.5170  2.9790 
  2900.000 -22.116  3.1760  3.5890  3.0150 -6.1682  3.1760  3.5890  3.0150 
  2900.500 -22.117  3.1580  4.0190  3.0860 -6.1737  3.1580  4.0190  3.0860 
  2901.000 -22.208  3.1390  4.1260  3.1040 -6.2692  3.1390  4.1260  3.1040 
  2901.500 -22.299  3.1210  4.1610  3.1210 -6.3647  3.1210  4.1610  3.1210 
  2902.000 -22.299  3.0840  4.1970  3.1030 -6.3691  3.0840  4.1970  3.1030 
  2902.500 -22.300  3.0480  4.1960  3.0850 -6.3746  3.0480  4.1960  3.0850 
  2903.000 -22.300  3.0110  4.1600  3.0130 -6.3791  3.0110  4.1600  3.0130 
  2903.500 -22.300  2.9920  4.0870  2.9400 -6.3836  2.9920  4.0870  2.9400 
