~Version Information
VERS.                     2.0: CWLS log ASCII Standard Version 2.00
WRAP.                      NO: One line per depth step
~Well Information Block
#MNEM.UNIT                               Data Type  Information
#---------                               ---------  -----------
STRT.FT                                   360.0000:
STOP.FT                                  7900.0000:
STEP.FT                                     0.5000:
NULL.                 -999.25                     :
COMP.                                             :COMPANY            
WELL.     LLU 38-21                               :WELL               
FLD .                                             :FIELD              
CTRY.                                             :COUNTRY            
STAT.                                             :STATE              
LOC .                                             :LOCATION           
UWI .                                             :UNIQUE WELL ID     
SRVC.                                             :Service company    
DATE.                                             :LOG DATE           
~Curve Information
#MNEM.UNIT           API CODE  Curve Description
#---------           --------  -----------------
DEPT.FT                      :   1 DEPTH
SP  .MV                      :   2
AM16.OHMM                    :   3
AO10.OHMM                    :   4
AO19.OHMM                    :   5
SBL .MV                      :   6
RS  .OHMM                    :   7
RM  .OHMM                    :   8
RD  .OHMM                    :   9
~A
# ...
  2374.000 -30.154  3.9030  4.3330  3.3910 -11.110  3.9030  4.3330  3.3910 
  2374.500 -30.152  3.8670  4.3340  3.3550 -11.102  3.8670  4.3340  3.3550 
  2375.000 -30.151  3.7950  4.3700  3.3200 -11.094  3.7950  4.3700  3.3200 
  2375.500 -30.871  3.7600  4.4420  3.3200 -11.808  3.7600  4.4420  3.3200 
  2376.000 -31.411  3.7240  4.4780  3.3210 -12.341  3.7240  4.4780  3.3210 
  2376.500 -31.589  3.6880  4.5500  3.3210 -12.513  3.6880  4.5500  3.3210 
  2377.000 -31.678  3.6530  4.6580  3.3210 -12.595  3.6530  4.6580  3.3210 
  2377.500 -31.767  3.6170  4.6580  3.3220 -12.678  3.6170  4.6580  3.3220 
  2378.000 -32.126  3.5810  4.6580  3.3220 -13.030  3.5810  4.6580  3.3220 
  2378.500 -32.665  3.5630  4.6220  3.3220 -13.563  3.5630  4.6220  3.3220 
  2379.000 -32.844  3.5460  4.4430  3.3230 -13.735  3.5460  4.4430  3.3230 
  2379.500 -32.120  3.5100  4.3000  3.3230 -13.005  3.5100  4.3000  3.3230 
  2380.000 -31.577  3.4920  4.0840  3.2160 -12.455  3.4920  4.0840  3.2160 
  2380.500 -31.033  3.4740  3.9950  3.0550 -11.905  3.4740  3.9950  3.0550 
  2381.000 -30.490  3.4570  3.9050  2.8930 -11.355  3.4570  3.9050  2.8930 
  2381.500 -30.398  3.4390  3.8520  2.7140 -11.257  3.4390  3.8520  2.7140 
  2382.000 -30.306  3.4390  3.7980  2.7150 -11.158  3.4390  3.7980  2.7150 
  2382.500 -30.304  3.4390  3.7620  2.6790 -11.150  3.4390  3.7620  2.6790 
  2383.000 -29.760  3.4750  3.7270  2.6800 -10.599  3.4750  3.7270  2.6800 
  2383.500 -28.675  3.5470  3.6550  2.6800 -9.5075  3.5470  3.6550  2.6800 
  2384.000 -28.132  3.6190  3.6910  2.7160 -8.9580  3.6190  3.6910  2.7160 
  2384.500 -28.311  3.7630  3.7630  2.7520 -9.1305  3.7630  3.7630  2.7520 
  2385.000 -28.580  3.8890  3.7990  2.7890 -9.3930  3.8890  3.7990  2.7890 
  2385.500 -28.849  4.0150  4.0500  3.0040 -9.6555  4.0150  4.0500  3.0040 
  2386.000 -29.299  4.1580  4.3020  3.2200 -10.099  4.1580  4.3020  3.2200 
  2386.500 -29.748  4.3020  4.4100  3.4360 -10.541  4.3020  4.4100  3.4360 
  2387.000 -30.468  4.4100  4.5890  3.8670 -11.255  4.4100  4.5890  3.8670 
  2387.500 -30.286  4.5180  4.6610  4.0470 -11.066  4.5180  4.6610  4.0470 
  2388.000 -30.284  4.8050  4.8050  4.1010 -11.058  4.8050  4.8050  4.1010 
  2388.500 -29.741  4.9130  4.8950  4.1550 -10.508  4.9130  4.8950  4.1550 
  2389.000 -29.558  5.0570  4.9850  4.1910 -10.319  5.0570  4.9850  4.1910 
  2389.500 -29.737  5.0930  5.2360  4.2100 -10.491  5.0930  5.2360  4.2100 
  2390.000 -29.916  5.1470  5.3080  4.2280 -10.664  5.1470  5.3080  4.2280 
  2390.500 -30.095  5.2010  5.3080  4.3000 -10.836  5.2010  5.3080  4.3000 
  2391.000 -30.634  5.2190  5.3450  4.3720 -11.369  5.2190  5.3450  4.3720 
  2391.500 -30.813  5.2370  5.3810  4.3730 -11.541  5.2370  5.3810  4.3730 
  2392.000 -30.902  5.2370  5.4170  4.3730 -11.624  5.2370  5.4170  4.3730 
  2392.500 -30.990  5.1660  5.4170  4.4810 -11.705  5.1660  5.4170  4.4810 
  2393.000 -30.627  5.0940  5.4890  4.7680 -11.336  5.0940  5.4890  4.7680 
  2393.500 -30.264  4.9510  5.5610  4.9840 -10.966  4.9510  5.5610  4.9840 
  2394.000 -30.172  4.8070  5.5610  4.9130 -10.868  4.8070  5.5610  4.9130 
  2394.500 -30.080  4.6640  5.5250  4.8770 -10.769  4.6640  5.5250  4.8770 
  2395.000 -30.259  4.5560  5.3820  4.7340 -10.942  4.5560  5.3820  4.7340 
  2395.500 -30.437  4.4130  5.1670  4.3750 -11.113  4.4130  5.1670  4.3750 
  2396.000 -30.797  4.1980  4.7000  4.1600 -11.467  4.1980  4.7000  4.1600 
  2396.500 -30.976  4.0540  4.5210  3.8380 -11.639  4.0540  4.5210  3.8380 
  2397.000 -31.155  3.9830  4.4140  3.5150 -11.812  3.9830  4.4140  3.5150 
  2397.500 -31.513  3.9470  4.3600  3.3360 -12.163  3.9470  4.3600  3.3360 
  2398.000 -31.692  3.9470  4.3060  3.3010 -12.336  3.9470  4.3060  3.3010 
  2398.500 -31.961  4.0010  4.3060  3.2650 -12.598  4.0010  4.3060  3.2650 
  2399.000 -32.231  4.0550  4.3420  3.2290 -12.862  4.0550  4.3420  3.2290 
  2399.500 -33.312  4.0730  4.3960  3.1580 -13.936  4.0730  4.3960  3.1580 
  2400.000 -33.671  4.0920  4.4500  3.1230 -14.289  4.0920  4.4500  3.1230 
  2400.500 -34.030  4.1100  4.6300  3.0870 -14.641  4.1100  4.6300  3.0870 
  2401.000 -34.171  4.1280  4.7750  3.6250 -14.776  4.1280  4.7750  3.6250 
  2401.500 -34.313  4.1650  4.9010  3.6260 -14.911  4.1650  4.9010  3.6260 
  2402.000 -34.455  4.1660  5.0270  3.5180 -15.047  4.1660  5.0270  3.5180 
  2402.500 -34.596  4.1300  5.0990  3.4280 -15.181  4.1300  5.0990  3.4280 
  2403.000 -34.738  4.0950  4.9200  3.3390 -15.317  4.0950  4.9200  3.3390 
  2403.500 -34.374  4.0770  4.7770  3.1240 -14.946  4.0770  4.7770  3.1240 
  2404.000 -33.830  4.0600  4.5620  2.9800 -14.396  4.0600  4.5620  2.9800 
  2404.500 -32.744  4.0250  4.5270  2.9090 -13.303  4.0250  4.5270  2.9090 
  2405.000 -31.477  4.0970  4.4740  2.7300 -12.030  4.0970  4.4740  2.7300 
  2405.500 -31.114  4.1510  4.4200  2.6220 -11.660  4.1510  4.4200  2.6220 
  2406.000 -31.291  4.2060  4.3310  2.5860 -11.831  4.2060  4.3310  2.5860 
  2406.500 -31.830  4.3500  4.2420  2.6220 -12.363  4.3500  4.2420  2.6220 
  2407.000 -33.453  4.5660  4.1350  2.9190 -13.980  4.5660  4.1350  2.9190 
  2407.500 -34.353  4.7460  4.2430  3.2150 -14.873  4.7460  4.2430  3.2150 
  2408.000 -35.975  4.9260  4.4230  3.5110 -16.489  4.9260  4.4230  3.5110 
  2408.500 -38.500  5.3930  4.6390  3.8070 -19.007  5.3930  4.6390  3.8070 
  2409.000 -40.483  5.9680  4.8190  4.0050 -20.984  5.9680  4.8190  4.0050 
  2409.500 -41.924  6.3270  5.0710  4.2030 -22.418  6.3270  5.0710  4.2030 
  2410.000 -43.005  6.6150  5.3580  4.5620 -23.493  6.6150  5.3580  4.5620 
  2410.500 -44.988  6.9380  5.8260  4.9570 -25.469  6.9380  5.8260  4.9570 
  2411.000 -48.777  7.2260  5.9700  5.2800 -29.252  7.2260  5.9700  5.2800 
  2411.500 -52.385  7.7650  6.3290  5.7110 -32.853  7.7650  6.3290  5.7110 
  2412.000 -52.743  8.1600  6.6890  5.9620 -33.205  8.1600  6.6890  5.9620 
  2412.500 -53.463  8.6630  7.0480  6.2490 -33.918  8.6630  7.0480  6.2490 
  2413.000 -53.641  9.1660  7.3000  6.6090 -34.090  9.1660  7.3000  6.6090 
  2413.500 -53.819  9.6330  7.5520  7.0040 -34.261  9.6330  7.5520  7.0040 
  2414.000 -53.816  9.9570  7.8030  7.2910 -34.252  9.9570  7.8030  7.2910 
  2414.500 -53.633  10.388  7.9120  7.5420 -34.062  10.388  7.9120  7.5420 
  2415.000 -53.359  10.676  8.0560  7.8650 -33.782  10.676  8.0560  7.8650 
  2415.500 -53.086  10.712  8.1280  8.0090 -33.502  10.712  8.1280  8.0090 
  2416.000 -52.361  10.748  8.2000  8.0990 -32.771  10.748  8.2000  8.0990 
  2416.500 -51.816  10.641  8.3440  8.1890 -32.219  10.641  8.3440  8.1890 
  2417.000 -50.730  10.498  8.4530  8.1170 -31.127  10.498  8.4530  8.1170 
  2417.500 -49.102  10.248  8.4890  8.0460 -29.492  10.248  8.4890  8.0460 
  2418.000 -48.016  9.7460  8.5790  8.0460 -28.400  9.7460  8.5790  8.0460 
  2418.500 -46.931  8.9930  8.6690  8.1900 -27.308  8.9930  8.6690  8.1900 
  2419.000 -45.483  7.8090  9.2440  8.3330 -25.854  7.8090  9.2440  8.3330 
  2419.500 -44.217  7.1630  9.3530  8.2260 -24.581  7.1630  9.3530  8.2260 
  2420.000 -42.951  6.3740  9.2450  7.9390 -23.309  6.3740  9.2450  7.9390 
  2420.500 -40.962  5.8000  9.0670  7.5800 -21.313  5.8000  9.0670  7.5800 
  2421.000 -37.168  5.3700  8.0620  6.8990 -17.513  5.3700  8.0620  6.8990 
  2421.500 -34.638  4.8680  6.9860  5.3910 -14.976  4.8680  6.9860  5.3910 
  2422.000 -32.649  4.6180  6.1610  3.6690 -12.981  4.6180  6.1610  3.6690 
  2422.500 -31.743  4.2590  5.7670  3.2020 -12.068  4.2590  5.7670  3.2020 
  2423.000 -29.935  3.9010  5.5160  2.9150 -10.254  3.9010  5.5160  2.9150 
  2423.500 -27.947  3.6500  5.1940  2.6280 -8.2592  3.6500  5.1940  2.6280 
  2424.000 -27.763  3.4000  5.0860  2.2340 -8.0687  3.4000  5.0860  2.2340 
  2424.500 -27.580  3.2920  4.9790  2.0720 -7.8792  3.2920  4.9790  2.0720 
  2425.000 -27.758  3.1850  4.8000  1.9110 -8.0507  3.1850  4.8000  1.9110 
  2425.500 -27.575  3.1500  4.6930  1.6960 -7.8612  3.1500  4.6930  1.6960 
  2426.000 -27.031  3.0790  4.6220  1.6240 -7.3107  3.0790  4.6220  1.6240 
  2426.500 -25.945  3.0430  4.5510  1.4810 -6.2182  3.0430  4.5510  1.4810 
