~Version Information
VERS.                     2.0: CWLS log ASCII Standard Version 2.00
WRAP.                      NO: One line per depth step
~Well Information Block
#MNEM.UNIT                               Data Type  Information
#---------                               ---------  -----------
STRT.FT                                   510.0000:
STOP.FT                                  7204.0000:
STEP.FT                                     0.5000:
NULL.                 -999.25                     :
COMP.                                             :COMPANY            
WELL.     LLU 41-28                               :WELL               
FLD .                                             :FIELD              
CTRY.                                             :COUNTRY            
STAT.                                             :STATE              
LOC .                                             :LOCATION           
UWI .                                             :UNIQUE WELL ID     
SRVC.                                             :Service company    
DATE.                                             :LOG DATE           
~Curve Information
#MNEM.UNIT           API CODE  Curve Description
#---------           --------  -----------------
DEPT.FT                      :   1 DEPTH
SP  .MV                      :   2
AM16.OHMM                    :   3
AO10.OHMM                    :   4
AO19.OHMM                    :   5
SBL .MV                      :   6
RS  .OHMM                    :   7
RM  .OHMM                    :   8
RD  .OHMM                    :   9
~A
# ...
  3160.000 -24.256  4.2770  5.4230  5.4740 -10.654  4.2770  5.4230  5.4740 
  3160.500 -24.869  4.2910  5.5030  5.6130 -11.268  4.2910  5.5030  5.6130 
  3161.000 -24.975  4.3050  5.6180  5.7730 -11.376  4.3050  5.6180  5.7730 
  3161.500 -24.070  4.3190  5.4440  5.8460 -10.472  4.3190  5.4440  5.8460 
  3162.000 -22.768  4.3330  5.2350  5.7680 -9.1720  4.3330  5.2350  5.7680 
  3162.500 -22.225  4.3470  5.0830  5.7050 -8.6305  4.3470  5.0830  5.7050 
  3163.000 -21.681  4.3470  4.9890  5.6410 -8.0880  4.3470  4.9890  5.6410 
  3163.500 -21.625  4.3180  4.8150  5.5130 -8.0335  4.3180  4.8150  5.5130 
  3164.000 -21.569  4.2810  4.5990  5.4570 -7.9791  4.2810  4.5990  5.4570 
  3164.500 -21.603  4.2300  4.5330  5.5270 -8.0146  4.2300  4.5330  5.5270 
  3165.000 -21.601  4.1720  4.3170  5.5970 -8.0141  4.1720  4.3170  5.5970 
  3165.500 -21.274  4.1140  4.2230  5.6700 -7.6886  4.1140  4.2230  5.6700 
  3166.000 -20.948  3.9410  4.0920  5.4770 -7.3642  3.9410  4.0920  5.4770 
  3166.500 -20.657  3.9120  4.0340  5.2620 -7.0747  3.9120  4.0340  5.2620 
  3167.000 -20.727  3.9110  3.9760  5.0980 -7.1462  3.9110  3.9760  5.0980 
  3167.500 -21.087  3.9110  3.8820  4.9840 -7.5077  3.9110  3.8820  4.9840 
  3168.000 -21.735  4.4950  3.9760  4.9350 -8.1573  4.4950  3.9760  4.9350 
  3168.500 -23.178  4.7250  4.1550  5.0880 -9.6018  4.7250  4.1550  5.0880 
  3169.000 -25.922  4.9920  4.5010  5.2330 -12.347  4.9920  4.5010  5.2330 
  3169.500 -29.532  5.2800  4.8180  5.3750 -15.959  5.2800  4.8180  5.3750 
  3170.000 -31.698  5.3620  5.0850  5.5170 -18.126  5.3620  5.0850  5.5170 
  3170.500 -35.308  5.4450  5.2140  5.7280 -21.738  5.4450  5.2140  5.7280 
  3171.000 -36.065  5.5310  5.3870  5.9100 -22.496  5.5310  5.3870  5.9100 
  3171.500 -36.388  5.4010  5.6030  6.0560 -22.821  5.4010  5.6030  6.0560 
  3172.000 -36.133  5.0620  5.6820  6.1440 -22.567  5.0620  5.6820  6.1440 
  3172.500 -35.120  4.7440  5.2560  6.1310 -21.556  4.7440  5.2560  6.1310 
  3173.000 -32.481  4.5200  4.9020  5.9080 -18.918  4.5200  4.9020  5.9080 
  3173.500 -26.122  4.3470  4.5700  5.2250 -12.561  4.3470  4.5700  5.2250 
  3174.000 -22.400  4.2670  4.3680  4.7500 -8.8405  4.2670  4.3680  4.7500 
  3174.500 -21.170  4.1730  4.2950  4.4990 -7.6121  4.1730  4.2950  4.4990 
  3175.000 -20.229  4.1720  4.3420  4.3490 -6.6726  4.1720  4.3420  4.3490 
  3175.500 -19.793  4.3380  4.3880  4.2710 -6.2381  4.3380  4.3880  4.2710 
  3176.000 -19.719  4.5030  4.4240  4.3590 -6.1656  4.5030  4.4240  4.3590 
  3176.500 -20.151  4.6550  4.4200  4.4620 -6.5992  4.6550  4.4200  4.4620 
  3177.000 -20.402  4.7190  4.4160  4.5780 -6.8517  4.7190  4.4160  4.5780 
  3177.500 -20.725  4.8120  4.4450  4.5370 -7.1762  4.8120  4.4450  4.5370 
  3178.000 -21.013  4.9200  4.4590  4.5160 -7.4657  4.9200  4.4590  4.5160 
  3178.500 -21.372  5.0350  4.6100  4.4960 -7.8263  5.0350  4.6100  4.4960 
  3179.000 -21.876  5.1360  4.8400  4.4690 -8.3318  5.1360  4.8400  4.4690 
  3179.500 -22.452  5.6550  5.2370  4.5280 -8.9093  5.6550  5.2370  4.5280 
  3180.000 -23.751  6.0370  5.3850  4.7390 -10.210  6.0370  5.3850  4.7390 
  3180.500 -26.714  6.2830  5.5330  5.0410 -13.174  6.2830  5.5330  5.0410 
  3181.000 -30.110  6.5010  5.8950  5.2340 -16.572  6.5010  5.8950  5.2340 
  3181.500 -32.026  6.6820  6.0840  5.3380 -18.489  6.6820  6.0840  5.3380 
  3182.000 -35.386  6.8210  6.1930  5.4420 -21.851  6.8210  6.1930  5.4420 
  3182.500 -36.398  6.8940  6.3390  5.7800 -22.864  6.8940  6.3390  5.7800 
  3183.000 -37.013  6.8810  6.4920  5.9160 -23.481  6.8810  6.4920  5.9160 
  3183.500 -36.761  6.8460  6.6080  6.0230 -23.231  6.8460  6.6080  6.0230 
  3184.000 -35.967  6.7970  6.7100  6.1310 -22.438  6.7970  6.7100  6.1310 
  3184.500 -35.282  6.5600  6.8130  6.3240 -21.755  6.5600  6.8130  6.3240 
  3185.000 -34.199  6.2230  6.9510  6.4100 -20.673  6.2230  6.9510  6.4100 
  3185.500 -33.189  5.5240  6.9520  6.5030 -19.665  5.5240  6.9520  6.5030 
  3186.000 -31.961  5.3310  6.6940  6.4520 -18.438  5.3310  6.6940  6.4520 
  3186.500 -29.217  5.1160  5.8660  6.1260 -15.696  5.1160  5.8660  6.1260 
  3187.000 -26.400  4.9510  5.3690  5.1510 -12.880  4.9510  5.3690  5.1510 
  3187.500 -23.367  4.8660  4.9450  4.4440 -9.8487  4.8660  4.9450  4.4440 
  3188.000 -21.598  4.8310  4.7080  4.2770 -8.0812  4.8310  4.7080  4.2770 
  3188.500 -21.129  4.9910  4.5870  4.2330 -7.6138  4.9910  4.5870  4.2330 
  3189.000 -21.094  5.1720  4.5380  4.4630 -7.5803  5.1720  4.5380  4.4630 
  3189.500 -21.492  5.5990  4.7120  4.5700 -7.9798  5.5990  4.7120  4.5700 
  3190.000 -22.107  5.9320  4.8790  4.7350 -8.5963  5.9320  4.8790  4.7350 
  3190.500 -22.397  6.3300  5.1110  4.9000 -8.8879  6.3300  5.1110  4.9000 
  3191.000 -24.023  6.5190  5.5160  5.2600 -10.515  6.5190  5.5160  5.2600 
  3191.500 -29.262  7.0030  5.9140  5.4610 -15.756  7.0030  5.9140  5.4610 
  3192.000 -31.394  7.3080  6.2980  5.6620 -17.889  7.3080  6.2980  5.6620 
  3192.500 -32.298  7.7990  6.7320  6.1080 -18.795  7.7990  6.7320  6.1080 
  3193.000 -32.949  8.3560  6.9780  6.4320 -19.447  8.3560  6.9780  6.4320 
  3193.500 -33.781  8.7900  7.6940  6.6690 -20.281  8.7900  7.6940  6.6690 
  3194.000 -37.141  9.0080  8.2000  7.0290 -23.643  9.0080  8.2000  7.0290 
  3194.500 -40.141  9.2470  8.5470  7.2440 -26.644  9.2470  8.5470  7.2440 
  3195.000 -41.442  9.4500  8.6780  7.3580 -27.947  9.4500  8.6780  7.3580 
  3195.500 -42.129  9.5450  8.8460  7.5090 -28.635  9.5450  8.8460  7.5090 
  3196.000 -42.600  9.5970  8.9120  7.6670 -29.108  9.5970  8.9120  7.6670 
  3196.500 -42.925  9.5980  8.9850  7.6800 -29.434  9.5980  8.9850  7.6800 
  3197.000 -42.999  9.4330  8.8570  7.6110 -29.510  9.4330  8.8570  7.6110 
  3197.500 -43.000  9.1900  8.6050  7.5410 -29.512  9.1900  8.6050  7.5410 
  3198.000 -42.856  8.9890  8.2390  7.2950 -29.370  8.9890  8.2390  7.2950 
  3198.500 -42.640  8.8390  7.9520  7.0930 -29.155  8.8390  7.9520  7.0930 
  3199.000 -42.461  8.6160  7.8010  6.8610 -28.978  8.6160  7.8010  6.8610 
  3199.500 -42.028  8.4590  7.5930  6.7660 -28.546  8.4590  7.5930  6.7660 
  3200.000 -41.596  8.4100  7.4720  6.6430 -28.116  8.4100  7.4720  6.6430 
  3200.500 -41.267  8.5170  7.4060  6.5640 -27.788  8.5170  7.4060  6.5640 
  3201.000 -41.265  8.8480  7.4560  6.5350 -27.788  8.8480  7.4560  6.5350 
  3201.500 -41.262  9.2080  7.6500  6.8100 -27.786  9.2080  7.6500  6.8100 
  3202.000 -41.259  9.4880  7.9160  7.1130 -27.785  9.4880  7.9160  7.1130 
  3202.500 -41.257  9.8330  8.2180  7.3580 -27.784  9.8330  8.2180  7.3580 
  3203.000 -41.290  10.135  8.5200  7.8130 -27.819  10.135  8.5200  7.8130 
  3203.500 -41.432  10.502  8.8580  8.1960 -27.962  10.502  8.8580  8.1960 
  3204.000 -42.007  10.775  9.4410  8.5930 -28.539  10.775  9.4410  8.5930 
  3204.500 -42.799  10.922  10.457  8.9250 -29.333  10.922  10.457  8.9250 
  3205.000 -43.411  11.069  11.113  9.1850 -29.946  11.069  11.113  9.1850 
  3205.500 -44.094  11.270  11.631  9.3510 -30.631  11.270  11.631  9.3510 
  3206.000 -44.525  11.305  12.034  9.5030 -31.063  11.305  12.034  9.5030 
  3206.500 -44.053  11.153  12.249  9.5610 -30.593  11.153  12.249  9.5610 
  3207.000 -42.099  10.142  12.422  9.5400 -28.640  10.142  12.422  9.5400 
  3207.500 -39.785  9.8170  12.478  9.3170 -26.328  9.8170  12.478  9.3170 
  3208.000 -37.181  9.5850  12.362  8.8050 -23.725  9.5850  12.362  8.8050 
  3208.500 -36.312  9.3900  11.864  8.4950 -22.858  9.3900  11.864  8.4950 
  3209.000 -36.164  9.5110  11.516  8.2720 -22.711  9.5110  11.516  8.2720 
  3209.500 -38.726  9.8860  11.234  8.2580 -25.275  9.8860  11.234  8.2580 
  3210.000 -41.649  10.173  11.075  8.9790 -28.199  10.173  11.075  8.9790 
  3210.500 -43.272  10.302  11.579  9.3480 -29.824  10.302  11.579  9.3480 
  3211.000 -43.920  10.359  12.068  9.5430 -30.473  10.359  12.068  9.5430 
  3211.500 -43.448  10.315  12.349  9.6510 -30.003  10.315  12.349  9.6510 
  3212.000 -42.759  9.9890  12.499  9.6800 -29.315  9.9890  12.499  9.6800 
  3212.500 -40.588  8.8420  12.628  9.6660 -27.146  8.8420  12.628  9.6660 
