~Version Information
VERS.                     2.0: CWLS log ASCII Standard Version 2.00
WRAP.                      NO: One line per depth step
~Well Information Block
#MNEM.UNIT                               Data Type  Information
#---------                               ---------  -----------
STRT.FT                                   510.0000:
STOP.FT                                  7204.0000:
STEP.FT                                     0.5000:
NULL.                 -999.25                     :
COMP.                                             :COMPANY            
WELL.     LLU 41-28                               :WELL               
FLD .                                             :FIELD              
CTRY.                                             :COUNTRY            
STAT.                                             :STATE              
LOC .                                             :LOCATION           
UWI .                                             :UNIQUE WELL ID     
SRVC.                                             :Service company    
DATE.                                             :LOG DATE           
~Curve Information
#MNEM.UNIT           API CODE  Curve Description
#---------           --------  -----------------
DEPT.FT                      :   1 DEPTH
SP  .MV                      :   2
AM16.OHMM                    :   3
AO10.OHMM                    :   4
AO19.OHMM                    :   5
SBL .MV                      :   6
RS  .OHMM                    :   7
RM  .OHMM                    :   8
RD  .OHMM                    :   9
~A
# ...
  4485.000 -20.980  2.6060  3.1830  3.0910 -9.5082  2.6060  3.1830  3.0910 
  4485.500 -20.978  2.5270  3.2550  3.0630 -9.5011  2.5270  3.2550  3.0630 
  4486.000 -20.869  2.4850  3.2770  2.9260 -9.3869  2.4850  3.2770  2.9260 
  4486.500 -20.688  2.4350  3.2270  2.8340 -9.2008  2.4350  3.2270  2.8340 
  4487.000 -20.615  2.3850  3.0620  2.7620 -9.1227  2.3850  3.0620  2.7620 
  4487.500 -20.614  2.2850  2.9980  2.7130 -9.1166  2.2850  2.9980  2.7130 
  4488.000 -20.523  2.2640  2.9050  2.6700 -9.0204  2.2640  2.9050  2.6700 
  4488.500 -20.432  2.2500  2.7900  2.7000 -8.9243  2.2500  2.7900  2.7000 
  4489.000 -20.431  2.2650  2.7400  2.7150 -8.9182  2.2650  2.7400  2.7150 
  4489.500 -20.466  2.3050  2.7160  2.7010 -8.9481  2.3050  2.7160  2.7010 
  4490.000 -20.610  2.3450  2.6910  2.6220 -9.0869  2.3450  2.6910  2.6220 
  4490.500 -20.789  2.5190  2.6630  2.5510 -9.2608  2.5190  2.6630  2.5510 
  4491.000 -21.222  2.6700  2.6850  2.5370 -9.6887  2.6700  2.6850  2.5370 
  4491.500 -21.870  2.9230  2.7070  2.6460 -10.332  2.9230  2.7070  2.6460 
  4492.000 -22.627  3.3920  2.8370  2.7770 -11.083  3.3920  2.8370  2.7770 
  4492.500 -23.854  3.9110  2.9240  2.9860 -12.305  3.9110  2.9240  2.9860 
  4493.000 -25.802  4.3510  3.0470  3.1890 -14.248  4.3510  3.0470  3.1890 
  4493.500 -31.720  4.7980  3.1490  3.3840 -20.161  4.7980  3.1490  3.3840 
  4494.000 -40.346  5.1660  3.2360  3.4860 -28.782  5.1660  3.2360  3.4860 
  4494.500 -44.026  5.5560  3.3150  3.5870 -32.457  5.5560  3.3150  3.5870 
  4495.000 -46.733  5.7940  3.3950  3.6820 -35.159  5.7940  3.3950  3.6820 
  4495.500 -55.863  6.0330  3.5110  3.7250 -44.284  6.0330  3.5110  3.7250 
  4496.000 -57.162  6.0480  3.5400  3.7050 -45.577  6.0480  3.5400  3.7050 
  4496.500 -57.666  6.0630  3.5700  3.6690 -46.076  6.0630  3.5700  3.6690 
  4497.000 -58.965  6.4230  3.5340  3.5690 -47.370  6.4230  3.5340  3.5690 
  4497.500 -62.032  6.8200  3.4990  3.5120 -50.432  6.8200  3.4990  3.5120 
  4498.000 -63.511  7.3970  3.3910  3.5420 -51.906  7.3970  3.3910  3.5420 
  4498.500 -64.918  7.6930  3.3270  3.6070 -53.308  7.6930  3.3270  3.6070 
  4499.000 -65.386  7.8380  3.3130  3.6330 -53.771  7.8380  3.3130  3.6330 
  4499.500 -65.602  7.9390  3.3060  3.6590 -53.981  7.9390  3.3060  3.6590 
  4500.000 -64.337  7.9970  3.3070  3.7390 -52.711  7.9970  3.3070  3.7390 
  4500.500 -59.900  7.8740  3.3280  3.7750 -48.269  7.8740  3.3280  3.7750 
  4501.000 -56.328  7.3480  3.4070  3.8250 -44.692  7.3480  3.4070  3.8250 
  4501.500 -48.461  6.6780  3.5080  3.8380 -36.820  6.6780  3.5080  3.8380 
  4502.000 -38.610  5.2870  3.5860  3.6870 -26.964  5.2870  3.5860  3.6870 
  4502.500 -33.991  4.4430  3.5430  3.3910 -22.340  4.4430  3.5430  3.3910 
  4503.000 -29.770  3.8090  3.2980  3.0510 -18.114  3.8090  3.2980  3.0510 
  4503.500 -27.570  3.5130  3.1780  2.7050 -15.908  3.5130  3.1780  2.7050 
  4504.000 -26.273  3.2970  3.0590  2.4740 -14.606  3.2970  3.0590  2.4740 
  4504.500 -25.300  3.1670  2.7490  2.4230 -13.628  3.1670  2.7490  2.4230 
  4505.000 -24.761  3.1090  2.6770  2.3870 -13.084  3.1090  2.6770  2.3870 
  4505.500 -24.582  3.2020  2.6980  2.3790 -12.900  3.2020  2.6980  2.3790 
  4506.000 -24.656  3.4180  2.8340  2.5440 -12.969  3.4180  2.8340  2.5440 
  4506.500 -25.343  3.7200  2.9200  2.7020 -13.651  3.7200  2.9200  2.7020 
  4507.000 -27.114  4.1880  3.0790  2.8960 -15.417  4.1880  3.0790  2.8960 
  4507.500 -28.631  4.6130  3.5320  3.0900 -16.928  4.6130  3.5320  3.0900 
  4508.000 -32.640  5.1460  4.1010  3.1760 -20.932  5.1460  4.1010  3.1760 
  4508.500 -42.603  5.6130  4.3450  3.3120 -30.890  5.6130  4.3450  3.3120 
  4509.000 -48.994  6.0090  4.4820  3.3400 -37.276  6.0090  4.4820  3.3400 
  4509.500 -52.064  6.5130  4.5280  3.3690 -40.341  6.5130  4.5280  3.3690 
  4510.000 -54.015  6.9090  4.5750  3.3900 -42.287  6.9090  4.5750  3.3900 
  4510.500 -55.532  7.1390  4.6140  3.4080 -43.799  7.1390  4.6140  3.4080 
  4511.000 -57.158  7.2940  4.6540  3.4270 -45.420  7.2940  4.6540  3.4270 
  4511.500 -58.496  7.4490  4.6960  3.4460 -46.752  7.4490  4.6960  3.4460 
  4512.000 -59.111  7.6570  4.7100  3.4740 -47.362  7.6570  4.7100  3.4740 
  4512.500 -59.979  7.7210  4.7100  3.5020 -48.225  7.7210  4.7100  3.5020 
  4513.000 -60.594  7.7430  4.6700  3.5310 -48.835  7.7430  4.6700  3.5310 
  4513.500 -60.993  7.7420  4.6300  3.5450 -49.229  7.7420  4.6300  3.5450 
  4514.000 -61.392  7.7420  4.4570  3.5580 -49.623  7.7420  4.4570  3.5580 
  4514.500 -61.286  7.6260  4.2830  3.5790 -49.512  7.6260  4.2830  3.5790 
  4515.000 -60.241  7.4960  4.1750  3.5930 -48.462  7.4960  4.1750  3.5930 
  4515.500 -59.376  7.3810  4.0520  3.6070 -47.591  7.3810  4.0520  3.6070 
  4516.000 -57.140  6.8760  3.9510  3.6210 -45.350  6.8760  3.9510  3.6210 
  4516.500 -53.533  5.8890  3.8350  3.5700 -41.738  5.8890  3.8350  3.5700 
  4517.000 -48.229  5.0020  3.7120  3.4470 -36.429  5.0020  3.7120  3.4470 
  4517.500 -43.971  4.6700  3.6400  3.3240 -32.166  4.6700  3.6400  3.3240 
  4518.000 -42.024  4.4320  3.5100  3.2230 -30.214  4.4320  3.5100  3.2230 
  4518.500 -41.412  4.2520  3.4020  3.1640 -29.597  4.2520  3.4020  3.1640 
  4519.000 -40.800  4.1720  3.3360  3.0920 -28.979  4.1720  3.3360  3.0920 
  4519.500 -40.658  4.1500  3.4080  3.2930 -28.832  4.1500  3.4080  3.2930 
  4520.000 -41.634  4.0420  3.4800  3.4440 -29.803  4.0420  3.4800  3.4440 
  4520.500 -39.578  3.8900  3.7030  3.4730 -27.742  3.8900  3.7030  3.4730 
  4521.000 -38.388  3.7530  3.7530  3.4870 -26.547  3.7530  3.7530  3.4870 
  4521.500 -37.342  3.6150  3.7740  3.5010 -25.496  3.6150  3.7740  3.5010 
  4522.000 -37.668  3.5140  3.6940  3.3430 -25.817  3.5140  3.6940  3.3430 
  4522.500 -35.864  3.4630  3.6140  3.1840 -24.008  3.4630  3.6140  3.1840 
  4523.000 -33.122  3.4120  3.5410  3.0040 -21.260  3.4120  3.5410  3.0040 
  4523.500 -31.462  3.4540  3.4980  2.9110 -19.595  3.4540  3.4980  2.9110 
  4524.000 -30.055  3.4970  3.4610  2.8670 -18.183  3.4970  3.4610  2.8670 
  4524.500 -29.226  3.5250  3.4610  2.9030 -17.349  3.5250  3.4610  2.9030 
  4525.000 -29.010  3.5610  3.4740  2.9830 -17.128  3.5610  3.4740  2.9830 
  4525.500 -31.646  3.5750  3.5240  3.0840 -19.759  3.5750  3.5240  3.0840 
  4526.000 -35.184  3.5890  3.5890  3.1840 -23.292  3.5890  3.5890  3.1840 
  4526.500 -35.979  3.6020  3.7970  3.2560 -24.082  3.6020  3.7970  3.2560 
  4527.000 -31.216  3.5370  3.8540  3.1630 -19.313  3.5370  3.8540  3.1630 
  4527.500 -29.340  3.4210  3.9540  3.1050 -17.432  3.4210  3.9540  3.1050 
  4528.000 -28.258  3.3050  3.9610  3.0190 -16.345  3.3050  3.9610  3.0190 
  4528.500 -27.609  3.2110  3.8310  2.9390 -15.691  3.2110  3.8310  2.9390 
  4529.000 -26.852  3.1670  3.7370  2.9320 -14.929  3.1670  3.7370  2.9320 
  4529.500 -26.203  3.1530  3.6430  2.9470 -14.275  3.1530  3.6430  2.9470 
  4530.000 -25.915  3.2380  3.3540  2.9860 -13.982  3.2380  3.3540  2.9860 
  4530.500 -25.808  3.3100  3.2520  3.0260 -13.870  3.3100  3.2520  3.0260 
  4531.000 -25.845  3.3450  3.2880  3.0330 -13.901  3.3450  3.2880  3.0330 
  4531.500 -25.882  3.5680  3.3160  3.0400 -13.933  3.5680  3.3160  3.0400 
  4532.000 -26.244  3.7330  3.3590  3.0660 -14.290  3.7330  3.3590  3.0660 
  4532.500 -26.606  4.0570  3.4020  3.0910 -14.647  4.0570  3.4020  3.0910 
  4533.000 -27.004  4.4020  3.6030  3.3860 -15.040  4.4020  3.6030  3.3860 
  4533.500 -28.376  5.2950  3.8760  3.7540 -16.407  5.2950  3.8760  3.7540 
  4534.000 -34.152  6.3180  4.3080  4.0990 -22.178  6.3180  4.3080  4.0990 
  4534.500 -36.174  7.3400  4.5380  4.6400 -24.195  7.3400  4.5380  4.6400 
  4535.000 -39.279  7.7360  4.6880  4.8850 -27.294  7.7360  4.6880  4.8850 
  4535.500 -43.467  8.0450  4.8030  5.0360 -31.477  8.0450  4.8030  5.0360 
  4536.000 -46.861  8.1890  4.9180  5.1950 -34.866  8.1890  4.9180  5.1950 
  4536.500 -49.316  8.3250  5.0110  5.2450 -37.316  8.3250  5.0110  5.2450 
  4537.000 -54.009  8.3820  5.0460  5.2160 -42.004  8.3820  5.0460  5.2160 
  4537.500 -56.031  8.3600  5.0820  4.6900 -44.021  8.3600  5.0820  4.6900 
