~Version Information
VERS.                     2.0: CWLS log ASCII Standard Version 2.00
WRAP.                      NO: One line per depth step
~Well Information Block
#MNEM.UNIT                               Data Type  Information
#---------                               ---------  -----------
STRT.FT                                   510.0000:
STOP.FT                                  7204.0000:
STEP.FT                                     0.5000:
NULL.                 -999.25                     :
COMP.                                             :COMPANY            
WELL.     LLU 41-28                               :WELL               
FLD .                                             :FIELD              
CTRY.                                             :COUNTRY            
STAT.                                             :STATE              
LOC .                                             :LOCATION           
UWI .                                             :UNIQUE WELL ID     
SRVC.                                             :Service company    
DATE.                                             :LOG DATE           
~Curve Information
#MNEM.UNIT           API CODE  Curve Description
#---------           --------  -----------------
DEPT.FT                      :   1 DEPTH
SP  .MV                      :   2
AM16.OHMM                    :   3
AO10.OHMM                    :   4
AO19.OHMM                    :   5
SBL .MV                      :   6
RS  .OHMM                    :   7
RM  .OHMM                    :   8
RD  .OHMM                    :   9
~A
   510.000 -999.25  0.2520 -999.25  0.1220 -999.25  0.2520 -999.25  0.1220 
   510.500 -14.764  0.2500  0.2360  0.1220  7.2360  0.2500  0.2360  0.1220 
   511.000 -14.729  0.2560  0.2410  0.1350  7.2710  0.2560  0.2410  0.1350 
   511.500 -14.802  0.2610  0.2180  0.1420  7.1980  0.2610  0.2180  0.1420 
   512.000 -14.839  0.2660  0.2090  0.1410  7.1610  0.2660  0.2090  0.1410 
   512.500 -14.839  0.2650  0.2000  0.1400  7.1610  0.2650  0.2000  0.1400 
   513.000 -14.877  0.2560  0.1910  0.1610  7.1230  0.2560  0.1910  0.1610 
   513.500 -14.913  0.2470  0.1890  0.1680  7.0870  0.2470  0.1890  0.1680 
   514.000 -14.914  0.2450  0.1870  0.1670  7.0860  0.2450  0.1870  0.1670 
   514.500 -14.915  0.2430  0.1710  0.1740  7.0850  0.2430  0.1710  0.1740 
   515.000 -14.915  0.2340  0.1620  0.1800  7.0850  0.2340  0.1620  0.1800 
   515.500 -14.953  0.2250  0.1600  0.1870  7.0470  0.2250  0.1600  0.1870 
   516.000 -14.954  0.2160  0.1550  0.2000  7.0460  0.2160  0.1550  0.2000 
   516.500 -14.955  0.2140  0.1500  0.1990  7.0450  0.2140  0.1500  0.1990 
   517.000 -8.6470  0.2050  0.1190  0.1920  13.353  0.2050  0.1190  0.1920 
   517.500 -5.5470  0.2030  0.0740  0.1840  16.453  0.2030  0.0740  0.1840 
   518.000 -3.5300  0.2020  0.0580  0.1540  18.470  0.2020  0.0580  0.1540 
   518.500 -2.9170  0.2000  0.0850  0.1530  19.083  0.2000  0.0850  0.1530 
   519.000 -3.1350  0.1980  0.1120  0.1380  18.865  0.1980  0.1120  0.1380 
   519.500 -3.7850  0.2110  0.1310  0.1230  18.215  0.2110  0.1310  0.1230 
   520.000 -4.2900  0.2160  0.1300  0.1110  17.710  0.2160  0.1300  0.1110 
   520.500 -0.2180  0.2510  0.1280  0.0980  21.782  0.2510  0.1280  0.0980 
   521.000  0.0700  0.4000  0.1270  0.0910  22.070  0.4000  0.1270  0.0910 
   521.500 -5.8430  0.8450  0.1180  0.0850  16.157  0.8450  0.1180  0.0850 
   522.000 -9.6290  1.8160  0.1020  0.0750  12.371  1.8160  0.1020  0.0750 
   522.500 -14.857  2.7290  0.0970  0.0650  7.1430  2.7290  0.0970  0.0650 
   523.000 -18.860  7.7180  0.0920  0.0550  3.1400  7.7180  0.0920  0.0550 
   523.500 -23.836  8.7110  0.0840  0.0450 -1.8360  8.7110  0.0840  0.0450 
   524.000 -26.324  9.4010  0.0750  0.0420 -4.3240  9.4010  0.0750  0.0420 
   524.500 -28.668  9.7160  0.0590  0.0390 -6.6680  9.7160  0.0590  0.0390 
   525.000 -30.760  9.9520  0.0580  0.0360 -8.7600  9.9520  0.0580  0.0360 
   525.500 -32.492  10.080  0.0560  0.0260 -10.492  10.080  0.0560  0.0260 
   526.000 -33.610  10.151  0.0480  0.0260 -11.610  10.151  0.0480  0.0260 
   526.500 -34.440  10.085  0.0460  0.0260 -12.440  10.085  0.0460  0.0260 
   527.000 -35.162  9.6300  0.0450  0.0260 -13.162  9.6300  0.0450  0.0260 
   527.500 -35.848  9.3690  0.0430  0.0260 -13.848  9.3690  0.0430  0.0260 
   528.000 -36.029  9.1660  0.0420  0.0260 -14.029  9.1660  0.0420  0.0260 
   528.500 -36.463  9.0350  0.0260  0.0260 -14.463  9.0350  0.0260  0.0260 
   529.000 -36.896  8.9610  0.0210  0.0270 -14.896  8.9610  0.0210  0.0270 
   529.500 -37.275  8.9740  0.0160  0.0270 -15.275  8.9740  0.0160  0.0270 
   530.000 -37.654  9.0300  0.0130  0.0270 -15.654  9.0300  0.0130  0.0270 
   530.500 -37.840  9.1130  0.0110  0.0270 -15.840  9.1130  0.0110  0.0270 
   531.000 -37.952  9.1450  0.0100  0.0270 -15.952  9.1450  0.0100  0.0270 
   531.500 -38.065  9.1480  0.0100  0.0270 -16.065  9.1480  0.0100  0.0270 
   532.000 -38.430  9.1300  0.0090  0.0270 -16.430  9.1300  0.0090  0.0270 
   532.500 -39.300  9.0750  0.0090  0.0270 -17.300  9.0750  0.0090  0.0270 
   533.000 -40.926  8.9280  5.3560  0.0270 -18.926  8.9280  5.3560  0.0270 
   533.500 -41.400  8.7440  6.7700  0.0270 -19.400  8.7440  6.7700  0.0270 
   534.000 -40.936  8.5960  8.2070  0.0280 -18.936  8.5960  8.2070  0.0280 
   534.500 -40.616  8.4760  8.6850  0.0280 -18.616  8.4760  8.6850  0.0280 
   535.000 -40.187  8.4080  8.9040  0.0280 -18.187  8.4080  8.9040  0.0280 
   535.500 -39.795  8.3390  9.0520  0.0280 -17.795  8.3390  9.0520  0.0280 
   536.000 -39.601  8.2840  9.1050  0.0280 -17.601  8.2840  9.1050  0.0280 
   536.500 -39.407  8.2590  9.1590  0.0280 -17.407  8.2590  9.1590  0.0280 
   537.000 -39.196  8.2480  9.2630  0.0280 -17.196  8.2480  9.2630  0.0280 
   537.500 -39.309  8.2580  9.1300  0.0280 -17.309  8.2580  9.1300  0.0280 
   538.000 -39.566  8.3190  8.8590  0.0280 -17.566  8.3190  8.8590  0.0280 
   538.500 -39.786  8.4010  8.7110  0.0280 -17.786  8.4010  8.7110  0.0280 
   539.000 -40.187  8.6280  8.5700  0.0280 -18.187  8.6280  8.5700  0.0280 
   539.500 -40.660  8.8330  8.4290  0.0290 -18.660  8.8330  8.4290  0.0290 
   540.000 -40.953  9.1670  8.3610  0.0290 -18.953  9.1670  8.3610  0.0290 
   540.500 -41.102  9.5760  8.3080  0.0290 -19.102  9.5760  8.3080  0.0290 
   541.000 -41.250  10.070  8.7530  0.0290 -19.250  10.070  8.7530  0.0290 
   541.500 -41.472  10.608  8.9700  0.0290 -19.472  10.608  8.9700  0.0290 
   542.000 -41.584  11.125  9.1880  1.1020 -19.584  11.125  9.1880  1.1020 
   542.500 -41.661  11.821  9.3940  4.3640 -19.661  11.821  9.3940  4.3640 
   543.000 -41.702  12.273  9.5290  5.8910 -19.702  12.273  9.5290  5.8910 
   543.500 -41.742  12.962  9.6100  6.8770 -19.742  12.962  9.6100  6.8770 
   544.000 -41.566  13.399  9.6900  8.7350 -19.566  13.399  9.6900  8.7350 
   544.500 -41.463  13.685  9.8680  9.1240 -19.463  13.685  9.8680  9.1240 
   545.000 -41.575  14.165  10.111  9.9880 -19.575  14.165  10.111  9.9880 
   545.500 -41.868  14.897  10.303  11.133 -19.868  14.897  10.303  11.133 
   546.000 -42.053  15.810  10.625  12.350 -20.053  15.810  10.625  12.350 
   546.500 -41.877  16.233  11.084  13.560 -19.877  16.233  11.084  13.560 
   547.000 -41.413  16.605  11.960  14.532 -19.413  16.605  11.960  14.532 
   547.500 -41.130  16.833  12.462  15.555 -19.130  16.833  12.462  15.555 
   548.000 -40.954  17.018  13.007  15.829 -18.954  17.018  13.007  15.829 
   548.500 -40.778  17.131  13.408  16.073 -18.778  17.131  13.408  16.073 
   549.000 -40.566  17.122  14.040  16.614 -18.566  17.122  14.040  16.614 
   549.500 -40.354  17.091  15.067  16.887 -18.354  17.091  15.067  16.887 
   550.000 -39.998  17.010  15.382  17.161 -17.998  17.010  15.382  17.161 
   550.500 -39.821  16.764  15.720  17.246 -17.821  16.764  15.720  17.246 
   551.000 -39.643  15.965  15.878  17.246 -17.643  15.965  15.878  17.246 
   551.500 -39.610  12.637  16.094  17.180 -17.610  12.637  16.094  17.180 
   552.000 -39.685  11.852  16.266  16.560 -17.685  11.852  16.266  16.560 
   552.500 -39.723  11.441  16.338  14.687 -17.723  11.441  16.338  14.687 
   553.000 -39.222  11.203  15.985  13.779 -17.222  11.203  15.985  13.779 
   553.500 -38.647  11.145  15.552  10.358 -16.647  11.145  15.552  10.358 
   554.000 -39.011  11.613  12.189  9.8890 -17.011  11.613  12.189  9.8890 
   554.500 -39.482  12.174  11.980  9.7300 -17.482  12.174  11.980  9.7300 
   555.000 -41.647  13.492  11.821  10.370 -19.647  13.492  11.821  10.370 
   555.500 -43.417  14.024  13.765  11.133 -21.417  14.024  13.765  11.133 
   556.000 -44.429  14.398  14.168  11.607 -22.429  14.398  14.168  11.607 
   556.500 -44.864  14.686  14.427  12.226 -22.864  14.686  14.427  12.226 
   557.000 -45.372  14.880  16.227  12.542 -23.372  14.880  16.227  12.542 
   557.500 -45.663  15.081  17.357  13.024 -23.663  15.081  17.357  13.024 
   558.000 -45.846  15.189  17.738  14.089 -23.846  15.189  17.738  14.089 
   558.500 -44.875  15.347  18.012  14.570 -22.875  15.347  18.012  14.570 
   559.000 -44.553  15.505  18.436  14.800 -22.553  15.505  18.436  14.800 
   559.500 -44.520  15.606  18.997  14.965 -22.520  15.606  18.997  14.965 
   560.000 -44.558  15.634  19.127  15.144 -22.558  15.634  19.127  15.144 
   560.500 -44.814  15.000  19.307  15.238 -22.814  15.000  19.307  15.238 
   561.000 -44.924  14.676  19.544  15.208 -22.924  14.676  19.544  15.208 
   561.500 -44.351  14.525  19.753  15.093 -22.351  14.525  19.753  15.093 
   562.000 -43.524  14.583  19.926  15.013 -21.524  14.583  19.926  15.013 
   562.500 -42.986  14.979  19.933  14.984 -20.986  14.979  19.933  14.984 
