~Version Information
VERS.                     2.0: CWLS log ASCII Standard Version 2.00
WRAP.                      NO: One line per depth step
~Well Information Block
#MNEM.UNIT                               Data Type  Information
#---------                               ---------  -----------
STRT.FT                                   510.0000:
STOP.FT                                  7204.0000:
STEP.FT                                     0.5000:
NULL.                 -999.25                     :
COMP.                                             :COMPANY            
WELL.     LLU 41-28                               :WELL               
FLD .                                             :FIELD              
CTRY.                                             :COUNTRY            
STAT.                                             :STATE              
LOC .                                             :LOCATION           
UWI .                                             :UNIQUE WELL ID     
SRVC.                                             :Service company    
DATE.                                             :LOG DATE           
~Curve Information
#MNEM.UNIT           API CODE  Curve Description
#---------           --------  -----------------
DEPT.FT                      :   1 DEPTH
SP  .MV                      :   2
AM16.OHMM                    :   3
AO10.OHMM                    :   4
AO19.OHMM                    :   5
SBL .MV                      :   6
RS  .OHMM                    :   7
RM  .OHMM                    :   8
RD  .OHMM                    :   9
~A
# ...
  2259.000 -27.403  3.6940  8.2400  7.9610 -9.9351  3.6940  8.2400  7.9610 
  2259.500 -26.682  3.5510  8.1400  7.8670 -9.2205  3.5510  8.1400  7.8670 
  2260.000 -26.249  3.4870  6.7070  7.7740 -8.7939  3.4870  6.7070  7.7740 
  2260.500 -25.853  3.4800  6.2470  6.5130 -8.4043  3.4800  6.2470  6.5130 
  2261.000 -25.547  3.5020  6.1310  6.1830 -8.1047  3.5020  6.1310  6.1830 
  2261.500 -25.242  3.5310  6.1750  6.0100 -7.8061  3.5310  6.1750  6.0100 
  2262.000 -25.063  3.5630  6.2900  6.3930 -7.6335  3.5630  6.2900  6.3930 
  2262.500 -25.137  3.5960  6.5710  6.5520 -7.7139  3.5960  6.5710  6.5520 
  2263.000 -25.175  3.7260  6.7160  6.6960 -7.7583  3.7260  6.7160  6.6960 
  2263.500 -25.231  3.8120  6.8170  6.8630 -7.8207  3.8120  6.8170  6.8630 
  2264.000 -25.287  3.8780  6.8100  6.9500 -7.8832  3.8780  6.8100  6.9500 
  2264.500 -25.361  3.9280  6.4430  6.9430 -7.9636  3.9280  6.4430  6.9430 
  2265.000 -25.471  3.9860  6.1190  6.9360 -8.0800  3.9860  6.1190  6.9360 
  2265.500 -25.871  4.0650  5.9750  6.9220 -8.4864  4.0650  5.9750  6.9220 
  2266.000 -26.958  4.2020  6.0470  7.3190 -9.5798  4.2020  6.0470  7.3190 
  2266.500 -29.384  4.2750  6.4360  7.9540 -12.012  4.2750  6.4360  7.9540 
  2267.000 -31.955  4.3510  6.7320  8.4730 -14.590  4.3510  6.7320  8.4730 
  2267.500 -33.911  4.4260  7.0270  9.0570 -16.552  4.4260  7.0270  9.0570 
  2268.000 -34.383  4.4480  7.2360  9.3670 -17.030  4.4480  7.2360  9.3670 
  2268.500 -33.010  4.4480  7.3160  9.5990 -15.664  4.4480  7.3160  9.5990 
  2269.000 -28.055  4.3910  7.3300  9.6710 -10.715  4.3910  7.3300  9.6710 
  2269.500 -26.826  4.3410  6.6320  9.6210 -9.4927  4.3410  6.6320  9.6210 
  2270.000 -26.484  4.2400  5.6160  9.2830 -9.1571  4.2400  5.6160  9.2830 
  2270.500 -26.142  4.1460  5.1690  7.1220 -8.8215  4.1460  5.1690  7.1220 
  2271.000 -26.000  4.0670  4.8450  6.6190 -8.6859  4.0670  4.8450  6.6190 
  2271.500 -26.653  4.0030  4.6510  6.5110 -9.3453  4.0030  4.6510  6.5110 
  2272.000 -27.704  4.0890  4.5000  6.4180 -10.403  4.0890  4.5000  6.4180 
  2272.500 -29.623  4.2480  4.4070  6.7790 -12.328  4.2480  4.4070  6.7790 
  2273.000 -32.194  4.3420  4.3490  7.0310 -14.906  4.3420  4.3490  7.0310 
  2273.500 -34.475  4.3850  4.6300  7.2120 -17.193  4.3850  4.6300  7.2120 
  2274.000 -35.418  4.4070  4.9830  7.4000 -18.142  4.4070  4.9830  7.4000 
  2274.500 -36.251  4.4140  5.1710  7.5880 -18.982  4.4140  5.1710  7.5880 
  2275.000 -36.687  4.3640  5.3660  7.6170 -19.424  4.3640  5.3660  7.6170 
  2275.500 -31.226  4.2130  5.3730  7.5600 -13.970  4.2130  5.3730  7.5600 
  2276.000 -28.840  4.0620  5.2000  7.2650 -11.590  4.0620  5.2000  7.2650 
  2276.500 -27.213  3.8170  4.4730  6.7330 -9.9694  3.8170  4.4730  6.7330 
  2277.000 -26.130  3.6370  4.2860  5.9260 -8.8928  3.6370  4.2860  5.9260 
  2277.500 -25.336  3.5010  4.0410  5.3140 -8.1052  3.5010  4.0410  5.3140 
  2278.000 -25.048  3.4570  3.8970  4.9760 -7.8236  3.4570  3.8970  4.9760 
  2278.500 -24.833  3.4140  3.8320  4.8040 -7.6151  3.4140  3.8320  4.8040 
  2279.000 -24.726  3.4150  3.9260  4.6390 -7.5145  3.4150  3.9260  4.6390 
  2279.500 -24.728  3.5120  4.0060  4.4810 -7.5229  3.5120  4.0060  4.4810 
  2280.000 -24.947  3.6100  4.1070  4.4310 -7.7483  3.6100  4.1070  4.4310 
  2280.500 -25.452  3.8110  4.1640  4.4300 -8.2597  3.8110  4.1640  4.4300 
  2281.000 -25.994  4.0550  4.2930  4.4940 -8.8081  4.0550  4.2930  4.4940 
  2281.500 -27.441  4.3580  4.4300  4.7740 -10.262  4.3580  4.4300  4.7740 
  2282.000 -29.466  4.7030  4.6020  5.3930 -12.293  4.7030  4.6020  5.3930 
  2282.500 -31.997  5.2000  4.9050  5.8170 -14.830  5.2000  4.9050  5.8170 
  2283.000 -34.023  5.6100  5.0910  6.1470 -16.863  5.6100  5.0910  6.1470 
  2283.500 -39.340  6.1140  5.4440  6.2690 -22.186  6.1140  5.4440  6.2690 
  2284.000 -43.247  6.5970  5.7610  6.3620 -26.100  6.5970  5.7610  6.3620 
  2284.500 -45.091  6.7910  6.0990  6.4620 -27.950  6.7910  6.0990  6.4620 
  2285.000 -45.489  6.9990  6.2790  6.5400 -28.354  6.9990  6.2790  6.5400 
  2285.500 -45.849  7.2220  6.4590  6.6040 -28.721  7.2220  6.4590  6.6040 
  2286.000 -46.246  7.3440  6.5590  6.6680 -29.124  7.3440  6.5590  6.6680 
  2286.500 -46.535  7.4340  6.7030  6.8400 -29.420  7.4340  6.7030  6.8400 
  2287.000 -46.824  7.5240  6.7170  6.8970 -29.715  7.5240  6.7170  6.8970 
  2287.500 -46.859  7.5950  6.6160  6.9890 -29.756  7.5950  6.6160  6.9890 
  2288.000 -46.496  7.6350  6.4780  7.0460 -29.400  7.6350  6.4780  7.0460 
  2288.500 -46.170  7.6740  6.3810  7.1240 -29.080  7.6740  6.3810  7.1240 
  2289.000 -45.879  7.7640  6.2830  7.1450 -28.796  7.7640  6.2830  7.1450 
  2289.500 -45.770  7.8530  6.1100  7.0360 -28.693  7.8530  6.1100  7.0360 
  2290.000 -45.733  8.0550  6.0090  6.9130 -28.662  8.0550  6.0090  6.9130 
  2290.500 -45.623  8.2420  6.0950  6.8400 -28.559  8.2420  6.0950  6.8400 
  2291.000 -45.622  8.3490  6.1810  6.8750 -28.564  8.3490  6.1810  6.8750 
  2291.500 -45.730  8.5000  6.4900  6.9610 -28.679  8.5000  6.4900  6.9610 
  2292.000 -45.838  8.5940  6.8570  7.1040 -28.793  8.5940  6.8570  7.1040 
  2292.500 -45.873  8.6150  7.2960  7.3620 -28.835  8.6150  7.2960  7.3620 
  2293.000 -45.872  8.4990  7.8080  7.5630 -28.840  8.4990  7.8080  7.5630 
  2293.500 -44.894  8.2900  8.1670  7.9010 -27.868  8.2900  8.1670  7.9010 
  2294.000 -44.278  8.0090  8.3760  7.9680 -27.259  8.0090  8.3760  7.9680 
  2294.500 -40.732  7.7130  8.6420  8.0360 -23.719  7.7130  8.6420  8.0360 
  2295.000 -34.544  6.1490  8.7210  8.0210 -17.538  6.1490  8.7210  8.0210 
  2295.500 -32.119  5.5000  8.7140  7.4720 -15.119  5.5000  8.7140  7.4720 
  2296.000 -29.730  4.9160  8.6050  6.7000 -12.736  4.9160  8.6050  6.7000 
  2296.500 -27.269  4.5850  7.8560  5.9790 -10.282  4.5850  7.8560  5.9790 
  2297.000 -26.182  4.3030  6.0540  5.3940 -9.2012  4.3030  6.0540  5.3940 
  2297.500 -25.530  4.2160  5.6210  4.5360 -8.5556  4.2160  5.6210  4.5360 
  2298.000 -25.385  4.1950  5.2750  4.1170 -8.4171  4.1950  5.2750  4.1170 
  2298.500 -26.433  4.2660  5.0880  3.9800 -9.4715  4.2660  5.0880  3.9800 
  2299.000 -27.952  4.3160  5.0010  4.1370 -10.997  4.3160  5.0010  4.1370 
  2299.500 -30.773  4.3660  6.6720  4.7340 -13.824  4.3660  6.6720  4.7340 
  2300.000 -35.656  4.8990  7.1400  5.0800 -18.714  4.8990  7.1400  5.0800 
  2300.500 -37.570  5.1870  7.5360  5.4250 -20.634  5.1870  7.5360  5.4250 
  2301.000 -38.580  5.2810  7.6950  5.8140 -21.651  5.2810  7.6950  5.8140 
  2301.500 -36.405  5.2600  7.8820  5.9650 -19.482  5.2600  7.8820  5.9650 
  2302.000 -30.649  5.0730  7.9980  5.9650 -13.732  5.0730  7.9980  5.9650 
  2302.500 -27.280  4.7490  8.0050  5.7130 -10.370  4.7490  8.0050  5.7130 
  2303.000 -25.830  4.5980  7.7390  5.4680 -8.9262  4.5980  7.7390  5.4680 
  2303.500 -25.175  4.3380  6.7020  4.9780 -8.2776  4.3380  6.7020  4.9780 
  2304.000 -24.882  4.0940  6.1040  4.5680 -7.9910  4.0940  6.1040  4.5680 
  2304.500 -24.733  3.8270  5.8450  4.3300 -7.8484  3.8270  5.8450  4.3300 
  2305.000 -24.657  3.7340  5.5280  4.1710 -7.7788  3.7340  5.5280  4.1710 
  2305.500 -24.654  3.6110  5.2330  4.0350 -7.7822  3.6110  5.2330  4.0350 
  2306.000 -24.542  3.5040  4.9450  3.9770 -7.6766  3.5040  4.9450  3.9770 
  2306.500 -24.321  3.4750  4.6850  3.9630 -7.4620  3.4750  4.6850  3.9630 
  2307.000 -24.209  3.4540  4.4480  3.9770 -7.3564  3.4540  4.4480  3.9770 
  2307.500 -24.205  3.4540  4.2680  4.0270 -7.3588  3.4540  4.2680  4.0270 
  2308.000 -24.346  3.4760  4.1310  4.0890 -7.5063  3.4760  4.1310  4.0890 
  2308.500 -24.523  3.4970  4.0660  4.1500 -7.6897  3.4970  4.0660  4.1500 
  2309.000 -24.665  3.5980  4.0310  4.3660 -7.8381  3.5980  4.0310  4.3660 
  2309.500 -24.516  3.6630  4.0600  4.5170 -7.6955  3.6630  4.0600  4.5170 
  2310.000 -24.259  3.7390  4.3840  4.6970 -7.4449  3.7390  4.3840  4.6970 
  2310.500 -24.002  3.8150  4.7520  5.0070 -7.1943  3.8150  4.7520  5.0070 
  2311.000 -23.854  3.9810  5.1120  5.3240 -7.0527  3.9810  5.1120  5.3240 
  2311.500 -23.670  4.1400  5.4440  5.5040 -6.8751  4.1400  5.4440  5.5040 
