~Version Information
VERS.                     2.0: CWLS log ASCII Standard Version 2.00
WRAP.                      NO: One line per depth step
~Well Information Block
#MNEM.UNIT                               Data Type  Information
#---------                               ---------  -----------
STRT.FT                                   510.0000:
STOP.FT                                  7204.0000:
STEP.FT                                     0.5000:
NULL.                 -999.25                     :
COMP.                                             :COMPANY            
WELL.     LLU 41-28                               :WELL               
FLD .                                             :FIELD              
CTRY.                                             :COUNTRY            
STAT.                                             :STATE              
LOC .                                             :LOCATION           
UWI .                                             :UNIQUE WELL ID     
SRVC.                                             :Service company    
DATE.                                             :LOG DATE           
~Curve Information
#MNEM.UNIT           API CODE  Curve Description
#---------           --------  -----------------
DEPT.FT                      :   1 DEPTH
SP  .MV                      :   2
AM16.OHMM                    :   3
AO10.OHMM                    :   4
AO19.OHMM                    :   5
SBL .MV                      :   6
RS  .OHMM                    :   7
RM  .OHMM                    :   8
RD  .OHMM                    :   9
~A
# ...
  2736.000 -21.193  3.6760  4.6820  5.0410 -6.2982  3.6760  4.6820  5.0410 
  2736.500 -21.156  3.6870  4.3720  5.0740 -6.2627  3.6870  4.3720  5.0740 
  2737.000 -21.011  3.7150  4.0980  5.1060 -6.1192  3.7150  4.0980  5.1060 
  2737.500 -20.992  3.7440  3.9820  5.0340 -6.1018  3.7440  3.9820  5.0340 
  2738.000 -20.973  3.7730  3.9490  4.9550 -6.0843  3.7730  3.9490  4.9550 
  2738.500 -20.864  3.9600  3.9170  4.9410 -5.9768  3.9600  3.9170  4.9410 
  2739.000 -20.862  4.0970  4.0320  5.2290 -5.9763  4.0970  4.0320  5.2290 
  2739.500 -20.826  4.2630  4.1400  5.4810 -5.9419  4.2630  4.1400  5.4810 
  2740.000 -20.825  4.4000  4.2700  5.7190 -5.9424  4.4000  4.2700  5.7190 
  2740.500 -20.856  4.4720  4.3430  5.8790 -5.9749  4.4720  4.3430  5.8790 
  2741.000 -20.924  4.5450  4.3790  5.9650 -6.0444  4.5450  4.3790  5.9650 
  2741.500 -21.028  4.6540  4.3730  6.1100 -6.1500  4.6540  4.3730  6.1100 
  2742.000 -21.168  4.7130  4.3230  6.1540 -6.2915  4.7130  4.3230  6.1540 
  2742.500 -21.380  4.7710  4.2730  6.1540 -6.5050  4.7710  4.2730  6.1540 
  2743.000 -21.556  4.8730  4.2310  6.1110 -6.6825  4.8730  4.2310  6.1110 
  2743.500 -22.021  5.1690  4.1880  6.0320 -7.1490  5.1690  4.1880  6.0320 
  2744.000 -23.245  5.5310  4.1890  5.9750 -8.3746  5.5310  4.1890  5.9750 
  2744.500 -27.033  5.6900  4.3990  5.9680 -12.164  5.6900  4.3990  5.9680 
  2745.000 -28.059  5.9650  4.7390  6.0400 -13.192  5.9650  4.7390  6.0400 
  2745.500 -29.084  6.1240  4.8510  6.0980 -14.218  6.1240  4.8510  6.0980 
  2746.000 -31.643  6.2830  4.9640  6.1280 -16.779  6.2830  4.9640  6.1280 
  2746.500 -33.517  6.6380  5.1730  6.1500 -18.654  6.6380  5.1730  6.1500 
  2747.000 -34.488  6.8400  5.1890  6.1360 -19.627  6.8400  5.1890  6.1360 
  2747.500 -34.953  7.0430  5.1750  6.0280 -20.093  7.0430  5.1750  6.0280 
  2748.000 -35.346  7.3750  5.1610  5.9700 -20.488  7.3750  5.1610  5.9700 
  2748.500 -35.486  7.5780  5.1620  6.1150 -20.629  7.5780  5.1620  6.1150 
  2749.000 -35.915  8.0690  5.6170  6.3820 -21.060  8.0690  5.6170  6.3820 
  2749.500 -38.548  8.6180  6.2090  6.6420 -23.694  8.6180  6.2090  6.6420 
  2750.000 -41.397  9.1380  6.5710  7.0610 -26.545  9.1380  6.5710  7.0610 
  2750.500 -45.113  9.6370  6.7080  7.2920 -30.262  9.6370  6.7080  7.2920 
  2751.000 -46.120  10.149  6.8460  7.4660 -31.271  10.149  6.8460  7.4660 
  2751.500 -46.242  11.275  7.2430  7.6170 -31.394  11.275  7.2430  7.6170 
  2752.000 -46.364  11.903  7.5620  7.7190 -31.518  11.903  7.5620  7.7190 
  2752.500 -46.576  12.229  7.8800  7.8020 -31.731  12.229  7.8800  7.8020 
  2753.000 -46.788  12.453  8.1470  7.8850 -31.945  12.453  8.1470  7.8850 
  2753.500 -47.019  12.706  8.3860  8.0230 -32.178  12.706  8.3860  8.0230 
  2754.000 -47.249  12.930  8.6320  8.1460 -32.409  12.930  8.6320  8.1460 
  2754.500 -47.533  13.075  8.9350  8.3120 -32.695  13.075  8.9350  8.3120 
  2755.000 -47.817  13.220  9.3040  8.3990 -32.980  13.220  9.3040  8.3990 
  2755.500 -48.030  13.401  9.6080  8.5070 -33.195  13.401  9.6080  8.5070 
  2756.000 -48.314  13.590  9.8610  8.5870 -33.480  13.590  9.8610  8.5870 
  2756.500 -48.599  13.735  10.049  8.6020 -33.767  13.735  10.049  8.6020 
  2757.000 -48.630  13.829  10.237  8.5730 -33.799  13.829  10.237  8.5730 
  2757.500 -48.572  13.931  10.555  8.5670 -33.743  13.931  10.555  8.5670 
  2758.000 -48.513  14.061  10.787  8.5530 -33.685  14.061  10.787  8.5530 
  2758.500 -48.255  14.307  11.047  8.5530 -33.429  14.307  11.047  8.5530 
  2759.000 -48.179  14.532  12.390  8.5890 -33.354  14.532  12.390  8.5890 
  2759.500 -48.463  14.763  12.866  8.7770 -33.640  14.763  12.866  8.7770 
  2760.000 -48.734  14.890  13.884  9.0300 -33.912  14.890  13.884  9.0300 
  2760.500 -49.005  15.017  14.346  9.2610 -34.185  15.017  14.346  9.2610 
  2761.000 -49.658  15.162  14.765  9.3410 -34.839  15.162  14.765  9.3410 
  2761.500 -49.878  15.264  15.083  9.3990 -35.061  15.264  15.083  9.3990 
  2762.000 -50.171  15.304  15.351  9.4870 -35.355  15.304  15.351  9.4870 
  2762.500 -50.427  15.344  15.828  9.5380 -35.613  15.344  15.828  9.5380 
  2763.000 -50.539  15.396  16.247  9.5920 -35.727  15.396  16.247  9.5920 
  2763.500 -50.723  15.317  16.565  9.6470 -35.912  15.317  16.565  9.6470 
  2764.000 -50.835  14.979  17.813  9.7560 -36.026  14.979  17.813  9.7560 
  2764.500 -50.731  14.698  18.297  9.8500 -35.923  14.698  18.297  9.8500 
  2765.000 -50.373  14.569  18.464  9.9220 -35.567  14.569  18.464  9.9220 
  2765.500 -50.160  14.303  18.602  9.9950 -35.355  14.303  18.602  9.9950 
  2766.000 -49.947  14.102  18.689  10.075 -35.144  14.102  18.689  10.075 
  2766.500 -49.662  13.857  18.776  10.083 -34.860  13.857  18.776  10.083 
  2767.000 -49.557  13.721  18.809  9.9390 -34.757  13.721  18.809  9.9390 
  2767.500 -49.452  13.556  18.842  9.8390 -34.653  13.556  18.842  9.8390 
  2768.000 -49.167  13.398  18.670  9.7890 -34.370  13.398  18.670  9.7890 
  2768.500 -48.882  13.211  18.563  9.7170 -34.086  13.211  18.563  9.7170 
  2769.000 -48.451  13.046  18.426  9.6670 -33.657  13.046  18.426  9.6670 
  2769.500 -48.202  12.924  18.333  9.9420 -33.409  12.924  18.333  9.9420 
  2770.000 -47.556  12.773  18.356  10.252 -32.765  12.773  18.356  10.252 
  2770.500 -45.753  12.651  18.472  10.635 -30.963  12.651  18.472  10.635 
  2771.000 -45.143  12.573  18.595  11.090 -30.355  12.573  18.595  11.090 
  2771.500 -45.146  12.696  18.747  11.769 -30.359  12.696  18.747  11.769 
  2772.000 -47.173  12.776  18.943  12.440 -32.388  12.776  18.943  12.440 
  2772.500 -48.115  12.885  19.160  12.852 -33.331  12.885  19.160  12.852 
  2773.000 -48.589  12.965  19.391  13.155 -33.807  12.965  19.391  13.155 
  2773.500 -48.664  13.016  19.558  13.459 -33.884  13.016  19.558  13.459 
  2774.000 -48.632  12.909  19.703  13.748 -33.853  12.909  19.703  13.748 
  2774.500 -47.660  12.441  19.819  14.044 -32.883  12.441  19.819  14.044 
  2775.000 -45.966  12.009  19.906  14.492 -31.190  12.009  19.906  14.492 
  2775.500 -43.983  11.216  19.972  14.781 -29.209  11.216  19.972  14.781 
  2776.000 -42.181  10.589  19.994  14.983 -27.408  10.589  19.994  14.983 
  2776.500 -40.270  9.8330  19.995  15.121 -25.499  9.8330  19.995  15.121 
  2777.000 -36.011  8.0810  19.996  15.172 -21.241  8.0810  19.996  15.172 
  2777.500 -27.923  6.7400  19.607  15.078 -13.155  6.7400  19.607  15.078 
  2778.000 -25.253  5.3200  19.096  14.733 -10.486  5.3200  19.096  14.733 
  2778.500 -23.668  4.5850  18.447  13.060 -8.9028  4.5850  18.447  13.060 
  2779.000 -22.660  4.3190  16.941  11.661 -7.8963  4.3190  16.941  11.661 
  2779.500 -22.013  4.1970  15.297  7.2910 -7.2508  4.1970  15.297  7.2910 
  2780.000 -22.233  4.2050  7.7530  6.8880 -7.4723  4.2050  7.7530  6.8880 
  2780.500 -22.592  4.2880  7.2700  6.8070 -7.8329  4.2880  7.2700  6.8070 
  2781.000 -23.203  4.3700  7.1180  6.7700 -8.4454  4.3700  7.1180  6.7700 
  2781.500 -23.923  4.4780  7.2410  7.0000 -9.1669  4.4780  7.2410  7.0000 
  2782.000 -24.968  4.5210  7.4280  7.3160 -10.213  4.5210  7.4280  7.3160 
  2782.500 -27.783  4.5360  7.6080  7.4810 -13.030  4.5360  7.6080  7.4810 
  2783.000 -28.647  4.5720  7.6730  7.6310 -13.895  4.5720  7.6730  7.6310 
  2783.500 -29.222  4.5820  7.8310  7.7100 -14.472  4.5820  7.8310  7.7100 
  2784.000 -28.642  4.5930  7.7450  7.5790 -13.894  4.5930  7.7450  7.5790 
  2784.500 -28.314  4.6070  7.5500  7.4770 -13.567  4.6070  7.5500  7.4770 
  2785.000 -27.986  4.6360  7.3550  7.4040 -13.241  4.6360  7.3550  7.4040 
  2785.500 -27.478  4.6860  7.2390  7.3450 -12.734  4.6860  7.2390  7.3450 
  2786.000 -28.125  5.1040  7.4410  7.6750 -13.383  5.1040  7.4410  7.6750 
  2786.500 -32.710  5.5300  7.9240  8.3090 -17.969  5.5300  7.9240  8.3090 
  2787.000 -35.164  5.7820  8.2120  8.7840 -20.425  5.7820  8.2120  8.7840 
  2787.500 -35.450  5.9040  8.3930  8.9490 -20.712  5.9040  8.3930  8.9490 
  2788.000 -34.725  5.9110  8.5510  9.1640 -19.989  5.9110  8.5510  9.1640 
  2788.500 -33.855  5.8100  8.6370  9.2780 -19.120  5.8100  8.6370  9.2780 
