~Version Information
VERS.                     2.0: CWLS log ASCII Standard Version 2.00
WRAP.                      NO: One line per depth step
~Well Information Block
#MNEM.UNIT                               Data Type  Information
#---------                               ---------  -----------
STRT.FT                                   540.0000:
STOP.FT                                  8500.0000:
STEP.FT                                     0.5000:
NULL.                 -999.25                     :
COMP.                                             :COMPANY            
WELL.     LLU 48-21                               :WELL               
FLD .                                             :FIELD              
CTRY.                                             :COUNTRY            
STAT.                                             :STATE              
LOC .                                             :LOCATION           
UWI .                                             :UNIQUE WELL ID     
SRVC.                                             :Service company    
DATE.                                             :LOG DATE           
~Curve Information
#MNEM.UNIT           API CODE  Curve Description
#---------           --------  -----------------
DEPT.FT                      :   1 DEPTH
SP  .MV                      :   2
AM16.OHMM                    :   3
AM64.OHMM                    :   4
LAT .OHMM                    :   5
SBL .MV                      :   6
RS  .OHMM                    :   7
RM  .OHMM                    :   8
RD  .OHMM                    :   9
~A
# ...
  2130.000 -31.631  3.8390  5.5700  6.4240 -5.8985  3.8390  5.5700  6.4240 
  2130.500 -31.415  3.8210  5.5460  6.4890 -5.6907  3.8210  5.5460  6.4890 
  2131.000 -31.414  3.7850  5.5210  6.5170 -5.6980  3.7850  5.5210  6.5170 
  2131.500 -31.449  3.7640  5.4350  6.5820 -5.7413  3.7640  5.4350  6.5820 
  2132.000 -31.770  3.7570  5.3780  6.7330 -6.0706  3.7570  5.3780  6.7330 
  2132.500 -32.451  3.7430  5.3130  6.8410 -6.7599  3.7430  5.3130  6.8410 
  2133.000 -33.847  3.7500  5.2280  6.8700 -8.1642  3.7500  5.2280  6.8700 
  2133.500 -34.133  3.7580  5.1350  6.8630 -8.4584  3.7580  5.1350  6.8630 
  2134.000 -33.666  3.7510  4.9910  6.8200 -7.9997  3.7510  4.9910  6.8200 
  2134.500 -33.880  3.7370  4.9200  6.7990 -8.2220  3.7370  4.9200  6.7990 
  2135.000 -34.238  3.7150  4.8840  6.7560 -8.5883  3.7150  4.8840  6.7560 
  2135.500 -34.058  3.6650  4.9200  6.7130 -8.4166  3.6650  4.9200  6.7130 
  2136.000 -34.021  3.5940  4.9920  6.5550 -8.3879  3.5940  4.9920  6.5550 
  2136.500 -33.626  3.4790  5.0280  6.3330 -8.0011  3.4790  5.0280  6.3330 
  2137.000 -32.872  3.3290  5.1070  6.0470 -7.2554  3.3290  5.1070  6.0470 
  2137.500 -32.333  3.1860  5.1650  5.8250 -6.7247  3.1860  5.1650  5.8250 
  2138.000 -31.759  3.0780  5.2150  5.4660 -6.1590  3.0780  5.2150  5.4660 
  2138.500 -31.435  3.0070  5.2660  5.1440 -5.8433  3.0070  5.2660  5.1440 
  2139.000 -30.968  2.9780  5.2870  4.8500 -5.3846  2.9780  5.2870  4.8500 
  2139.500 -30.681  2.9430  5.3020  4.7000 -5.1059  2.9430  5.3020  4.7000 
  2140.000 -30.465  2.9360  5.2660  4.9010 -4.8981  2.9360  5.2660  4.9010 
  2140.500 -30.213  2.9500  5.2310  4.9940 -4.6544  2.9500  5.2310  4.9940 
  2141.000 -30.140  2.9940  5.1590  5.0730 -4.5897  2.9940  5.1590  5.0730 
  2141.500 -30.067  3.0150  5.0810  5.1880 -4.5250  3.0150  5.0810  5.1880 
  2142.000 -30.031  3.0370  5.0310  5.2100 -4.4973  3.0370  5.0310  5.2100 
  2142.500 -29.958  3.1450  4.9230  5.3030 -4.4326  3.1450  4.9230  5.3030 
  2143.000 -29.993  3.1810  4.8450  5.5120 -4.4758  3.1810  4.8450  5.5120 
  2143.500 -30.135  3.2390  4.7950  5.6690 -4.6261  3.2390  4.7950  5.6690 
  2144.000 -30.188  3.2960  4.7450  5.8420 -4.6874  3.2960  4.7450  5.8420 
  2144.500 -30.241  3.3250  4.7310  5.9710 -4.7487  3.3250  4.7310  5.9710 
  2145.000 -30.276  3.3540  4.7310  6.0430 -4.7920  3.3540  4.7310  6.0430 
  2145.500 -30.203  3.3830  4.7670  6.0860 -4.7273  3.3830  4.7670  6.0860 
  2146.000 -30.130  3.3900  4.8100  6.0510 -4.6625  3.3900  4.8100  6.0510 
  2146.500 -30.022  3.3980  4.8820  5.8570 -4.5628  3.3980  4.8820  5.8570 
  2147.000 -29.913  3.3980  4.9140  5.5630 -4.4621  3.3980  4.9140  5.5630 
  2147.500 -29.697  3.3260  4.9470  5.3990 -4.2544  3.3260  4.9470  5.3990 
  2148.000 -29.481  3.2480  5.0690  5.3340 -4.0467  3.2480  5.0690  5.3340 
  2148.500 -29.373  3.1900  5.1120  5.2700 -3.9470  3.1900  5.1120  5.2700 
  2149.000 -29.658  3.1190  5.1560  5.1340 -4.2402  3.1190  5.1560  5.1340 
  2149.500 -30.159  3.0830  5.2780  5.0270 -4.7495  3.0830  5.2780  5.0270 
  2150.000 -30.373  3.0840  5.3280  4.8980 -4.9718  3.0840  5.3280  4.8980 
  2150.500 -30.482  3.1120  5.3640  4.8040 -5.0891  3.1120  5.3640  4.8040 
  2151.000 -30.627  3.1830  5.4060  4.7680 -5.2424  3.1830  5.4060  4.7680 
  2151.500 -30.771  3.2330  5.3990  4.7790 -5.3947  3.2330  5.3990  4.7790 
  2152.000 -31.131  3.3190  5.3480  4.7890 -5.7630  3.3190  5.3480  4.7890 
  2152.500 -31.778  3.4480  5.2980  4.9680 -6.4182  3.4480  5.2980  4.9680 
  2153.000 -33.033  3.6630  5.2620  5.1900 -7.6815  3.6630  5.2620  5.1900 
  2153.500 -34.325  3.8780  5.2330  5.5560 -8.9818  3.8780  5.2330  5.5560 
  2154.000 -35.975  4.0640  5.2040  5.8710 -10.640  4.0640  5.2040  5.8710 
  2154.500 -37.302  4.1850  5.2040  6.0860 -11.975  4.1850  5.2040  6.0860 
  2155.000 -38.702  4.3280  5.2460  6.2500 -13.384  4.3280  5.2460  6.2500 
  2155.500 -39.922  4.4360  5.2820  6.3360 -14.612  4.4360  5.2820  6.3360 
  2156.000 -40.783  4.5500  5.3250  6.3070 -15.481  4.5500  5.3250  6.3070 
  2156.500 -40.677  4.5710  5.4460  6.2780 -15.384  4.5710  5.4460  6.2780 
  2157.000 -40.356  4.5930  5.5390  6.1700 -15.071  4.5930  5.5390  6.1700 
  2157.500 -39.963  4.6140  5.6250  6.0700 -14.686  4.6140  5.6250  6.0700 
  2158.000 -39.856  4.6350  5.6960  5.9400 -14.587  4.6350  5.6960  5.9400 
  2158.500 -40.503  4.6420  5.7250  5.8180 -15.243  4.6420  5.7250  5.8180 
  2159.000 -40.361  4.6560  5.7390  5.7820 -15.109  4.6560  5.7390  5.7820 
  2159.500 -39.860  4.6990  5.7310  5.9320 -14.616  4.6990  5.7310  5.9320 
  2160.000 -39.252  4.7200  5.6590  6.0680 -14.016  4.7200  5.6590  6.0680 
  2160.500 -39.253  4.7410  5.5660  6.1750 -14.026  4.7410  5.5660  6.1750 
  2161.000 -39.828  4.7770  5.4800  6.2760 -14.609  4.7770  5.4800  6.2760 
  2161.500 -40.188  4.7980  5.4180  6.3180 -14.977  4.7980  5.4180  6.3180 
  2162.000 -40.010  4.7690  5.3570  6.3180 -14.808  4.7690  5.3570  6.3180 
  2162.500 -39.653  4.6400  5.2710  6.3030 -14.459  4.6400  5.2710  6.3030 
  2163.000 -38.543  4.4600  5.3210  6.2890 -13.357  4.4600  5.3210  6.2890 
  2163.500 -37.146  4.2810  5.3850  6.1880 -11.968  4.2810  5.3850  6.1880 
  2164.000 -35.786  4.0220  5.4280  5.9440 -10.617  4.0220  5.4280  5.9440 
  2164.500 -34.998  3.8780  5.4700  5.6930 -9.8371  3.8780  5.4700  5.6930 
  2165.000 -33.853  3.6920  5.5350  5.3840 -8.7003  3.6920  5.5350  5.3840 
  2165.500 -33.066  3.5480  5.5700  5.1610 -7.9216  3.5480  5.5700  5.1610 
  2166.000 -32.314  3.4400  5.5990  4.9750 -7.1779  3.4400  5.5990  4.9750 
  2166.500 -31.527  3.3540  5.6310  4.7810 -6.3992  3.3540  5.6310  4.7810 
  2167.000 -31.062  3.3030  5.6630  4.6510 -5.9425  3.3030  5.6630  4.6510 
  2167.500 -31.422  3.3280  5.7050  4.5220 -6.3108  3.3280  5.7050  4.5220 
  2168.000 -31.459  3.3530  5.7190  4.3860 -6.3560  3.3530  5.7190  4.3860 
  2168.500 -31.281  3.4170  5.7190  4.2420 -6.1863  3.4170  5.7190  4.2420 
  2169.000 -31.031  3.4240  5.7190  4.1120 -5.9446  3.4240  5.7190  4.1120 
  2169.500 -30.818  3.4240  5.7180  4.1190 -5.7399  3.4240  5.7180  4.1190 
  2170.000 -30.747  3.5020  5.7180  4.3340 -5.6772  3.5020  5.7180  4.3340 
  2170.500 -31.215  3.6100  5.6960  4.4920 -6.1535  3.6100  5.6960  4.4920 
  2171.000 -32.255  3.8320  5.6320  4.6850 -7.2017  3.8320  5.6320  4.6850 
  2171.500 -33.404  4.1180  5.5020  4.9360 -8.3590  4.1180  5.5020  4.9360 
  2172.000 -34.982  4.2470  5.4090  5.3230 -9.9453  4.2470  5.4090  5.3230 
  2172.500 -37.241  4.4120  5.3220  5.6740 -12.213  4.4120  5.3220  5.6740 
  2173.000 -39.214  4.5830  5.2650  5.9750 -14.194  4.5830  5.2650  5.9750 
  2173.500 -40.004  4.6910  5.3000  6.1320 -14.992  4.6910  5.3000  6.1320 
  2174.000 -40.148  4.6620  5.3570  6.2320 -15.144  4.6620  5.3570  6.2320 
  2174.500 -39.755  4.5680  5.5000  6.2530 -14.760  4.5680  5.5000  6.2530 
  2175.000 -39.076  4.4170  5.7220  6.1740 -14.089  4.4170  5.7220  6.1740 
  2175.500 -37.571  4.2380  5.8580  5.9660 -12.592  4.2380  5.8580  5.9660 
  2176.000 -35.924  4.0800  5.9590  5.7580 -10.954  4.0800  5.9590  5.7580 
  2176.500 -34.778  3.9580  6.0080  5.5710 -9.8159  3.9580  6.0080  5.5710 
  2177.000 -33.704  3.8860  6.0660  5.3770 -8.7502  3.8860  6.0660  5.3770 
  2177.500 -33.204  3.8920  6.1300  5.5780 -8.2584  3.8920  6.1300  5.5780 
  2178.000 -33.062  3.9140  6.1580  5.7420 -8.1247  3.9140  6.1580  5.7420 
  2178.500 -33.744  4.0280  6.1290  5.9280 -8.8150  4.0280  6.1290  5.9280 
  2179.000 -33.960  4.2290  6.0500  6.0720 -9.0393  4.2290  6.0500  6.0720 
  2179.500 -33.388  4.4080  5.9640  6.0930 -8.4756  4.4080  5.9640  6.0930 
  2180.000 -32.995  4.4790  5.9420  6.0640 -8.0909  4.4790  5.9420  6.0640 
  2180.500 -32.746  4.6370  5.9850  6.0280 -7.8501  4.6370  5.9850  6.0280 
  2181.000 -32.532  4.7870  6.0990  6.0990 -7.6444  4.7870  6.0990  6.0990 
  2181.500 -32.605  4.9230  6.1490  6.2780 -7.7257  4.9230  6.1490  6.2780 
  2182.000 -32.821  5.0090  6.1200  6.4360 -7.9500  5.0090  6.1200  6.4360 
  2182.500 -33.468  5.0660  6.0840  6.5070 -8.6053  5.0660  6.0840  6.5070 
