~Version Information
VERS.                     2.0: CWLS log ASCII Standard Version 2.00
WRAP.                      NO: One line per depth step
~Well Information Block
#MNEM.UNIT                               Data Type  Information
#---------                               ---------  -----------
STRT.FT                                   510.0000:
STOP.FT                                  7204.0000:
STEP.FT                                     0.5000:
NULL.                 -999.25                     :
COMP.                                             :COMPANY            
WELL.     LLU 41-28                               :WELL               
FLD .                                             :FIELD              
CTRY.                                             :COUNTRY            
STAT.                                             :STATE              
LOC .                                             :LOCATION           
UWI .                                             :UNIQUE WELL ID     
SRVC.                                             :Service company    
DATE.                                             :LOG DATE           
~Curve Information
#MNEM.UNIT           API CODE  Curve Description
#---------           --------  -----------------
DEPT.FT                      :   1 DEPTH
SP  .MV                      :   2
AM16.OHMM                    :   3
AO10.OHMM                    :   4
AO19.OHMM                    :   5
SBL .MV                      :   6
RS  .OHMM                    :   7
RM  .OHMM                    :   8
RD  .OHMM                    :   9
~A
# ...
  6711.000 -17.353  1.8930  1.6440  2.0370 -5.4732  1.8930  1.6440  2.0370 
  6711.500 -17.861  1.9100  1.5780  1.9930 -5.9932  1.9100  1.5780  1.9930 
  6712.000 -18.223  1.9420  1.5600  1.9560 -6.3672  1.9420  1.5600  1.9560 
  6712.500 -18.406  1.9730  1.5410  1.9200 -6.5623  1.9730  1.5410  1.9200 
  6713.000 -18.193  2.0050  1.5180  1.8400 -6.3613  2.0050  1.5180  1.8400 
  6713.500 -18.124  2.0360  1.4960  1.7890 -6.3043  2.0360  1.4960  1.7890 
  6714.000 -18.198  2.0930  1.4660  1.7380 -6.3903  2.0930  1.4660  1.7380 
  6714.500 -18.706  2.1350  1.4650  1.7080 -6.9103  2.1350  1.4650  1.7080 
  6715.000 -18.852  2.1780  1.4710  1.7000 -7.0683  2.1780  1.4710  1.7000 
  6715.500 -19.323  2.3210  1.4920  1.7070 -7.5514  2.3210  1.4920  1.7070 
  6716.000 -19.146  2.4920  1.5270  1.8500 -7.3864  2.4920  1.5270  1.8500 
  6716.500 -18.752  2.7220  1.5910  1.9720 -7.0044  2.7220  1.5910  1.9720 
  6717.000 -18.719  3.0810  1.7490  2.0970 -6.9834  3.0810  1.7490  2.0970 
  6717.500 -18.902  3.4840  1.8410  2.2230 -7.1784  3.4840  1.8410  2.2230 
  6718.000 -19.625  3.8140  2.0350  2.4950 -7.9135  3.8140  2.0350  2.4950 
  6718.500 -20.817  3.9790  2.2040  2.7320 -9.1175  3.9790  2.2040  2.7320 
  6719.000 -21.198  4.1660  2.3720  2.8900 -9.5105  4.1660  2.3720  2.8900 
  6719.500 -21.578  4.3590  2.6810  3.0190 -9.9025  4.3590  2.6810  3.0190 
  6720.000 -22.951  4.4160  2.7560  3.0590 -11.288  4.4160  2.7560  3.0590 
  6720.500 -23.247  4.4300  2.8310  3.0980 -11.596  4.4300  2.8310  3.0980 
  6721.000 -23.093  4.4620  2.6720  2.9040 -11.454  4.4620  2.6720  2.9040 
  6721.500 -22.938  4.4940  2.4840  2.7020 -11.311  4.4940  2.4840  2.7020 
  6722.000 -22.623  4.6670  2.3330  2.7030 -11.008  4.6670  2.3330  2.7030 
  6722.500 -22.703  4.8180  2.2600  3.0490 -11.100  4.8180  2.2600  3.0490 
  6723.000 -23.936  5.1850  3.1680  3.5180 -12.345  5.1850  3.1680  3.5180 
  6723.500 -25.313  5.6170  4.1400  4.9950 -13.734  5.6170  4.1400  4.9950 
  6724.000 -26.222  6.1560  4.5860  5.4780 -14.655  6.1560  4.5860  5.4780 
  6724.500 -27.239  6.6530  4.8380  6.0260 -15.684  6.6530  4.8380  6.0260 
  6725.000 -27.932  6.7680  5.0100  6.2060 -16.389  6.7680  5.0100  6.2060 
  6725.500 -28.300  6.8830  5.1110  6.1710 -16.769  6.8830  5.1110  6.1710 
  6726.000 -28.524  6.8180  5.0820  5.9040 -17.005  6.8180  5.0820  5.9040 
  6726.500 -28.712  6.6370  4.8220  4.7300 -17.205  6.6370  4.8220  4.7300 
  6727.000 -28.793  6.5140  4.2520  3.9170 -17.298  6.5140  4.2520  3.9170 
  6727.500 -28.837  6.3990  2.6020  2.9160 -17.354  6.3990  2.6020  2.9160 
  6728.000 -28.593  6.3840  2.2270  2.3610 -17.122  6.3840  2.2270  2.3610 
  6728.500 -28.313  6.6430  2.1050  2.1100 -16.854  6.6430  2.1050  2.1100 
  6729.000 -27.960  6.7800  1.9600  1.9730 -16.513  6.7800  1.9600  1.9730 
  6729.500 -27.428  7.4280  2.3340  1.9520 -15.993  7.4280  2.3340  1.9520 
  6730.000 -27.400  8.4000  3.1840  2.5430 -15.977  8.4000  3.1840  2.5430 
  6730.500 -27.822  9.5020  3.8470  3.0910 -16.411  9.5020  3.8470  3.0910 
  6731.000 -28.244  12.765  4.6390  3.3510 -16.845  12.765  4.6390  3.3510 
  6731.500 -28.938  14.544  5.0990  3.7830 -17.551  14.544  5.0990  3.7830 
  6732.000 -29.414  15.581  5.7110  4.1360 -18.039  15.581  5.7110  4.1360 
  6732.500 -29.818  16.257  7.2600  4.4250 -18.455  16.257  7.2600  4.4250 
  6733.000 -30.259  16.452  8.8510  4.5330 -18.908  16.452  8.8510  4.5330 
  6733.500 -29.888  16.350  9.6220  4.6060 -18.549  16.350  9.6220  4.6060 
  6734.000 -29.518  16.019  10.472  4.5850 -18.191  16.019  10.472  4.5850 
  6734.500 -29.131  14.361  11.120  4.4550 -17.816  14.361  11.120  4.4550 
  6735.000 -28.850  13.590  11.436  4.0230 -17.547  13.590  11.436  4.0230 
  6735.500 -28.750  9.9520  11.522  3.0580 -17.459  9.9520  11.522  3.0580 
  6736.000 -29.010  8.3520  11.508  2.5690 -17.731  8.3520  11.508  2.5690 
  6736.500 -29.595  7.6530  11.183  2.1150 -18.328  7.6530  11.183  2.1150 
  6737.000 -29.999  7.1920  7.0910  1.7840 -18.744  7.1920  7.0910  1.7840 
  6737.500 -30.476  6.7090  6.1110  1.5970 -19.233  6.7090  6.1110  1.5970 
  6738.000 -30.845  6.2620  5.6780  1.5040 -19.614  6.2620  5.6780  1.5040 
  6738.500 -30.384  5.8510  5.4040  1.3820 -19.165  5.8510  5.4040  1.3820 
  6739.000 -29.960  5.5550  5.1800  1.4980 -18.753  5.5550  5.1800  1.4980 
  6739.500 -29.572  5.3750  5.2160  1.5480 -18.377  5.3750  5.2160  1.5480 
  6740.000 -29.652  5.1080  5.8060  1.6060 -18.469  5.1080  5.8060  1.6060 
  6740.500 -29.796  4.9710  6.5270  1.5410 -18.625  4.9710  6.5270  1.5410 
  6741.000 -29.866  4.9060  6.9880  1.4470 -18.707  4.9060  6.9880  1.4470 
  6741.500 -30.046  4.8880  7.4780  1.3950 -18.899  4.8880  7.4780  1.3950 
  6742.000 -30.117  4.8700  7.8310  1.3590 -18.982  4.8700  7.8310  1.3590 
  6742.500 -30.224  4.7910  8.0040  1.6100 -19.101  4.7910  8.0040  1.6100 
  6743.000 -29.430  4.5890  8.1150  1.9260 -18.319  4.5890  8.1150  1.9260 
  6743.500 -27.376  4.1350  8.2270  2.1990 -16.277  4.1350  8.2270  2.1990 
  6744.000 -25.538  3.9120  8.3710  2.4510 -14.451  3.9120  8.3710  2.4510 
  6744.500 -24.168  3.6810  8.3710  2.5940 -13.093  3.6810  8.3710  2.5940 
  6745.000 -22.834  3.5010  8.1760  2.7160 -11.771  3.5010  8.1760  2.7160 
  6745.500 -22.256  3.2850  7.9460  2.7870 -11.206  3.2850  7.9460  2.7870 
  6746.000 -21.679  3.1840  6.1880  2.6930 -10.641  3.1840  6.1880  2.6930 
  6746.500 -21.246  3.1120  5.5330  2.5980 -10.220  3.1120  5.5330  2.5980 
  6747.000 -21.678  3.0400  4.9630  2.4750 -10.664  3.0400  4.9630  2.4750 
  6747.500 -21.964  2.9030  4.7260  2.3450 -10.962  2.9030  4.7260  2.3450 
  6748.000 -22.251  2.8600  4.5020  2.2140 -11.261  2.8600  4.5020  2.2140 
  6748.500 -23.007  2.8240  4.2790  2.2430 -12.029  2.8240  4.2790  2.2430 
  6749.000 -23.691  2.8170  4.1210  2.3430 -12.725  2.8170  4.1210  2.3430 
  6749.500 -24.050  2.8170  3.9040  2.4930 -13.096  2.8170  3.9040  2.4930 
  6750.000 -23.977  2.8310  3.8320  2.7450 -13.035  2.8310  3.8320  2.7450 
  6750.500 -23.508  2.8890  3.6670  3.0030 -12.578  2.8890  3.6670  3.0030 
  6751.000 -23.219  2.9030  3.5590  3.3190 -12.301  2.9030  3.5590  3.3190 
  6751.500 -22.894  3.0260  3.4580  3.6000 -11.988  3.0260  3.4580  3.6000 
  6752.000 -22.533  3.1700  3.4220  3.8800 -11.639  3.1700  3.4220  3.8800 
  6752.500 -22.460  3.2780  3.3930  4.2030 -11.578  3.2780  3.3930  4.2030 
  6753.000 -22.675  3.5300  3.3860  4.5920 -11.805  3.5300  3.3860  4.5920 
  6753.500 -23.539  3.8470  3.4360  4.9870 -12.681  3.8470  3.4360  4.9870 
  6754.000 -24.799  4.2000  3.7750  5.3400 -13.953  4.2000  3.7750  5.3400 
  6754.500 -25.482  4.6900  4.1420  7.4060 -14.648  4.6900  4.1420  7.4060 
  6755.000 -26.598  5.5540  4.5670  8.2270 -15.776  5.5540  4.5670  8.2270 
  6755.500 -27.786  6.4910  5.3240  9.1190 -16.976  6.4910  5.3240  9.1190 
  6756.000 -29.335  7.5350  6.1160  10.005 -18.537  7.5350  6.1160  10.005 
  6756.500 -30.271  9.3360  6.6350  11.301 -19.485  9.3360  6.6350  11.301 
  6757.000 -30.414  11.015  6.8730  12.258 -19.640  11.015  6.8730  12.258 
  6757.500 -30.449  12.441  6.9450  12.747 -19.687  12.441  6.9450  12.747 
  6758.000 -30.700  14.653  7.0960  13.042 -19.950  14.653  7.0960  13.042 
  6758.500 -31.600  16.886  7.1970  13.189 -20.862  16.886  7.1970  13.189 
  6759.000 -32.536  17.196  7.2940  13.336 -21.810  17.196  7.2940  13.336 
  6759.500 -33.076  17.498  7.3910  13.487 -22.362  17.498  7.3910  13.487 
  6760.000 -33.507  17.599  7.6070  13.637 -22.805  17.599  7.6070  13.637 
  6760.500 -34.303  17.642  7.7440  13.861 -23.613  17.642  7.7440  13.861 
  6761.000 -34.811  17.288  7.7580  13.912 -24.133  17.288  7.7580  13.912 
  6761.500 -35.464  16.654  7.6420  13.753 -24.798  16.654  7.6420  13.753 
  6762.000 -36.080  15.962  7.5190  13.523 -25.426  15.962  7.5190  13.523 
  6762.500 -36.588  15.421  7.4530  13.322 -25.946  15.421  7.4530  13.322 
  6763.000 -36.699  14.390  7.3740  13.027 -26.069  14.390  7.3740  13.027 
  6763.500 -36.775  13.576  7.2790  12.696 -26.157  13.576  7.2790  12.696 
