~Version Information
VERS.                     2.0: CWLS log ASCII Standard Version 2.00
WRAP.                      NO: One line per depth step
~Well Information Block
#MNEM.UNIT                               Data Type  Information
#---------                               ---------  -----------
STRT.FT                                   540.0000:
STOP.FT                                  8500.0000:
STEP.FT                                     0.5000:
NULL.                 -999.25                     :
COMP.                                             :COMPANY            
WELL.     LLU 48-21                               :WELL               
FLD .                                             :FIELD              
CTRY.                                             :COUNTRY            
STAT.                                             :STATE              
LOC .                                             :LOCATION           
UWI .                                             :UNIQUE WELL ID     
SRVC.                                             :Service company    
DATE.                                             :LOG DATE           
~Curve Information
#MNEM.UNIT           API CODE  Curve Description
#---------           --------  -----------------
DEPT.FT                      :   1 DEPTH
SP  .MV                      :   2
AM16.OHMM                    :   3
AM64.OHMM                    :   4
LAT .OHMM                    :   5
SBL .MV                      :   6
RS  .OHMM                    :   7
RM  .OHMM                    :   8
RD  .OHMM                    :   9
~A
# ...
  7907.000 -16.898  3.1160  4.0620  4.4650 -8.8980  3.1160  4.0620  4.4650 
  7907.500 -16.657  3.0460  4.0640  4.4120 -8.6570  3.0460  4.0640  4.4120 
  7908.000 -16.247  2.9990  4.0460  4.3600 -8.2470  2.9990  4.0460  4.3600 
  7908.500 -16.020  2.9860  4.0190  4.2980 -8.0200  2.9860  4.0190  4.2980 
  7909.000 -15.831  2.9600  3.9790  4.2360 -7.8310  2.9600  3.9790  4.2360 
  7909.500 -15.588  2.9410  3.9450  4.0960 -7.5880  2.9410  3.9450  4.0960 
  7910.000 -15.344  2.9150  3.9290  4.0340 -7.3440  2.9150  3.9290  4.0340 
  7910.500 -15.081  2.8880  3.9120  3.9710 -7.0810  2.8880  3.9120  3.9710 
  7911.000 -14.892  2.8750  3.8940  3.9300 -6.8920  2.8750  3.8940  3.9300 
  7911.500 -14.663  2.8620  3.8900  3.8810 -6.6630  2.8620  3.8900  3.8810 
  7912.000 -14.548  2.8370  3.8910  3.8330 -6.5480  2.8370  3.8910  3.8330 
  7912.500 -14.465  2.8320  3.8870  3.7360 -6.4650  2.8320  3.8870  3.7360 
  7913.000 -14.560  2.8480  3.8810  3.6660 -6.5600  2.8480  3.8810  3.6660 
  7913.500 -14.622  2.8870  3.8700  3.6320 -6.6220  2.8870  3.8700  3.6320 
  7914.000 -14.719  2.9250  3.8650  3.6270 -6.7190  2.9250  3.8650  3.6270 
  7914.500 -14.815  2.9700  3.8520  3.6210 -6.8150  2.9700  3.8520  3.6210 
  7915.000 -14.913  3.0080  3.8470  3.6470 -6.9130  3.0080  3.8470  3.6470 
  7915.500 -14.922  3.0600  3.8210  3.6840 -6.9220  3.0600  3.8210  3.6840 
  7916.000 -14.930  3.1130  3.8050  3.7210 -6.9300  3.1130  3.8050  3.7210 
  7916.500 -14.920  3.1510  3.7880  3.8250 -6.9200  3.1510  3.7880  3.8250 
  7917.000 -14.910  3.1680  3.7480  3.9140 -6.9100  3.1680  3.7480  3.9140 
  7917.500 -14.857  3.1700  3.7070  3.9660 -6.8570  3.1700  3.7070  3.9660 
  7918.000 -14.846  3.1570  3.6460  3.9960 -6.8460  3.1570  3.6460  3.9960 
  7918.500 -14.796  3.1240  3.6190  4.0260 -6.7960  3.1240  3.6190  4.0260 
  7919.000 -14.790  3.0900  3.5700  4.1020 -6.7900  3.0900  3.5700  4.1020 
  7919.500 -14.781  3.0420  3.5220  4.1330 -6.7810  3.0420  3.5220  4.1330 
  7920.000 -14.772  3.0090  3.4180  4.1420 -6.7720  3.0090  3.4180  4.1420 
  7920.500 -14.778  2.9680  3.3630  4.1370 -6.7780  2.9680  3.3630  4.1370 
  7921.000 -14.784  2.9050  3.3280  4.1180 -6.7840  2.9050  3.3280  4.1180 
  7921.500 -14.770  2.8080  3.3020  3.9760 -6.7700  2.8080  3.3020  3.9760 
  7922.000 -14.578  2.7380  3.2750  3.9500 -6.5780  2.7380  3.2750  3.9500 
  7922.500 -14.499  2.6680  3.2780  3.8950 -6.4990  2.6680  3.2780  3.8950 
  7923.000 -14.346  2.5630  3.3090  3.8320 -6.3460  2.5630  3.3090  3.8320 
  7923.500 -14.193  2.4790  3.3470  3.6840 -6.1930  2.4790  3.3470  3.6840 
  7924.000 -13.925  2.4020  3.4000  3.5500 -5.9250  2.4020  3.4000  3.5500 
  7924.500 -13.771  2.3540  3.4380  3.3590 -5.7710  2.3540  3.4380  3.3590 
  7925.000 -13.621  2.2920  3.4610  3.2170 -5.6210  2.2920  3.4610  3.2170 
  7925.500 -13.396  2.2440  3.4850  3.0760 -5.3960  2.2440  3.4850  3.0760 
  7926.000 -13.170  2.2240  3.4900  2.9280 -5.1700  2.2240  3.4900  2.9280 
  7926.500 -12.795  2.1980  3.4950  2.8870 -4.7950  2.1980  3.4950  2.8870 
  7927.000 -12.681  2.1720  3.4770  2.8540 -4.6810  2.1720  3.4770  2.8540 
  7927.500 -12.566  2.1670  3.4580  2.8700 -4.5660  2.1670  3.4580  2.8700 
  7928.000 -12.262  2.1980  3.4100  2.9010 -4.2620  2.1980  3.4100  2.9010 
  7928.500 -12.183  2.2430  3.3770  2.9390 -4.1830  2.2430  3.3770  2.9390 
  7929.000 -12.104  2.2810  3.3500  2.9840 -4.1040  2.2810  3.3500  2.9840 
  7929.500 -11.836  2.3340  3.3300  3.0080 -3.8360  2.3340  3.3300  3.0080 
  7930.000 -11.720  2.3930  3.3180  3.0610 -3.7200  2.3930  3.3180  3.0610 
  7930.500 -11.605  2.4680  3.3140  3.0980 -3.6050  2.4680  3.3140  3.0980 
  7931.000 -11.555  2.5490  3.3300  3.1250 -3.5550  2.5490  3.3300  3.1250 
  7931.500 -12.114  2.5790  3.3470  3.1520 -4.1140  2.5790  3.3470  3.1520 
  7932.000 -12.463  2.6310  3.3700  3.2050 -4.4630  2.6310  3.3700  3.2050 
  7932.500 -12.881  2.6830  3.4020  3.2580 -4.8810  2.6830  3.4020  3.2580 
  7933.000 -13.049  2.7790  3.4610  3.2890 -5.0490  2.7790  3.4610  3.2890 
  7933.500 -13.184  2.8680  3.5850  3.3200 -5.1840  2.8680  3.5850  3.3200 
  7934.000 -13.353  2.9270  3.6520  3.2000 -5.3530  2.9270  3.6520  3.2000 
  7934.500 -13.483  2.9800  3.7620  3.0950 -5.4830  2.9800  3.7620  3.0950 
  7935.000 -13.547  3.0680  3.8430  3.0040 -5.5470  3.0680  3.8430  3.0040 
  7935.500 -13.611  3.1020  3.9520  2.9060 -5.6110  3.1020  3.9520  2.9060 
  7936.000 -13.668  3.1360  4.0120  2.8570 -5.6680  3.1360  4.0120  2.8570 
  7936.500 -13.676  3.2260  4.0430  2.8240 -5.6760  3.2260  4.0430  2.8240 
  7937.000 -13.684  3.2850  4.0730  2.7830 -5.6840  3.2850  4.0730  2.7830 
  7937.500 -13.740  3.3160  4.0970  2.7740 -5.7400  3.3160  4.0970  2.7740 
  7938.000 -13.767  3.3460  4.1200  2.7650 -5.7670  3.3460  4.1200  2.7650 
  7938.500 -13.720  3.4140  4.1450  2.8040 -5.7200  3.4140  4.1450  2.8040 
  7939.000 -13.745  3.4590  4.1550  2.8350 -5.7450  3.4590  4.1550  2.8350 
  7939.500 -13.735  3.5120  4.1720  2.9380 -5.7350  3.5120  4.1720  2.9380 
  7940.000 -13.744  3.5280  4.1810  3.1340 -5.7440  3.5280  4.1810  3.1340 
  7940.500 -13.753  3.5660  4.1970  3.2290 -5.7530  3.5660  4.1970  3.2290 
  7941.000 -13.773  3.5860  4.2360  3.3610 -5.7730  3.5860  4.2360  3.3610 
  7941.500 -13.796  3.6050  4.2810  3.3910 -5.7960  3.6050  4.2810  3.3910 
  7942.000 -13.820  3.6510  4.2970  3.4430 -5.8200  3.6510  4.2970  3.4430 
  7942.500 -13.832  3.6900  4.3640  3.4960 -5.8320  3.6900  4.3640  3.4960 
  7943.000 -13.843  3.7060  4.4810  3.5270 -5.8430  3.7060  4.4810  3.5270 
  7943.500 -13.863  3.7370  4.6270  3.5580 -5.8630  3.7370  4.6270  3.5580 
  7944.000 -13.996  3.7610  4.7800  3.5960 -5.9960  3.7610  4.7800  3.5960 
  7944.500 -14.149  3.8200  4.9250  3.6050 -6.1490  3.8200  4.9250  3.6050 
  7945.000 -14.301  3.8800  5.0930  3.5430 -6.3010  3.8800  5.0930  3.5430 
  7945.500 -14.606  3.9760  5.1660  3.4810 -6.6060  3.9760  5.1660  3.4810 
  7946.000 -14.848  4.1070  5.2470  3.4180 -6.8480  4.1070  5.2470  3.4180 
  7946.500 -15.195  4.2740  5.3510  3.4640 -7.1950  4.2740  5.3510  3.4640 
  7947.000 -15.614  4.5710  5.3880  3.5300 -7.6140  4.5710  5.3880  3.5300 
  7947.500 -16.034  4.9100  5.4690  3.6330 -8.0340  4.9100  5.4690  3.6330 
  7948.000 -16.667  5.3500  5.5360  3.9150 -8.6670  5.3500  5.5360  3.9150 
  7948.500 -17.481  6.0760  5.5750  4.3260 -9.4810  6.0760  5.5750  4.3260 
  7949.000 -18.509  6.6590  5.6050  4.8160 -10.509  6.6590  5.6050  4.8160 
  7949.500 -19.321  7.1780  5.6510  5.1260 -11.321  7.1780  5.6510  5.1260 
  7950.000 -19.991  7.3240  5.6670  5.2720 -11.991  7.3240  5.6670  5.2720 
  7950.500 -20.628  7.3540  5.6980  5.3100 -12.628  7.3540  5.6980  5.3100 
  7951.000 -21.193  7.3490  5.7140  5.3410 -13.193  7.3490  5.7140  5.3410 
  7951.500 -21.611  7.3220  5.7150  5.3500 -13.611  7.3220  5.7150  5.3500 
  7952.000 -21.675  7.2380  5.6810  5.3590 -13.675  7.2380  5.6810  5.3590 
  7952.500 -21.236  7.0750  5.6620  5.3610 -13.236  7.0750  5.6620  5.3610 
  7953.000 -20.760  6.7680  5.6350  5.3620 -12.760  6.7680  5.6350  5.3620 
  7953.500 -20.359  6.4620  5.5870  5.3360 -12.359  6.4620  5.5870  5.3360 
  7954.000 -19.631  6.1050  5.5490  5.2870 -11.631  6.1050  5.5490  5.2870 
  7954.500 -18.904  5.7990  5.5110  5.0740 -10.904  5.7990  5.5110  5.0740 
  7955.000 -18.356  5.5630  5.4200  4.7890 -10.356  5.5630  5.4200  4.7890 
  7955.500 -17.919  5.1930  5.3580  4.6180 -9.9190  5.1930  5.3580  4.6180 
  7956.000 -17.334  4.8790  5.2810  4.4050 -9.3340  4.8790  5.2810  4.4050 
  7956.500 -17.006  4.5580  5.2460  4.0990 -9.0060  4.5580  5.2460  4.0990 
  7957.000 -16.766  4.3010  5.1630  3.9070 -8.7660  4.3010  5.1630  3.9070 
  7957.500 -16.526  4.0450  5.1280  3.6940 -8.5260  4.0450  5.1280  3.6940 
  7958.000 -16.116  3.7450  5.0730  3.5590 -8.1160  3.7450  5.0730  3.5590 
  7958.500 -16.001  3.5320  5.0100  3.3890 -8.0010  3.5320  5.0100  3.3890 
  7959.000 -15.847  3.4120  4.9720  3.2330 -7.8470  3.4120  4.9720  3.2330 
  7959.500 -15.802  3.3430  4.9340  3.1200 -7.8020  3.3430  4.9340  3.1200 
