~Version Information
VERS.                     2.0: CWLS log ASCII Standard Version 2.00
WRAP.                      NO: One line per depth step
~Well Information Block
#MNEM.UNIT                               Data Type  Information
#---------                               ---------  -----------
STRT.FT                                   540.0000:
STOP.FT                                  8500.0000:
STEP.FT                                     0.5000:
NULL.                 -999.25                     :
COMP.                                             :COMPANY            
WELL.     LLU 48-21                               :WELL               
FLD .                                             :FIELD              
CTRY.                                             :COUNTRY            
STAT.                                             :STATE              
LOC .                                             :LOCATION           
UWI .                                             :UNIQUE WELL ID     
SRVC.                                             :Service company    
DATE.                                             :LOG DATE           
~Curve Information
#MNEM.UNIT           API CODE  Curve Description
#---------           --------  -----------------
DEPT.FT                      :   1 DEPTH
SP  .MV                      :   2
AM16.OHMM                    :   3
AM64.OHMM                    :   4
LAT .OHMM                    :   5
SBL .MV                      :   6
RS  .OHMM                    :   7
RM  .OHMM                    :   8
RD  .OHMM                    :   9
~A
# ...
  6847.000 -23.332  1.3350  1.7690  1.5500 -9.9808  1.3350  1.7690  1.5500 
  6847.500 -22.368  1.3200  1.7650  1.5710 -9.0202  1.3200  1.7650  1.5710 
  6848.000 -21.334  1.3380  1.7600  1.5770 -7.9895  1.3380  1.7600  1.5770 
  6848.500 -20.799  1.3550  1.7560  1.5910 -7.4579  1.3550  1.7560  1.5910 
  6849.000 -20.229  1.3900  1.7520  1.5980 -6.8912  1.3900  1.7520  1.5980 
  6849.500 -19.910  1.4180  1.7480  1.6040 -6.5756  1.4180  1.7480  1.6040 
  6850.000 -19.662  1.4460  1.7400  1.6110 -6.3309  1.4460  1.7400  1.6110 
  6850.500 -19.554  1.4570  1.7400  1.6180 -6.2262  1.4570  1.7400  1.6180 
  6851.000 -19.698  1.4680  1.7330  1.6250 -6.3736  1.4680  1.7330  1.6250 
  6851.500 -20.056  1.4900  1.7330  1.6260 -6.7349  1.4900  1.7330  1.6260 
  6852.000 -20.342  1.5110  1.7330  1.6330 -7.0243  1.5110  1.7330  1.6330 
  6852.500 -20.556  1.5220  1.7330  1.6400 -7.2416  1.5220  1.7330  1.6400 
  6853.000 -20.735  1.5330  1.7260  1.6400 -7.4240  1.5330  1.7260  1.6400 
  6853.500 -20.807  1.5400  1.7260  1.6440 -7.4993  1.5400  1.7260  1.6440 
  6854.000 -20.806  1.5440  1.7260  1.6480 -7.5017  1.5440  1.7260  1.6480 
  6854.500 -20.735  1.5470  1.7260  1.6550 -7.4340  1.5470  1.7260  1.6550 
  6855.000 -20.591  1.5480  1.7260  1.6580 -7.2933  1.5480  1.7260  1.6580 
  6855.500 -20.341  1.5480  1.7270  1.6620 -7.0467  1.5480  1.7270  1.6620 
  6856.000 -20.090  1.5330  1.7340  1.6620 -6.7990  1.5330  1.7340  1.6620 
  6856.500 -19.839  1.5190  1.7370  1.6620 -6.5514  1.5190  1.7370  1.6620 
  6857.000 -19.446  1.5050  1.7410  1.6620 -6.1617  1.5050  1.7410  1.6620 
  6857.500 -19.159  1.4910  1.7480  1.6550 -5.8781  1.4910  1.7480  1.6550 
  6858.000 -18.908  1.4480  1.7520  1.6480 -5.6304  1.4480  1.7520  1.6480 
  6858.500 -18.658  1.4260  1.7560  1.6480 -5.3838  1.4260  1.7560  1.6480 
  6859.000 -18.442  1.4260  1.7590  1.6480 -5.1711  1.4260  1.7590  1.6480 
  6859.500 -18.264  1.4260  1.7630  1.6480 -4.9964  1.4260  1.7630  1.6480 
  6860.000 -18.156  1.4330  1.7630  1.6490 -4.8918  1.4330  1.7630  1.6490 
  6860.500 -18.156  1.4620  1.7700  1.6340 -4.8951  1.4620  1.7700  1.6340 
  6861.000 -18.299  1.4770  1.7780  1.6340 -5.0415  1.4770  1.7780  1.6340 
  6861.500 -18.406  1.4980  1.7810  1.6310 -5.1518  1.4980  1.7810  1.6310 
  6862.000 -18.728  1.5200  1.7850  1.6270 -5.4772  1.5200  1.7850  1.6270 
  6862.500 -18.979  1.5700  1.7880  1.6270 -5.7315  1.5700  1.7880  1.6270 
  6863.000 -19.265  1.5990  1.7920  1.6270 -6.0209  1.5990  1.7920  1.6270 
  6863.500 -19.587  1.6200  1.7990  1.6270 -6.3462  1.6200  1.7990  1.6270 
  6864.000 -19.874  1.6560  1.8030  1.6270 -6.6365  1.6560  1.8030  1.6270 
  6864.500 -20.124  1.6710  1.8070  1.6350 -6.8899  1.6710  1.8070  1.6350 
  6865.000 -20.302  1.6850  1.8140  1.6420 -7.0712  1.6850  1.8140  1.6420 
  6865.500 -20.446  1.6780  1.8210  1.6530 -7.2186  1.6780  1.8210  1.6530 
  6866.000 -20.625  1.6490  1.8250  1.6640 -7.4009  1.6490  1.8250  1.6640 
  6866.500 -20.695  1.6280  1.8290  1.6850 -7.4743  1.6280  1.8290  1.6850 
  6867.000 -20.767  1.6140  1.8360  1.6990 -7.5496  1.6140  1.8360  1.6990 
  6867.500 -20.517  1.6210  1.8430  1.7070 -7.3030  1.6210  1.8430  1.7070 
  6868.000 -20.015  1.6280  1.8500  1.7180 -6.8043  1.6280  1.8500  1.7180 
  6868.500 -19.729  1.6280  1.8500  1.7290 -6.5216  1.6280  1.8500  1.7290 
  6869.000 -19.371  1.6350  1.8500  1.7430 -6.1670  1.6350  1.8500  1.7430 
  6869.500 -19.120  1.6390  1.8500  1.7570 -5.9193  1.6390  1.8500  1.7570 
  6870.000 -18.976  1.6430  1.8540  1.7570 -5.7787  1.6430  1.8540  1.7570 
  6870.500 -18.798  1.6430  1.8570  1.7570 -5.6040  1.6430  1.8570  1.7570 
  6871.000 -18.691  1.6390  1.8610  1.7570 -5.5004  1.6390  1.8610  1.7570 
  6871.500 -18.654  1.6360  1.8650  1.7580 -5.4667  1.6360  1.8650  1.7580 
  6872.000 -18.583  1.6290  1.8690  1.7570 -5.3991  1.6290  1.8690  1.7570 
  6872.500 -18.582  1.6210  1.8720  1.7580 -5.4014  1.6210  1.8720  1.7580 
  6873.000 -18.582  1.6140  1.8760  1.7500 -5.4047  1.6140  1.8760  1.7500 
  6873.500 -18.618  1.6140  1.8800  1.7500 -5.4441  1.6140  1.8800  1.7500 
  6874.000 -18.617  1.6150  1.8940  1.7510 -5.4464  1.6150  1.8940  1.7510 
  6874.500 -18.654  1.6150  1.9010  1.7510 -5.4868  1.6150  1.9010  1.7510 
  6875.000 -18.653  1.6290  1.9090  1.7510 -5.4891  1.6290  1.9090  1.7510 
  6875.500 -18.670  1.6360  1.9300  1.7440 -5.5095  1.6360  1.9300  1.7440 
  6876.000 -18.688  1.6440  1.9440  1.7440 -5.5308  1.6440  1.9440  1.7440 
  6876.500 -18.687  1.6650  1.9590  1.7470 -5.5332  1.6650  1.9590  1.7470 
  6877.000 -18.687  1.6720  1.9660  1.7510 -5.5365  1.6720  1.9660  1.7510 
  6877.500 -18.653  1.6870  1.9730  1.7550 -5.5058  1.6870  1.9730  1.7550 
  6878.000 -18.653  1.6940  1.9880  1.7590 -5.5092  1.6940  1.9880  1.7590 
  6878.500 -18.652  1.7010  1.9950  1.7730 -5.5115  1.7010  1.9950  1.7730 
  6879.000 -18.651  1.7230  2.0090  1.7870 -5.5139  1.7230  2.0090  1.7870 
  6879.500 -18.724  1.7440  2.0160  1.7940 -5.5902  1.7440  2.0160  1.7940 
  6880.000 -18.724  1.7590  2.0240  1.8020 -5.5936  1.7590  2.0240  1.8020 
  6880.500 -18.938  1.7940  2.0380  1.7950 -5.8109  1.7940  2.0380  1.7950 
  6881.000 -19.116  1.8230  2.0590  1.7950 -5.9923  1.8230  2.0590  1.7950 
  6881.500 -19.295  1.8380  2.0740  1.7950 -6.1746  1.8380  2.0740  1.7950 
  6882.000 -19.582  1.8660  2.0990  1.7800 -6.4649  1.8660  2.0990  1.7800 
  6882.500 -20.012  1.9020  2.1240  1.7590 -6.8983  1.9020  2.1240  1.7590 
  6883.000 -20.297  1.9240  2.1810  1.7410 -7.1866  1.9240  2.1810  1.7410 
  6883.500 -20.619  1.9520  2.2030  1.7240 -7.5120  1.9520  2.2030  1.7240 
  6884.000 -20.869  1.9740  2.2530  1.7090 -7.7653  1.9740  2.2530  1.7090 
  6884.500 -21.119  2.0310  2.2820  1.7380 -8.0187  2.0310  2.2820  1.7380 
  6885.000 -21.621  2.0670  2.3180  1.7740 -8.5240  2.0670  2.3180  1.7740 
  6885.500 -21.979  2.1170  2.2890  1.8240 -8.8854  2.1170  2.2890  1.8240 
  6886.000 -22.373  2.1530  2.2180  1.8740 -9.2827  2.1530  2.2180  1.8740 
  6886.500 -22.659  2.1890  2.1530  1.9310 -9.5720  2.1890  2.1530  1.9310 
  6887.000 -22.910  2.2250  2.1180  1.9820 -9.8264  2.2250  2.1180  1.9820 
  6887.500 -23.070  2.2680  2.0820  2.0170 -9.9897  2.2680  2.0820  2.0170 
  6888.000 -23.230  2.3040  2.0530  2.0460 -10.153  2.3040  2.0530  2.0460 
  6888.500 -23.589  2.3330  2.0390  2.0530 -10.515  2.3330  2.0390  2.0530 
  6889.000 -23.840  2.3610  2.0250  2.0460 -10.770  2.3610  2.0250  2.0460 
  6889.500 -24.054  2.3900  2.0180  2.0110 -10.987  2.3900  2.0180  2.0110 
  6890.000 -24.233  2.4120  2.0140  1.9680 -11.169  2.4120  2.0140  1.9680 
  6890.500 -24.447  2.4120  2.0110  1.9030 -11.387  2.4120  2.0110  1.9030 
  6891.000 -24.662  2.4120  2.0040  1.8390 -11.605  2.4120  2.0040  1.8390 
  6891.500 -24.841  2.4050  1.9970  1.8100 -11.787  2.4050  1.9970  1.8100 
  6892.000 -25.127  2.3980  2.0040  1.8030 -12.077  2.3980  2.0040  1.8030 
  6892.500 -25.449  2.3910  2.0040  1.8110 -12.402  2.3910  2.0040  1.8110 
  6893.000 -25.700  2.3830  2.0110  1.8320 -12.657  2.3830  2.0110  1.8320 
  6893.500 -25.986  2.3690  2.0180  1.8500 -12.946  2.3690  2.0180  1.8500 
  6894.000 -26.236  2.3330  2.0260  1.8680 -13.199  2.3330  2.0260  1.8680 
  6894.500 -26.522  2.3190  2.0330  1.9320 -13.489  2.3190  2.0330  1.9320 
  6895.000 -26.682  2.2760  2.0610  1.9680 -13.652  2.2760  2.0610  1.9680 
  6895.500 -26.843  2.2480  2.0690  1.9870 -13.816  2.2480  2.0690  1.9870 
  6896.000 -27.023  2.2260  2.0830  2.0050 -14.000  2.2260  2.0830  2.0050 
  6896.500 -27.130  2.2050  2.0970  2.0550 -14.110  2.2050  2.0970  2.0550 
  6897.000 -27.059  2.1480  2.1080  2.0760 -14.042  2.1480  2.1080  2.0760 
  6897.500 -26.879  2.1050  2.1190  2.0900 -13.866  2.1050  2.1190  2.0900 
  6898.000 -26.485  2.0690  2.1480  2.0690 -13.475  2.0690  2.1480  2.0690 
  6898.500 -25.770  2.0260  2.1590  2.0260 -12.763  2.0260  2.1590  2.0260 
  6899.000 -25.089  1.9830  2.1700  2.0120 -12.086  1.9830  2.1700  2.0120 
  6899.500 -24.266  1.9050  2.1980  1.9760 -11.266  1.9050  2.1980  1.9760 
