~Version Information
VERS.                     2.0: CWLS log ASCII Standard Version 2.00
WRAP.                      NO: One line per depth step
~Well Information Block
#MNEM.UNIT                               Data Type  Information
#---------                               ---------  -----------
STRT.FT                                   510.0000:
STOP.FT                                  7204.0000:
STEP.FT                                     0.5000:
NULL.                 -999.25                     :
COMP.                                             :COMPANY            
WELL.     LLU 41-28                               :WELL               
FLD .                                             :FIELD              
CTRY.                                             :COUNTRY            
STAT.                                             :STATE              
LOC .                                             :LOCATION           
UWI .                                             :UNIQUE WELL ID     
SRVC.                                             :Service company    
DATE.                                             :LOG DATE           
~Curve Information
#MNEM.UNIT           API CODE  Curve Description
#---------           --------  -----------------
DEPT.FT                      :   1 DEPTH
SP  .MV                      :   2
AM16.OHMM                    :   3
AO10.OHMM                    :   4
AO19.OHMM                    :   5
SBL .MV                      :   6
RS  .OHMM                    :   7
RM  .OHMM                    :   8
RD  .OHMM                    :   9
~A
# ...
  5810.000 -8.0230  1.6660  1.7090  1.6740 -8.9294  1.6660  1.7090  1.6740 
  5810.500 -8.0310  1.6540  1.7080  1.6440 -8.9042  1.6540  1.7080  1.6440 
  5811.000 -7.9670  1.6420  1.7180  1.6640 -8.8069  1.6420  1.7180  1.6640 
  5811.500 -7.8660  1.6340  1.7280  1.6840 -8.6727  1.6340  1.7280  1.6840 
  5812.000 -7.7660  1.6330  1.7690  1.7260 -8.5394  1.6330  1.7690  1.7260 
  5812.500 -7.7010  1.6530  1.7680  1.7680 -8.4411  1.6530  1.7680  1.7680 
  5813.000 -7.6360  1.6520  1.7590  1.8170 -8.3429  1.6520  1.7590  1.8170 
  5813.500 -7.5740  1.6510  1.7580  1.8450 -8.2476  1.6510  1.7580  1.8450 
  5814.000 -7.6180  1.6560  1.7570  1.8510 -8.2583  1.6560  1.7570  1.8510 
  5814.500 -7.6990  1.6590  1.7560  1.8350 -8.3061  1.6590  1.7560  1.8350 
  5815.000 -7.7070  1.6610  1.7540  1.7830 -8.2808  1.6610  1.7540  1.7830 
  5815.500 -7.8600  1.6740  1.7530  1.7460 -8.4005  1.6740  1.7530  1.7460 
  5816.000 -8.0120  1.6800  1.7520  1.7090 -8.5193  1.6800  1.7520  1.7090 
  5816.500 -8.1650  1.6790  1.7510  1.6720 -8.6390  1.6790  1.7510  1.6720 
  5817.000 -8.2830  1.6810  1.7490  1.6340 -8.7237  1.6810  1.7490  1.6340 
  5817.500 -8.2890  1.6830  1.7340  1.5970 -8.6965  1.6830  1.7340  1.5970 
  5818.000 -8.2970  1.6860  1.7250  1.5810 -8.6712  1.6860  1.7250  1.5810 
  5818.500 -8.3040  1.6880  1.7240  1.5660 -8.6450  1.6880  1.7240  1.5660 
  5819.000 -8.2060  1.6870  1.7230  1.5640 -8.5137  1.6870  1.7230  1.5640 
  5819.500 -8.1420  1.6890  1.7220  1.5780 -8.4164  1.6890  1.7220  1.5780 
  5820.000 -8.0410  1.6920  1.7350  1.5910 -8.2822  1.6920  1.7350  1.5910 
  5820.500 -8.0420  1.6910  1.7490  1.5910 -8.2499  1.6910  1.7490  1.5910 
  5821.000 -8.1150  1.6910  1.7490  1.5900 -8.2896  1.6910  1.7490  1.5900 
  5821.500 -8.1890  1.6910  1.7490  1.5970 -8.3304  1.6910  1.7490  1.5970 
  5822.000 -8.1890  1.6910  1.7550  1.5940 -8.2971  1.6910  1.7550  1.5940 
  5822.500 -8.2270  1.6910  1.7550  1.5900 -8.3018  1.6910  1.7550  1.5900 
  5823.000 -8.2630  1.6910  1.7480  1.5820 -8.3046  1.6910  1.7480  1.5820 
  5823.500 -8.5180  1.6980  1.7480  1.5610 -8.5263  1.6980  1.7480  1.5610 
  5824.000 -8.5910  1.7040  1.7480  1.5530 -8.5661  1.7040  1.7480  1.5530 
  5824.500 -8.5910  1.7040  1.7470  1.5530 -8.5328  1.7040  1.7470  1.5530 
  5825.000 -8.7000  1.7110  1.7470  1.5530 -8.6085  1.7110  1.7470  1.5530 
  5825.500 -8.8630  1.7110  1.7470  1.5460 -8.7383  1.7110  1.7470  1.5460 
  5826.000 -9.0260  1.7180  1.7470  1.5450 -8.8680  1.7180  1.7470  1.5450 
  5826.500 -9.0650  1.7250  1.7470  1.5450 -8.8737  1.7250  1.7470  1.5450 
  5827.000 -8.9220  1.7250  1.7430  1.5450 -8.6975  1.7250  1.7430  1.5450 
  5827.500 -8.8130  1.7250  1.7400  1.5300 -8.5552  1.7250  1.7400  1.5300 
  5828.000 -8.7060  1.7250  1.7390  1.5230 -8.4149  1.7250  1.7390  1.5230 
  5828.500 -8.6700  1.7320  1.7390  1.5080 -8.3457  1.7320  1.7390  1.5080 
  5829.000 -8.6330  1.7390  1.7390  1.5010 -8.2754  1.7390  1.7390  1.5010 
  5829.500 -8.5800  1.7380  1.7460  1.4940 -8.1891  1.7380  1.7460  1.4940 
  5830.000 -8.5270  1.7450  1.7600  1.4830 -8.1029  1.7450  1.7600  1.4830 
  5830.500 -8.6750  1.7450  1.7600  1.4720 -8.2176  1.7450  1.7600  1.4720 
  5831.000 -8.8200  1.7450  1.7600  1.4930 -8.3294  1.7450  1.7600  1.4930 
  5831.500 -9.0020  1.7450  1.7630  1.5070 -8.4781  1.7450  1.7630  1.5070 
  5832.000 -9.1480  1.7450  1.7670  1.5140 -8.5908  1.7450  1.7670  1.5140 
  5832.500 -9.1840  1.7380  1.7660  1.5210 -8.5936  1.7380  1.7660  1.5210 
  5833.000 -9.3290  1.7300  1.7660  1.5180 -8.7053  1.7300  1.7660  1.5180 
  5833.500 -9.3660  1.7080  1.7660  1.5140 -8.7090  1.7080  1.7660  1.5140 
  5834.000 -9.4410  1.6930  1.7650  1.5140 -8.7508  1.6930  1.7650  1.5140 
  5834.500 -9.4400  1.6790  1.7650  1.4920 -8.7165  1.6790  1.7650  1.4920 
  5835.000 -9.4770  1.6790  1.7650  1.4850 -8.7202  1.6790  1.7650  1.4850 
  5835.500 -9.4770  1.6790  1.7650  1.4840 -8.6870  1.6790  1.7650  1.4840 
  5836.000 -9.4770  1.6790  1.7650  1.4840 -8.6537  1.6790  1.7650  1.4840 
  5836.500 -9.4810  1.6750  1.7570  1.5060 -8.6245  1.6750  1.7570  1.5060 
  5837.000 -9.4820  1.6710  1.7430  1.5130 -8.5922  1.6710  1.7430  1.5130 
  5837.500 -9.4820  1.6490  1.7280  1.5130 -8.5589  1.6490  1.7280  1.5130 
  5838.000 -9.4810  1.6380  1.7250  1.5130 -8.5247  1.6380  1.7250  1.5130 
  5838.500 -9.4480  1.6270  1.7210  1.5190 -8.4584  1.6270  1.7210  1.5190 
  5839.000 -9.4120  1.6130  1.7350  1.5270 -8.3891  1.6130  1.7350  1.5270 
  5839.500 -9.4310  1.6050  1.7350  1.5340 -8.3749  1.6050  1.7350  1.5340 
  5840.000 -9.4500  1.5980  1.7350  1.5330 -8.3606  1.5980  1.7350  1.5330 
  5840.500 -9.4540  1.5900  1.7260  1.5250 -8.3313  1.5900  1.7260  1.5250 
  5841.000 -9.4580  1.5740  1.7180  1.5240 -8.3021  1.5740  1.7180  1.5240 
  5841.500 -9.4980  1.5660  1.7180  1.5080 -8.3088  1.5660  1.7180  1.5080 
  5842.000 -9.5370  1.5650  1.7020  1.5070 -8.3145  1.5650  1.7020  1.5070 
  5842.500 -9.6140  1.5500  1.7010  1.5070 -8.3583  1.5500  1.7010  1.5070 
  5843.000 -9.6530  1.5420  1.6930  1.5050 -8.3640  1.5420  1.6930  1.5050 
  5843.500 -9.6940  1.5410  1.6780  1.5040 -8.3718  1.5410  1.6780  1.5040 
  5844.000 -9.6970  1.5260  1.6700  1.5170 -8.3415  1.5260  1.6700  1.5170 
  5844.500 -9.7720  1.5250  1.6620  1.5160 -8.3832  1.5250  1.6620  1.5160 
  5845.000 -9.7930  1.5130  1.6610  1.5150 -8.3710  1.5130  1.6610  1.5150 
  5845.500 -9.8140  1.5020  1.6530  1.5140 -8.3587  1.5020  1.6530  1.5140 
  5846.000 -9.6740  1.4930  1.6410  1.5130 -8.1854  1.4930  1.6410  1.5130 
  5846.500 -9.6420  1.4930  1.6300  1.5120 -8.1202  1.4930  1.6300  1.5120 
  5847.000 -9.5730  1.4920  1.6250  1.5110 -8.0179  1.4920  1.6250  1.5110 
  5847.500 -9.5770  1.4910  1.6210  1.5170 -7.9886  1.4910  1.6210  1.5170 
  5848.000 -9.5440  1.4900  1.6050  1.5160 -7.9224  1.4900  1.6050  1.5160 
  5848.500 -9.5480  1.4890  1.5900  1.5000 -7.8931  1.4890  1.5900  1.5000 
  5849.000 -9.5510  1.4880  1.5820  1.4920 -7.8629  1.4880  1.5820  1.4920 
  5849.500 -9.5190  1.4870  1.5740  1.4910 -7.7976  1.4870  1.5740  1.4910 
  5850.000 -9.5240  1.5010  1.5660  1.4900 -7.7693  1.5010  1.5660  1.4900 
  5850.500 -9.5080  1.5000  1.5580  1.4890 -7.7201  1.5000  1.5580  1.4890 
  5851.000 -9.4920  1.4990  1.5490  1.4880 -7.6708  1.4990  1.5490  1.4880 
  5851.500 -9.5330  1.5120  1.5340  1.4900 -7.6785  1.5120  1.5340  1.4900 
  5852.000 -9.5730  1.5120  1.5330  1.4930 -7.6853  1.5120  1.5330  1.4930 
  5852.500 -9.6500  1.5110  1.5320  1.5060 -7.7290  1.5110  1.5320  1.5060 
  5853.000 -9.6900  1.5240  1.5670  1.5050 -7.7357  1.5240  1.5670  1.5050 
  5853.500 -9.6930  1.5230  1.5810  1.5040 -7.7055  1.5230  1.5810  1.5040 
  5854.000 -9.6250  1.5290  1.5950  1.5100 -7.6042  1.5290  1.5950  1.5100 
  5854.500 -9.5920  1.5430  1.6220  1.5310 -7.5379  1.5430  1.6220  1.5310 
  5855.000 -9.5960  1.5490  1.6430  1.5370 -7.5087  1.5490  1.6430  1.5370 
  5855.500 -9.6340  1.5560  1.6280  1.5320 -7.5134  1.5560  1.6280  1.5320 
  5856.000 -9.8190  1.5830  1.6270  1.5280 -7.6652  1.5830  1.6270  1.5280 
  5856.500 -10.077  1.6110  1.6400  1.5120 -7.8899  1.6110  1.6400  1.5120 
  5857.000 -10.225  1.6250  1.6680  1.4960 -8.0046  1.6250  1.6680  1.4960 
  5857.500 -10.371  1.6490  1.6820  1.4950 -8.1174  1.6490  1.6820  1.4950 
  5858.000 -10.518  1.6740  1.6950  1.5230 -8.2311  1.6740  1.6950  1.5230 
  5858.500 -11.499  1.7080  1.7300  1.5440 -9.1788  1.7080  1.7300  1.5440 
  5859.000 -12.732  1.7220  1.7580  1.5710 -10.379  1.7220  1.7580  1.5710 
  5859.500 -14.217  1.7500  1.8070  1.5920 -11.830  1.7500  1.8070  1.5920 
  5860.000 -15.088  1.7850  1.8280  1.6050 -12.668  1.7850  1.8280  1.6050 
  5860.500 -16.102  1.7920  1.8640  1.6260 -13.649  1.7920  1.8640  1.6260 
  5861.000 -17.044  1.8270  1.8740  1.6470 -14.558  1.8270  1.8740  1.6470 
  5861.500 -17.807  1.8550  1.8850  1.6610 -15.287  1.8550  1.8850  1.6610 
  5862.000 -18.206  1.8260  1.8700  1.6600 -15.653  1.8260  1.8700  1.6600 
  5862.500 -18.606  1.7970  1.8550  1.6590 -16.020  1.7970  1.8550  1.6590 
