~Version Information
VERS.                     2.0: CWLS log ASCII Standard Version 2.00
WRAP.                      NO: One line per depth step
~Well Information Block
#MNEM.UNIT                               Data Type  Information
#---------                               ---------  -----------
STRT.FT                                   540.0000:
STOP.FT                                  8500.0000:
STEP.FT                                     0.5000:
NULL.                 -999.25                     :
COMP.                                             :COMPANY            
WELL.     LLU 48-21                               :WELL               
FLD .                                             :FIELD              
CTRY.                                             :COUNTRY            
STAT.                                             :STATE              
LOC .                                             :LOCATION           
UWI .                                             :UNIQUE WELL ID     
SRVC.                                             :Service company    
DATE.                                             :LOG DATE           
~Curve Information
#MNEM.UNIT           API CODE  Curve Description
#---------           --------  -----------------
DEPT.FT                      :   1 DEPTH
SP  .MV                      :   2
AM16.OHMM                    :   3
AM64.OHMM                    :   4
LAT .OHMM                    :   5
SBL .MV                      :   6
RS  .OHMM                    :   7
RM  .OHMM                    :   8
RD  .OHMM                    :   9
~A
# ...
  6317.000 -24.939  4.3720  3.5490  2.6750 -11.511  4.3720  3.5490  2.6750 
  6317.500 -27.519  4.6940  3.5490  2.7820 -14.090  4.6940  3.5490  2.7820 
  6318.000 -30.098  4.9300  3.5550  2.8250 -16.669  4.9300  3.5550  2.8250 
  6318.500 -33.787  5.1010  3.5830  2.8240 -20.357  5.1010  3.5830  2.8240 
  6319.000 -38.836  5.2440  3.6470  2.8310 -25.405  5.2440  3.6470  2.8310 
  6319.500 -43.313  5.4010  3.8330  2.8380 -29.882  5.4010  3.8330  2.8380 
  6320.000 -46.429  5.6580  3.9970  2.8480 -32.997  5.6580  3.9970  2.8480 
  6320.500 -48.794  5.8580  4.1260  2.8580 -35.361  5.8580  4.1260  2.8580 
  6321.000 -50.694  5.9870  4.2470  2.8860 -37.261  5.9870  4.2470  2.8860 
  6321.500 -51.949  6.0510  4.3320  2.9000 -38.515  6.0510  4.3320  2.9000 
  6322.000 -53.956  6.0860  4.3960  2.9210 -40.521  6.0860  4.3960  2.9210 
  6322.500 -55.282  6.1140  4.4460  2.8630 -41.847  6.1140  4.4460  2.8630 
  6323.000 -55.678  6.1320  4.4950  2.8200 -42.242  6.1320  4.4950  2.8200 
  6323.500 -55.753  6.1490  4.4590  2.7830 -42.316  6.1490  4.4590  2.7830 
  6324.000 -55.612  6.1840  4.3080  2.7540 -42.175  6.1840  4.3080  2.7540 
  6324.500 -55.256  6.2050  4.1930  2.8250 -41.818  6.2050  4.1930  2.8250 
  6325.000 -54.042  6.1260  4.0210  2.9180 -40.604  6.1260  4.0210  2.9180 
  6325.500 -52.004  5.8820  3.9060  3.0110 -38.565  5.8820  3.9060  3.0110 
  6326.000 -48.928  5.5520  3.8120  3.1100 -35.488  5.5520  3.8120  3.1100 
  6326.500 -45.889  5.1150  3.8470  3.1960 -32.449  5.1150  3.8470  3.1960 
  6327.000 -43.385  4.7130  3.8830  3.2530 -29.944  4.7130  3.8830  3.2530 
  6327.500 -39.809  4.3550  4.0040  3.2450 -26.367  4.3550  4.0040  3.2450 
  6328.000 -37.306  3.9320  4.0460  3.1510 -23.864  3.9320  4.0460  3.1510 
  6328.500 -33.192  3.5450  4.0750  3.0360 -19.749  3.5450  4.0750  3.0360 
  6329.000 -29.579  3.0860  4.1100  2.9640 -16.135  3.0860  4.1100  2.9640 
  6329.500 -26.754  3.0140  4.1160  2.8490 -13.310  3.0140  4.1160  2.8490 
  6330.000 -24.609  3.0130  4.0590  2.7340 -11.164  3.0130  4.0590  2.7340 
  6330.500 -22.822  3.1060  3.9580  2.6830 -9.3763  3.1060  3.9580  2.6830 
  6331.000 -21.750  3.2050  3.8500  2.7830 -8.3036  3.2050  3.8500  2.7830 
  6331.500 -21.180  3.2550  3.7350  2.8330 -7.7329  3.2550  3.7350  2.8330 
  6332.000 -20.861  3.2940  3.6700  2.8830 -7.4133  3.2940  3.6700  2.8830 
  6332.500 -20.684  3.3330  3.6690  2.9960 -7.2356  3.3330  3.6690  2.9960 
  6333.000 -20.615  3.3680  3.7120  3.0460 -7.1659  3.3680  3.7120  3.0460 
  6333.500 -20.546  3.3680  3.7610  3.0960 -7.0963  3.3680  3.7610  3.0960 
  6334.000 -20.727  3.3600  3.7970  3.1380 -7.2766  3.3600  3.7970  3.1380 
  6334.500 -22.018  3.3530  3.8460  3.1950 -8.5670  3.3530  3.8460  3.1950 
  6335.000 -24.777  3.2870  3.8960  3.1440 -11.325  3.2870  3.8960  3.1440 
  6335.500 -25.781  3.2760  3.9600  3.1120 -12.329  3.2760  3.9600  3.1120 
  6336.000 -25.676  3.2650  4.0100  3.0790 -12.223  3.2650  4.0100  3.0790 
  6336.500 -25.070  3.2360  4.0740  3.0070 -11.616  3.2360  4.0740  3.0070 
  6337.000 -24.536  3.3070  4.0870  2.9780 -11.082  3.3070  4.0870  2.9780 
  6337.500 -24.038  3.4350  4.0940  3.0840 -10.583  3.4350  4.0940  3.0840 
  6338.000 -23.896  3.5640  4.0720  3.1770 -10.440  3.5640  4.0720  3.1770 
  6338.500 -23.899  3.7640  4.0290  3.2770 -10.443  3.7640  4.0290  3.2770 
  6339.000 -24.116  3.9060  3.9710  3.3620 -10.659  3.9060  3.9710  3.3620 
  6339.500 -24.763  4.0200  3.8420  3.4760 -11.305  4.0200  3.8420  3.4760 
  6340.000 -26.018  4.0990  3.7910  3.5900 -12.560  4.0990  3.7910  3.5900 
  6340.500 -28.490  4.1340  3.7690  3.6760 -15.031  4.1340  3.7690  3.6760 
  6341.000 -29.173  4.0550  3.7470  3.7400 -15.713  4.0550  3.7470  3.7400 
  6341.500 -29.390  3.7540  3.7250  3.7820 -15.930  3.7540  3.7250  3.7820 
  6342.000 -29.034  3.4590  3.6890  3.7740 -15.573  3.4590  3.6890  3.7740 
  6342.500 -28.679  3.2370  3.6450  3.7710 -15.217  3.2370  3.6450  3.7710 
  6343.000 -27.071  2.9640  3.5300  3.7670 -13.609  2.9640  3.5300  3.7670 
  6343.500 -25.427  2.8920  3.2140  3.7660 -11.964  2.8920  3.2140  3.7660 
  6344.000 -23.568  2.9350  3.0560  4.0730 -10.104  2.9350  3.0560  4.0730 
  6344.500 -22.533  2.9630  2.9060  4.3090 -9.0688  2.9630  2.9060  4.3090 
  6345.000 -21.998  2.9340  2.7690  4.6160 -8.5331  2.9340  2.7690  4.6160 
  6345.500 -21.821  2.8470  2.7540  4.9100 -8.3554  2.8470  2.7540  4.9100 
  6346.000 -21.680  2.7680  2.8040  5.2670 -8.2138  2.7680  2.8040  5.2670 
  6346.500 -21.539  2.8710  2.9110  5.6750 -8.0721  2.8710  2.9110  5.6750 
  6347.000 -21.542  2.9750  3.0250  5.7460 -8.0745  2.9750  3.0250  5.7460 
  6347.500 -21.832  3.3680  3.2320  5.5880 -8.3638  3.3680  3.2320  5.5880 
  6348.000 -22.013  3.5610  3.4820  5.1000 -8.5441  3.5610  3.4820  5.1000 
  6348.500 -22.266  3.7970  3.8250  4.1690 -8.7965  3.7970  3.8250  4.1690 
  6349.000 -22.733  4.0320  4.7840  3.1880 -9.2628  4.0320  4.7840  3.1880 
  6349.500 -23.988  5.0270  5.0770  2.6930 -10.517  5.0270  5.0770  2.6930 
  6350.000 -25.279  5.5420  5.1130  2.4420 -11.807  5.5420  5.1130  2.4420 
  6350.500 -26.820  6.0290  5.1270  2.4200 -13.348  6.0290  5.1270  2.4200 
  6351.000 -28.933  6.6160  5.1270  2.6920 -15.460  6.6160  5.1270  2.6920 
  6351.500 -32.907  7.1960  5.1760  2.8990 -19.434  7.1960  5.1760  2.8990 
  6352.000 -38.564  7.6320  5.2120  3.0420 -25.090  7.6320  5.2120  3.0420 
  6352.500 -43.147  8.0260  5.4620  3.1640 -29.672  8.0260  5.4620  3.1640 
  6353.000 -47.086  8.4340  5.7980  3.2710 -33.611  8.4340  5.7980  3.2710 
  6353.500 -49.128  8.5690  6.0270  3.2990 -35.652  8.5690  6.0270  3.2990 
  6354.000 -50.095  8.5480  6.2130  3.2340 -36.618  8.5480  6.2130  3.2340 
  6354.500 -51.421  8.5190  6.3700  3.1410 -37.944  8.5190  6.3700  3.1410 
  6355.000 -52.997  8.3890  6.4630  3.0120 -39.519  8.3890  6.4630  3.0120 
  6355.500 -54.502  8.3460  6.5200  2.9040 -41.023  8.3460  6.5200  2.9040 
  6356.000 -54.898  8.2670  6.5130  2.8180 -41.419  8.2670  6.5130  2.8180 
  6356.500 -55.221  8.1450  6.4700  2.7390 -41.741  8.1450  6.4700  2.7390 
  6357.000 -55.330  8.0090  6.3980  2.6380 -41.849  8.0090  6.3980  2.6380 
  6357.500 -55.009  7.8440  6.2680  2.5880 -41.528  7.8440  6.2680  2.5880 
  6358.000 -54.438  7.7000  6.1680  2.5230 -40.956  7.7000  6.1680  2.5230 
  6358.500 -54.046  7.5640  6.0600  2.4580 -40.563  7.5640  6.0600  2.4580 
  6359.000 -53.583  7.3990  6.0100  2.4080 -40.100  7.3990  6.0100  2.4080 
  6359.500 -53.333  7.2630  5.9950  2.3720 -39.849  7.2630  5.9950  2.3720 
  6360.000 -52.833  7.0550  6.0060  2.3570 -39.348  7.0550  6.0060  2.3570 
  6360.500 -51.868  6.8320  6.0160  2.3500 -38.383  6.8320  6.0160  2.3500 
  6361.000 -50.903  6.6600  6.0660  2.3490 -37.417  6.6600  6.0660  2.3490 
  6361.500 -49.903  6.5030  6.0940  2.4350 -36.416  6.5030  6.0940  2.4350 
  6362.000 -49.296  6.3880  6.1230  2.5780 -35.809  6.3880  6.1230  2.5780 
  6362.500 -48.760  6.3660  6.1580  2.7930 -35.272  6.3660  6.1580  2.7930 
  6363.000 -48.475  6.4440  6.2370  2.9860 -34.986  6.4440  6.2370  2.9860 
  6363.500 -48.262  6.5230  6.3300  2.7280 -34.773  6.5230  6.3300  2.7280 
  6364.000 -48.299  6.6590  6.4370  2.9180 -34.809  6.6590  6.4370  2.9180 
  6364.500 -48.731  6.8090  6.4860  3.1090 -35.240  6.8090  6.4860  3.1090 
  6365.000 -49.269  6.9520  6.5150  3.3000 -35.778  6.9520  6.5150  3.3000 
  6365.500 -50.523  7.2090  6.5140  4.3380 -37.031  7.2090  6.5140  4.3380 
  6366.000 -51.885  7.7030  6.5000  5.6050 -38.392  7.7030  6.5000  5.6050 
  6366.500 -53.031  8.2470  6.3780  7.1010 -39.538  8.2470  6.3780  7.1010 
  6367.000 -54.178  8.7260  6.1410  8.6760 -40.684  8.7260  6.1410  8.6760 
  6367.500 -54.466  9.2060  5.8330  10.480 -40.971  9.2060  5.8330  10.480 
  6368.000 -54.432  9.5850  5.2670  11.039 -40.937  9.5850  5.2670  11.039 
  6368.500 -54.076  9.7850  4.8730  11.848 -40.580  9.7850  4.8730  11.848 
  6369.000 -53.504  9.8140  4.4430  12.771 -40.007  9.8140  4.4430  12.771 
  6369.500 -52.145  9.6770  4.2140  12.685 -38.648  9.6770  4.2140  12.685 
