~Version Information
VERS.                     2.0: CWLS log ASCII Standard Version 2.00
WRAP.                      NO: One line per depth step
~Well Information Block
#MNEM.UNIT                               Data Type  Information
#---------                               ---------  -----------
STRT.FT                                   540.0000:
STOP.FT                                  8500.0000:
STEP.FT                                     0.5000:
NULL.                 -999.25                     :
COMP.                                             :COMPANY            
WELL.     LLU 48-21                               :WELL               
FLD .                                             :FIELD              
CTRY.                                             :COUNTRY            
STAT.                                             :STATE              
LOC .                                             :LOCATION           
UWI .                                             :UNIQUE WELL ID     
SRVC.                                             :Service company    
DATE.                                             :LOG DATE           
~Curve Information
#MNEM.UNIT           API CODE  Curve Description
#---------           --------  -----------------
DEPT.FT                      :   1 DEPTH
SP  .MV                      :   2
AM16.OHMM                    :   3
AM64.OHMM                    :   4
LAT .OHMM                    :   5
SBL .MV                      :   6
RS  .OHMM                    :   7
RM  .OHMM                    :   8
RD  .OHMM                    :   9
~A
# ...
  4250.000 -27.794  5.2840  7.9450  4.9980 -17.097  5.2840  7.9450  4.9980 
  4250.500 -26.796  5.9000  7.8720  4.8890 -16.098  5.9000  7.8720  4.8890 
  4251.000 -25.943  6.3150  7.7640  4.8310 -15.245  6.3150  7.7640  4.8310 
  4251.500 -25.268  6.8660  7.6910  5.1600 -14.569  6.8660  7.6910  5.1600 
  4252.000 -25.129  7.0660  7.5820  5.4530 -14.429  7.0660  7.5820  5.4530 
  4252.500 -25.062  7.2590  7.5240  5.8530 -14.362  7.2590  7.5240  5.8530 
  4253.000 -25.925  7.4370  7.4730  6.2470 -15.224  7.4370  7.4730  6.2470 
  4253.500 -28.005  7.6580  7.5080  6.4750 -17.303  7.6580  7.5080  6.4750 
  4254.000 -30.012  7.8580  7.5500  6.7820 -19.310  7.8580  7.5500  6.7820 
  4254.500 -31.556  8.0510  7.5920  6.8610 -20.853  8.0510  7.5920  6.8610 
  4255.000 -32.239  8.1650  7.6200  7.0250 -21.535  8.1650  7.6200  7.0250 
  4255.500 -32.744  8.1850  7.6400  7.1170 -22.040  8.1850  7.6400  7.1170 
  4256.000 -33.105  8.1990  7.6400  7.2100 -22.400  8.1990  7.6400  7.2100 
  4256.500 -33.505  8.1690  7.6240  7.4730 -22.799  8.1690  7.6240  7.4730 
  4257.000 -33.688  8.0960  7.6090  7.6090 -22.982  8.0960  7.6090  7.6090 
  4257.500 -33.871  7.9950  7.5790  7.7370 -23.164  7.9950  7.5790  7.7370 
  4258.000 -34.056  7.8010  7.5280  7.9010 -23.348  7.8010  7.5280  7.9010 
  4258.500 -34.112  7.6200  7.4910  8.0860 -23.404  7.6200  7.4910  8.0860 
  4259.000 -34.168  7.4480  7.3620  8.1860 -23.459  7.4480  7.3620  8.1860 
  4259.500 -34.176  7.2820  7.0880  8.2710 -23.467  7.2820  7.0880  8.2710 
  4260.000 -34.145  7.1010  6.6350  8.3200 -23.435  7.1010  6.6350  8.3200 
  4260.500 -33.970  6.8710  6.1040  8.3550 -23.259  6.8710  6.1040  8.3550 
  4261.000 -33.511  6.6340  5.9810  8.3760 -22.800  6.6340  5.9810  8.3760 
  4261.500 -32.943  6.1240  5.9980  8.4250 -22.231  6.1240  5.9980  8.4250 
  4262.000 -32.374  5.6210  6.0150  8.4530 -21.661  5.6210  6.0150  8.4530 
  4262.500 -30.555  5.0820  6.0790  8.3660 -19.842  5.0820  6.0790  8.3660 
  4263.000 -29.522  4.4930  6.1060  8.1570 -18.808  4.4930  6.1060  8.1570 
  4263.500 -28.203  4.0620  6.1200  7.7260 -17.488  4.0620  6.1200  7.7260 
  4264.000 -26.670  3.7890  6.1040  6.7860 -15.955  3.7890  6.1040  6.7860 
  4264.500 -24.493  3.6010  6.0820  5.9600 -13.777  3.6010  6.0820  5.9600 
  4265.000 -21.744  3.7580  6.0380  5.5650 -11.027  3.7580  6.0380  5.5650 
  4265.500 -19.961  3.8720  5.9870  5.3700 -9.2436  3.8720  5.9870  5.3700 
  4266.000 -18.534  3.9530  5.9500  5.3550 -7.8159  3.9530  5.9500  5.3550 
  4266.500 -18.753  4.0350  5.8920  5.3400 -8.0343  4.0350  5.8920  5.3400 
  4267.000 -19.402  4.1840  5.8550  5.3240 -8.6826  4.1840  5.8550  5.3240 
  4267.500 -20.229  4.2840  5.8970  5.3020 -9.5089  4.2840  5.8970  5.3020 
  4268.000 -19.268  4.3760  5.9250  5.2580 -8.5473  4.3760  5.9250  5.2580 
  4268.500 -18.199  4.5180  5.9810  5.2140 -7.4776  4.5180  5.9810  5.2140 
  4269.000 -17.703  4.6320  6.0240  5.1770 -6.9810  4.6320  6.0240  5.1770 
  4269.500 -17.636  4.8390  6.0660  5.1840 -6.9133  4.8390  6.0660  5.1840 
  4270.000 -17.713  5.0890  6.1000  5.3910 -6.9896  5.0890  6.1000  5.3910 
  4270.500 -17.932  5.4900  6.0990  5.7340 -7.2080  5.4900  6.0990  5.7340 
  4271.000 -18.509  5.7970  6.0990  6.0560 -7.7843  5.7970  6.0990  6.0560 
  4271.500 -19.872  5.9970  6.0830  6.3060 -9.1466  5.9970  6.0830  6.3060 
  4272.000 -21.558  6.1250  6.0610  6.5270 -10.832  6.1250  6.0610  6.5270 
  4272.500 -23.672  6.1530  6.0380  6.7200 -12.945  6.1530  6.0380  6.7200 
  4273.000 -26.037  6.1670  5.9660  6.9480 -15.310  6.1670  5.9660  6.9480 
  4273.500 -28.116  6.1580  5.9000  7.1050 -17.388  6.1580  5.9000  7.1050 
  4274.000 -29.909  6.1500  5.8130  7.2110 -19.180  6.1500  5.8130  7.2110 
  4274.500 -30.450  6.1060  5.7330  7.2680 -19.721  6.1060  5.7330  7.2680 
  4275.000 -30.490  5.8900  5.6540  7.3100 -19.760  5.8900  5.6540  7.3100 
  4275.500 -30.353  5.6670  5.6020  7.3450 -19.622  5.6670  5.6020  7.3450 
  4276.000 -30.178  5.4800  5.5660  7.3730 -19.447  5.4800  5.5660  7.3730 
  4276.500 -29.824  5.1270  5.6220  7.3790 -19.092  5.1270  5.6220  7.3790 
  4277.000 -29.293  4.9830  5.6570  7.3130 -18.560  4.9830  5.6570  7.3130 
  4277.500 -28.118  4.7030  5.7490  7.2190 -17.385  4.7030  5.7490  7.2190 
  4278.000 -26.977  4.3650  5.8350  7.0390 -16.243  4.3650  5.8350  7.0390 
  4278.500 -25.623  4.1850  5.9550  6.7580 -14.888  4.1850  5.9550  6.7580 
  4279.000 -23.875  3.8750  6.0330  6.5070 -13.140  3.8750  6.0330  6.5070 
  4279.500 -22.592  3.6660  6.1470  6.2480 -11.856  3.6660  6.1470  6.2480 
  4280.000 -20.629  3.6440  6.2180  5.8240 -9.8924  3.6440  6.2180  5.8240 
  4280.500 -18.810  3.6500  6.2670  5.5570 -8.0728  3.6500  6.2670  5.5570 
  4281.000 -16.991  3.7280  6.2160  5.3630 -6.2531  3.7280  6.2160  5.3630 
  4281.500 -16.459  3.7840  6.1720  5.1540 -5.7204  3.7840  6.1720  5.1540 
  4282.000 -16.357  3.9840  6.1430  4.9310 -5.6178  3.9840  6.1430  4.9310 
  4282.500 -16.362  4.1190  6.1350  4.8440 -5.6221  4.1190  6.1350  4.8440 
  4283.000 -16.401  4.3770  6.1340  4.9290 -5.6605  4.3770  6.1340  4.9290 
  4283.500 -16.729  4.8780  6.1690  5.1500 -5.9878  4.8780  6.1690  5.1500 
  4284.000 -17.055  5.0920  6.2030  5.3500 -6.3131  5.0920  6.2030  5.3500 
  4284.500 -17.775  5.1630  6.3030  5.3420 -7.0325  5.1630  6.3030  5.3420 
  4285.000 -19.067  5.4060  6.3880  5.3200 -8.3238  5.4060  6.3880  5.3200 
  4285.500 -19.894  5.6560  6.4730  5.3110 -9.1502  5.6560  6.4730  5.3110 
  4286.000 -21.113  5.8840  6.5370  5.3110 -10.368  5.8840  6.5370  5.3110 
  4286.500 -22.585  6.0910  6.6010  5.4170 -11.840  6.0910  6.6010  5.4170 
  4287.000 -23.985  6.2980  6.7930  5.7100 -13.239  6.2980  6.7930  5.7100 
  4287.500 -25.706  6.5630  6.8990  5.9670 -14.960  6.5630  6.8990  5.9670 
  4288.000 -27.320  6.7190  6.9600  6.2100 -16.573  6.7190  6.9600  6.2100 
  4288.500 -28.576  6.8690  7.0200  6.4170 -17.828  6.8690  7.0200  6.4170 
  4289.000 -29.975  7.2190  7.1050  6.6600 -19.227  7.2190  7.1050  6.6600 
  4289.500 -31.410  7.3690  7.1330  6.9100 -20.661  7.3690  7.1330  6.9100 
  4290.000 -32.452  7.4610  7.1320  7.0670 -21.702  7.4610  7.1320  7.0670 
  4290.500 -33.315  7.5390  7.1160  7.2880 -22.565  7.5390  7.1160  7.2880 
  4291.000 -33.749  7.5670  7.0650  7.4090 -22.998  7.5670  7.0650  7.4090 
  4291.500 -33.969  7.5950  6.9500  7.6020 -23.217  7.5950  6.9500  7.6020 
  4292.000 -34.045  7.5650  6.6040  7.7300 -23.293  7.5650  6.6040  7.7300 
  4292.500 -33.941  7.5070  6.3100  7.8440 -23.188  7.5070  6.3100  7.8440 
  4293.000 -33.767  7.4060  5.9780  8.0220 -23.013  7.4060  5.9780  8.0220 
  4293.500 -33.628  6.5730  5.9990  8.1220 -22.874  6.5730  5.9990  8.1220 
  4294.000 -33.276  5.9630  6.0910  8.1710 -22.521  5.9630  6.0910  8.1710 
  4294.500 -32.922  5.4090  6.1620  8.1630 -22.166  5.4090  6.1620  8.1630 
  4295.000 -31.925  4.8420  6.2550  8.0260 -21.169  4.8420  6.2550  8.0260 
  4295.500 -29.677  4.5400  6.3040  7.7740 -18.920  4.5400  6.3040  7.7740 
  4296.000 -27.071  4.1590  6.3390  7.0850 -16.313  4.1590  6.3390  7.0850 
  4296.500 -25.179  3.9930  6.3590  6.5310 -14.421  3.9930  6.3590  6.5310 
  4297.000 -22.824  4.0070  6.3650  6.1940 -12.065  4.0070  6.3650  6.1940 
  4297.500 -20.647  4.1060  6.3290  5.7550 -9.8873  4.1060  6.3290  5.7550 
  4298.000 -19.042  4.2130  6.2850  5.3100 -8.2816  4.2130  6.2850  5.3100 
  4298.500 -17.724  4.3050  6.1760  4.9720 -6.9630  4.3050  6.1760  4.9720 
  4299.000 -17.513  4.4040  6.0900  5.0350 -6.7513  4.4040  6.0900  5.0350 
  4299.500 -17.732  4.4820  5.9670  5.1560 -6.9697  4.4820  5.9670  5.1560 
  4300.000 -18.023  4.5310  5.8870  5.1840 -7.2600  4.5310  5.8870  5.1840 
  4300.500 -18.635  4.5600  5.8900  5.1760 -7.8713  4.5600  5.8900  5.1760 
  4301.000 -19.317  4.4730  5.8930  5.1610 -8.5527  4.4730  5.8930  5.1610 
  4301.500 -20.107  4.3500  5.9280  5.1680 -9.3420  4.3500  5.9280  5.1680 
  4302.000 -20.254  4.2570  6.0130  5.1740 -9.4884  4.2570  6.0130  5.1740 
  4302.500 -19.400  4.1770  6.1130  5.1590 -8.6337  4.1770  6.1130  5.1590 
