~Version Information
VERS.                     2.0: CWLS log ASCII Standard Version 2.00
WRAP.                      NO: One line per depth step
~Well Information Block
#MNEM.UNIT                               Data Type  Information
#---------                               ---------  -----------
STRT.FT                                   540.0000:
STOP.FT                                  8500.0000:
STEP.FT                                     0.5000:
NULL.                 -999.25                     :
COMP.                                             :COMPANY            
WELL.     LLU 48-21                               :WELL               
FLD .                                             :FIELD              
CTRY.                                             :COUNTRY            
STAT.                                             :STATE              
LOC .                                             :LOCATION           
UWI .                                             :UNIQUE WELL ID     
SRVC.                                             :Service company    
DATE.                                             :LOG DATE           
~Curve Information
#MNEM.UNIT           API CODE  Curve Description
#---------           --------  -----------------
DEPT.FT                      :   1 DEPTH
SP  .MV                      :   2
AM16.OHMM                    :   3
AM64.OHMM                    :   4
LAT .OHMM                    :   5
SBL .MV                      :   6
RS  .OHMM                    :   7
RM  .OHMM                    :   8
RD  .OHMM                    :   9
~A
   540.000 -1.2730  3.3210  0.1150  0.2120  32.727  3.3210  0.1150  0.2120 
   540.500 -3.8560  5.0640  0.2000  0.1820  30.144  5.0640  0.2000  0.1820 
   541.000 -16.587  7.9970  0.5370  0.1750  17.413  7.9970  0.5370  0.1750 
   541.500 -24.226  8.8790  8.9370  0.1600  9.7740  8.8790  8.9370  0.1600 
   542.000 -28.961  10.270  12.358  0.1520  5.0390  10.270  12.358  0.1520 
   542.500 -32.153  11.217  13.304  0.1440  1.8470  11.217  13.304  0.1440 
   543.000 -35.560  11.804  16.080  0.1370 -1.5600  11.804  16.080  0.1370 
   543.500 -37.819  12.342  17.091  0.1330 -3.8190  12.342  17.091  0.1330 
   544.000 -40.473  12.951  19.829  0.1290 -6.4730  12.951  19.829  0.1290 
   544.500 -42.876  13.898  22.191  0.1200 -8.8760  13.898  22.191  0.1200 
   545.000 -45.100  14.521  24.553  0.1200 -11.100  14.521  24.553  0.1200 
   545.500 -47.467  14.951  26.915  0.1200 -13.467  14.951  26.915  0.1200 
   546.000 -49.440  15.409  30.135  0.1190 -15.440  15.409  30.135  0.1190 
   546.500 -51.807  15.825  31.421  0.1110 -17.807  15.825  31.421  0.1110 
   547.000 -53.887  16.241  32.419  0.1180 -19.887  16.241  32.419  0.1180 
   547.500 -55.286  16.685  33.131  0.1170 -21.286  16.685  33.131  0.1170 
   548.000 -56.398  17.115  33.414  0.1170 -22.398  17.115  33.414  0.1170 
   548.500 -57.474  17.437  34.197  0.1310 -23.474  17.437  34.197  0.1310 
   549.000 -58.335  17.702  34.550  0.1300 -24.335  17.702  34.550  0.1300 
   549.500 -59.088  17.967  34.832  0.1440 -25.088  17.967  34.832  0.1440 
   550.000 -59.949  18.210  34.971  0.1290 -25.949  18.210  34.971  0.1290 
   550.500 -60.774  18.353  35.181  0.1070 -26.774  18.353  35.181  0.1070 
   551.000 -61.635  17.822  35.390  0.0630 -27.635  17.822  35.390  0.0630 
   551.500 -62.424  17.455  35.528  0.0480 -28.424  17.455  35.528  0.0480 
   552.000 -63.034  17.218  35.952  0.0410 -29.034  17.218  35.952  0.0410 
   552.500 -63.680  16.801  36.307  0.0400 -29.680  16.801  36.307  0.0400 
   553.000 -64.361  16.370  36.659  0.0400 -30.361  16.370  36.659  0.0400 
   553.500 -65.151  15.853  37.084  0.0610 -31.151  15.853  37.084  0.0610 
   554.000 -65.617  15.681  37.508  0.0600 -31.617  15.681  37.508  0.0600 
   554.500 -66.047  15.816  37.792  0.0600 -32.047  15.816  37.792  0.0600 
   555.000 -66.478  16.017  38.002  0.0660 -32.478  16.017  38.002  0.0660 
   555.500 -67.303  16.267  37.638  0.1230 -33.303  16.267  37.638  0.1230 
   556.000 -67.805  16.446  36.556  0.2800 -33.805  16.446  36.556  0.2800 
   556.500 -68.272  16.611  36.444  0.4230 -34.272  16.611  36.444  0.4230 
   557.000 -68.630  16.732  36.333  1.5060 -34.630  16.732  36.333  1.5060 
   557.500 -68.989  16.839  36.542  6.0750 -34.989  16.839  36.542  6.0750 
   558.000 -69.384  16.968  36.751  7.0930 -35.384  16.968  36.751  7.0930 
   558.500 -69.814  16.580  37.317  11.239 -35.814  16.580  37.317  11.239 
   559.000 -70.173  16.479  37.957  12.279 -36.173  16.479  37.957  12.279 
   559.500 -70.424  16.385  38.205  15.105 -36.424  16.385  38.205  15.105 
   560.000 -70.783  16.313  38.452  17.758 -36.783  16.313  38.452  17.758 
   560.500 -71.034  16.262  39.663  18.317 -37.034  16.262  39.663  18.317 
   561.000 -71.321  16.391  40.161  18.862 -37.321  16.391  40.161  18.862 
   561.500 -71.680  16.835  40.766  22.242 -37.680  16.835  40.766  22.242 
   562.000 -72.075  17.064  41.372  25.622 -38.075  17.064  41.372  25.622 
   562.500 -72.344  17.264  42.084  26.694 -38.344  17.264  42.084  26.694 
   563.000 -72.613  17.428  42.796  27.407 -38.613  17.428  42.796  27.407 
   563.500 -73.115  17.557  43.362  28.406 -39.115  17.557  43.362  28.406 
   564.000 -73.474  17.628  43.786  29.404 -39.474  17.628  43.786  29.404 
   564.500 -73.797  17.714  43.926  30.331 -39.797  17.714  43.926  30.331 
   565.000 -74.084  17.871  43.201  31.618 -40.084  17.871  43.201  31.618 
   565.500 -74.263  17.957  42.408  32.904 -40.263  17.957  42.408  32.904 
   566.000 -74.371  17.928  41.757  33.902 -40.371  17.928  41.757  33.902 
   566.500 -74.443  17.661  41.608  34.614 -40.443  17.661  41.608  34.614 
   567.000 -74.479  17.266  41.604  35.398 -40.479  17.266  41.604  35.398 
   567.500 -74.443  16.864  41.600  35.679 -40.443  16.864  41.600  35.679 
   568.000 -74.408  16.448  42.236  34.956 -40.408  16.448  42.236  34.956 
   568.500 -74.408  16.074  42.518  34.018 -40.408  16.074  42.518  34.018 
   569.000 -74.480  15.643  42.801  33.440 -40.480  15.643  42.801  33.440 
   569.500 -74.695  15.384  43.296  32.430 -40.695  15.384  43.296  32.430 
   570.000 -74.910  15.147  43.436  31.634 -40.910  15.147  43.436  31.634 
   570.500 -75.126  14.931  43.576  31.199 -41.126  14.931  43.576  31.199 
   571.000 -75.377  14.866  43.997  30.476 -41.377  14.866  43.997  30.476 
   571.500 -75.556  14.916  44.064  30.293 -41.556  14.916  44.064  30.293 
   572.000 -75.557  14.958  43.986  30.110 -41.557  14.958  43.986  30.110 
   572.500 -75.664  15.073  43.622  29.742 -41.664  15.073  43.622  29.742 
   573.000 -75.808  15.280  43.332  29.952 -41.808  15.280  43.332  29.952 
   573.500 -76.059  15.653  43.040  31.022 -42.059  15.653  43.040  31.022 
   574.000 -76.059  15.960  42.675  31.807 -42.059  15.960  42.675  31.807 
   574.500 -76.023  16.103  42.348  33.164 -42.023  16.103  42.348  33.164 
   575.000 -75.988  16.160  42.022  34.665 -41.988  16.160  42.022  34.665 
   575.500 -75.988  16.145  41.224  35.593 -41.988  16.145  41.224  35.593 
   576.000 -76.060  16.116  40.502  37.092 -42.060  16.116  40.502  37.092 
   576.500 -76.311  15.972  39.705  37.662 -42.311  15.972  39.705  37.662 
   577.000 -76.670  15.699  39.629  38.447 -42.670  15.699  39.629  38.447 
   577.500 -76.634  15.218  39.624  39.661 -42.634  15.218  39.624  39.661 
   578.000 -75.953  14.658  40.766  39.871 -41.953  14.658  40.766  39.871 
   578.500 -75.594  14.126  41.838  38.215 -41.594  14.126  41.838  38.215 
   579.000 -75.379  13.645  42.906  35.340 -41.379  13.645  42.906  35.340 
   579.500 -75.236  13.429  43.405  33.111 -41.236  13.429  43.405  33.111 
   580.000 -75.451  13.422  43.686  31.241 -41.451  13.422  43.686  31.241 
   580.500 -75.702  13.558  43.718  30.303 -41.702  13.558  43.718  30.303 
   581.000 -76.025  13.887  43.750  30.869 -42.025  13.887  43.750  30.869 
   581.500 -76.277  14.489  43.458  31.152 -42.277  14.489  43.458  31.152 
   582.000 -76.635  14.991  43.165  31.793 -42.635  14.991  43.165  31.793 
   582.500 -77.066  15.464  42.225  34.154 -43.066  15.464  42.225  34.154 
   583.000 -77.568  15.879  41.898  36.587 -43.568  15.879  41.898  36.587 
   583.500 -77.927  16.209  41.571  37.803 -43.927  16.209  41.571  37.803 
   584.000 -78.035  16.459  41.706  39.662 -44.035  16.459  41.706  39.662 
   584.500 -77.927  16.595  42.202  40.733 -43.927  16.595  42.202  40.733 
   585.000 -77.748  16.616  42.700  41.876 -43.748  16.616  42.700  41.876 
   585.500 -77.569  16.486  43.198  42.660 -43.569  16.486  43.198  42.660 
   586.000 -77.139  16.335  43.836  42.869 -43.139  16.335  43.836  42.869 
   586.500 -76.924  16.076  44.047  42.648 -42.924  16.076  44.047  42.648 
   587.000 -77.247  15.947  44.258  42.069 -43.247  15.947  44.258  42.069 
   587.500 -77.605  15.881  44.469  41.561 -43.605  15.881  44.469  41.561 
   588.000 -77.857  15.859  44.676  40.838 -43.857  15.859  44.676  40.838 
   588.500 -77.677  15.816  44.526  40.043 -43.677  15.816  44.526  40.043 
   589.000 -77.534  15.765  44.379  39.321 -43.534  15.765  44.379  39.321 
   589.500 -77.893  15.614  44.014  38.453 -43.893  15.614  44.014  38.453 
   590.000 -78.252  15.262  43.578  37.912 -44.252  15.262  43.578  37.912 
   590.500 -77.929  14.773  43.356  37.371 -43.929  14.773  43.356  37.371 
   591.000 -77.750  14.472  43.210  36.000 -43.750  14.472  43.210  36.000 
   591.500 -77.678  14.313  42.987  35.134 -43.678  14.313  42.987  35.134 
   592.000 -77.822  14.262  42.877  34.481 -43.822  14.262  42.877  34.481 
   592.500 -78.324  14.355  42.766  34.334 -44.324  14.355  42.766  34.334 
