~Version Information
VERS.                     2.0: CWLS log ASCII Standard Version 2.00
WRAP.                      NO: One line per depth step
~Well Information Block
#MNEM.UNIT                               Data Type  Information
#---------                               ---------  -----------
STRT.FT                                   540.0000:
STOP.FT                                  8500.0000:
STEP.FT                                     0.5000:
NULL.                 -999.25                     :
COMP.                                             :COMPANY            
WELL.     LLU 48-21                               :WELL               
FLD .                                             :FIELD              
CTRY.                                             :COUNTRY            
STAT.                                             :STATE              
LOC .                                             :LOCATION           
UWI .                                             :UNIQUE WELL ID     
SRVC.                                             :Service company    
DATE.                                             :LOG DATE           
~Curve Information
#MNEM.UNIT           API CODE  Curve Description
#---------           --------  -----------------
DEPT.FT                      :   1 DEPTH
SP  .MV                      :   2
AM16.OHMM                    :   3
AM64.OHMM                    :   4
LAT .OHMM                    :   5
SBL .MV                      :   6
RS  .OHMM                    :   7
RM  .OHMM                    :   8
RD  .OHMM                    :   9
~A
# ...
  8437.000 -11.647  2.5400  2.6190  2.9960 -3.6470  2.5400  2.6190  2.9960 
  8437.500 -11.676  2.5720  2.6170  2.9790 -3.6760  2.5720  2.6170  2.9790 
  8438.000 -11.705  2.5950  2.6160  2.9280 -3.7050  2.5950  2.6160  2.9280 
  8438.500 -11.730  2.6270  2.6410  2.8780 -3.7300  2.6270  2.6410  2.8780 
  8439.000 -11.755  2.6390  2.6500  2.8540 -3.7550  2.6390  2.6500  2.8540 
  8439.500 -11.797  2.6510  2.6590  2.8300 -3.7970  2.6510  2.6590  2.8300 
  8440.000 -11.839  2.6830  2.6760  2.8000 -3.8390  2.6830  2.6760  2.8000 
  8440.500 -11.827  2.7000  2.6920  2.7700 -3.8270  2.7000  2.6920  2.7700 
  8441.000 -11.837  2.7160  2.7090  2.7190 -3.8370  2.7160  2.7090  2.7190 
  8441.500 -11.847  2.7400  2.7180  2.6670 -3.8470  2.7400  2.7180  2.6670 
  8442.000 -11.817  2.7520  2.7420  2.6340 -3.8170  2.7520  2.7420  2.6340 
  8442.500 -11.788  2.7640  2.7470  2.6220 -3.7880  2.7640  2.7470  2.6220 
  8443.000 -11.741  2.7890  2.7520  2.6170 -3.7410  2.7890  2.7520  2.6170 
  8443.500 -11.694  2.7980  2.7660  2.6050 -3.6940  2.7980  2.7660  2.6050 
  8444.000 -11.679  2.8070  2.7790  2.5930 -3.6790  2.8070  2.7790  2.5930 
  8444.500 -11.635  2.8180  2.7890  2.5950 -3.6350  2.8180  2.7890  2.5950 
  8445.000 -11.591  2.8270  2.7830  2.5970 -3.5910  2.8270  2.7830  2.5970 
  8445.500 -11.548  2.8210  2.7780  2.5980 -3.5480  2.8210  2.7780  2.5980 
  8446.000 -11.532  2.7950  2.7620  2.6020 -3.5320  2.7950  2.7620  2.6020 
  8446.500 -11.486  2.7690  2.7460  2.6040 -3.4860  2.7690  2.7460  2.6040 
  8447.000 -11.442  2.7350  2.7140  2.6050 -3.4420  2.7350  2.7140  2.6050 
  8447.500 -11.397  2.7150  2.7010  2.5940 -3.3970  2.7150  2.7010  2.5940 
  8448.000 -11.307  2.6670  2.6890  2.5880 -3.3070  2.6670  2.6890  2.5880 
  8448.500 -11.298  2.6410  2.6760  2.5700 -3.2980  2.6410  2.6760  2.5700 
  8449.000 -11.273  2.6280  2.6720  2.5570 -3.2730  2.6280  2.6720  2.5570 
  8449.500 -11.247  2.6310  2.6740  2.5440 -3.2470  2.6310  2.6740  2.5440 
  8450.000 -11.197  2.6400  2.6900  2.5310 -3.1970  2.6400  2.6900  2.5310 
  8450.500 -11.228  2.6480  2.6980  2.4970 -3.2280  2.6480  2.6980  2.4970 
  8451.000 -11.330  2.7060  2.7100  2.4630 -3.3300  2.7060  2.7100  2.4630 
  8451.500 -11.501  2.8150  2.7210  2.4280 -3.5010  2.8150  2.7210  2.4280 
  8452.000 -11.606  2.9090  2.7800  2.3790 -3.6060  2.9090  2.7800  2.3790 
  8452.500 -11.747  3.0030  2.8170  2.3220 -3.7470  3.0030  2.8170  2.3220 
  8453.000 -11.888  3.0690  2.8610  2.2730 -3.8880  3.0690  2.8610  2.2730 
  8453.500 -12.305  3.1340  2.8980  2.2450 -4.3050  3.1340  2.8980  2.2450 
  8454.000 -12.623  3.2210  2.9280  2.2320 -4.6230  3.2210  2.9280  2.2320 
  8454.500 -12.906  3.3010  2.9430  2.2690 -4.9060  3.3010  2.9430  2.2690 
  8455.000 -13.509  3.3590  2.9660  2.2910 -5.5090  3.3590  2.9660  2.2910 
  8455.500 -13.862  3.4180  2.9730  2.3360 -5.8620  3.4180  2.9730  2.3360 
  8456.000 -14.110  3.4410  2.9890  2.3650 -6.1100  3.4410  2.9890  2.3650 
  8456.500 -14.606  3.3560  2.9900  2.3800 -6.6060  3.3560  2.9900  2.3800 
  8457.000 -14.887  3.2340  2.9980  2.3880 -6.8870  3.2340  2.9980  2.3880 
  8457.500 -14.846  3.0700  2.9990  2.3950 -6.8460  3.0700  2.9990  2.3950 
  8458.000 -14.229  2.9570  2.9960  2.3760 -6.2290  2.9570  2.9960  2.3760 
  8458.500 -13.904  2.8500  2.9930  2.3580 -5.9040  2.8500  2.9930  2.3580 
  8459.000 -13.395  2.7720  2.9730  2.3410 -5.3950  2.7720  2.9730  2.3410 
  8459.500 -13.067  2.7090  2.9660  2.3000 -5.0670  2.7090  2.9660  2.3000 
  8460.000 -12.741  2.6880  2.9590  2.2720 -4.7410  2.6880  2.9590  2.2720 
  8460.500 -12.613  2.6600  2.9460  2.2580 -4.6130  2.6600  2.9460  2.2580 
  8461.000 -12.486  2.6540  2.9330  2.2730 -4.4860  2.6540  2.9330  2.2730 
  8461.500 -12.152  2.6980  2.9060  2.2880 -4.1520  2.6980  2.9060  2.2880 
  8462.000 -11.969  2.7280  2.8930  2.3140 -3.9690  2.7280  2.8930  2.3140 
  8462.500 -11.854  2.7720  2.8790  2.3400 -3.8540  2.7720  2.8790  2.3400 
  8463.000 -11.884  2.7940  2.8730  2.4070 -3.8840  2.7940  2.8730  2.4070 
  8463.500 -11.918  2.8170  2.8670  2.4370 -3.9180  2.8170  2.8670  2.4370 
  8464.000 -11.953  2.8530  2.8680  2.4660 -3.9530  2.8530  2.8680  2.4660 
  8464.500 -12.108  2.8830  2.8690  2.4880 -4.1080  2.8830  2.8690  2.4880 
  8465.000 -12.264  2.9060  2.8700  2.5260 -4.2640  2.9060  2.8700  2.5260 
  8465.500 -12.330  2.8990  2.8710  2.5480 -4.3300  2.8990  2.8710  2.5480 
  8466.000 -12.397  2.8500  2.8650  2.5710 -4.3970  2.8500  2.8650  2.5710 
  8466.500 -12.464  2.8330  2.8660  2.5860 -4.4640  2.8330  2.8660  2.5860 
  8467.000 -12.531  2.8150  2.8770  2.5800 -4.5310  2.8150  2.8770  2.5800 
  8467.500 -12.661  2.7600  2.8880  2.5660 -4.6610  2.7600  2.8880  2.5660 
  8468.000 -12.730  2.7540  2.9340  2.5530 -4.7300  2.7540  2.9340  2.5530 
  8468.500 -12.795  2.7480  2.9560  2.5320 -4.7950  2.7480  2.9560  2.5320 
  8469.000 -12.883  2.7490  2.9850  2.5050 -4.8830  2.7490  2.9850  2.5050 
  8469.500 -12.971  2.7710  3.0220  2.4630 -4.9710  2.7710  3.0220  2.4630 
  8470.000 -13.281  2.7860  3.0670  2.4420 -5.2810  2.7860  3.0670  2.4420 
  8470.500 -13.669  2.8090  3.0960  2.4360 -5.6690  2.8090  3.0960  2.4360 
  8471.000 -13.846  2.9030  3.1180  2.4300 -5.8460  2.9030  3.1180  2.4300 
  8471.500 -14.379  3.0110  3.1550  2.4590 -6.3790  3.0110  3.1550  2.4590 
  8472.000 -14.983  3.1560  3.1700  2.4960 -6.9830  3.1560  3.1700  2.4960 
  8472.500 -15.802  3.3360  3.1850  2.5400 -7.8020  3.3360  3.1850  2.5400 
  8473.000 -16.800  3.4660  3.2220  2.5920 -8.8000  3.4660  3.2220  2.5920 
  8473.500 -18.515  3.6180  3.2530  2.6430 -10.515  3.6180  3.2530  2.6430 
  8474.000 -19.050  3.6900  3.2600  2.6940 -11.050  3.6900  3.2600  2.6940 
  8474.500 -19.585  3.7850  3.2680  2.7450 -11.585  3.7850  3.2680  2.7450 
  8475.000 -18.855  3.8510  3.2720  2.7960 -10.855  3.8510  3.2720  2.7960 
  8475.500 -18.673  3.8800  3.2770  2.8400 -10.673  3.8800  3.2770  2.8400 
  8476.000 -18.776  3.8880  3.3000  2.8840 -10.776  3.8880  3.3000  2.8840 
  8476.500 -19.307  3.8680  3.3090  2.9280 -11.307  3.8680  3.3090  2.9280 
  8477.000 -19.912  3.8360  3.3160  2.9430 -11.912  3.8360  3.3160  2.9430 
  8477.500 -20.480  3.8040  3.3320  2.9160 -12.480  3.8040  3.3320  2.9160 
  8478.000 -20.008  3.7130  3.3390  2.9020 -12.008  3.7130  3.3390  2.9020 
  8478.500 -19.535  3.6490  3.3550  2.8670 -11.535  3.6490  3.3550  2.8670 
  8479.000 -19.281  3.5920  3.3630  2.8040 -11.281  3.5920  3.3630  2.8040 
  8479.500 -19.026  3.5290  3.3790  2.7690 -11.026  3.5290  3.3790  2.7690 
  8480.000 -18.770  3.4580  3.3870  2.7130 -10.770  3.4580  3.3870  2.7130 
  8480.500 -20.842  3.3950  3.4100  2.6770 -12.842  3.3950  3.4100  2.6770 
  8481.000 -22.271  3.3810  3.4240  2.6280 -14.271  3.3810  3.4240  2.6280 
  8481.500 -23.090  3.3680  3.4400  2.5650 -15.090  3.3680  3.4400  2.5650 
  8482.000 -22.762  3.3760  3.4480  2.5370 -14.762  3.3760  3.4480  2.5370 
  8482.500 -22.041  3.3910  3.4490  2.6960 -14.041  3.3910  3.4490  2.6960 
  8483.000 -20.386  3.4070  3.4500  2.8330 -12.386  3.4070  3.4500  2.8330 
  8483.500 -18.804  3.4220  3.4540  2.9200 -10.804  3.4220  3.4540  2.9200 
  8484.000 -18.299  3.4520  3.4580  2.9490 -10.299  3.4520  3.4580  2.9490 
  8484.500 -18.184  3.4670  3.4600  2.9780 -10.184  3.4670  3.4600  2.9780 
  8485.000 -18.109  3.4110  3.4610  2.9860 -10.109  3.4110  3.4610  2.9860 
  8485.500 -18.032  3.3180  3.4400  2.9950 -10.032  3.3180  3.4400  2.9950 
  8486.000 -17.595  3.1620  3.4050  2.9960 -9.5950  3.1620  3.4050  2.9960 
  8486.500 -17.054  3.0480  3.1980  2.9110 -9.0540  3.0480  3.1980  2.9110 
  8487.000 -16.153  2.8980  3.0770  2.7480 -8.1530  2.8980  3.0770  2.7480 
  8487.500 -15.786  2.7990  2.8920  2.6770 -7.7860  2.7990  2.8920  2.6770 
  8488.000 -15.602  2.6710  2.7710  2.6060 -7.6020  2.6710  2.7710  2.6060 
  8488.500 -15.529  2.6070  2.6220  2.5780 -7.5290  2.6070  2.6220  2.5780 
  8489.000 -15.448  2.5580  2.5570  2.5570 -7.4480  2.5580  2.5570  2.5570 
  8489.500 -15.410  2.5510  2.5470  2.5370 -7.4100  2.5510  2.5470  2.5370 
