~Version Information
VERS.                     2.0: CWLS log ASCII Standard Version 2.00
WRAP.                      NO: One line per depth step
~Well Information Block
#MNEM.UNIT                               Data Type  Information
#---------                               ---------  -----------
STRT.FT                                   510.0000:
STOP.FT                                  7204.0000:
STEP.FT                                     0.5000:
NULL.                 -999.25                     :
COMP.                                             :COMPANY            
WELL.     LLU 41-28                               :WELL               
FLD .                                             :FIELD              
CTRY.                                             :COUNTRY            
STAT.                                             :STATE              
LOC .                                             :LOCATION           
UWI .                                             :UNIQUE WELL ID     
SRVC.                                             :Service company    
DATE.                                             :LOG DATE           
~Curve Information
#MNEM.UNIT           API CODE  Curve Description
#---------           --------  -----------------
DEPT.FT                      :   1 DEPTH
SP  .MV                      :   2
AM16.OHMM                    :   3
AO10.OHMM                    :   4
AO19.OHMM                    :   5
SBL .MV                      :   6
RS  .OHMM                    :   7
RM  .OHMM                    :   8
RD  .OHMM                    :   9
~A
# ...
   934.000 -48.441  5.8330  7.6840  7.7370 -18.707  5.8330  7.6840  7.7370 
   934.500 -48.915  5.8560  7.7290  7.8060 -19.167  5.8560  7.7290  7.8060 
   935.000 -49.353  5.8510  7.7670  7.8750 -19.591  5.8510  7.7670  7.8750 
   935.500 -49.431  5.8310  7.8040  7.9900 -19.655  5.8310  7.8040  7.9900 
   936.000 -49.076  5.6890  7.8130  8.0190 -19.286  5.6890  7.8130  8.0190 
   936.500 -47.278  5.5970  7.6780  8.0340 -17.474  5.5970  7.6780  8.0340 
   937.000 -45.842  5.4980  7.2770  7.8980 -16.024  5.4980  7.2770  7.8980 
   937.500 -44.946  5.4570  6.8250  7.4880 -15.114  5.4570  6.8250  7.4880 
   938.000 -44.843  5.4510  6.5890  7.3370 -14.997  5.4510  6.5890  7.3370 
   938.500 -44.885  5.4390  6.4470  7.3370 -15.025  5.4390  6.4470  7.3370 
   939.000 -45.359  5.5130  6.4200  7.4450 -15.485  5.5130  6.4200  7.4450 
   939.500 -46.157  5.6220  6.4290  7.5470 -16.269  5.6220  6.4290  7.5470 
   940.000 -48.939  5.8840  6.5820  8.3030 -19.037  5.8840  6.5820  8.3030 
   940.500 -49.990  6.2490  7.1490  8.5110 -20.074  6.2490  7.1490  8.5110 
   941.000 -50.319  6.4260  7.4200  8.7270 -20.389  6.4260  7.4200  8.7270 
   941.500 -50.721  6.5040  7.6560  8.8920 -20.777  6.5040  7.6560  8.8920 
   942.000 -50.907  6.5810  7.8980  9.0490 -20.949  6.5810  7.8980  9.0490 
   942.500 -50.948  6.6000  8.0400  9.1490 -20.976  6.6000  8.0400  9.1490 
   943.000 -49.656  6.5400  8.1750  9.2060 -19.670  6.5400  8.1750  9.2060 
   943.500 -48.616  6.3800  8.2380  9.2560 -18.616  6.3800  8.2380  9.2560 
   944.000 -47.720  6.0100  8.2790  9.1900 -17.706  6.0100  8.2790  9.1900 
   944.500 -46.932  5.6190  8.2050  9.0380 -16.904  5.6190  8.2050  9.0380 
   945.000 -45.640  5.2500  8.0940  8.7780 -15.598  5.2500  8.0940  8.7780 
   945.500 -44.384  4.9160  7.8900  8.4180 -14.328  4.9160  7.8900  8.4180 
   946.000 -43.596  4.7340  7.5500  7.8050 -13.526  4.7340  7.5500  7.8050 
   946.500 -42.808  4.5380  7.0650  7.3430 -12.724  4.5380  7.0650  7.3430 
   947.000 -42.237  4.3630  6.5590  6.4640 -12.139  4.3630  6.5590  6.4640 
   947.500 -41.702  4.2450  6.1970  5.8650 -11.590  4.2450  6.1970  5.8650 
   948.000 -41.455  4.1350  5.8270  5.4900 -11.329  4.1350  5.8270  5.4900 
   948.500 -41.280  4.0820  5.6020  5.2660 -11.140  4.0820  5.6020  5.2660 
   949.000 -41.105  4.0510  5.4340  5.1790 -10.951  4.0510  5.4340  5.1790 
   949.500 -41.218  4.0640  5.3170  5.1210 -11.050  4.0640  5.3170  5.1210 
   950.000 -41.765  4.0980  5.2640  5.1200 -11.583  4.0980  5.2640  5.1200 
   950.500 -42.155  4.1470  5.4290  5.1850 -11.959  4.1470  5.4290  5.1850 
   951.000 -42.473  4.1830  5.6160  5.2710 -12.263  4.1830  5.6160  5.2710 
   951.500 -42.575  4.2390  5.7700  5.3790 -12.351  4.2390  5.7700  5.3790 
   952.000 -42.569  4.3610  5.9240  5.5810 -12.331  4.3610  5.9240  5.5810 
   952.500 -42.238  4.5480  6.1970  5.8110 -11.986  4.5480  6.1970  5.8110 
   953.000 -41.943  4.7130  6.4190  6.0280 -11.677  4.7130  6.4190  6.0280 
   953.500 -41.865  4.9130  6.5410  6.3080 -11.585  4.9130  6.5410  6.3080 
   954.000 -42.435  5.0350  6.7130  6.5100 -12.141  5.0350  6.7130  6.5100 
   954.500 -43.366  5.1710  6.9000  6.6540 -13.058  5.1710  6.9000  6.6540 
   955.000 -44.153  5.2570  7.0640  6.7690 -13.831  5.2570  7.0640  6.7690 
   955.500 -44.724  5.3210  7.1360  6.9210 -14.388  5.3210  7.1360  6.9210 
   956.000 -45.042  5.3640  7.2220  7.1000 -14.692  5.3640  7.2220  7.1000 
   956.500 -45.612  5.4060  7.3140  7.1870 -15.248  5.4060  7.3140  7.1870 
   957.000 -45.930  5.4130  7.3280  7.2590 -15.552  5.4130  7.3280  7.2590 
   957.500 -46.212  5.3900  7.2410  7.2880 -15.820  5.3900  7.2410  7.2880 
   958.000 -46.603  5.3100  7.1110  7.2010 -16.197  5.3100  7.1110  7.2010 
   958.500 -46.632  5.2300  6.9150  7.0360 -16.212  5.2300  6.9150  7.0360 
   959.000 -46.554  5.1580  6.6550  6.9640 -16.120  5.1580  6.6550  6.9640 
   959.500 -46.475  5.1210  6.3880  6.8700 -16.027  5.1210  6.3880  6.8700 
   960.000 -47.010  5.0620  6.2510  6.7980 -16.548  5.0620  6.2510  6.7980 
   960.500 -47.941  5.0060  6.2160  6.8120 -17.465  5.0060  6.2160  6.8120 
   961.000 -48.295  4.8930  6.2180  6.9410 -17.805  4.8930  6.2180  6.9410 
   961.500 -48.217  4.7280  6.1970  7.0050 -17.714  4.7280  6.1970  7.0050 
   962.000 -47.706  4.5140  6.1340  7.0980 -17.189  4.5140  6.1340  7.0980 
   962.500 -46.510  4.3210  6.0420  7.1260 -15.979  4.3210  6.0420  7.1260 
   963.000 -45.170  4.2210  5.8270  7.1830 -14.625  4.2210  5.8270  7.1830 
   963.500 -43.938  4.0570  5.5910  6.8870 -13.379  4.0570  5.5910  6.8870 
   964.000 -43.066  3.9650  5.2400  6.2230 -12.493  3.9650  5.2400  6.2230 
   964.500 -42.555  3.9090  4.9100  5.7760 -11.968  3.9090  4.9100  5.7760 
   965.000 -42.116  3.8670  4.6590  5.4510 -11.515  3.8670  4.6590  5.4510 
   965.500 -41.822  3.8690  4.4230  5.1840 -11.207  3.8690  4.4230  5.1840 
   966.000 -41.707  3.8990  4.4170  5.0680 -11.078  3.8990  4.4170  5.0680 
   966.500 -41.592  3.9290  4.5770  5.0600 -10.949  3.9290  4.5770  5.0600 
   967.000 -41.406  4.1970  4.7730  5.1170 -10.749  4.1970  4.7730  5.1170 
   967.500 -41.399  4.5510  4.9620  5.4050 -10.728  4.5510  4.9620  5.4050 
   968.000 -41.934  4.9990  5.1720  5.8360 -11.249  4.9990  5.1720  5.8360 
   968.500 -42.757  5.3170  5.3390  6.4190 -12.058  5.3170  5.3390  6.4190 
   969.000 -43.544  5.5710  5.9740  6.8210 -12.831  5.5710  5.9740  6.8210 
   969.500 -45.953  5.7670  6.6310  7.2020 -15.226  5.7670  6.6310  7.2020 
   970.000 -48.218  5.8760  7.1290  7.6260 -17.477  5.8760  7.1290  7.6260 
   970.500 -49.592  6.0630  7.3740  7.7430 -18.837  6.0630  7.3740  7.7430 
   971.000 -50.390  6.1000  7.6840  7.8380 -19.621  6.1000  7.6840  7.8380 
   971.500 -51.079  5.9190  7.8130  7.8830 -20.296  5.9190  7.8130  7.8830 
   972.000 -51.264  5.6530  7.8710  7.5890 -20.467  5.6530  7.8710  7.5890 
   972.500 -50.043  5.3720  7.8570  7.1870 -19.232  5.3720  7.8570  7.1870 
   973.000 -47.956  5.1780  7.7340  6.7270 -17.131  5.1780  7.7340  6.7270 
   973.500 -46.303  5.0700  6.9210  6.4620 -15.464  5.0700  6.9210  6.4620 
   974.000 -45.622  5.0270  6.3230  6.2840 -14.769  5.0270  6.3230  6.2840 
   974.500 -45.338  5.0120  6.0780  6.1560 -14.471  5.0120  6.0780  6.1560 
   975.000 -46.280  5.0620  5.9340  6.1860 -15.399  5.0620  5.9340  6.1860 
   975.500 -47.798  5.1200  5.8910  6.5190 -16.903  5.1200  5.8910  6.5190 
   976.000 -48.740  5.2280  5.8910  6.6280 -17.831  5.2280  5.8910  6.6280 
   976.500 -49.213  5.2640  5.8910  6.8600 -18.290  5.2640  5.8910  6.8600 
   977.000 -49.074  5.3150  5.9200  6.9690 -18.137  5.3150  5.9200  6.9690 
   977.500 -48.610  5.2350  5.9410  7.0860 -17.659  5.2350  5.9410  7.0860 
   978.000 -48.542  5.0120  5.9550  7.0800 -17.577  5.0120  5.9550  7.0800 
   978.500 -47.681  4.7310  5.9560  6.9950 -16.702  4.7310  5.9560  6.9950 
   979.000 -45.919  4.5080  5.9300  6.7740 -14.926  4.5080  5.9300  6.7740 
   979.500 -44.806  4.3710  5.9050  6.2710 -13.799  4.3710  5.9050  6.2710 
   980.000 -44.126  4.2560  5.7610  5.9990 -13.105  4.2560  5.7610  5.9990 
   980.500 -43.770  4.1540  5.5590  5.6810 -12.735  4.1540  5.5590  5.6810 
   981.000 -43.558  4.1180  5.4360  5.5660 -12.509  4.1180  5.4360  5.5660 
   981.500 -43.239  4.1670  5.3200  5.4000 -12.176  4.1670  5.3200  5.4000 
   982.000 -43.315  4.1810  5.2180  5.2410 -12.238  4.1810  5.2180  5.2410 
   982.500 -43.319  4.2090  5.1960  5.0970 -12.228  4.2090  5.1960  5.0970 
   983.000 -42.711  4.2230  5.1810  5.0320 -11.606  4.2230  5.1810  5.0320 
   983.500 -42.319  4.2360  5.1650  4.9740 -11.200  4.2360  5.1650  4.9740 
   984.000 -42.071  4.2500  5.2150  5.0380 -10.938  4.2500  5.2150  5.0380 
   984.500 -41.931  4.3140  5.3190  5.0810 -10.784  4.3140  5.3190  5.0810 
   985.000 -41.972  4.3350  5.4230  5.1450 -10.811  4.3350  5.4230  5.1450 
   985.500 -42.193  4.4280  5.6810  5.1810 -11.018  4.4280  5.6810  5.1810 
   986.000 -42.630  4.4630  5.8460  5.2240 -11.441  4.4630  5.8460  5.2240 
   986.500 -43.463  4.5710  5.9640  5.2810 -12.260  4.5710  5.9640  5.2810 
