~Version Information
VERS.                     2.0: CWLS log ASCII Standard Version 2.00
WRAP.                      NO: One line per depth step
~Well Information Block
#MNEM.UNIT                               Data Type  Information
#---------                               ---------  -----------
STRT.FT                                   510.0000:
STOP.FT                                  7204.0000:
STEP.FT                                     0.5000:
NULL.                 -999.25                     :
COMP.                                             :COMPANY            
WELL.     LLU 41-28                               :WELL               
FLD .                                             :FIELD              
CTRY.                                             :COUNTRY            
STAT.                                             :STATE              
LOC .                                             :LOCATION           
UWI .                                             :UNIQUE WELL ID     
SRVC.                                             :Service company    
DATE.                                             :LOG DATE           
~Curve Information
#MNEM.UNIT           API CODE  Curve Description
#---------           --------  -----------------
DEPT.FT                      :   1 DEPTH
SP  .MV                      :   2
AM16.OHMM                    :   3
AO10.OHMM                    :   4
AO19.OHMM                    :   5
SBL .MV                      :   6
RS  .OHMM                    :   7
RM  .OHMM                    :   8
RD  .OHMM                    :   9
~A
# ...
  7135.000 -18.321  3.7190  3.2940  2.6530 -16.321  3.7190  3.2940  2.6530 
  7135.500 -17.710  3.3290  3.5020  2.4650 -15.710  3.3290  3.5020  2.4650 
  7136.000 -16.920  3.0540  3.5440  2.2780 -14.920  3.0540  3.5440  2.2780 
  7136.500 -16.417  2.7220  3.5690  2.1700 -14.417  2.7220  3.5690  2.1700 
  7137.000 -16.059  2.5630  3.5930  2.0970 -14.059  2.5630  3.5930  2.0970 
  7137.500 -15.808  2.4680  3.6060  2.0680 -13.808  2.4680  3.6060  2.0680 
  7138.000 -15.810  2.4240  3.6200  2.1550 -13.810  2.4240  3.6200  2.1550 
  7138.500 -16.244  2.4660  3.6190  2.2410 -14.244  2.4660  3.6190  2.2410 
  7139.000 -16.750  2.6670  3.5890  2.2730 -14.750  2.6670  3.5890  2.2730 
  7139.500 -17.040  2.7820  3.5880  2.3060 -15.040  2.7820  3.5880  2.3060 
  7140.000 -17.510  2.9680  3.5300  2.3340 -15.510  2.9680  3.5300  2.3340 
  7140.500 -17.816  3.1630  3.4220  2.3630 -15.816  3.1630  3.4220  2.3630 
  7141.000 -18.122  3.2850  3.3290  2.2320 -16.122  3.2850  3.3290  2.2320 
  7141.500 -17.690  3.3000  3.2210  2.1810 -15.690  3.3000  3.2210  2.1810 
  7142.000 -16.934  3.2420  3.1130  2.2020 -14.934  3.2420  3.1130  2.2020 
  7142.500 -16.682  3.1200  3.0480  2.2880 -14.682  3.1200  3.0480  2.2880 
  7143.000 -16.214  2.9470  2.9550  2.5040 -14.214  2.9470  2.9550  2.5040 
  7143.500 -16.069  2.8320  2.8900  2.7480 -14.069  2.8320  2.8900  2.7480 
  7144.000 -15.924  2.7610  2.8610  2.9280 -13.924  2.7610  2.8610  2.9280 
  7144.500 -15.997  2.6160  2.8690  3.1580 -13.997  2.6160  2.8690  3.1580 
  7145.000 -16.177  2.5520  2.8760  3.2870 -14.177  2.5520  2.8760  3.2870 
  7145.500 -16.394  2.4800  2.9190  3.4010 -14.394  2.4800  2.9190  3.4010 
  7146.000 -16.502  2.4300  2.9230  3.4230 -14.502  2.4300  2.9230  3.4230 
  7146.500 -16.538  2.4010  2.9270  3.4290 -14.538  2.4010  2.9270  3.4290 
  7147.000 -16.538  2.3940  2.9130  3.4650 -14.538  2.3940  2.9130  3.4650 
  7147.500 -16.394  2.4020  2.9060  3.5000 -14.394  2.4020  2.9060  3.5000 
  7148.000 -16.213  2.4310  2.9200  3.5360 -14.213  2.4310  2.9200  3.5360 
  7148.500 -15.745  2.5320  2.9600  3.5750 -13.745  2.5320  2.9600  3.5750 
  7149.000 -15.277  2.6040  3.0000  3.6140 -13.277  2.6040  3.0000  3.6140 
  7149.500 -14.988  2.7410  3.1010  3.7360 -12.988  2.7410  3.1010  3.7360 
  7150.000 -14.699  2.9930  3.1730  3.8860 -12.699  2.9930  3.1730  3.8860 
  7150.500 -13.979  3.2460  3.3100  3.9940 -11.979  3.2460  3.3100  3.9940 
  7151.000 -13.763  3.4040  3.4040  4.0940 -11.763  3.4040  3.4040  4.0940 
  7151.500 -13.546  3.4400  3.3900  3.9350 -11.546  3.4400  3.3900  3.9350 
  7152.000 -12.250  3.2240  3.2170  3.8560 -10.250  3.2240  3.2170  3.8560 
  7152.500 -12.106  3.0370  3.0080  3.6600 -10.106  3.0370  3.0080  3.6600 
  7153.000 -11.746  2.8570  2.8650  3.5010 -9.7460  2.8570  2.8650  3.5010 
  7153.500 -11.313  2.6920  2.7490  3.4220 -9.3130  2.6920  2.7490  3.4220 
  7154.000 -10.304  2.4900  2.7500  3.5080 -8.3040  2.4900  2.7500  3.5080 
  7154.500 -9.4760  2.3900  2.6990  3.5720 -7.4760  2.3900  2.6990  3.5720 
  7155.000 -8.8090  2.3320  2.6280  3.6150 -6.8090  2.3320  2.6280  3.6150 
  7155.500 -8.1420  2.4760  2.5630  3.4700 -6.1420  2.4760  2.5630  3.4700 
  7156.000 -6.4860  2.5630  2.5050  3.3760 -4.4860  2.5630  2.5050  3.3760 
  7156.500 -5.9810  2.5340  2.4840  3.3030 -3.9810  2.5340  2.4840  3.3030 
  7157.000 -5.7650  2.4910  2.4990  3.2230 -3.7650  2.4910  2.4990  3.2230 
  7157.500 -6.4860  2.4840  2.5820  3.1870 -4.4860  2.4840  2.5820  3.1870 
  7158.000 -6.9180  2.6360  2.6650  3.3660 -4.9180  2.6360  2.6650  3.3660 
  7158.500 -7.4580  2.8520  3.0250  3.6760 -5.4580  2.8520  3.0250  3.6760 
  7159.000 -8.1430  3.3060  3.4000  3.9560 -6.1430  3.3060  3.4000  3.9560 
  7159.500 -8.8990  3.8400  3.6230  4.1140 -6.8990  3.8400  3.6230  4.1140 
  7160.000 -9.5840  5.1650  3.8540  4.2720 -7.5840  5.1650  3.8540  4.2720 
  7160.500 -10.631  6.4980  4.0770  4.3650 -8.6310  6.4980  4.0770  4.3650 
  7161.000 -13.877  7.6800  4.1860  4.4220 -11.877  7.6800  4.1860  4.4220 
  7161.500 -17.446  9.6250  4.3880  4.4780 -15.446  9.6250  4.3880  4.4780 
  7162.000 -29.446  10.000  4.4600  4.3910 -27.446  10.000  4.4600  4.3910 
  7162.500 -32.764  14.380  4.5970  4.5270 -30.764  14.380  4.5970  4.5270 
  7163.000 -42.891  15.345  4.7270  4.6700 -40.891  15.345  4.7270  4.6700 
  7163.500 -49.018  16.707  4.8640  4.8630 -47.018  16.707  4.8640  4.8630 
  7164.000 -52.155  17.947  5.0220  5.0070 -50.155  17.947  5.0220  5.0070 
  7164.500 -60.769  18.228  5.0910  5.1280 -58.769  18.228  5.0910  5.1280 
  7165.000 -62.717  18.437  5.1600  5.2500 -60.717  18.437  5.1600  5.2500 
  7165.500 -64.125  18.531  5.1670  5.2270 -62.125  18.531  5.1670  5.2270 
  7166.000 -64.740  18.570  4.8070  5.1540 -62.740  18.570  4.8070  5.1540 
  7166.500 -64.166  18.610  4.5910  4.9370 -62.166  18.610  4.5910  4.9370 
  7167.000 -62.007  18.582  4.3610  4.5550 -60.007  18.582  4.3610  4.5550 
  7167.500 -59.885  16.457  4.0440  4.0490 -57.885  16.457  4.0440  4.0490 
  7168.000 -57.834  14.324  3.9360  3.8040 -55.834  14.324  3.9360  3.8040 
  7168.500 -55.530  13.194  4.0010  3.5150 -53.530  13.194  4.0010  3.5150 
  7169.000 -53.336  11.364  4.1020  3.3980 -51.336  11.364  4.1020  3.3980 
  7169.500 -51.825  10.017  4.4270  3.3980 -49.825  10.017  4.4270  3.3980 
  7170.000 -50.783  9.5420  5.2700  3.5230 -48.783  9.5420  5.2700  3.5230 
  7170.500 -50.173  9.4770  6.0910  3.6480 -48.173  9.4770  6.0910  3.6480 
  7171.000 -49.851  9.4770  6.6100  3.8130 -47.851  9.4770  6.6100  3.8130 
  7171.500 -49.818  9.6000  7.2010  3.9560 -47.818  9.6000  7.2010  3.9560 
  7172.000 -50.289  10.047  7.7770  4.2210 -48.289  10.047  7.7770  4.2210 
  7172.500 -51.733  10.638  8.4120  4.4940 -49.733  10.638  8.4120  4.4940 
  7173.000 -53.177  12.475  8.7790  4.7450 -51.177  12.475  8.7790  4.7450 
  7173.500 -54.765  15.666  9.2040  4.9750 -52.765  15.666  9.2040  4.9750 
  7174.000 -56.893  17.864  9.6150  5.1980 -54.893  17.864  9.6150  5.1980 
  7174.500 -60.535  18.130  9.9680  5.3770 -58.535  18.130  9.9680  5.3770 
  7175.000 -65.870  18.455  10.091  5.5270 -63.870  18.455  10.091  5.5270 
  7175.500 -67.998  18.584  10.214  5.6560 -65.998  18.584  10.214  5.6560 
  7176.000 -68.721  18.714  10.322  5.7270 -66.721  18.714  10.322  5.7270 
  7176.500 -66.599  18.779  10.149  5.5890 -64.599  18.779  10.149  5.5890 
  7177.000 -62.062  18.592  9.5610  5.3870 -60.062  18.592  9.5610  5.3870 
  7177.500 -58.786  17.224  8.9730  5.1260 -56.786  17.224  8.9730  5.1260 
  7178.000 -56.555  16.395  8.3850  4.9240 -54.555  16.395  8.3850  4.9240 
  7178.500 -54.360  15.185  8.1830  4.7790 -52.360  15.185  8.1830  4.7790 
  7179.000 -50.832  13.471  7.7580  4.8640 -48.832  13.471  7.7580  4.8640 
  7179.500 -48.276  9.9770  7.2690  4.9210 -46.276  9.9770  7.2690  4.9210 
  7180.000 -45.324  8.9760  6.6850  4.9780 -43.324  8.9760  6.6850  4.9780 
  7180.500 -41.077  6.8780  6.3880  4.8180 -39.077  6.8780  6.3880  4.8180 
  7181.000 -33.120  6.6240  6.0550  4.6080 -31.120  6.6240  6.0550  4.6080 
  7181.500 -21.343  6.2550  5.8950  4.5200 -19.343  6.2550  5.8950  4.5200 
  7182.000 -19.149  5.8360  6.0660  5.1520 -17.149  5.8360  6.0660  5.1520 
  7182.500 -17.929  5.4310  9.3790  6.9300 -15.929  5.4310  9.3790  6.9300 
  7183.000 -16.709  4.5650  10.155  10.949 -14.709  4.5650  10.155  10.949 
  7183.500 -16.029  4.2250  10.773  11.588 -14.029  4.2250  10.773  11.588 
  7184.000 -15.529  5.0950  11.196  12.041 -13.529  5.0950  11.196  12.041 
  7184.500 -15.245  12.434  11.670  12.457 -13.245  12.434  11.670  12.457 
  7185.000 -16.511  12.515  12.173  12.621 -14.511  12.515  12.173  12.621 
  7185.500 -18.208  12.596  12.351  12.764 -16.208  12.596  12.351  12.764 
  7186.000 -20.231  12.688  12.508  12.827 -18.231  12.688  12.508  12.827 
  7186.500 -21.964  12.658  12.571  12.668 -19.964  12.658  12.571  12.668 
  7187.000 -23.014  12.447  12.505  11.204 -21.014  12.447  12.505  11.204 
  7187.500 -23.955  11.920  12.237  10.511 -21.955  11.920  12.237  10.511 
