~Version Information
VERS.                     2.0: CWLS log ASCII Standard Version 2.00
WRAP.                      NO: One line per depth step
~Well Information Block
#MNEM.UNIT                               Data Type  Information
#---------                               ---------  -----------
STRT.FT                                   510.0000:
STOP.FT                                  7204.0000:
STEP.FT                                     0.5000:
NULL.                 -999.25                     :
COMP.                                             :COMPANY            
WELL.     LLU 41-28                               :WELL               
FLD .                                             :FIELD              
CTRY.                                             :COUNTRY            
STAT.                                             :STATE              
LOC .                                             :LOCATION           
UWI .                                             :UNIQUE WELL ID     
SRVC.                                             :Service company    
DATE.                                             :LOG DATE           
~Curve Information
#MNEM.UNIT           API CODE  Curve Description
#---------           --------  -----------------
DEPT.FT                      :   1 DEPTH
SP  .MV                      :   2
AM16.OHMM                    :   3
AO10.OHMM                    :   4
AO19.OHMM                    :   5
SBL .MV                      :   6
RS  .OHMM                    :   7
RM  .OHMM                    :   8
RD  .OHMM                    :   9
~A
# ...
  1835.000 -36.941  8.1720  8.5900  9.0360 -18.315  8.1720  8.5900  9.0360 
  1835.500 -36.508  8.1710  8.8480  9.1230 -17.858  8.1710  8.8480  9.1230 
  1836.000 -34.267  8.0910  8.9550  9.1370 -15.593  8.0910  8.9550  9.1370 
  1836.500 -31.447  7.6650  8.9620  9.0720 -12.750  7.6650  8.9620  9.0720 
  1837.000 -29.531  7.3540  8.9180  8.5750 -10.810  7.3540  8.9180  8.5750 
  1837.500 -28.303  6.9710  8.6430  8.2930 -9.5577  6.9710  8.6430  8.2930 
  1838.000 -27.653  6.7040  8.2820  8.0270 -8.8838  6.7040  8.2820  8.0270 
  1838.500 -26.714  6.3280  7.8920  7.6300 -7.9208  6.3280  7.8920  7.6300 
  1839.000 -26.390  6.0540  7.4010  7.4210 -7.5729  6.0540  7.4010  7.4210 
  1839.500 -26.356  5.8440  7.0040  7.1540 -7.5150  5.8440  7.0040  7.1540 
  1840.000 -27.009  5.6840  6.5710  6.9810 -8.1440  5.6840  6.5710  6.9810 
  1840.500 -28.165  5.6370  6.2460  6.7430 -9.2761  5.6370  6.2460  6.7430 
  1841.000 -28.634  5.5900  6.0000  6.5840 -9.7212  5.5900  6.0000  6.5840 
  1841.500 -29.030  5.5170  5.9490  6.5340 -10.093  5.5170  5.9490  6.5340 
  1842.000 -29.535  5.4810  6.0640  6.4470 -10.574  5.4810  6.0640  6.4470 
  1842.500 -29.858  5.4440  6.2720  6.3960 -10.873  5.4440  6.2720  6.3960 
  1843.000 -30.037  5.4870  6.4230  6.4240 -11.028  5.4870  6.4230  6.4240 
  1843.500 -30.651  5.5010  6.6890  6.4460 -11.619  5.5010  6.6890  6.4460 
  1844.000 -31.300  5.5110  6.9120  6.4740 -12.244  5.5110  6.9120  6.4740 
  1844.500 -31.769  5.5210  7.0480  6.4880 -12.689  5.5210  7.0480  6.4880 
  1845.000 -32.093  5.5130  7.2640  6.5090 -12.989  5.5130  7.2640  6.5090 
  1845.500 -32.163  5.5060  7.5230  6.5950 -13.035  5.5060  7.5230  6.5950 
  1846.000 -32.234  5.4550  7.6740  6.7180 -13.082  5.4550  7.6740  6.7180 
  1846.500 -31.761  5.4040  7.7740  6.7600 -12.585  5.4040  7.7740  6.7600 
  1847.000 -29.842  5.3170  7.8020  6.8030 -10.642  5.3170  7.8020  6.8030 
  1847.500 -29.261  5.2300  7.7940  6.8100 -10.037  5.2300  7.7940  6.8100 
  1848.000 -28.681  5.0990  7.6860  6.2260 -9.4331  5.0990  7.6860  6.2260 
  1848.500 -27.883  5.0200  7.1310  6.0530 -8.6112  5.0200  7.1310  6.0530 
  1849.000 -27.447  5.0050  6.7630  5.9450 -8.1513  5.0050  6.7630  5.9450 
  1849.500 -27.590  5.1190  6.5820  5.8290 -8.2703  5.1190  6.5820  5.8290 
  1850.000 -28.058  5.2850  6.4810  5.7490 -8.7144  5.2850  6.4810  5.7490 
  1850.500 -28.708  5.3990  6.3940  5.7130 -9.3405  5.3990  6.3940  5.7130 
  1851.000 -29.357  5.5280  6.3570  6.1020 -9.9655  5.5280  6.3570  6.1020 
  1851.500 -30.477  5.8520  6.4570  6.3320 -11.062  5.8520  6.4570  6.3320 
  1852.000 -32.320  6.1400  6.5580  6.8000 -12.881  6.1400  6.5580  6.8000 
  1852.500 -35.756  6.8960  6.7660  7.1960 -16.293  6.8960  6.7660  7.1960 
  1853.000 -37.455  7.1830  7.0680  7.7720 -17.968  7.1830  7.0680  7.7720 
  1853.500 -37.851  7.6370  7.2510  8.0950 -18.340  7.6370  7.2510  8.0950 
  1854.000 -38.645  8.2850  7.4340  8.5490 -19.110  8.2850  7.4340  8.5490 
  1854.500 -40.597  9.0770  7.7870  8.9450 -21.038  9.0770  7.7870  8.9450 
  1855.000 -42.295  9.4290  8.0670  9.3910 -22.712  9.4290  8.0670  9.3910 
  1855.500 -43.596  9.6270  8.5210  9.5640 -23.989  9.6270  8.5210  9.5640 
  1856.000 -44.499  9.8240  9.0610  9.8590 -24.868  9.8240  9.0610  9.8590 
  1856.500 -44.895  10.148  9.4350  10.240 -25.240  10.148  9.4350  10.240 
  1857.000 -45.074  10.284  9.9310  10.687 -25.395  10.284  9.9310  10.687 
  1857.500 -45.398  10.392  10.204  11.025 -25.695  10.392  10.204  11.025 
  1858.000 -45.613  10.514  10.442  11.284 -25.887  10.514  10.442  11.284 
  1858.500 -45.666  10.664  10.564  11.622 -25.916  10.664  10.564  11.622 
  1859.000 -45.718  10.822  10.736  11.888 -25.944  10.822  10.736  11.888 
  1859.500 -46.114  10.923  10.786  12.082 -26.316  10.923  10.786  12.082 
  1860.000 -47.451  10.965  10.591  12.133 -27.629  10.965  10.591  12.133 
  1860.500 -47.848  10.922  10.266  11.887 -28.002  10.922  10.266  11.887 
  1861.000 -48.028  10.878  9.8190  11.440 -28.158  10.878  9.8190  11.440 
  1861.500 -48.353  10.719  9.5950  10.691 -28.459  10.719  9.5950  10.691 
  1862.000 -48.859  10.561  9.5520  10.366 -28.941  10.561  9.5520  10.366 
  1862.500 -49.039  10.459  9.6880  10.178 -29.097  10.459  9.6880  10.178 
  1863.000 -49.038  10.257  10.113  10.070 -29.072  10.257  10.113  10.070 
  1863.500 -48.748  9.9330  10.502  10.041 -28.758  9.9330  10.502  10.041 
  1864.000 -48.240  9.4500  10.898  10.004 -28.226  9.4500  10.898  10.004 
  1864.500 -47.190  8.9090  11.186  9.9680 -27.152  8.9090  11.186  9.9680 
  1865.000 -42.775  8.2740  11.408  9.9170 -22.713  8.2740  11.408  9.9170 
  1865.500 -36.659  7.3090  11.480  9.7940 -16.574  7.3090  11.480  9.7940 
  1866.000 -34.958  6.6820  11.559  9.4630 -14.849  6.6820  11.559  9.4630 
  1866.500 -32.859  6.2200  11.458  8.8790 -12.726  6.2200  11.458  8.8790 
  1867.000 -30.795  5.4130  10.672  8.2080 -10.638  5.4130  10.672  8.2080 
  1867.500 -30.360  5.0740  10.023  6.7530 -10.179  5.0740  10.023  6.7530 
  1868.000 -28.623  4.8000  8.9570  5.6570 -8.4179  4.8000  8.9570  5.6570 
  1868.500 -27.681  4.6340  8.3010  5.5270 -7.4519  4.6340  8.3010  5.5270 
  1869.000 -27.318  4.4460  7.8900  5.3750 -7.0650  4.4460  7.8900  5.3750 
  1869.500 -27.173  4.2440  7.6440  5.2020 -6.8961  4.2440  7.6440  5.2020 
  1870.000 -27.244  4.0850  7.6010  5.0430 -6.9431  4.0850  7.6010  5.0430 
  1870.500 -27.316  3.8970  7.6730  4.9490 -6.9912  3.8970  7.6730  4.9490 
  1871.000 -27.351  3.8250  7.7010  5.0280 -7.0023  3.8250  7.7010  5.0280 
  1871.500 -27.459  3.7240  7.7010  5.1140 -7.0863  3.7240  7.7010  5.1140 
  1872.000 -27.530  3.6440  7.6280  5.1210 -7.1334  3.6440  7.6280  5.1210 
  1872.500 -27.565  3.6080  7.5340  5.0630 -7.1445  3.6080  7.5340  5.0630 
  1873.000 -27.239  3.6070  7.2020  4.9690 -6.7946  3.6070  7.2020  4.9690 
  1873.500 -27.093  3.6720  6.7990  4.8530 -6.6246  3.6720  6.7990  4.8530 
  1874.000 -27.490  3.7290  6.5970  4.7950 -6.9977  3.7290  6.5970  4.7950 
  1874.500 -28.683  3.8220  6.4300  4.7370 -8.1668  3.8220  6.4300  4.7370 
  1875.000 -29.695  3.9230  6.3440  5.1690 -9.1548  3.9230  6.3440  5.1690 
  1875.500 -30.744  4.0810  6.2860  5.6800 -10.180  4.0810  6.2860  5.6800 
  1876.000 -31.141  4.2320  6.4080  6.0330 -10.553  4.2320  6.4080  6.0330 
  1876.500 -31.538  4.2930  6.6600  6.2420 -10.926  4.2930  6.6600  6.2420 
  1877.000 -31.935  4.3540  6.7420  6.4290 -11.299  4.3540  6.7420  6.4290 
  1877.500 -32.332  4.4760  6.8250  6.6370 -11.672  4.4760  6.8250  6.6370 
  1878.000 -32.657  4.5260  6.9610  6.7740 -11.973  4.5260  6.9610  6.7740 
  1878.500 -32.873  4.5400  6.9970  6.8890 -12.165  4.5400  6.9970  6.8890 
  1879.000 -32.981  4.5070  6.9460  6.9960 -12.249  4.5070  6.9460  6.9960 
  1879.500 -32.292  4.4740  6.8090  7.0820 -11.536  4.4740  6.8090  7.0820 
  1880.000 -31.532  4.3950  6.4550  7.1330 -10.753  4.3950  6.4550  7.1330 
  1880.500 -30.990  4.3290  6.0590  7.1490 -10.187  4.3290  6.0590  7.1490 
  1881.000 -30.484  4.2780  5.8420  7.0790 -9.6566  4.2780  5.8420  7.0790 
  1881.500 -30.123  4.2350  5.5890  6.8000 -9.2717  4.2350  5.5890  6.8000 
  1882.000 -29.907  4.1770  5.4520  6.6220 -9.0318  4.1770  5.4520  6.6220 
  1882.500 -30.053  4.1260  5.3580  6.5890 -9.1539  4.1260  5.3580  6.5890 
  1883.000 -30.271  4.0820  5.3070  6.8210 -9.3479  4.0820  5.3070  6.8210 
  1883.500 -30.706  4.1960  5.3920  6.9890 -9.7590  4.1960  5.3920  6.9890 
  1884.000 -31.394  4.2540  5.4710  7.1640 -10.423  4.2540  5.4710  7.1640 
  1884.500 -32.119  4.2890  5.5790  7.3750 -11.124  4.2890  5.5790  7.3750 
  1885.000 -32.590  4.3250  5.7080  7.5220 -11.571  4.3250  5.7080  7.5220 
  1885.500 -32.917  4.3100  5.7940  7.5960 -11.874  4.3100  5.7940  7.5960 
  1886.000 -33.062  4.0790  5.8150  7.6340 -11.995  4.0790  5.8150  7.6340 
  1886.500 -30.060  3.9340  5.8070  7.5350 -8.9694  3.9340  5.8070  7.5350 
  1887.000 -28.143  3.7890  5.7350  7.0120 -7.0285  3.7890  5.7350  7.0120 
  1887.500 -27.131  3.7170  5.3160  6.4810 -5.9925  3.7170  5.3160  6.4810 
