~Version Information
VERS.                     2.0: CWLS log ASCII Standard Version 2.00
WRAP.                      NO: One line per depth step
~Well Information Block
#MNEM.UNIT                               Data Type  Information
#---------                               ---------  -----------
STRT.FT                                   510.0000:
STOP.FT                                  7204.0000:
STEP.FT                                     0.5000:
NULL.                 -999.25                     :
COMP.                                             :COMPANY            
WELL.     LLU 41-28                               :WELL               
FLD .                                             :FIELD              
CTRY.                                             :COUNTRY            
STAT.                                             :STATE              
LOC .                                             :LOCATION           
UWI .                                             :UNIQUE WELL ID     
SRVC.                                             :Service company    
DATE.                                             :LOG DATE           
~Curve Information
#MNEM.UNIT           API CODE  Curve Description
#---------           --------  -----------------
DEPT.FT                      :   1 DEPTH
SP  .MV                      :   2
AM16.OHMM                    :   3
AO10.OHMM                    :   4
AO19.OHMM                    :   5
SBL .MV                      :   6
RS  .OHMM                    :   7
RM  .OHMM                    :   8
RD  .OHMM                    :   9
~A
# ...
  5386.000 -52.898  5.2280  2.8960  2.8020 -38.758  5.2280  2.8960  2.8020 
  5386.500 -53.332  5.1130  2.9250  2.6940 -39.194  5.1130  2.9250  2.6940 
  5387.000 -52.611  4.8540  2.8530  2.5510 -38.475  4.8540  2.8530  2.5510 
  5387.500 -52.287  4.6020  2.6300  2.4070 -38.153  4.6020  2.6300  2.4070 
  5388.000 -52.251  4.5380  2.4930  2.3130 -38.119  4.5380  2.4930  2.3130 
  5388.500 -52.144  4.2640  2.4790  2.2420 -38.014  4.2640  2.4790  2.2420 
  5389.000 -52.073  4.1280  2.3640  2.1840 -37.945  4.1280  2.3640  2.1840 
  5389.500 -51.964  4.0770  2.2490  2.0910 -37.838  4.0770  2.2490  2.0910 
  5390.000 -51.856  4.0420  2.1850  2.0260 -37.733  4.0420  2.1850  2.0260 
  5390.500 -51.388  3.9410  2.2170  2.0980 -37.267  3.9410  2.2170  2.0980 
  5391.000 -49.149  3.7760  2.2500  2.1340 -35.030  3.7760  2.2500  2.1340 
  5391.500 -41.381  3.5240  2.2930  2.1350 -27.264  3.5240  2.2930  2.1350 
  5392.000 -38.671  3.3080  2.2860  2.0560 -24.556  3.3080  2.2860  2.0560 
  5392.500 -35.853  3.1210  2.2140  2.0050 -21.740  3.1210  2.2140  2.0050 
  5393.000 -34.120  3.0060  2.1570  1.9340 -20.009  3.0060  2.1570  1.9340 
  5393.500 -32.386  3.0420  2.0990  1.8620 -18.277  3.0420  2.0990  1.8620 
  5394.000 -31.375  3.3160  2.0640  1.8410 -17.268  3.3160  2.0640  1.8410 
  5394.500 -31.267  3.6190  2.0710  1.8190 -17.162  3.6190  2.0710  1.8190 
  5395.000 -34.267  3.8850  2.2290  2.2220 -20.164  3.8850  2.2290  2.2220 
  5395.500 -47.856  4.8070  2.3230  2.3090 -33.755  4.8070  2.3230  2.3090 
  5396.000 -53.242  5.1960  2.4460  2.4100 -39.143  5.1960  2.4460  2.4100 
  5396.500 -58.048  5.3330  2.5320  2.4890 -43.951  5.3330  2.5320  2.4890 
  5397.000 -60.651  5.4050  2.6550  2.4680 -46.556  5.4050  2.6550  2.4680 
  5397.500 -61.989  5.3900  2.7850  2.3670 -47.896  5.3900  2.7850  2.3670 
  5398.000 -61.917  5.2680  2.8420  2.3170 -47.826  5.2680  2.8420  2.3170 
  5398.500 -61.845  5.1390  2.8640  2.3680 -47.756  5.1390  2.8640  2.3680 
  5399.000 -60.691  5.0090  2.8360  2.4470 -46.604  5.0090  2.8360  2.4470 
  5399.500 -59.392  4.9230  2.8430  2.4940 -45.307  4.9230  2.8430  2.4940 
  5400.000 -58.344  4.8010  2.9080  2.5410 -44.261  4.8010  2.9080  2.5410 
  5400.500 -56.579  4.6490  2.9140  2.5820 -42.498  4.6490  2.9140  2.5820 
  5401.000 -55.319  4.4750  2.8480  2.5630 -41.240  4.4750  2.8480  2.5630 
  5401.500 -53.627  4.1210  2.7530  2.5430 -39.550  4.1210  2.7530  2.5430 
  5402.000 -51.501  3.9830  2.6220  2.4620 -37.426  3.9830  2.6220  2.4620 
  5402.500 -50.023  3.7800  2.5060  2.4200 -35.950  3.7800  2.5060  2.4200 
  5403.000 -43.777  3.6130  2.4330  2.3790 -29.706  3.6130  2.4330  2.3790 
  5403.500 -38.868  3.2730  2.3160  2.3270 -24.799  3.2730  2.3160  2.3270 
  5404.000 -34.139  2.9120  2.2360  2.2600 -20.072  2.9120  2.2360  2.2600 
  5404.500 -31.434  2.6950  2.1480  2.2220 -17.369  2.6950  2.1480  2.2220 
  5405.000 -28.151  2.5640  2.0670  2.1490 -14.088  2.5640  2.0670  2.1490 
  5405.500 -26.242  2.5340  1.9940  2.0600 -12.181  2.5340  1.9940  2.0600 
  5406.000 -25.452  2.5550  1.9570  2.0010 -11.393  2.5550  1.9570  2.0010 
  5406.500 -25.638  2.5750  1.9410  1.9780 -11.581  2.5750  1.9410  1.9780 
  5407.000 -26.149  2.7250  1.9550  2.0190 -12.094  2.7250  1.9550  2.0190 
  5407.500 -27.383  2.9180  2.0400  2.1250 -13.330  2.9180  2.0400  2.1250 
  5408.000 -30.533  3.0970  2.1030  2.1880 -16.482  3.0970  2.1030  2.1880 
  5408.500 -33.321  3.2610  2.1740  2.2510 -19.272  3.2610  2.1740  2.2510 
  5409.000 -35.566  3.4400  2.3240  2.4360 -21.519  3.4400  2.3240  2.4360 
  5409.500 -38.282  3.6320  2.5310  2.5640 -24.237  3.6320  2.5310  2.5640 
  5410.000 -41.035  3.6890  2.6960  2.7130 -26.992  3.6890  2.6960  2.7130 
  5410.500 -42.630  3.7450  2.8020  2.7410 -28.590  3.7450  2.8020  2.7410 
  5411.000 -43.213  3.7580  2.8800  2.7680 -29.175  3.7580  2.8800  2.7680 
  5411.500 -43.112  3.7470  2.9360  2.7800 -29.076  3.7470  2.9360  2.7800 
  5412.000 -42.719  3.7350  2.9350  2.7350 -28.685  3.7350  2.9350  2.7350 
  5412.500 -42.146  3.6470  2.8840  2.5750 -28.114  3.6470  2.8840  2.5750 
  5413.000 -41.465  3.5370  2.8030  2.4730 -27.435  3.5370  2.8030  2.4730 
  5413.500 -41.723  3.3990  2.6870  2.3190 -27.695  3.3990  2.6870  2.3190 
  5414.000 -41.945  3.2900  2.6140  2.2240 -27.919  3.2900  2.6140  2.2240 
  5414.500 -40.468  3.2310  2.5190  2.2150 -26.444  3.2310  2.5190  2.2150 
  5415.000 -36.716  3.1510  2.4530  2.2350 -22.694  3.1510  2.4530  2.2350 
  5415.500 -33.144  3.0990  2.3580  2.2550 -19.124  3.0990  2.3580  2.2550 
  5416.000 -31.631  3.0480  2.2990  2.2670 -17.613  3.0480  2.2990  2.2670 
  5416.500 -29.902  2.9600  2.2410  2.2730 -15.886  2.9600  2.2410  2.2730 
  5417.000 -28.209  2.8790  2.1450  2.2850 -14.195  2.8790  2.1450  2.2850 
  5417.500 -25.903  2.7990  2.1080  2.2840 -11.891  2.7990  2.1080  2.2840 
  5418.000 -24.751  2.7470  2.0850  2.2780 -10.741  2.7470  2.0850  2.2780 
  5418.500 -23.347  2.6670  2.0690  2.2730 -9.3389  2.6670  2.0690  2.2730 
  5419.000 -21.943  2.6730  2.0750  2.2560 -7.9369  2.6730  2.0750  2.2560 
  5419.500 -21.118  2.6900  2.1170  2.2400 -7.1140  2.6900  2.1170  2.2400 
  5420.000 -20.437  2.7070  2.2530  2.2390 -6.4350  2.7070  2.2530  2.2390 
  5420.500 -20.114  2.7340  2.4390  2.2380 -6.1140  2.7340  2.4390  2.2380 
  5421.000 -19.683  2.7760  2.5460  2.4160 -5.7092  2.7760  2.5460  2.4160 
  5421.500 -19.252  2.7970  2.7390  2.5670 -5.3045  2.7970  2.7390  2.5670 
  5422.000 -19.037  2.8180  2.7960  2.6670 -5.1157  2.8180  2.7960  2.6670 
  5422.500 -18.821  2.8390  2.8320  2.7310 -4.9260  2.8390  2.8320  2.7310 
  5423.000 -18.067  2.8810  2.7700  2.6290 -4.1982  2.8810  2.7700  2.6290 
  5423.500 -17.708  2.9020  2.7080  2.5200 -3.8654  2.9020  2.7080  2.5200 
  5424.000 -18.326  2.9800  2.5120  2.4180 -4.5097  2.9800  2.5120  2.4180 
  5424.500 -19.124  3.0800  2.4180  2.2950 -5.3339  3.0800  2.4180  2.2950 
  5425.000 -19.741  3.3380  2.3450  2.2440 -5.9772  3.3380  2.3450  2.2440 
  5425.500 -20.285  3.5750  2.2930  2.2610 -6.5474  3.5750  2.2930  2.2610 
  5426.000 -26.829  3.7680  2.4000  2.2780 -13.118  3.7680  2.4000  2.2780 
  5426.500 -30.192  3.8680  2.5070  2.3850 -16.507  3.8680  2.5070  2.3850 
  5427.000 -32.327  4.0150  2.6220  2.4200 -18.668  4.0150  2.6220  2.4200 
  5427.500 -39.918  4.1610  2.6930  2.4630 -26.285  4.1610  2.6930  2.4630 
  5428.000 -42.125  4.2400  2.7710  2.4980 -28.519  4.2400  2.7710  2.4980 
  5428.500 -44.188  4.4470  2.8060  2.5180 -30.608  4.4470  2.8060  2.5180 
  5429.000 -45.492  4.5330  2.8050  2.5250 -31.938  4.5330  2.8050  2.5250 
  5429.500 -47.375  4.6110  2.7540  2.5310 -33.847  4.6110  2.7540  2.5310 
  5430.000 -48.642  4.6530  2.7320  2.5380 -35.141  4.6530  2.7320  2.5380 
  5430.500 -49.800  4.6600  2.7090  2.5470 -36.325  4.6600  2.7090  2.5470 
  5431.000 -51.068  4.6520  2.6870  2.5570 -37.619  4.6520  2.6870  2.5570 
  5431.500 -51.287  4.6360  2.7220  2.5560 -37.864  4.6360  2.7220  2.5560 
  5432.000 -50.838  4.6070  2.7570  2.5620 -37.442  4.6070  2.7570  2.5620 
  5432.500 -50.388  4.5770  2.7780  2.5690 -37.018  4.5770  2.7780  2.5690 
  5433.000 -49.308  4.5260  2.8410  2.5680 -35.964  4.5260  2.8410  2.5680 
  5433.500 -47.903  4.4100  2.8760  2.5450 -34.585  4.4100  2.8760  2.5450 
  5434.000 -47.037  4.1930  2.8900  2.5300 -33.745  4.1930  2.8900  2.5300 
  5434.500 -45.486  3.9400  2.8750  2.4930 -32.221  3.9400  2.8750  2.4930 
  5435.000 -41.657  3.5500  2.7080  2.4200 -28.418  3.5500  2.7080  2.4200 
  5435.500 -34.830  3.3120  2.5350  2.3260 -21.617  3.3120  2.5350  2.3260 
  5436.000 -29.377  3.1240  2.3900  2.2240 -16.190  3.1240  2.3900  2.2240 
  5436.500 -26.813  3.0440  2.2450  2.1660 -13.653  3.0440  2.2450  2.1660 
  5437.000 -23.637  3.0570  2.1940  2.1500 -10.503  3.0570  2.1940  2.1500 
  5437.500 -23.132  3.4670  2.1710  2.1570 -10.024  3.4670  2.1710  2.1570 
  5438.000 -28.773  3.6890  2.4650  2.5160 -15.691  3.6890  2.4650  2.5160 
  5438.500 -33.401  3.7890  2.6730  2.7670 -20.346  3.7890  2.6730  2.7670 
