~Version Information
VERS.                     2.0: CWLS log ASCII Standard Version 2.00
WRAP.                      NO: One line per depth step
~Well Information Block
#MNEM.UNIT                               Data Type  Information
#---------                               ---------  -----------
STRT.FT                                   540.0000:
STOP.FT                                  8500.0000:
STEP.FT                                     0.5000:
NULL.                 -999.25                     :
COMP.                                             :COMPANY            
WELL.     LLU 48-21                               :WELL               
FLD .                                             :FIELD              
CTRY.                                             :COUNTRY            
STAT.                                             :STATE              
LOC .                                             :LOCATION           
UWI .                                             :UNIQUE WELL ID     
SRVC.                                             :Service company    
DATE.                                             :LOG DATE           
~Curve Information
#MNEM.UNIT           API CODE  Curve Description
#---------           --------  -----------------
DEPT.FT                      :   1 DEPTH
SP  .MV                      :   2
AM16.OHMM                    :   3
AM64.OHMM                    :   4
LAT .OHMM                    :   5
SBL .MV                      :   6
RS  .OHMM                    :   7
RM  .OHMM                    :   8
RD  .OHMM                    :   9
~A
# ...
  5257.000 -34.409  6.1080  4.5090  4.5810 -22.382  6.1080  4.5090  4.5810 
  5257.500 -36.271  6.3580  4.5450  4.6160 -24.243  6.3580  4.5450  4.6160 
  5258.000 -37.241  6.5370  4.6660  4.6520 -25.212  6.5370  4.6660  4.6520 
  5258.500 -37.672  6.6510  4.7660  4.6870 -25.643  6.6510  4.7660  4.6870 
  5259.000 -38.462  6.7220  4.8730  4.7000 -26.432  6.7220  4.8730  4.7000 
  5259.500 -39.072  6.7580  4.9580  4.7000 -27.041  6.7580  4.9580  4.7000 
  5260.000 -40.364  6.7720  5.0430  4.6560 -28.333  6.7720  5.0430  4.6560 
  5260.500 -41.618  6.7570  5.1000  4.5270 -29.586  6.7570  5.1000  4.5270 
  5261.000 -42.945  6.7200  5.1500  4.3830 -30.912  6.7200  5.1500  4.3830 
  5261.500 -43.769  6.6550  5.1490  4.3100 -31.736  6.6550  5.1490  4.3100 
  5262.000 -44.846  6.5680  5.1340  4.2810 -32.812  6.5680  5.1340  4.2810 
  5262.500 -45.671  6.4820  5.1120  4.2730 -33.636  6.4820  5.1120  4.2730 
  5263.000 -46.282  6.4020  5.0620  4.2660 -34.247  6.4020  5.0620  4.2660 
  5263.500 -46.214  6.3160  4.9750  4.2220 -34.178  6.3160  4.9750  4.2220 
  5264.000 -45.859  6.2220  4.8450  4.1000 -33.822  6.2220  4.8450  4.1000 
  5264.500 -45.254  6.0920  4.7590  3.9410 -33.217  6.0920  4.7590  3.9410 
  5265.000 -44.721  5.9910  4.5860  3.8550 -32.683  5.9910  4.5860  3.8550 
  5265.500 -44.259  5.8690  4.4420  3.8040 -32.220  5.8690  4.4420  3.8040 
  5266.000 -43.404  5.7680  4.1900  3.7670 -31.365  5.7680  4.1900  3.7670 
  5266.500 -42.834  5.6530  4.0180  3.7740 -30.794  5.6530  4.0180  3.7740 
  5267.000 -41.907  5.4660  3.8670  3.8090 -29.866  5.4660  3.8670  3.8090 
  5267.500 -40.801  5.1930  3.8660  3.8370 -28.760  5.1930  3.8660  3.8370 
  5268.000 -39.660  4.6540  3.8800  3.8510 -27.618  4.6540  3.8800  3.8510 
  5268.500 -38.911  4.1090  3.9080  3.8440 -26.868  4.1090  3.9080  3.8440 
  5269.000 -37.305  3.5850  3.9290  3.7930 -25.262  3.5850  3.9290  3.7930 
  5269.500 -34.554  3.1900  3.9430  3.5480 -22.510  3.1900  3.9430  3.5480 
  5270.000 -31.267  2.9890  3.9710  3.3040 -19.222  2.9890  3.9710  3.3040 
  5270.500 -29.302  2.9160  3.9990  3.0380 -17.257  2.9160  3.9990  3.0380 
  5271.000 -25.550  2.8510  4.0340  2.9440 -13.504  2.8510  4.0340  2.9440 
  5271.500 -22.978  2.8220  4.0910  2.8650 -10.931  2.8220  4.0910  2.8650 
  5272.000 -20.693  2.7860  4.1260  2.8210 -8.6458  2.7860  4.1260  2.8210 
  5272.500 -19.050  2.7920  4.1540  2.8140 -7.0021  2.7920  4.1540  2.8140 
  5273.000 -17.873  2.8420  4.1470  2.8060 -5.8244  2.8420  4.1470  2.8060 
  5273.500 -17.340  2.8990  4.0820  2.8120 -5.2908  2.8990  4.0820  2.8120 
  5274.000 -17.451  3.1200  4.0020  2.9700 -5.4011  3.1200  4.0020  2.9700 
  5274.500 -17.560  3.3560  3.9150  3.1910 -5.5095  3.3560  3.9150  3.1910 
  5275.000 -17.778  3.5850  3.8580  3.3340 -5.7268  3.5850  3.8580  3.3340 
  5275.500 -18.245  3.8000  3.7920  3.4270 -6.1931  3.8000  3.7920  3.4270 
  5276.000 -19.500  4.0210  3.7490  3.6840 -7.4475  4.0210  3.7490  3.6840 
  5276.500 -21.112  4.2070  3.7550  3.9560 -9.0588  4.2070  3.7550  3.9560 
  5277.000 -23.333  4.3140  3.7620  4.1780 -11.279  4.3140  3.7620  4.1780 
  5277.500 -25.482  4.3210  3.8260  4.3060 -13.427  4.3210  3.8260  4.3060 
  5278.000 -27.130  4.2630  3.8760  4.4130 -15.075  4.2630  3.8760  4.4130 
  5278.500 -28.456  4.2050  3.9470  4.3480 -16.400  4.2050  3.9470  4.3480 
  5279.000 -28.818  4.1260  4.0040  4.2610 -16.762  4.1260  4.0040  4.2610 
  5279.500 -28.714  4.1540  4.0240  4.2180 -16.657  4.1540  4.0240  4.2180 
  5280.000 -28.643  4.2460  3.9670  4.1310 -16.585  4.2460  3.9670  4.1310 
  5280.500 -28.325  4.3250  3.9010  4.0370 -16.267  4.3250  3.9010  4.0370 
  5281.000 -27.935  4.3090  3.8580  4.0660 -15.876  4.3090  3.8580  4.0660 
  5281.500 -27.365  4.2950  3.8210  4.1370 -15.305  4.2950  3.8210  4.1370 
  5282.000 -27.905  4.2510  3.7780  4.2290 -15.845  4.2510  3.7780  4.2290 
  5282.500 -29.195  4.1640  3.6700  4.2860 -17.134  4.1640  3.6700  4.2860 
  5283.000 -29.842  4.0060  3.6690  4.3430 -17.780  4.0060  3.6690  4.3430 
  5283.500 -30.024  3.7900  3.6970  4.3710 -17.962  3.7900  3.6970  4.3710 
  5284.000 -29.526  3.5890  3.7400  4.3350 -17.463  3.5890  3.7400  4.3350 
  5284.500 -27.383  3.4090  3.7750  4.2630 -15.319  3.4090  3.7750  4.2630 
  5285.000 -25.705  3.1290  3.8030  4.0900 -13.641  3.1290  3.8030  4.0900 
  5285.500 -23.956  2.9280  3.8100  3.6800 -11.891  2.9280  3.8100  3.6800 
  5286.000 -22.635  2.8270  3.8020  3.5150 -10.569  2.8270  3.8020  3.5150 
  5286.500 -21.351  2.7830  3.7870  3.4430 -9.2846  2.7830  3.7870  3.4430 
  5287.000 -20.030  2.7540  3.7790  3.4560 -7.9629  2.7540  3.7790  3.4560 
  5287.500 -18.674  2.7320  3.7720  3.4770 -6.6063  2.7320  3.7720  3.4770 
  5288.000 -17.319  2.7090  3.7490  3.5200 -5.2506  2.7090  3.7490  3.5200 
  5288.500 -16.822  2.7020  3.7490  3.5410 -4.7530  2.7020  3.7490  3.5410 
  5289.000 -16.681  2.6870  3.7630  3.5620 -4.6113  2.6870  3.7630  3.5620 
  5289.500 -16.541  2.6790  3.7770  3.5750 -4.4706  2.6790  3.7770  3.5750 
  5290.000 -16.472  2.6720  3.8260  3.5320 -4.4010  2.6720  3.8260  3.5320 
  5290.500 -16.332  2.6640  3.8540  3.4450 -4.2603  2.6640  3.8540  3.4450 
  5291.000 -16.263  2.6560  3.8830  3.2940 -4.1907  2.6560  3.8830  3.2940 
  5291.500 -16.195  2.7060  3.9530  3.1640 -4.1220  2.7060  3.9530  3.1640 
  5292.000 -16.269  2.7840  3.9810  3.0560 -4.1953  2.7840  3.9810  3.0560 
  5292.500 -16.380  3.0060  3.9670  2.9630 -4.3057  3.0060  3.9670  2.9630 
  5293.000 -16.562  3.2850  3.8870  3.0700 -4.4870  3.2850  3.8870  3.0700 
  5293.500 -16.779  3.6710  3.7720  3.3560 -4.7034  3.6710  3.7720  3.3560 
  5294.000 -17.569  3.9720  3.6560  3.5780 -5.4927  3.9720  3.6560  3.5780 
  5294.500 -18.394  4.2800  3.5700  3.8140 -6.3170  4.2800  3.5700  3.8140 
  5295.000 -20.329  4.5010  3.4900  4.0140 -8.2514  4.5010  3.4900  4.0140 
  5295.500 -21.797  4.5940  3.4110  4.2070 -9.7187  4.5940  3.4110  4.2070 
  5296.000 -24.268  4.5580  3.3670  4.2570 -12.189  4.5580  3.3670  4.2570 
  5296.500 -26.846  4.4210  3.3520  4.2780 -14.766  4.4210  3.3520  4.2780 
  5297.000 -29.031  4.2120  3.3590  4.2990 -16.951  4.2120  3.3590  4.2990 
  5297.500 -30.428  3.9540  3.3940  4.1470 -18.347  3.9540  3.3940  4.1470 
  5298.000 -30.611  3.6590  3.4510  4.0250 -18.529  3.6590  3.4510  4.0250 
  5298.500 -29.255  3.4580  3.5360  3.7870 -17.173  3.4580  3.5360  3.7870 
  5299.000 -28.400  3.0200  3.6360  3.6360 -16.317  3.0200  3.6360  3.6360 
  5299.500 -27.079  2.6610  3.7000  3.4490 -14.995  2.6610  3.7000  3.4490 
  5300.000 -25.294  2.3300  3.8000  3.2120 -13.210  2.3300  3.8000  3.2120 
  5300.500 -24.477  2.1930  3.8490  2.9880 -12.392  2.1930  3.8490  2.9880 
  5301.000 -22.767  2.0770  3.9270  2.8080 -10.681  2.0770  3.9270  2.8080 
  5301.500 -20.842  2.0180  3.9820  2.6850 -8.7558  2.0180  3.9820  2.6850 
  5302.000 -18.774  2.0740  4.0100  2.6330 -6.6871  2.0740  4.0100  2.6330 
  5302.500 -17.708  2.1300  4.0160  2.6170 -5.6205  2.1300  4.0160  2.6170 
  5303.000 -17.214  2.2580  3.9790  2.6160 -5.1258  2.2580  3.9790  2.6160 
  5303.500 -17.006  2.4430  3.9560  2.7150 -4.9171  2.4430  3.9560  2.7150 
  5304.000 -16.940  2.6420  3.8830  2.8500 -4.8505  2.6420  3.8830  2.8500 
  5304.500 -17.232  2.9710  3.8380  2.9850 -5.1418  2.9710  3.8380  2.9850 
  5305.000 -17.811  3.2350  3.7580  3.1410 -5.7202  3.2350  3.7580  3.1410 
  5305.500 -19.069  3.8070  3.6850  3.3840 -6.9775  3.8070  3.6850  3.3840 
  5306.000 -20.650  4.1790  3.6260  3.6620 -8.5578  4.1790  3.6260  3.6620 
  5306.500 -21.586  4.6000  3.5750  3.9120 -9.4932  4.6000  3.5750  3.9120 
  5307.000 -23.237  5.0290  3.5380  4.2330 -11.144  5.0290  3.5380  4.2330 
  5307.500 -25.103  5.6300  3.5150  4.4900 -13.009  5.6300  3.5150  4.4900 
  5308.000 -26.575  5.8580  3.4640  4.6610 -14.480  5.8580  3.4640  4.6610 
  5308.500 -28.298  5.8070  3.4410  4.8240 -16.203  5.8070  3.4410  4.8240 
  5309.000 -29.557  5.6980  3.6040  4.8730 -17.461  5.6980  3.6040  4.8730 
  5309.500 -29.421  5.6030  3.7820  4.8790 -17.324  5.6030  3.7820  4.8790 
