~Version Information
VERS.                     2.0: CWLS log ASCII Standard Version 2.00
WRAP.                      NO: One line per depth step
~Well Information Block
#MNEM.UNIT                               Data Type  Information
#---------                               ---------  -----------
STRT.FT                                   510.0000:
STOP.FT                                  7204.0000:
STEP.FT                                     0.5000:
NULL.                 -999.25                     :
COMP.                                             :COMPANY            
WELL.     LLU 41-28                               :WELL               
FLD .                                             :FIELD              
CTRY.                                             :COUNTRY            
STAT.                                             :STATE              
LOC .                                             :LOCATION           
UWI .                                             :UNIQUE WELL ID     
SRVC.                                             :Service company    
DATE.                                             :LOG DATE           
~Curve Information
#MNEM.UNIT           API CODE  Curve Description
#---------           --------  -----------------
DEPT.FT                      :   1 DEPTH
SP  .MV                      :   2
AM16.OHMM                    :   3
AO10.OHMM                    :   4
AO19.OHMM                    :   5
SBL .MV                      :   6
RS  .OHMM                    :   7
RM  .OHMM                    :   8
RD  .OHMM                    :   9
~A
# ...
  6234.000 -21.434  1.6970  1.7610  1.6010 -9.4340  1.6970  1.7610  1.6010 
  6234.500 -21.576  1.7100  1.7600  1.6300 -9.5760  1.7100  1.7600  1.6300 
  6235.000 -21.609  1.7230  1.7670  1.6590 -9.6090  1.7230  1.7670  1.6590 
  6235.500 -21.678  1.7370  1.7660  1.6870 -9.6780  1.7370  1.7660  1.6870 
  6236.000 -21.747  1.7510  1.7720  1.7020 -9.7470  1.7510  1.7720  1.7020 
  6236.500 -21.816  1.7570  1.7790  1.7160 -9.8160  1.7570  1.7790  1.7160 
  6237.000 -21.886  1.7700  1.7850  1.7520 -9.8860  1.7700  1.7850  1.7520 
  6237.500 -21.740  1.7690  1.7910  1.7660 -9.7400  1.7690  1.7910  1.7660 
  6238.000 -21.592  1.7690  1.8050  1.7770 -9.5920  1.7690  1.8050  1.7770 
  6238.500 -21.410  1.7680  1.8110  1.7870 -9.4100  1.7680  1.8110  1.7870 
  6239.000 -21.263  1.7740  1.8240  1.7940 -9.2630  1.7740  1.8240  1.7940 
  6239.500 -21.188  1.7730  1.8230  1.7940 -9.1880  1.7730  1.8230  1.7940 
  6240.000 -21.006  1.7720  1.8220  1.7790 -9.0060  1.7720  1.8220  1.7790 
  6240.500 -20.895  1.7710  1.8220  1.7650 -8.8950  1.7710  1.8220  1.7650 
  6241.000 -20.821  1.7780  1.8210  1.7430 -8.8210  1.7780  1.8210  1.7430 
  6241.500 -20.819  1.7770  1.8210  1.7280 -8.8190  1.7770  1.8210  1.7280 
  6242.000 -20.817  1.7910  1.8050  1.7200 -8.8170  1.7910  1.8050  1.7200 
  6242.500 -20.672  1.7900  1.8050  1.7130 -8.6720  1.7900  1.8050  1.7130 
  6243.000 -20.562  1.7890  1.8040  1.7050 -8.5620  1.7890  1.8040  1.7050 
  6243.500 -20.488  1.7890  1.8030  1.7050 -8.4880  1.7890  1.8030  1.7050 
  6244.000 -20.486  1.7740  1.8020  1.7040 -8.4860  1.7740  1.8020  1.7040 
  6244.500 -20.521  1.7660  1.8020  1.7040 -8.5210  1.7660  1.8020  1.7040 
  6245.000 -20.627  1.7580  1.8150  1.7040 -8.6270  1.7580  1.8150  1.7040 
  6245.500 -20.768  1.7430  1.8150  1.7030 -8.7680  1.7430  1.8150  1.7030 
  6246.000 -20.910  1.7420  1.8210  1.6810 -8.9100  1.7420  1.8210  1.6810 
  6246.500 -21.306  1.7410  1.8200  1.6670 -9.3060  1.7410  1.8200  1.6670 
  6247.000 -21.340  1.7410  1.8050  1.6590 -9.3400  1.7410  1.8050  1.6590 
  6247.500 -21.447  1.7510  1.8010  1.6590 -9.4470  1.7510  1.8010  1.6590 
  6248.000 -21.517  1.7610  1.7970  1.6660 -9.5170  1.7610  1.7970  1.6660 
  6248.500 -21.659  1.7740  1.7890  1.6790 -9.6590  1.7740  1.7890  1.6790 
  6249.000 -21.838  1.7740  1.7880  1.6790 -9.8380  1.7740  1.7880  1.6790 
  6249.500 -21.944  1.7580  1.7800  1.6430 -9.9440  1.7580  1.7800  1.6430 
  6250.000 -22.086  1.7510  1.7720  1.6280 -10.086  1.7510  1.7720  1.6280 
  6250.500 -22.192  1.7430  1.7570  1.6200 -10.192  1.7430  1.7570  1.6200 
  6251.000 -22.299  1.7280  1.7530  1.6060 -10.299  1.7280  1.7530  1.6060 
  6251.500 -22.297  1.7130  1.7490  1.5980 -10.297  1.7130  1.7490  1.5980 
  6252.000 -22.007  1.6900  1.7300  1.5830 -10.007  1.6900  1.7300  1.5830 
  6252.500 -21.716  1.6970  1.7110  1.5830 -9.7160  1.6970  1.7110  1.5830 
  6253.000 -21.211  1.7030  1.7100  1.5830 -9.2110  1.7030  1.7100  1.5830 
  6253.500 -21.064  1.7060  1.7020  1.5530 -9.0640  1.7060  1.7020  1.5530 
  6254.000 -20.828  1.7090  1.7010  1.5530 -8.8280  1.7090  1.7010  1.5530 
  6254.500 -20.592  1.7080  1.7010  1.5670 -8.5920  1.7080  1.7010  1.5670 
  6255.000 -20.447  1.7220  1.7000  1.5810 -8.4470  1.7220  1.7000  1.5810 
  6255.500 -20.445  1.7280  1.7000  1.5810 -8.4450  1.7280  1.7000  1.5810 
  6256.000 -20.443  1.7130  1.6990  1.5840 -8.4430  1.7130  1.6990  1.5840 
  6256.500 -20.441  1.7120  1.6980  1.5880 -8.4410  1.7120  1.6980  1.5880 
  6257.000 -20.368  1.7120  1.6970  1.6010 -8.3680  1.7120  1.6970  1.6010 
  6257.500 -20.365  1.7110  1.7040  1.6050 -8.3650  1.7110  1.7040  1.6050 
  6258.000 -20.328  1.7100  1.7030  1.6080 -8.3280  1.7100  1.7030  1.6080 
  6258.500 -20.326  1.7240  1.7020  1.6080 -8.3260  1.7240  1.7020  1.6080 
  6259.000 -20.324  1.7010  1.6940  1.6070 -8.3240  1.7010  1.6940  1.6070 
  6259.500 -20.286  1.6860  1.6790  1.5850 -8.2860  1.6860  1.6790  1.5850 
  6260.000 -20.109  1.6640  1.6720  1.5850 -8.1090  1.6640  1.6720  1.5850 
  6260.500 -19.932  1.6640  1.6640  1.5700 -7.9320  1.6640  1.6640  1.5700 
  6261.000 -19.866  1.6640  1.6640  1.5690 -7.8660  1.6640  1.6640  1.5690 
  6261.500 -19.801  1.6680  1.6860  1.5970 -7.8010  1.6680  1.6860  1.5970 
  6262.000 -19.736  1.6720  1.7010  1.6110 -7.7360  1.6720  1.7010  1.6110 
  6262.500 -19.744  1.7010  1.7080  1.6460 -7.7440  1.7010  1.7080  1.6460 
  6263.000 -19.859  1.7230  1.7120  1.6810 -7.8590  1.7230  1.7120  1.6810 
  6263.500 -20.191  1.7370  1.7160  1.7020 -8.1910  1.7370  1.7160  1.7020 
  6264.000 -20.594  1.7370  1.7160  1.7230 -8.5940  1.7370  1.7160  1.7230 
  6264.500 -20.997  1.7450  1.7160  1.7300 -8.9970  1.7450  1.7160  1.7300 
  6265.000 -21.437  1.7520  1.7160  1.7290 -9.4370  1.7520  1.7160  1.7290 
  6265.500 -21.949  1.7450  1.7020  1.7280 -9.9490  1.7450  1.7020  1.7280 
  6266.000 -22.389  1.7310  1.6730  1.6770 -10.389  1.7310  1.6730  1.6770 
  6266.500 -22.612  1.7030  1.6480  1.6190 -10.612  1.7030  1.6480  1.6190 
  6267.000 -22.763  1.6740  1.6230  1.5890 -10.763  1.6740  1.6230  1.5890 
  6267.500 -22.734  1.6450  1.6020  1.5520 -10.734  1.6450  1.6020  1.5520 
  6268.000 -22.705  1.6310  1.5990  1.5370 -10.705  1.6310  1.5990  1.5370 
  6268.500 -22.605  1.6310  1.5950  1.5260 -10.605  1.6310  1.5950  1.5260 
  6269.000 -22.540  1.6350  1.5950  1.5140 -10.540  1.6350  1.5950  1.5140 
  6269.500 -22.403  1.6390  1.6170  1.5210 -10.403  1.6390  1.6170  1.5210 
  6270.000 -22.374  1.6460  1.6280  1.5490 -10.374  1.6460  1.6280  1.5490 
  6270.500 -22.310  1.6530  1.6390  1.5590 -10.310  1.6530  1.6390  1.5590 
  6271.000 -22.317  1.6680  1.6650  1.5690 -10.317  1.6680  1.6650  1.5690 
  6271.500 -22.324  1.6750  1.6900  1.5850 -10.324  1.6750  1.6900  1.5850 
  6272.000 -22.331  1.6970  1.7120  1.6010 -10.331  1.6970  1.7120  1.6010 
  6272.500 -22.266  1.7190  1.7230  1.6170 -10.266  1.7190  1.7230  1.6170 
  6273.000 -22.057  1.7480  1.7340  1.6310 -10.057  1.7480  1.7340  1.6310 
  6273.500 -21.956  1.7630  1.7480  1.6370 -9.9560  1.7630  1.7480  1.6370 
  6274.000 -21.819  1.7770  1.7630  1.6440 -9.8190  1.7770  1.7630  1.6440 
  6274.500 -21.610  1.7850  1.7920  1.6510 -9.6100  1.7850  1.7920  1.6510 
  6275.000 -21.510  1.8130  1.8210  1.6530 -9.5100  1.8130  1.8210  1.6530 
  6275.500 -21.445  1.8210  1.8430  1.6560 -9.4450  1.8210  1.8430  1.6560 
  6276.000 -21.649  1.8280  1.8640  1.6550 -9.6490  1.8280  1.8640  1.6550 
  6276.500 -21.854  1.8500  1.8790  1.6550 -9.8540  1.8500  1.8790  1.6550 
  6277.000 -22.330  1.8650  1.8860  1.6540 -10.330  1.8650  1.8860  1.6540 
  6277.500 -22.805  1.8720  1.9010  1.6530 -10.805  1.8720  1.9010  1.6530 
  6278.000 -23.138  1.8720  1.9010  1.6600 -11.138  1.8720  1.9010  1.6600 
  6278.500 -22.605  1.8870  1.9050  1.6590 -10.605  1.8870  1.9050  1.6590 
  6279.000 -22.396  1.8730  1.9090  1.6590 -10.396  1.8730  1.9090  1.6590 
  6279.500 -22.259  1.8660  1.8800  1.6510 -10.259  1.8660  1.8800  1.6510 
  6280.000 -22.231  1.8510  1.8730  1.6430 -10.231  1.8510  1.8730  1.6430 
  6280.500 -21.980  1.8490  1.8510  1.6350 -9.9800  1.8490  1.8510  1.6350 
  6281.000 -21.909  1.8460  1.8430  1.6280 -9.9090  1.8460  1.8430  1.6280 
  6281.500 -21.749  1.8430  1.8570  1.6200 -9.7490  1.8430  1.8570  1.6200 
  6282.000 -21.588  1.8430  1.8640  1.6200 -9.5880  1.8430  1.8640  1.6200 
  6282.500 -21.446  1.8420  1.8710  1.6130 -9.4460  1.8420  1.8710  1.6130 
  6283.000 -21.394  1.8490  1.8710  1.6130 -9.3940  1.8490  1.8710  1.6130 
  6283.500 -21.342  1.8520  1.8780  1.6340 -9.3420  1.8520  1.8780  1.6340 
  6284.000 -21.344  1.8560  1.8850  1.6840 -9.3440  1.8560  1.8850  1.6840 
  6284.500 -21.310  1.8550  1.8840  1.6840 -9.3100  1.8550  1.8840  1.6840 
  6285.000 -21.149  1.8620  1.8910  1.6980 -9.1490  1.8620  1.8910  1.6980 
  6285.500 -20.988  1.8690  1.8910  1.6840 -8.9880  1.8690  1.8910  1.6840 
  6286.000 -20.918  1.8690  1.8900  1.6690 -8.9180  1.8690  1.8900  1.6690 
  6286.500 -20.921  1.8650  1.8860  1.6540 -8.9210  1.8650  1.8860  1.6540 
