~Version Information
VERS.                     2.0: CWLS log ASCII Standard Version 2.00
WRAP.                      NO: One line per depth step
~Well Information Block
#MNEM.UNIT                               Data Type  Information
#---------                               ---------  -----------
STRT.FT                                   510.0000:
STOP.FT                                  7204.0000:
STEP.FT                                     0.5000:
NULL.                 -999.25                     :
COMP.                                             :COMPANY            
WELL.     LLU 41-28                               :WELL               
FLD .                                             :FIELD              
CTRY.                                             :COUNTRY            
STAT.                                             :STATE              
LOC .                                             :LOCATION           
UWI .                                             :UNIQUE WELL ID     
SRVC.                                             :Service company    
DATE.                                             :LOG DATE           
~Curve Information
#MNEM.UNIT           API CODE  Curve Description
#---------           --------  -----------------
DEPT.FT                      :   1 DEPTH
SP  .MV                      :   2
AM16.OHMM                    :   3
AO10.OHMM                    :   4
AO19.OHMM                    :   5
SBL .MV                      :   6
RS  .OHMM                    :   7
RM  .OHMM                    :   8
RD  .OHMM                    :   9
~A
# ...
  4909.000 -41.362  4.4870  4.0620  3.2480 -25.541  4.4870  4.0620  3.2480 
  4909.500 -39.161  4.3720  4.0990  3.1680 -23.335  4.3720  4.0990  3.1680 
  4910.000 -31.799  4.2650  4.0780  3.0940 -15.968  4.2650  4.0780  3.0940 
  4910.500 -30.031  3.8840  3.8980  3.0430 -14.195  3.8840  3.8980  3.0430 
  4911.000 -28.841  3.6760  3.7910  2.9910 -13.000  3.6760  3.7910  2.9910 
  4911.500 -27.940  3.6190  3.6910  2.9030 -12.094  3.6190  3.6910  2.9030 
  4912.000 -27.543  3.5760  3.5910  2.8300 -11.692  3.5760  3.5910  2.8300 
  4912.500 -27.256  3.6270  3.4260  2.7570 -11.400  3.6270  3.4260  2.7570 
  4913.000 -27.726  3.7870  3.3620  2.8270 -11.864  3.7870  3.3620  2.8270 
  4913.500 -32.599  3.9820  3.5640  3.1650 -16.732  3.9820  3.5640  3.1650 
  4914.000 -35.054  4.2130  3.8390  3.3870 -19.182  4.2130  3.8390  3.3870 
  4914.500 -37.257  4.3290  4.0770  3.5440 -21.380  4.3290  4.0770  3.5440 
  4915.000 -39.207  4.4450  4.2800  3.6510 -23.325  4.4450  4.2800  3.6510 
  4915.500 -40.219  4.4750  4.4100  3.7290 -24.332  4.4750  4.4100  3.7290 
  4916.000 -40.364  4.0650  4.4610  3.7850 -24.472  4.0650  4.4610  3.7850 
  4916.500 -28.815  3.6550  4.4620  3.8270 -12.918  3.6550  4.4620  3.8270 
  4917.000 -27.877  3.3670  4.1380  3.4730 -11.974  3.3670  4.1380  3.4730 
  4917.500 -27.012  3.1020  3.6710  3.2560 -11.104  3.1020  3.6710  3.2560 
  4918.000 -26.399  2.9370  3.4700  3.0170 -10.486  2.9370  3.4700  3.0170 
  4918.500 -26.111  2.8080  3.1460  2.8930 -10.193  2.8080  3.1460  2.8930 
  4919.000 -25.932  2.6640  3.0530  2.7470 -10.009  2.6640  3.0530  2.7470 
  4919.500 -25.788  2.6150  3.0180  2.6450 -9.8598  2.6150  3.0180  2.6450 
  4920.000 -25.644  2.5580  2.9830  2.6660 -9.7107  2.5580  2.9830  2.6660 
  4920.500 -25.473  2.5290  2.9460  2.6230 -9.5345  2.5290  2.9460  2.6230 
  4921.000 -25.338  2.4920  2.8740  2.5580 -9.3944  2.4920  2.8740  2.5580 
  4921.500 -25.293  2.4630  2.7950  2.5370 -9.3443  2.4630  2.7950  2.5370 
  4922.000 -25.248  2.4630  2.6940  2.5730 -9.2942  2.4630  2.6940  2.5730 
  4922.500 -25.834  2.4560  2.6580  2.6090 -9.8750  2.4560  2.6580  2.6090 
  4923.000 -25.807  2.4990  2.5930  2.5510 -9.8429  2.4990  2.5930  2.5510 
  4923.500 -25.780  2.5420  2.5640  2.5230 -9.8108  2.5420  2.5640  2.5230 
  4924.000 -25.934  2.6930  2.5560  2.4940 -9.9596  2.6930  2.5560  2.4940 
  4924.500 -26.015  2.8510  2.5780  2.3940 -10.036  2.8510  2.5780  2.3940 
  4925.000 -26.421  2.7650  2.6210  2.3500 -10.436  2.7650  2.6210  2.3500 
  4925.500 -27.043  3.4350  2.6930  2.3290 -11.053  3.4350  2.6930  2.3290 
  4926.000 -28.713  3.8020  2.8080  2.3580 -12.718  3.8020  2.8080  2.3580 
  4926.500 -30.057  4.2990  2.9660  2.8700 -14.057  4.2990  2.9660  2.8700 
  4927.000 -32.773  5.5380  3.0880  3.2090 -16.775  5.5380  3.0880  3.2090 
  4927.500 -36.428  7.6990  3.5710  3.6270 -20.432  7.6990  3.5710  3.6270 
  4928.000 -41.309  8.8080  3.8370  4.1820 -25.315  8.8080  3.8370  4.1820 
  4928.500 -48.032  10.112  4.1250  4.6720 -32.040  10.112  4.1250  4.6720 
  4929.000 -53.888  11.286  4.4060  5.2480 -37.898  11.286  4.4060  5.2480 
  4929.500 -59.564  11.855  5.0400  5.7670 -43.576  11.855  5.0400  5.7670 
  4930.000 -60.114  12.201  5.4790  6.1780 -44.128  12.201  5.4790  6.1780 
  4930.500 -60.484  12.284  5.7820  6.4590 -44.500  12.284  5.7820  6.4590 
  4931.000 -59.772  12.366  5.9970  6.5960 -43.790  12.366  5.9970  6.5960 
  4931.500 -58.373  12.481  6.2130  6.7400 -42.393  12.481  6.2130  6.7400 
  4932.000 -57.696  12.546  6.2960  6.8990 -41.718  12.546  6.2960  6.8990 
  4932.500 -56.370  12.596  6.3790  6.9710 -40.394  12.596  6.3790  6.9710 
  4933.000 -55.043  12.539  6.4580  7.0220 -39.069  12.539  6.4580  7.0220 
  4933.500 -52.923  11.811  6.3420  6.9720 -36.951  11.811  6.3420  6.9720 
  4934.000 -49.431  10.773  6.1400  6.7700 -33.461  10.773  6.1400  6.7700 
  4934.500 -44.314  9.8510  5.8450  6.4320 -28.346  9.8510  5.8450  6.4320 
  4935.000 -41.003  7.5950  5.5490  5.9420 -25.037  7.5950  5.5490  5.9420 
  4935.500 -37.150  5.9670  5.1820  5.1710 -21.186  5.9670  5.1820  5.1710 
  4936.000 -31.925  4.6990  4.0070  4.0400 -15.963  4.6990  4.0070  4.0400 
  4936.500 -30.274  4.0290  3.7550  3.2340 -14.314  4.0290  3.7550  3.2340 
  4937.000 -29.236  3.7110  3.1930  2.7220 -13.279  3.7110  3.1930  2.7220 
  4937.500 -28.704  3.5530  2.5080  2.2040 -12.749  3.5530  2.5080  2.2040 
  4938.000 -28.280  3.5530  2.1690  2.0170 -12.327  3.5530  2.1690  2.0170 
  4938.500 -28.830  3.7400  2.1040  1.9300 -12.879  3.7400  2.1040  1.9300 
  4939.000 -29.994  3.9560  2.3710  2.0310 -14.045  3.9560  2.3710  2.0310 
  4939.500 -36.608  4.0490  3.2640  2.1250 -20.661  4.0490  3.2640  2.1250 
  4940.000 -39.613  4.1430  4.0490  2.2010 -23.668  4.1430  4.0490  2.2010 
  4940.500 -41.596  4.3220  4.5230  2.2760 -25.653  4.3220  4.5230  2.2760 
  4941.000 -42.604  4.3350  4.8470  2.3840 -26.663  4.3350  4.8470  2.3840 
  4941.500 -43.142  4.2470  5.1050  2.4270 -27.203  4.2470  5.1050  2.4270 
  4942.000 -43.392  4.0660  5.2120  2.5060 -27.455  4.0660  5.2120  2.5060 
  4942.500 -41.657  3.7340  5.3480  2.5500 -25.722  3.7340  5.3480  2.5500 
  4943.000 -33.389  3.5090  5.4330  2.4340 -17.456  3.5090  5.4330  2.4340 
  4943.500 -31.076  3.3930  5.4970  2.2110 -15.145  3.3930  5.4970  2.2110 
  4944.000 -30.135  3.3340  5.3010  2.1240 -14.206  3.3340  5.3010  2.1240 
  4944.500 -29.663  3.3550  5.0120  2.0340 -13.736  3.3550  5.0120  2.0340 
  4945.000 -29.047  3.4620  4.7800  1.9440 -13.122  3.4620  4.7800  1.9440 
  4945.500 -28.539  3.6260  4.6420  1.8500 -12.616  3.6260  4.6420  1.8500 
  4946.000 -28.211  3.9210  4.6050  2.0510 -12.290  3.9210  4.6050  2.0510 
  4946.500 -28.028  4.4020  4.6190  2.3250 -12.109  4.4020  4.6190  2.3250 
  4947.000 -29.252  4.8260  4.7690  2.5910 -13.335  4.8260  4.7690  2.5910 
  4947.500 -31.090  5.3800  4.9480  3.0660 -15.175  5.3800  4.9480  3.0660 
  4948.000 -35.672  5.9410  5.0330  3.2900 -19.759  5.9410  5.0330  3.2900 
  4948.500 -46.244  6.4510  5.0460  3.4410 -30.333  6.4510  5.0460  3.4410 
  4949.000 -52.197  6.7740  5.0670  3.6570 -36.288  6.7740  5.0670  3.6570 
  4949.500 -56.273  7.1190  5.0010  3.9090 -40.366  7.1190  5.0010  3.9090 
  4950.000 -58.220  7.3560  4.8700  4.2180 -42.315  7.3560  4.8700  4.2180 
  4950.500 -59.191  7.5930  4.7180  4.5710 -43.288  7.5930  4.7180  4.5710 
  4951.000 -59.730  7.7610  4.6090  4.7730 -43.829  7.7610  4.6090  4.7730 
  4951.500 -60.810  7.9290  4.6730  5.1040 -44.911  7.9290  4.6730  5.1040 
  4952.000 -61.890  8.0790  4.7040  5.2480 -45.993  8.0790  4.7040  5.2480 
  4952.500 -62.754  8.0930  4.7350  5.4850 -46.859  8.0930  4.7350  5.4850 
  4953.000 -63.256  8.0770  4.8060  5.6220 -47.363  8.0770  4.8060  5.6220 
  4953.500 -63.398  8.0330  4.8410  5.8380 -47.507  8.0330  4.8410  5.8380 
  4954.000 -56.718  7.8880  4.8760  5.9240 -40.829  7.8880  4.8760  5.9240 
  4954.500 -51.482  6.8060  4.8890  6.0180 -35.595  6.8060  4.8890  6.0180 
  4955.000 -47.220  5.5010  4.9030  5.9170 -31.335  5.5010  4.9030  5.9170 
  4955.500 -41.695  4.5990  4.8300  5.7220 -25.812  4.5990  4.8300  5.7220 
  4956.000 -38.444  4.2950  4.5620  4.8500 -22.563  4.2950  4.5620  4.8500 
  4956.500 -35.409  4.1430  3.8120  4.4460 -19.530  4.1430  3.8120  4.4460 
  4957.000 -34.468  4.1420  3.3780  4.1650 -18.591  4.1420  3.3780  4.1650 
  4957.500 -34.068  4.9840  3.2760  4.1000 -18.194  4.9840  3.2760  4.1000 
  4958.000 -34.968  5.3210  3.5130  4.4030 -19.096  5.3210  3.5130  4.4030 
  4958.500 -38.574  5.5360  4.0950  4.6550 -22.704  5.5360  4.0950  4.6550 
  4959.000 -42.325  5.6510  4.3100  4.8420 -26.457  5.6510  4.3100  4.8420 
  4959.500 -43.514  5.7000  4.3380  4.9790 -27.648  5.7000  4.3380  4.9790 
  4960.000 -44.197  5.5690  4.2650  4.8340 -28.333  5.5690  4.2650  4.8340 
  4960.500 -45.387  5.4250  4.2870  4.6530 -29.525  5.4250  4.2870  4.6530 
  4961.000 -46.613  5.4540  4.3990  4.5730 -30.753  5.4540  4.3990  4.5730 
  4961.500 -47.659  5.6200  4.5110  4.5730 -31.801  5.6200  4.5110  4.5730 
