~Version Information
VERS.                     2.0: CWLS log ASCII Standard Version 2.00
WRAP.                      NO: One line per depth step
~Well Information Block
#MNEM.UNIT                               Data Type  Information
#---------                               ---------  -----------
STRT.FT                                   540.0000:
STOP.FT                                  8500.0000:
STEP.FT                                     0.5000:
NULL.                 -999.25                     :
COMP.                                             :COMPANY            
WELL.     LLU 48-21                               :WELL               
FLD .                                             :FIELD              
CTRY.                                             :COUNTRY            
STAT.                                             :STATE              
LOC .                                             :LOCATION           
UWI .                                             :UNIQUE WELL ID     
SRVC.                                             :Service company    
DATE.                                             :LOG DATE           
~Curve Information
#MNEM.UNIT           API CODE  Curve Description
#---------           --------  -----------------
DEPT.FT                      :   1 DEPTH
SP  .MV                      :   2
AM16.OHMM                    :   3
AM64.OHMM                    :   4
LAT .OHMM                    :   5
SBL .MV                      :   6
RS  .OHMM                    :   7
RM  .OHMM                    :   8
RD  .OHMM                    :   9
~A
# ...
  1600.000 -44.821  3.1550  5.2350  5.6940 -10.821  3.1550  5.2350  5.6940 
  1600.500 -43.100  3.0950  5.3000  5.4070 -9.1000  3.0950  5.3000  5.4070 
  1601.000 -42.669  3.0340  5.3570  5.1560 -8.6690  3.0340  5.3570  5.1560 
  1601.500 -42.417  2.9480  5.3860  4.8910 -8.4170  2.9480  5.3860  4.8910 
  1602.000 -42.273  2.9050  5.3860  4.7120 -8.2730  2.9050  5.3860  4.7120 
  1602.500 -42.164  2.8770  5.3720  4.5980 -8.1640  2.8770  5.3720  4.5980 
  1603.000 -42.092  2.8770  5.3580  4.5620 -8.0920  2.8770  5.3580  4.5620 
  1603.500 -43.023  2.8840  5.3220  4.5620 -9.0230  2.8840  5.3220  4.5620 
  1604.000 -43.488  2.9780  5.3010  4.6410 -9.4880  2.9780  5.3010  4.6410 
  1604.500 -43.594  3.0420  5.2800  4.7710 -9.5940  3.0420  5.2800  4.7710 
  1605.000 -43.378  3.0930  5.2410  4.9070 -9.3780  3.0930  5.2410  4.9070 
  1605.500 -43.090  3.1430  5.2010  5.1660 -9.0900  3.1430  5.2010  5.1660 
  1606.000 -42.910  3.3080  5.1300  5.3740 -8.9100  3.3080  5.1300  5.3740 
  1606.500 -42.766  3.4310  5.0800  5.5530 -8.7660  3.4310  5.0800  5.5530 
  1607.000 -42.586  3.5460  5.0370  5.7970 -8.5860  3.5460  5.0370  5.7970 
  1607.500 -44.628  3.6960  5.0010  5.9840 -10.628  3.6960  5.0010  5.9840 
  1608.000 -46.096  3.7900  4.9730  6.1420 -12.096  3.7900  4.9730  6.1420 
  1608.500 -46.561  3.8900  5.0020  6.2070 -12.561  3.8900  5.0020  6.2070 
  1609.000 -46.919  3.9910  5.0740  6.2860 -12.919  3.9910  5.0740  6.2860 
  1609.500 -47.276  4.0990  5.1130  6.2930 -13.276  4.0990  5.1130  6.2930 
  1610.000 -47.060  4.1200  5.1530  6.2930 -13.060  4.1200  5.1530  6.2930 
  1610.500 -47.453  4.0060  5.2390  6.1860 -13.453  4.0060  5.2390  6.1860 
  1611.000 -48.348  4.0710  5.2540  6.0070 -14.348  4.0710  5.2540  6.0070 
  1611.500 -47.631  4.1430  5.2470  5.8710 -13.631  4.1430  5.2470  5.8710 
  1612.000 -47.128  4.1930  5.2330  5.8780 -13.128  4.1930  5.2330  5.8780 
  1612.500 -47.019  4.1930  5.2260  5.9720 -13.019  4.1930  5.2260  5.9720 
  1613.000 -47.377  4.1790  5.2260  6.0220 -13.377  4.1790  5.2260  6.0220 
  1613.500 -47.698  4.1360  5.2260  6.0940 -13.698  4.1360  5.2260  6.0940 
  1614.000 -48.128  4.0290  5.2340  6.1590 -14.128  4.0290  5.2340  6.1590 
  1614.500 -48.306  3.9220  5.2550  6.1880 -14.306  3.9220  5.2550  6.1880 
  1615.000 -47.552  3.7500  5.3490  6.2020 -13.552  3.7500  5.3490  6.2020 
  1615.500 -46.297  3.6600  5.4420  6.1520 -12.297  3.6600  5.4420  6.1520 
  1616.000 -44.468  3.5710  5.4890  5.9440 -10.468  3.5710  5.4890  5.9440 
  1616.500 -43.212  3.4420  5.5360  5.7080 -9.2120  3.4420  5.5360  5.7080 
  1617.000 -42.781  3.3920  5.6440  5.4790 -8.7810  3.3920  5.6440  5.4790 
  1617.500 -42.852  3.3560  5.7080  5.2420 -8.8520  3.3560  5.7080  5.2420 
  1618.000 -42.851  3.3280  5.7090  5.1210 -8.8510  3.3280  5.7090  5.1210 
  1618.500 -42.169  3.3280  5.7130  5.0210 -8.1690  3.3280  5.7130  5.0210 
  1619.000 -41.559  3.3360  5.7160  4.9630 -7.5590  3.3360  5.7160  4.9630 
  1619.500 -42.382  3.3640  5.7170  4.9210 -8.3820  3.3640  5.7170  4.9210 
  1620.000 -42.955  3.4360  5.7170  4.8990 -8.9550  3.4360  5.7170  4.8990 
  1620.500 -43.348  3.6160  5.7210  4.8920 -9.3480  3.6160  5.7210  4.8920 
  1621.000 -43.598  3.7380  5.7240  4.9210 -9.5980  3.7380  5.7240  4.9210 
  1621.500 -43.668  3.8960  5.7390  4.9360 -9.6680  3.8960  5.7390  4.9360 
  1622.000 -43.667  4.0470  5.7610  4.9930 -9.6670  4.0470  5.7610  4.9930 
  1622.500 -43.631  4.2410  5.7970  5.0800 -9.6310  4.2410  5.7970  5.0800 
  1623.000 -43.558  4.3230  5.8470  5.1230 -9.5580  4.3230  5.8470  5.1230 
  1623.500 -43.450  4.4060  5.8760  5.2160 -9.4500  4.4060  5.8760  5.2160 
  1624.000 -43.735  4.6430  5.9410  5.3100 -9.7350  4.6430  5.9410  5.3100 
  1624.500 -44.415  4.7220  6.0060  5.3530 -10.415  4.7220  6.0060  5.3530 
  1625.000 -45.275  4.7790  6.0490  5.4750 -11.275  4.7790  6.0490  5.4750 
  1625.500 -46.456  4.8300  6.0880  5.5900 -12.456  4.8300  6.0880  5.5900 
  1626.000 -47.495  4.8520  6.1280  5.6300 -13.495  4.8520  6.1280  5.6300 
  1626.500 -48.247  4.8590  6.1890  5.6690 -14.247  4.8590  6.1890  5.6690 
  1627.000 -48.389  4.8560  6.2500  5.8420 -14.389  4.8560  6.2500  5.8420 
  1627.500 -47.528  4.8520  6.3580  5.9210 -13.528  4.8520  6.3580  5.9210 
  1628.000 -47.455  4.8310  6.4440  6.0570 -13.455  4.8310  6.4440  6.0570 
  1628.500 -47.813  4.8240  6.4950  6.1290 -13.813  4.8240  6.4950  6.1290 
  1629.000 -48.421  4.8310  6.5450  6.1940 -14.421  4.8310  6.5450  6.1940 
  1629.500 -49.459  4.8530  6.6600  6.2230 -15.459  4.8530  6.6600  6.2230 
  1630.000 -49.638  4.8750  6.7540  6.2300 -15.638  4.8750  6.7540  6.2300 
  1630.500 -49.099  4.9070  6.7970  6.1230 -15.099  4.9070  6.7970  6.1230 
  1631.000 -48.309  4.9400  6.8620  6.0730 -14.309  4.9400  6.8620  6.0730 
  1631.500 -48.273  5.0620  6.8980  6.0660 -14.281  5.0620  6.8980  6.0660 
  1632.000 -48.343  5.1840  6.9340  6.1160 -14.360  5.1840  6.9340  6.1160 
  1632.500 -48.450  5.2990  6.9270  6.3240 -14.475  5.2990  6.9270  6.3240 
  1633.000 -49.309  5.4000  6.8980  6.5400 -15.342  5.4000  6.8980  6.5400 
  1633.500 -48.520  5.5150  6.8770  6.6760 -14.561  5.5150  6.8770  6.6760 
  1634.000 -48.089  5.5650  6.8490  6.7840 -14.139  5.5650  6.8490  6.7840 
  1634.500 -47.980  5.6080  6.8420  6.8340 -14.038  5.6080  6.8420  6.8340 
  1635.000 -49.018  5.6440  6.8710  6.8560 -15.084  5.6440  6.8710  6.8560 
  1635.500 -49.770  5.5800  6.9140  6.8560 -15.845  5.5800  6.9140  6.8560 
  1636.000 -49.411  5.5230  7.0000  6.8210 -15.494  5.5230  7.0000  6.8210 
  1636.500 -49.266  5.4300  7.0360  6.7560 -15.357  5.4300  7.0360  6.7560 
  1637.000 -49.875  5.4160  7.0790  6.6780 -15.974  5.4160  7.0790  6.6780 
  1637.500 -50.161  5.4020  7.1150  6.5270 -16.269  5.4020  7.1150  6.5270 
  1638.000 -49.443  5.4590  7.1370  6.4270 -15.559  5.4590  7.1370  6.4270 
  1638.500 -48.546  5.4810  7.1370  6.2980 -14.670  5.4810  7.1370  6.2980 
  1639.000 -48.150  5.5380  7.0950  6.2630 -14.283  5.5380  7.0950  6.2630 
  1639.500 -48.078  5.6100  7.0660  6.3280 -14.219  5.6100  7.0660  6.3280 
  1640.000 -49.511  5.6610  7.0380  6.4500 -15.660  5.6610  7.0380  6.4500 
  1640.500 -50.226  5.6680  6.9660  6.5790 -16.383  5.6680  6.9660  6.5790 
  1641.000 -50.906  5.6110  6.9310  6.6800 -17.072  5.6110  6.9310  6.6800 
  1641.500 -51.192  5.5610  6.8950  6.7800 -17.366  5.5610  6.8950  6.7800 
  1642.000 -51.729  5.4970  6.8590  6.8480 -17.911  5.4970  6.8590  6.8480 
  1642.500 -51.764  5.4320  6.8520  6.9170 -17.955  5.4320  6.8520  6.9170 
  1643.000 -51.404  5.3680  6.8520  6.8090 -17.603  5.3680  6.8520  6.8090 
  1643.500 -51.045  5.3040  6.8460  6.7450 -17.252  5.3040  6.8460  6.7450 
  1644.000 -50.793  5.1960  6.8390  6.7350 -17.008  5.1960  6.8390  6.7350 
  1644.500 -50.685  5.1180  6.8170  6.7240 -16.909  5.1180  6.8170  6.7240 
  1645.000 -50.576  5.0320  6.7740  6.7310 -16.808  5.0320  6.7740  6.7310 
  1645.500 -50.503  4.9890  6.7500  6.7390 -16.743  4.9890  6.7500  6.7390 
  1646.000 -50.431  4.9530  6.7250  6.7500 -16.680  4.9530  6.7250  6.7500 
  1646.500 -50.358  4.9470  6.6390  6.7610 -16.615  4.9470  6.6390  6.7610 
  1647.000 -50.214  4.9320  6.5750  6.7970 -16.479  4.9320  6.5750  6.7970 
  1647.500 -49.926  4.9250  6.4890  6.8190 -16.199  4.9250  6.4890  6.8190 
  1648.000 -49.746  4.8900  6.4530  6.8400 -16.028  4.8900  6.4530  6.8400 
  1648.500 -49.243  4.8580  6.4170  6.8840 -15.533  4.8580  6.4170  6.8840 
  1649.000 -48.920  4.8260  6.2960  6.9050 -15.218  4.8260  6.2960  6.9050 
  1649.500 -48.739  4.7040  6.1960  6.9270 -15.046  4.7040  6.1960  6.9270 
  1650.000 -48.559  4.6610  6.1100  6.9700 -14.874  4.6610  6.1100  6.9700 
  1650.500 -48.131  4.5820  6.0730  6.8690 -14.454  4.5820  6.0730  6.8690 
  1651.000 -47.344  4.4600  6.0660  6.7040 -13.675  4.4600  6.0660  6.7040 
  1651.500 -46.629  4.4020  6.0800  6.6030 -12.969  4.4020  6.0800  6.6030 
  1652.000 -46.237  4.2510  6.0940  6.4950 -12.585  4.2510  6.0940  6.4950 
  1652.500 -46.131  4.1570  6.1180  6.3370 -12.487  4.1570  6.1180  6.3370 
