~Version Information
VERS.                     2.0: CWLS log ASCII Standard Version 2.00
WRAP.                      NO: One line per depth step
~Well Information Block
#MNEM.UNIT                               Data Type  Information
#---------                               ---------  -----------
STRT.FT                                   540.0000:
STOP.FT                                  8500.0000:
STEP.FT                                     0.5000:
NULL.                 -999.25                     :
COMP.                                             :COMPANY            
WELL.     LLU 48-21                               :WELL               
FLD .                                             :FIELD              
CTRY.                                             :COUNTRY            
STAT.                                             :STATE              
LOC .                                             :LOCATION           
UWI .                                             :UNIQUE WELL ID     
SRVC.                                             :Service company    
DATE.                                             :LOG DATE           
~Curve Information
#MNEM.UNIT           API CODE  Curve Description
#---------           --------  -----------------
DEPT.FT                      :   1 DEPTH
SP  .MV                      :   2
AM16.OHMM                    :   3
AM64.OHMM                    :   4
LAT .OHMM                    :   5
SBL .MV                      :   6
RS  .OHMM                    :   7
RM  .OHMM                    :   8
RD  .OHMM                    :   9
~A
# ...
  4727.000 -38.143  5.6920  4.9320  4.9610 -26.816  5.6920  4.9320  4.9610 
  4727.500 -37.768  5.7130  4.6950  5.0750 -26.440  5.7130  4.6950  5.0750 
  4728.000 -36.878  5.5480  4.2790  5.1680 -25.550  5.5480  4.2790  5.1680 
  4728.500 -36.094  5.3970  4.0850  5.2540 -24.765  5.3970  4.0850  5.2540 
  4729.000 -35.522  5.0740  4.0420  5.3470 -24.192  5.0740  4.0420  5.3470 
  4729.500 -34.738  4.4930  4.1350  5.4250 -23.408  4.4930  4.1350  5.4250 
  4730.000 -34.311  3.6320  4.2350  5.4610 -22.980  3.6320  4.2350  5.4610 
  4730.500 -33.598  3.3450  4.3700  5.3750 -22.266  3.3450  4.3700  5.3750 
  4731.000 -33.204  3.1080  4.4420  5.0520 -21.872  3.1080  4.4420  5.0520 
  4731.500 -31.490  2.8710  4.4990  4.6710 -20.157  2.8710  4.4990  4.6710 
  4732.000 -28.737  2.7780  4.5780  4.2770 -17.403  2.7780  4.5780  4.2770 
  4732.500 -25.127  2.7780  4.5990  3.8680 -13.793  2.7780  4.5990  3.8680 
  4733.000 -22.160  2.7990  4.4980  3.5020 -10.825  2.7990  4.4980  3.5020 
  4733.500 -18.156  2.8410  4.4050  3.3510 -6.8202  2.8410  4.4050  3.3510 
  4734.000 -17.158  2.8880  4.3110  3.4080 -5.8216  2.8880  4.3110  3.4080 
  4734.500 -16.873  2.9350  4.2900  3.4860 -5.5359  2.9350  4.2900  3.4860 
  4735.000 -16.659  3.0630  4.2600  3.5650 -5.3213  3.0630  4.2600  3.5650 
  4735.500 -16.411  3.1310  4.2530  3.6370 -5.0726  3.1310  4.2530  3.6370 
  4736.000 -16.234  3.1990  4.2460  3.7080 -4.8949  3.1990  4.2460  3.7080 
  4736.500 -16.376  3.2840  4.2670  3.9080 -5.0363  3.2840  4.2670  3.9080 
  4737.000 -16.059  3.3200  4.3310  3.9650 -4.7186  3.3200  4.3310  3.9650 
  4737.500 -15.882  3.3590  4.3670  4.0010 -4.5410  3.3590  4.3670  4.0010 
  4738.000 -15.704  3.3990  4.4520  4.0010 -4.3623  3.3990  4.4520  4.0010 
  4738.500 -15.420  3.4630  4.5240  4.0010 -4.0776  3.4630  4.5240  4.0010 
  4739.000 -15.208  3.4980  4.6170  4.0010 -3.8650  3.4980  4.6170  4.0010 
  4739.500 -15.173  3.3760  4.7520  4.0070 -3.8293  3.3760  4.7520  4.0070 
  4740.000 -15.282  3.4180  4.8240  4.0280 -3.9377  3.4180  4.8240  4.0280 
  4740.500 -15.569  3.4540  4.8350  4.0500 -4.2240  3.4540  4.8350  4.0500 
  4741.000 -16.144  3.5400  4.8460  4.0780 -4.7983  3.5400  4.8460  4.0780 
  4741.500 -16.610  3.7910  4.8520  4.0990 -5.2637  3.7910  4.8520  4.0990 
  4742.000 -17.791  4.4290  4.8590  4.1850 -6.4440  4.4290  4.8590  4.1850 
  4742.500 -19.581  4.9020  4.8730  4.3350 -8.2334  4.9020  4.8730  4.3350 
  4743.000 -21.156  5.2240  5.0160  4.6360 -9.8077  5.2240  5.0160  4.6360 
  4743.500 -23.018  5.5820  5.0730  4.8150 -11.669  5.5820  5.0730  4.8150 
  4744.000 -24.486  5.8830  5.2020  4.9730 -13.136  5.8830  5.2020  4.9730 
  4744.500 -26.098  6.1190  5.3450  5.1230 -14.748  6.1190  5.3450  5.1230 
  4745.000 -27.851  6.3920  5.4950  5.1580 -16.500  6.3920  5.4950  5.1580 
  4745.500 -32.467  6.5280  5.6460  5.1720 -21.115  6.5280  5.6460  5.1720 
  4746.000 -34.864  6.6130  5.7880  5.1650 -23.512  6.6130  5.7880  5.1650 
  4746.500 -36.762  6.6990  5.8670  5.1500 -25.409  6.6990  5.8670  5.1500 
  4747.000 -37.979  6.7350  5.9320  5.1430 -26.625  6.7350  5.9320  5.1430 
  4747.500 -39.305  6.7630  6.0030  5.1640 -27.951  6.7630  6.0030  5.1640 
  4748.000 -40.057  6.7990  6.0460  5.2210 -28.702  6.7990  6.0460  5.2210 
  4748.500 -40.845  6.8270  6.0740  5.2920 -29.489  6.8270  6.0740  5.2920 
  4749.000 -41.598  6.8480  6.0810  5.3280 -30.242  6.8480  6.0810  5.3280 
  4749.500 -42.100  6.8690  6.0810  5.3350 -30.743  6.8690  6.0810  5.3350 
  4750.000 -42.495  6.8330  6.0590  5.2920 -31.137  6.8330  6.0590  5.2920 
  4750.500 -42.786  6.7250  6.0360  5.1550 -31.428  6.7250  6.0360  5.1550 
  4751.000 -42.898  6.5730  6.0210  5.0390 -31.539  6.5730  6.0210  5.0390 
  4751.500 -43.011  6.4430  5.9770  4.9800 -31.651  6.4430  5.9770  4.9800 
  4752.000 -42.907  6.3630  5.8830  4.9720 -31.547  6.3630  5.8830  4.9720 
  4752.500 -42.554  6.3270  5.8100  4.9710 -31.193  6.3270  5.8100  4.9710 
  4753.000 -42.094  6.2900  5.7090  4.9770 -30.732  6.2900  5.7090  4.9770 
  4753.500 -41.311  6.2530  5.5790  4.9690 -29.949  6.2530  5.5790  4.9690 
  4754.000 -40.458  6.2020  5.4850  4.9540 -29.095  6.2020  5.4850  4.9540 
  4754.500 -39.890  6.1440  5.3910  4.9390 -28.526  6.1440  5.3910  4.9390 
  4755.000 -39.181  6.0780  5.3180  4.9170 -27.817  6.0780  5.3180  4.9170 
  4755.500 -39.040  5.9770  5.3100  4.8870 -27.675  5.9770  5.3100  4.8870 
  4756.000 -38.544  5.8250  5.3300  4.8280 -27.179  5.8250  5.3300  4.8280 
  4756.500 -37.656  5.6170  5.3510  4.7700 -26.290  5.6170  5.3510  4.7700 
  4757.000 -37.230  5.4290  5.4150  4.6690 -25.863  5.4290  5.4150  4.6690 
  4757.500 -36.556  5.1060  5.4780  4.5390 -25.189  5.1060  5.4780  4.5390 
  4758.000 -35.809  4.8820  5.5350  4.3590 -24.441  4.8820  5.5350  4.3590 
  4758.500 -35.206  4.8100  5.5910  4.1570 -23.837  4.8100  5.5910  4.1570 
  4759.000 -34.531  4.8590  5.6050  4.0420 -23.162  4.8590  5.6050  4.0420 
  4759.500 -34.034  4.9150  5.5680  4.1200 -22.664  4.9150  5.5680  4.1200 
  4760.000 -33.574  5.1940  5.4670  4.3260 -22.203  5.1940  5.4670  4.3260 
  4760.500 -33.365  5.7090  5.3870  4.4910 -21.994  5.7090  5.3870  4.4910 
  4761.000 -33.620  6.0670  5.3430  4.7480 -22.248  6.0670  5.3430  4.7480 
  4761.500 -34.661  6.3380  5.3200  4.8900 -23.288  6.3380  5.3200  4.8900 
  4762.000 -37.741  6.4740  5.4130  4.9970 -26.368  6.4740  5.4130  4.9970 
  4762.500 -40.750  6.3510  5.5050  4.9810 -29.376  6.3510  5.5050  4.9810 
  4763.000 -43.151  6.2500  5.5830  4.8660 -31.776  6.2500  5.5830  4.8660 
  4763.500 -43.585  6.1340  5.6610  4.8080 -32.210  6.1340  5.6610  4.8080 
  4764.000 -43.840  6.0260  5.7100  4.7210 -32.464  6.0260  5.7100  4.7210 
  4764.500 -43.846  6.0750  5.7240  4.7200 -32.469  6.0750  5.7240  4.7200 
  4765.000 -43.777  6.1250  5.6720  4.7540 -32.400  6.1250  5.6720  4.7540 
  4765.500 -43.763  6.2670  5.6000  4.7890 -32.385  6.2670  5.6000  4.7890 
  4766.000 -43.748  6.3370  5.5060  4.8960 -32.369  6.3370  5.5060  4.8960 
  4766.500 -43.648  6.3650  5.3110  4.9950 -32.269  6.3650  5.3110  4.9950 
  4767.000 -43.581  6.3500  5.1240  5.0450 -32.201  6.3500  5.1240  5.0450 
  4767.500 -43.515  6.3060  4.8860  5.1300 -32.134  6.3060  4.8860  5.1300 
  4768.000 -43.232  6.2620  4.6490  5.2080 -31.851  6.2620  4.6490  5.2080 
  4768.500 -42.451  6.1680  4.3970  5.2930 -31.069  6.1680  4.3970  5.2930 
  4769.000 -41.668  6.0450  4.2310  5.3350 -30.285  6.0450  4.2310  5.3350 
  4769.500 -40.385  5.9010  4.0720  5.3770 -29.002  5.9010  4.0720  5.3770 
  4770.000 -38.709  5.5910  4.0930  5.3980 -27.325  5.5910  4.0930  5.3980 
  4770.500 -36.961  4.8880  4.1420  5.3540 -25.576  4.8880  4.1420  5.3540 
  4771.000 -34.462  4.1630  4.1840  5.1730 -23.077  4.1630  4.1840  5.1730 
  4771.500 -31.856  3.3230  4.2190  4.9150 -20.470  3.3230  4.2190  4.9150 
  4772.000 -29.607  3.0280  4.2250  4.3970 -18.220  3.0280  4.2250  4.3970 
  4772.500 -26.071  2.8190  4.2310  4.0740 -14.684  2.8190  4.2310  4.0740 
  4773.000 -21.820  2.5890  4.2340  3.8790 -10.432  2.5890  4.2340  3.8790 
  4773.500 -19.392  2.4870  4.2370  3.7350 -8.0034  2.4870  4.2370  3.7350 
  4774.000 -18.002  2.4650  4.2210  3.6770 -6.6127  2.4650  4.2210  3.6770 
  4774.500 -17.184  2.4780  4.1770  3.7110 -5.7941  2.4780  4.1770  3.7110 
  4775.000 -16.618  2.5350  4.0830  3.6710 -5.2274  2.5350  4.0830  3.6710 
  4775.500 -16.406  2.5690  3.9890  3.6310 -5.0148  2.5690  3.9890  3.6310 
  4776.000 -16.054  2.6050  3.9310  3.5370 -4.6621  2.6050  3.9310  3.5370 
  4776.500 -15.879  2.6400  3.9160  3.5640 -4.4864  2.6400  3.9160  3.5640 
  4777.000 -15.740  2.7240  3.9010  3.6210 -4.3468  2.7240  3.9010  3.6210 
  4777.500 -15.568  2.7950  3.9490  3.6990 -4.1741  2.7950  3.9490  3.6990 
  4778.000 -15.429  2.8660  3.9840  3.7480 -4.0345  2.8660  3.9840  3.7480 
  4778.500 -15.379  2.9080  4.0050  3.8400 -3.9838  2.9080  4.0050  3.8400 
  4779.000 -15.328  2.9510  4.0120  3.9180 -3.9321  2.9510  4.0120  3.9180 
  4779.500 -15.086  3.0350  3.9960  3.9670 -3.6895  3.0350  3.9960  3.9670 
