~Version Information
VERS.                     2.0: CWLS log ASCII Standard Version 2.00
WRAP.                      NO: One line per depth step
~Well Information Block
#MNEM.UNIT                               Data Type  Information
#---------                               ---------  -----------
STRT.FT                                   510.0000:
STOP.FT                                  7204.0000:
STEP.FT                                     0.5000:
NULL.                 -999.25                     :
COMP.                                             :COMPANY            
WELL.     LLU 41-28                               :WELL               
FLD .                                             :FIELD              
CTRY.                                             :COUNTRY            
STAT.                                             :STATE              
LOC .                                             :LOCATION           
UWI .                                             :UNIQUE WELL ID     
SRVC.                                             :Service company    
DATE.                                             :LOG DATE           
~Curve Information
#MNEM.UNIT           API CODE  Curve Description
#---------           --------  -----------------
DEPT.FT                      :   1 DEPTH
SP  .MV                      :   2
AM16.OHMM                    :   3
AO10.OHMM                    :   4
AO19.OHMM                    :   5
SBL .MV                      :   6
RS  .OHMM                    :   7
RM  .OHMM                    :   8
RD  .OHMM                    :   9
~A
# ...
  1411.000 -32.829  4.7910  5.8860  5.7470 -14.128  4.7910  5.8860  5.7470 
  1411.500 -33.193  4.7160  5.9480  5.8620 -14.526  4.7160  5.9480  5.8620 
  1412.000 -32.186  4.6850  6.0970  5.9770 -13.554  4.6850  6.0970  5.9770 
  1412.500 -31.396  4.6900  6.1370  6.0560 -12.798  4.6900  6.1370  6.0560 
  1413.000 -30.894  4.7310  6.1560  6.1210 -12.330  4.7310  6.1560  6.1210 
  1413.500 -30.283  4.7420  6.1680  5.7830 -11.753  4.7420  6.1680  5.7830 
  1414.000 -29.601  4.7110  6.0510  5.5740 -11.105  4.7110  6.0510  5.5740 
  1414.500 -29.388  4.6650  5.7170  5.4660 -10.926  4.6650  5.7170  5.4660 
  1415.000 -29.859  4.6270  5.4770  5.3290 -11.432  4.6270  5.4770  5.3290 
  1415.500 -30.222  4.6600  5.3370  5.2500 -11.829  4.6600  5.3370  5.2500 
  1416.000 -29.468  4.7260  5.2270  5.2930 -11.109  4.7260  5.2270  5.2930 
  1416.500 -29.038  4.7920  5.1310  5.4230 -10.713  4.7920  5.1310  5.4230 
  1417.000 -28.896  4.8830  5.0700  5.6390 -10.605  4.8830  5.0700  5.6390 
  1417.500 -30.269  4.9740  5.0390  5.8620 -12.013  4.9740  5.0390  5.8620 
  1418.000 -30.885  5.2090  5.1370  5.9990 -12.663  5.2090  5.1370  5.9990 
  1418.500 -31.572  5.3190  5.2860  6.1790 -13.384  5.3190  5.2860  6.1790 
  1419.000 -31.935  5.4280  5.5000  6.2720 -13.781  5.4280  5.5000  6.2720 
  1419.500 -31.361  5.7420  5.6270  6.3800 -13.241  5.7420  5.6270  6.3800 
  1420.000 -29.814  5.9700  5.7180  6.3730 -11.729  5.9700  5.7180  6.3730 
  1420.500 -29.096  6.2460  5.8650  6.3720 -11.045  6.2460  5.8650  6.3720 
  1421.000 -29.098  6.5450  6.0840  6.3780 -11.081  6.5450  6.0840  6.3780 
  1421.500 -29.606  6.8570  6.4540  6.4200 -11.623  6.8570  6.4540  6.4200 
  1422.000 -30.654  7.1410  7.1260  6.6420 -12.705  7.1410  7.1260  6.6420 
  1422.500 -32.171  7.3810  7.5250  6.9290 -14.256  7.3810  7.5250  6.9290 
  1423.000 -33.363  7.5640  7.8520  7.4970 -15.483  7.5640  7.8520  7.4970 
  1423.500 -34.411  7.7400  8.2580  7.9140 -16.565  7.7400  8.2580  7.9140 
  1424.000 -34.955  7.9010  8.6430  8.3950 -17.143  7.9010  8.6430  8.3950 
  1424.500 -35.715  7.9620  9.1280  8.9130 -17.937  7.9620  9.1280  8.9130 
  1425.000 -35.897  7.9930  9.3980  9.4450 -18.153  7.9930  9.3980  9.4450 
  1425.500 -35.143  8.0250  9.6530  9.8110 -17.434  8.0250  9.6530  9.8110 
  1426.000 -34.713  8.0570  9.8720  10.040 -17.038  8.0570  9.8720  10.040 
  1426.500 -33.887  7.9520  9.9820  10.147 -16.246  7.9520  9.9820  10.147 
  1427.000 -32.880  7.7530  10.043  10.182 -15.273  7.7530  10.043  10.182 
  1427.500 -32.126  7.4030  10.046  10.181 -14.553  7.4030  10.046  10.181 
  1428.000 -31.407  7.0670  9.9770  10.093 -13.869  7.0670  9.9770  10.093 
  1428.500 -30.653  6.1850  9.8430  9.5450 -13.149  6.1850  9.8430  9.5450 
  1429.000 -30.007  5.9790  9.3270  8.7160 -12.537  5.9790  9.3270  8.7160 
  1429.500 -29.469  5.8810  8.4010  7.5410 -12.033  5.8810  8.4010  7.5410 
  1430.000 -29.471  5.8480  7.2160  6.7040 -12.069  5.8480  7.2160  6.7040 
  1430.500 -29.721  5.0600  6.7520  5.8840 -12.353  5.0600  6.7520  5.8840 
  1431.000 -29.682  4.9060  6.1800  5.3660 -12.349  4.9060  6.1800  5.3660 
  1431.500 -27.949  4.7870  5.7160  5.1430 -10.650  4.7870  5.7160  5.1430 
  1432.000 -26.180  4.6770  5.4540  4.8550 -8.9150  4.6770  5.4540  4.8550 
  1432.500 -25.096  4.5730  5.2570  4.6830 -7.8652  4.5730  5.2570  4.6830 
  1433.000 -24.192  4.4550  5.1460  4.5610 -6.9954  4.4550  5.1460  4.5610 
  1433.500 -23.396  4.3730  5.0930  4.4750 -6.2336  4.3730  5.0930  4.4750 
  1434.000 -22.745  4.4420  5.1910  4.4460 -5.6168  4.4420  5.1910  4.4460 
  1434.500 -22.814  4.4750  5.7860  4.6120 -5.7200  4.4750  5.7860  4.6120 
  1435.000 -23.280  4.4790  6.9710  5.2750 -6.2202  4.4790  6.9710  5.2750 
  1435.500 -24.142  4.4690  7.3280  5.4990 -7.1164  4.4690  7.3280  5.4990 
  1436.000 -25.329  4.5240  7.7070  5.7220 -8.3375  4.5240  7.7070  5.7220 
  1436.500 -26.264  4.6220  7.8910  5.8590 -9.3067  4.6220  7.8910  5.8590 
  1437.000 -27.018  4.6840  7.9890  5.9100 -10.095  4.6840  7.9890  5.9100 
  1437.500 -26.655  4.7310  7.6190  5.4570 -9.7661  4.7310  7.6190  5.4570 
  1438.000 -25.895  4.7430  7.3640  5.1830 -9.0403  4.7430  7.3640  5.1830 
  1438.500 -25.208  4.6610  7.0590  5.0400 -8.3875  4.6610  7.0590  5.0400 
  1439.000 -24.700  4.5640  6.7390  4.9180 -7.9137  4.5640  6.7390  4.9180 
  1439.500 -24.553  4.5180  6.4770  4.8820 -7.8009  4.5180  6.4770  4.8820 
  1440.000 -24.767  4.4580  6.2220  4.9040 -8.0491  4.4580  6.2220  4.9040 
  1440.500 -24.548  4.4580  6.0780  4.9340 -7.8642  4.4580  6.0780  4.9340 
  1441.000 -24.582  4.5660  5.9130  4.9570 -7.9324  4.5660  5.9130  4.9570 
  1441.500 -24.687  4.6600  5.7910  4.9950 -8.0716  4.6600  5.7910  4.9950 
  1442.000 -25.008  4.6680  5.7410  5.1330 -8.4268  4.6680  5.7410  5.1330 
  1442.500 -25.114  4.7040  5.8200  5.5670 -8.5670  4.7040  5.8200  5.5670 
  1443.000 -25.328  4.7410  6.0080  6.0650 -8.8152  4.7410  6.0080  6.0650 
  1443.500 -25.361  4.8130  6.4190  6.5920 -8.8824  4.8130  6.4190  6.5920 
  1444.000 -25.430  4.9140  6.7580  7.0760 -8.9856  4.9140  6.7580  7.0760 
  1444.500 -26.293  5.1160  6.9670  7.6900 -9.8827  5.1160  6.9670  7.6900 
  1445.000 -26.903  5.3400  7.1400  7.9650 -10.527  5.3400  7.1400  7.9650 
  1445.500 -26.467  5.3980  7.2840  8.2180 -10.125  5.3980  7.2840  8.2180 
  1446.000 -25.780  5.3260  7.4360  8.4210 -9.4723  5.3260  7.4360  8.4210 
  1446.500 -25.993  5.2550  7.5160  8.5810 -9.7195  5.2550  7.5160  8.5810 
  1447.000 -26.568  5.0530  7.5950  8.6690 -10.329  5.0530  7.5950  8.6690 
  1447.500 -26.493  5.0100  7.6390  8.6340 -10.288  5.0100  7.6390  8.6340 
  1448.000 -25.264  5.1260  7.6100  7.9660 -9.0931  5.1260  7.6100  7.9660 
  1448.500 -24.396  5.2560  7.4950  7.6080 -8.2592  5.2560  7.4950  7.6080 
  1449.000 -24.177  5.4000  7.1860  7.3640 -8.0744  5.4000  7.1860  7.3640 
  1449.500 -24.319  5.4800  6.8270  7.1850 -8.2506  5.4800  6.8270  7.1850 
  1450.000 -27.345  5.3650  6.2720  7.4100 -11.311  5.3650  6.2720  7.4100 
  1450.500 -28.573  5.2140  5.9700  7.6910 -12.573  5.2140  5.9700  7.6910 
  1451.000 -29.044  5.1420  6.2950  7.8130 -13.078  5.1420  6.2950  7.8130 
  1451.500 -28.434  5.0280  6.5250  7.9140 -12.502  5.0280  6.5250  7.9140 
  1452.000 -26.923  4.9490  6.6270  7.8640 -11.026  4.9490  6.6270  7.8640 
  1452.500 -24.906  4.8840  6.3820  7.7560 -9.0428  4.8840  6.3820  7.7560 
  1453.000 -23.936  4.8200  5.7270  6.0640 -8.1069  4.8200  5.7270  6.0640 
  1453.500 -23.181  4.7700  5.2590  5.4590 -7.3861  4.7700  5.2590  5.4590 
  1454.000 -22.968  4.7270  5.0440  5.1990 -7.2073  4.7270  5.0440  5.1990 
  1454.500 -23.692  4.7200  4.8710  5.0910 -7.9655  4.7200  4.8710  5.0910 
  1455.000 -24.415  4.7200  5.0810  5.6390 -8.7227  4.7200  5.0810  5.6390 
  1455.500 -25.139  4.8070  5.9160  6.0060 -9.4809  4.8070  5.9160  6.0060 
  1456.000 -26.007  4.8800  6.2410  6.2650 -10.383  4.8800  6.2410  6.2650 
  1456.500 -26.442  4.9590  6.5150  6.5030 -10.852  4.9590  6.5150  6.5030 
  1457.000 -26.048  4.9810  6.6560  6.6970 -10.492  4.9810  6.6560  6.6970 
  1457.500 -25.907  4.9890  6.7960  6.7760 -10.386  4.9890  6.7960  6.7760 
  1458.000 -25.838  5.0070  6.8830  6.7120 -10.351  5.0070  6.8830  6.7120 
  1458.500 -25.516  5.0260  6.9700  6.5960 -10.063  5.0260  6.9700  6.5960 
  1459.000 -25.050  5.0190  7.0060  6.5030 -9.6312  5.0190  7.0060  6.5030 
  1459.500 -24.692  4.9540  6.8340  6.3370 -9.3074  4.9540  6.8340  6.3370 
  1460.000 -24.334  4.7960  6.7120  6.2800 -8.9836  4.7960  6.7120  6.2800 
  1460.500 -24.806  4.8250  6.5600  6.1700 -9.4898  4.8250  6.5600  6.1700 
  1461.000 -25.349  4.9180  6.4660  6.1180 -10.067  4.9180  6.4660  6.1180 
  1461.500 -24.198  4.9970  6.4510  6.0520 -8.9501  4.9970  6.4510  6.0520 
  1462.000 -23.083  5.1330  6.6170  6.0220 -7.8693  5.1330  6.6170  6.0220 
  1462.500 -22.185  5.3130  6.8830  6.0280 -7.0055  5.3130  6.8830  6.0280 
  1463.000 -21.827  5.3920  7.3070  6.5450 -6.6817  5.3920  7.3070  6.5450 
  1463.500 -22.046  5.4350  7.7750  7.8750 -6.9349  5.4350  7.7750  7.8750 
