~Version Information
VERS.                     2.0: CWLS log ASCII Standard Version 2.00
WRAP.                      NO: One line per depth step
~Well Information Block
#MNEM.UNIT                               Data Type  Information
#---------                               ---------  -----------
STRT.FT                                   540.0000:
STOP.FT                                  8500.0000:
STEP.FT                                     0.5000:
NULL.                 -999.25                     :
COMP.                                             :COMPANY            
WELL.     LLU 48-21                               :WELL               
FLD .                                             :FIELD              
CTRY.                                             :COUNTRY            
STAT.                                             :STATE              
LOC .                                             :LOCATION           
UWI .                                             :UNIQUE WELL ID     
SRVC.                                             :Service company    
DATE.                                             :LOG DATE           
~Curve Information
#MNEM.UNIT           API CODE  Curve Description
#---------           --------  -----------------
DEPT.FT                      :   1 DEPTH
SP  .MV                      :   2
AM16.OHMM                    :   3
AM64.OHMM                    :   4
LAT .OHMM                    :   5
SBL .MV                      :   6
RS  .OHMM                    :   7
RM  .OHMM                    :   8
RD  .OHMM                    :   9
~A
# ...
  3190.000 -22.850  4.4870  6.0220  5.1610 -14.680  4.4870  6.0220  5.1610 
  3190.500 -22.285  4.6000  6.1500  5.2600 -14.123  4.6000  6.1500  5.2600 
  3191.000 -22.004  4.6920  6.2280  5.3240 -13.850  4.6920  6.2280  5.3240 
  3191.500 -21.865  4.7850  6.3060  5.3730 -13.719  4.7850  6.3060  5.3730 
  3192.000 -21.549  4.9620  6.5480  5.4290 -13.412  4.9620  6.5480  5.4290 
  3192.500 -22.773  5.0620  6.7040  5.5420 -14.644  5.0620  6.7040  5.5420 
  3193.000 -24.860  5.1610  6.8680  5.6130 -16.739  5.1610  6.8680  5.6130 
  3193.500 -25.653  5.2600  6.9390  5.6980 -17.541  5.2600  6.9390  5.6980 
  3194.000 -26.772  5.3590  7.1460  5.8110 -18.668  5.3590  7.1460  5.8110 
  3194.500 -27.171  5.5020  7.3670  5.9320 -19.075  5.5020  7.3670  5.9320 
  3195.000 -26.639  5.6650  7.4840  6.0420 -18.551  5.6650  7.4840  6.0420 
  3195.500 -26.554  5.8870  7.6020  6.1520 -18.475  5.8870  7.6020  6.1520 
  3196.000 -26.469  5.9860  7.8510  6.3950 -18.398  5.9860  7.8510  6.3950 
  3196.500 -26.477  6.1560  7.9360  6.6300 -18.414  6.1560  7.9360  6.6300 
  3197.000 -27.129  6.2920  8.0350  6.8160 -19.075  6.2920  8.0350  6.8160 
  3197.500 -27.529  6.4200  8.1350  6.9860 -19.483  6.4200  8.1350  6.9860 
  3198.000 -28.179  6.6120  8.3840  7.0930 -20.141  6.6120  8.3840  7.0930 
  3198.500 -29.118  6.7620  8.5190  7.1700 -21.088  6.7620  8.5190  7.1700 
  3199.000 -29.446  6.9830  8.6400  7.2480 -21.425  6.9830  8.6400  7.2480 
  3199.500 -29.165  7.3760  8.7250  7.3910 -21.152  7.3760  8.7250  7.3910 
  3200.000 -28.814  7.9270  8.8100  7.5400 -20.809  7.9270  8.8100  7.5400 
  3200.500 -29.281  8.1560  8.9030  7.6970 -21.285  8.1560  8.9030  7.6970 
  3201.000 -30.216  8.2420  9.0030  7.7180 -22.228  8.2420  9.0030  7.7180 
  3201.500 -30.614  8.2700  9.0950  7.7390 -22.634  8.2700  9.0950  7.7390 
  3202.000 -30.724  8.2630  9.1450  7.8180 -22.752  8.2630  9.1450  7.8180 
  3202.500 -30.726  8.2480  9.2380  7.8750 -22.763  8.2480  9.2380  7.8750 
  3203.000 -30.729  8.1680  9.2880  7.8170 -22.774  8.1680  9.2880  7.8170 
  3203.500 -30.660  8.1100  9.3160  7.7800 -22.713  8.1100  9.3160  7.7800 
  3204.000 -30.554  8.0450  9.3220  7.7660 -22.616  8.0450  9.3220  7.7660 
  3204.500 -30.484  7.9160  9.2640  7.7720 -22.554  7.9160  9.2640  7.7720 
  3205.000 -30.343  7.8290  9.0700  7.8070 -22.421  7.8290  9.0700  7.8070 
  3205.500 -30.201  7.7000  8.7540  7.8640 -22.287  7.7000  8.7540  7.8640 
  3206.000 -29.920  7.4120  8.3380  7.9640 -22.015  7.4120  8.3380  7.9640 
  3206.500 -29.707  7.1390  7.9210  8.0070 -21.810  7.1390  7.9210  8.0070 
  3207.000 -29.494  6.9810  7.3970  8.0820 -21.605  6.9810  7.3970  8.0820 
  3207.500 -29.246  6.7720  6.8220  8.1570 -21.366  6.7720  6.8220  8.1570 
  3208.000 -28.889  6.5350  6.3480  8.3210 -21.017  6.5350  6.3480  8.3210 
  3208.500 -28.211  6.2690  5.7090  8.4350 -20.347  6.2690  5.7090  8.4350 
  3209.000 -27.567  5.9740  5.5870  8.4710 -19.711  5.9740  5.5870  8.4710 
  3209.500 -26.136  5.6290  5.6510  8.4770 -18.289  5.6290  5.6510  8.4770 
  3210.000 -25.170  5.2200  5.7080  8.4410 -17.331  5.2200  5.7080  8.4410 
  3210.500 -23.523  4.6240  5.7360  7.4080 -15.692  4.6240  5.7360  7.4080 
  3211.000 -21.554  4.1500  5.7860  6.3740 -13.732  4.1500  5.7860  6.3740 
  3211.500 -19.226  3.7400  5.8060  5.5630 -11.412  3.7400  5.8060  5.5630 
  3212.000 -16.790  3.4460  5.8130  4.9950 -8.9841  3.4460  5.8130  4.9950 
  3212.500 -14.892  3.2230  5.8200  4.6080 -7.0944  3.2230  5.8200  4.6080 
  3213.000 -14.824  3.2370  5.8120  4.2630 -7.0347  3.2370  5.8120  4.2630 
  3213.500 -15.220  3.2650  5.7620  4.2050 -7.4389  3.2650  5.7620  4.2050 
  3214.000 -15.259  3.2940  5.6750  4.3330 -7.4862  3.2940  5.6750  4.3330 
  3214.500 -14.042  3.3500  5.5740  4.4120 -6.2775  3.3500  5.5740  4.4120 
  3215.000 -14.080  3.4070  5.4160  4.4970 -6.3238  3.4070  5.4160  4.4970 
  3215.500 -14.586  3.4920  5.2720  4.5760 -6.8381  3.4920  5.2720  4.5760 
  3216.000 -15.089  3.5420  5.2180  4.6180 -7.3494  3.5420  5.2180  4.6180 
  3216.500 -16.275  3.5850  5.1640  4.6970 -8.5436  3.5850  5.1640  4.6970 
  3217.000 -16.780  3.6340  4.9400  4.8690 -9.0569  3.6340  4.9400  4.8690 
  3217.500 -16.424  3.6840  4.8250  5.2700 -8.7092  3.6840  4.8250  5.2700 
  3218.000 -16.140  3.7120  4.7460  5.5850 -8.4335  3.7120  4.7460  5.5850 
  3218.500 -17.505  3.7410  4.6870  5.7780 -9.8068  3.7410  4.6870  5.7780 
  3219.000 -18.977  3.7470  4.6870  5.9430 -11.287  3.7470  4.6870  5.9430 
  3219.500 -20.127  3.7110  4.6940  6.0570 -12.445  3.7110  4.6940  6.0570 
  3220.000 -20.094  3.6750  4.7150  6.0060 -12.421  3.6750  4.7150  6.0060 
  3220.500 -19.667  3.5810  4.7570  5.7690 -12.002  3.5810  4.7570  5.7690 
  3221.000 -18.844  3.4440  4.8000  5.5460 -11.187  3.4440  4.8000  5.5460 
  3221.500 -16.695  3.3430  4.8430  5.3590 -9.0465  3.3430  4.8430  5.3590 
  3222.000 -15.371  3.2420  4.9210  5.3590 -7.7308  3.2420  4.9210  5.3590 
  3222.500 -14.657  3.2130  4.9280  5.4870 -7.0250  3.2130  4.9280  5.4870 
  3223.000 -14.229  3.2630  4.8410  5.5510 -6.6053  3.2630  4.8410  5.5510 
  3223.500 -14.627  3.3200  4.7540  5.6160 -7.0116  3.3200  4.7540  5.6160 
  3224.000 -14.825  3.3260  4.6820  5.7440 -7.2179  3.3260  4.6820  5.7440 
  3224.500 -15.024  3.3040  4.6390  5.8010 -7.4252  3.3040  4.6390  5.8010 
  3225.000 -15.188  3.2820  4.6810  5.8430 -7.5975  3.2820  4.6810  5.8430 
  3225.500 -15.351  3.3820  4.7240  5.8280 -7.7688  3.3820  4.7240  5.8280 
  3226.000 -15.321  3.3820  4.7660  5.7130 -7.7470  3.3820  4.7660  5.7130 
  3226.500 -15.287  3.3240  4.7510  5.6050 -7.7213  3.3240  4.7510  5.6050 
  3227.000 -15.398  3.3160  4.7290  5.5110 -7.8406  3.3160  4.7290  5.5110 
  3227.500 -15.580  3.3800  4.7070  5.4820 -8.0309  3.3800  4.7070  5.4820 
  3228.000 -15.796  3.4370  4.7280  5.4740 -8.2552  3.4370  4.7280  5.4740 
  3228.500 -15.942  3.4440  4.7560  5.4600 -8.4095  3.4440  4.7560  5.4600 
  3229.000 -15.373  3.4360  4.8060  5.4590 -7.8487  3.4360  4.8060  5.4590 
  3229.500 -15.087  3.2770  4.8990  5.4440 -7.5710  3.2770  4.8990  5.4440 
  3230.000 -14.553  3.1480  5.1140  5.3860 -7.0453  3.1480  5.1140  5.3860 
  3230.500 -14.304  3.0900  5.2710  5.0840 -6.8046  3.0900  5.2710  5.0840 
  3231.000 -14.091  3.0610  5.4000  4.7760 -6.5999  3.0610  5.4000  4.7760 
  3231.500 -13.664  3.0530  5.5640  4.4660 -6.1812  3.0530  5.5640  4.4660 
  3232.000 -13.487  3.2100  5.6500  4.2080 -6.0124  3.2100  5.6500  4.2080 
  3232.500 -13.597  3.3680  5.7210  4.0280 -6.1307  3.3680  5.7210  4.0280 
  3233.000 -13.886  3.5320  5.7710  4.0490 -6.4280  3.5320  5.7710  4.0490 
  3233.500 -14.283  3.7830  5.7700  4.1200 -6.8333  3.7830  5.7700  4.1200 
  3234.000 -14.859  4.1050  5.7770  4.2490 -7.4176  4.1050  5.7770  4.2490 
  3234.500 -15.901  4.3920  5.7910  4.3780 -8.4679  4.3920  5.7910  4.3780 
  3235.000 -18.701  4.6210  5.8190  4.8220 -11.276  4.6210  5.8190  4.8220 
  3235.500 -20.030  4.8570  5.8970  5.1800 -12.613  4.8570  5.8970  5.1800 
  3236.000 -21.754  5.1360  6.1050  5.4160 -14.346  5.1360  6.1050  5.4160 
  3236.500 -23.621  5.3650  6.3770  5.6810 -16.221  5.3650  6.3770  5.6810 
  3237.000 -24.771  5.6880  6.4550  6.0110 -17.379  5.6880  6.4550  6.0110 
  3237.500 -25.240  5.9460  6.6770  6.2470 -17.857  5.9460  6.6770  6.2470 
  3238.000 -25.853  6.2680  6.8560  6.4970 -18.478  6.2680  6.8560  6.4970 
  3238.500 -26.428  6.4540  6.9630  6.6980 -19.061  6.4540  6.9630  6.6980 
  3239.000 -27.112  6.7480  7.1060  7.0200 -19.753  6.7480  7.1060  7.0200 
  3239.500 -28.227  7.1700  7.1700  7.2850 -20.877  7.1700  7.1700  7.2850 
  3240.000 -28.659  7.7870  7.2200  7.5790 -21.317  7.7870  7.2200  7.5790 
  3240.500 -29.343  7.9440  7.2410  7.9010 -22.009  7.9440  7.2410  7.9010 
  3241.000 -29.919  7.9870  7.2480  7.9650 -22.594  7.9870  7.2480  7.9650 
  3241.500 -30.244  8.0220  7.2400  7.9790 -22.927  8.0220  7.2400  7.9790 
  3242.000 -30.353  7.9790  7.1530  8.0500 -23.044  7.9790  7.1530  8.0500 
  3242.500 -30.463  7.8780  7.0380  8.2080 -23.162  7.8780  7.0380  8.2080 
