~Version Information
VERS.                     2.0: CWLS log ASCII Standard Version 2.00
WRAP.                      NO: One line per depth step
~Well Information Block
#MNEM.UNIT                               Data Type  Information
#---------                               ---------  -----------
STRT.FT                                   540.0000:
STOP.FT                                  8500.0000:
STEP.FT                                     0.5000:
NULL.                 -999.25                     :
COMP.                                             :COMPANY            
WELL.     LLU 48-21                               :WELL               
FLD .                                             :FIELD              
CTRY.                                             :COUNTRY            
STAT.                                             :STATE              
LOC .                                             :LOCATION           
UWI .                                             :UNIQUE WELL ID     
SRVC.                                             :Service company    
DATE.                                             :LOG DATE           
~Curve Information
#MNEM.UNIT           API CODE  Curve Description
#---------           --------  -----------------
DEPT.FT                      :   1 DEPTH
SP  .MV                      :   2
AM16.OHMM                    :   3
AM64.OHMM                    :   4
LAT .OHMM                    :   5
SBL .MV                      :   6
RS  .OHMM                    :   7
RM  .OHMM                    :   8
RD  .OHMM                    :   9
~A
# ...
  1070.000 -52.411  5.2680  9.8210  12.138 -18.411  5.2680  9.8210  12.138 
  1070.500 -51.408  5.1390  9.8430  11.428 -17.408  5.1390  9.8430  11.428 
  1071.000 -51.229  5.1600  9.8430  10.997 -17.229  5.1600  9.8430  10.997 
  1071.500 -51.337  5.2320  9.7570  10.840 -17.337  5.2320  9.7570  10.840 
  1072.000 -51.373  5.3180  9.6560  10.818 -17.373  5.3180  9.6560  10.818 
  1072.500 -51.445  5.3680  9.4120  11.212 -17.445  5.3680  9.4120  11.212 
  1073.000 -51.625  5.4250  9.0820  11.599 -17.625  5.4250  9.0820  11.599 
  1073.500 -52.127  5.4680  9.0030  11.915 -18.127  5.4680  9.0030  11.915 
  1074.000 -53.059  5.4540  8.9820  12.058 -19.059  5.4540  8.9820  12.058 
  1074.500 -53.776  5.3820  9.0100  12.094 -19.776  5.3820  9.0100  12.094 
  1075.000 -52.881  5.3240  9.1320  12.022 -18.881  5.3240  9.1320  12.022 
  1075.500 -52.200  5.2670  9.2680  11.735 -18.200  5.2670  9.2680  11.735 
  1076.000 -51.698  5.2170  9.3970  11.190 -17.698  5.2170  9.3970  11.190 
  1076.500 -51.376  5.3820  9.4440  10.767 -17.376  5.3820  9.4440  10.767 
  1077.000 -51.305  5.5970  9.4910  10.451 -17.305  5.5970  9.4910  10.451 
  1077.500 -51.771  5.8690  9.5260  10.365 -17.771  5.8690  9.5260  10.365 
  1078.000 -52.452  6.0840  9.5120  10.408 -18.452  6.0840  9.5120  10.408 
  1078.500 -53.349  6.2990  9.2470  11.039 -19.349  6.2990  9.2470  11.039 
  1079.000 -53.994  6.4860  8.9600  12.717 -19.994  6.4860  8.9600  12.717 
  1079.500 -54.926  6.6220  8.8950  13.434 -20.926  6.6220  8.8950  13.434 
  1080.000 -56.002  6.6580  8.9450  13.671 -22.002  6.6580  8.9450  13.671 
  1080.500 -56.827  6.6500  9.0100  13.778 -22.827  6.6500  9.0100  13.778 
  1081.000 -56.953  6.6000  9.1530  13.735 -22.953  6.6000  9.1530  13.735 
  1081.500 -57.078  6.5140  9.3030  13.391 -23.078  6.5140  9.3030  13.391 
  1082.000 -56.935  6.3060  9.4320  12.796 -22.935  6.3060  9.4320  12.796 
  1082.500 -55.609  6.1840  9.4750  12.093 -21.609  6.1840  9.4750  12.093 
  1083.000 -55.072  5.9970  9.5180  11.627 -21.072  5.9970  9.5180  11.627 
  1083.500 -54.356  5.8180  9.6400  11.275 -20.356  5.8180  9.6400  11.275 
  1084.000 -53.854  5.7030  9.6400  11.003 -19.854  5.7030  9.6400  11.003 
  1084.500 -53.496  5.6750  9.6190  10.838 -19.496  5.6750  9.6190  10.838 
  1085.000 -53.371  5.6820  9.5610  10.572 -19.371  5.6820  9.5610  10.572 
  1085.500 -53.246  5.7320  9.5040  10.379 -19.246  5.7320  9.5040  10.379 
  1086.000 -52.888  5.7530  9.4610  10.192 -18.888  5.7530  9.4610  10.192 
  1086.500 -52.709  5.7530  9.4170  9.9840 -18.709  5.7530  9.4170  9.9840 
  1087.000 -52.494  5.8030  9.2740  9.9910 -18.494  5.8030  9.2740  9.9910 
  1087.500 -52.351  5.9110  9.1520  10.099 -18.351  5.9110  9.1520  10.099 
  1088.000 -52.208  5.9750  8.9940  10.192 -18.208  5.9750  8.9940  10.192 
  1088.500 -51.993  5.9890  8.8870  10.321 -17.993  5.9890  8.8870  10.321 
  1089.000 -51.850  5.9820  8.6860  10.400 -17.850  5.9820  8.6860  10.400 
  1089.500 -51.994  5.9750  8.5420  10.443 -17.994  5.9750  8.5420  10.443 
  1090.000 -52.496  5.9250  8.4420  10.471 -18.496  5.9250  8.4420  10.471 
  1090.500 -52.353  5.8670  8.3560  10.493 -18.353  5.8670  8.3560  10.493 
  1091.000 -51.923  5.7670  8.3130  10.493 -17.923  5.7670  8.3130  10.493 
  1091.500 -51.744  5.7240  8.2980  10.464 -17.744  5.7240  8.2980  10.464 
  1092.000 -51.601  5.6810  8.3410  10.292 -17.601  5.6810  8.3410  10.292 
  1092.500 -51.404  5.5230  8.4410  10.033 -17.404  5.5230  8.4410  10.033 
  1093.000 -51.207  5.4080  8.5270  9.7890 -17.207  5.4080  8.5270  9.7890 
  1093.500 -51.028  5.2570  8.5920  9.5170 -17.028  5.2570  8.5920  9.5170 
  1094.000 -50.850  5.1350  8.6630  9.2510 -16.850  5.1350  8.6630  9.2510 
  1094.500 -50.563  5.0420  8.7140  8.8210 -16.563  5.0420  8.7140  8.8210 
  1095.000 -50.420  4.9560  8.7570  8.4410 -16.420  4.9560  8.7570  8.4410 
  1095.500 -50.277  4.9200  8.7420  8.0970 -16.277  4.9200  8.7420  8.0970 
  1096.000 -50.098  4.9270  8.7130  7.9170 -16.098  4.9270  8.7130  7.9170 
  1096.500 -50.206  4.9770  8.6920  7.9320 -16.206  4.9770  8.6920  7.9320 
  1097.000 -51.282  5.0560  8.6560  8.0680 -17.282  5.0560  8.6560  8.0680 
  1097.500 -52.178  5.1200  8.6490  8.2970 -18.178  5.1200  8.6490  8.2970 
  1098.000 -52.393  5.2350  8.6630  8.6060 -18.393  5.2350  8.6630  8.6060 
  1098.500 -52.143  5.3000  8.7130  8.7200 -18.143  5.3000  8.7130  8.7200 
  1099.000 -51.785  5.4000  8.7920  8.7700 -17.785  5.4000  8.7920  8.7700 
  1099.500 -51.391  5.5150  8.8420  8.7700 -17.391  5.5150  8.8420  8.7700 
  1100.000 -51.606  5.6650  8.8560  8.7700 -17.606  5.6650  8.8560  8.7700 
  1100.500 -52.682  5.8230  8.7990  8.8340 -18.682  5.8230  8.7990  8.8340 
  1101.000 -53.723  5.9160  8.7770  8.9920 -19.723  5.9160  8.7770  8.9920 
  1101.500 -54.297  5.9800  8.7700  9.2210 -20.297  5.9800  8.7700  9.2210 
  1102.000 -54.764  5.9650  8.7840  9.5010 -20.764  5.9650  8.7840  9.5010 
  1102.500 -54.478  5.9150  8.9840  9.6730 -20.478  5.9150  8.9840  9.6730 
  1103.000 -54.085  5.8360  9.1850  9.8160 -20.085  5.8360  9.1850  9.8160 
  1103.500 -53.369  5.8070  9.4210  9.8300 -19.369  5.8070  9.4210  9.8300 
  1104.000 -52.940  5.7570  9.6070  9.6500 -18.940  5.7570  9.6070  9.6500 
  1104.500 -52.367  5.7280  9.8010  9.2200 -18.367  5.7280  9.8010  9.2200 
  1105.000 -52.010  5.7200  9.9230  8.8400 -18.010  5.7200  9.9230  8.8400 
  1105.500 -51.832  6.0430  9.9940  8.4950 -17.832  6.0430  9.9940  8.4950 
  1106.000 -51.833  6.2220  9.8790  8.3800 -17.833  6.2220  9.8790  8.3800 
  1106.500 -52.120  6.5440  9.6640  8.4300 -18.120  6.5440  9.6640  8.4300 
  1107.000 -53.447  7.0250  9.3620  9.1190 -19.447  7.0250  9.3620  9.1190 
  1107.500 -55.456  7.3690  9.1250  10.330 -21.456  7.3690  9.1250  10.330 
  1108.000 -55.994  7.6050  9.0180  11.277 -21.994  7.6050  9.0180  11.277 
  1108.500 -55.995  7.6550  8.9600  11.857 -21.995  7.6550  8.9600  11.857 
  1109.000 -55.996  7.6050  8.9380  12.144 -21.996  7.6050  8.9380  12.144 
  1109.500 -55.818  7.5330  9.1030  12.215 -21.818  7.5330  9.1030  12.215 
  1110.000 -54.672  7.3680  9.3400  12.222 -20.672  7.3680  9.3400  12.222 
  1110.500 -54.099  6.8510  9.5620  12.014 -20.099  6.8510  9.5620  12.014 
  1111.000 -53.921  6.2990  9.7260  11.648 -19.921  6.2990  9.7260  11.648 
  1111.500 -53.815  6.0690  9.8270  11.124 -19.815  6.0690  9.8270  11.124 
  1112.000 -53.565  5.8460  9.8840  10.486 -19.565  5.8460  9.8840  10.486 
  1112.500 -53.458  5.7740  9.8190  9.9910 -19.458  5.7740  9.8190  9.9910 
  1113.000 -53.352  5.6670  9.7330  9.4170 -19.352  5.6670  9.7330  9.4170 
  1113.500 -53.030  5.5520  9.6110  9.0940 -19.030  5.5520  9.6110  9.0940 
  1114.000 -51.597  5.5010  9.5390  8.7430 -17.597  5.5010  9.5390  8.7430 
  1114.500 -50.666  5.4580  9.4920  8.5850 -16.666  5.4580  9.4920  8.5850 
  1115.000 -49.628  5.3790  9.4450  8.5630 -15.628  5.3790  9.4450  8.5630 
  1115.500 -48.984  5.3500  9.3520  8.5340 -14.984  5.3500  9.3520  8.5340 
  1116.000 -48.339  5.3210  9.2870  8.4980 -14.339  5.3210  9.2870  8.4980 
  1116.500 -48.125  5.2920  9.2510  8.4690 -14.125  5.2920  9.2510  8.4690 
  1117.000 -47.983  5.2280  9.3080  8.3330 -13.983  5.2280  9.3080  8.3330 
  1117.500 -47.876  5.1770  9.3940  8.1390 -13.876  5.1770  9.3940  8.1390 
  1118.000 -47.734  5.1340  9.4440  7.9230 -13.734  5.1340  9.4440  7.9230 
  1118.500 -47.735  5.0690  9.4720  7.7370 -13.735  5.0690  9.4720  7.7370 
  1119.000 -47.736  5.1690  9.4930  7.6580 -13.736  5.1690  9.4930  7.6580 
  1119.500 -47.988  5.4630  9.4930  7.6360 -13.988  5.4630  9.4930  7.6360 
  1120.000 -48.813  5.7640  9.4360  7.6790 -14.813  5.7640  9.4360  7.6790 
  1120.500 -49.997  5.9360  9.3640  7.8580 -15.997  5.9360  9.3640  7.8580 
  1121.000 -50.822  6.1010  9.2200  8.3380 -16.822  6.1010  9.2200  8.3380 
  1121.500 -52.113  6.3010  9.1050  8.8610 -18.113  6.3010  9.1050  8.8610 
  1122.000 -53.297  6.3800  9.0400  9.2910 -19.297  6.3800  9.0400  9.2910 
  1122.500 -54.373  6.4590  8.9680  9.7210 -20.373  6.4590  8.9680  9.7210 
