~Version Information
VERS.                     2.0: CWLS log ASCII Standard Version 2.00
WRAP.                      NO: One line per depth step
~Well Information Block
#MNEM.UNIT                               Data Type  Information
#---------                               ---------  -----------
STRT.FT                                   540.0000:
STOP.FT                                  8500.0000:
STEP.FT                                     0.5000:
NULL.                 -999.25                     :
COMP.                                             :COMPANY            
WELL.     LLU 48-21                               :WELL               
FLD .                                             :FIELD              
CTRY.                                             :COUNTRY            
STAT.                                             :STATE              
LOC .                                             :LOCATION           
UWI .                                             :UNIQUE WELL ID     
SRVC.                                             :Service company    
DATE.                                             :LOG DATE           
~Curve Information
#MNEM.UNIT           API CODE  Curve Description
#---------           --------  -----------------
DEPT.FT                      :   1 DEPTH
SP  .MV                      :   2
AM16.OHMM                    :   3
AM64.OHMM                    :   4
LAT .OHMM                    :   5
SBL .MV                      :   6
RS  .OHMM                    :   7
RM  .OHMM                    :   8
RD  .OHMM                    :   9
~A
# ...
  7377.000 -20.287  1.8240  2.2690  1.9320 -10.481  1.8240  2.2690  1.9320 
  7377.500 -20.176  1.8610  2.2620  1.9260 -10.373  1.8610  2.2620  1.9260 
  7378.000 -19.993  1.8840  2.2630  1.9260 -10.194  1.8840  2.2630  1.9260 
  7378.500 -19.702  1.8910  2.2600  1.9420 -9.9060  1.8910  2.2600  1.9420 
  7379.000 -19.520  1.8920  2.2580  1.9640 -9.7274  1.8920  2.2580  1.9640 
  7379.500 -19.301  1.8790  2.2590  1.9790 -9.5117  1.8790  2.2590  1.9790 
  7380.000 -19.082  1.8510  2.2600  2.0050 -9.2960  1.8510  2.2600  2.0050 
  7380.500 -18.683  1.8160  2.2600  2.0310 -8.9004  1.8160  2.2600  2.0310 
  7381.000 -18.285  1.7880  2.2610  2.1180 -8.5057  1.7880  2.2610  2.1180 
  7381.500 -17.959  1.7530  2.2550  2.1620 -8.1831  1.7530  2.2550  2.1620 
  7382.000 -17.418  1.7400  2.2490  2.1980 -7.6454  1.7400  2.2490  2.1980 
  7382.500 -16.769  1.7330  2.2500  2.2350 -6.9998  1.7330  2.2500  2.2350 
  7383.000 -16.228  1.7490  2.2510  2.3220 -6.4621  1.7490  2.2510  2.3220 
  7383.500 -15.902  1.7640  2.2580  2.3660 -6.1395  1.7640  2.2580  2.3660 
  7384.000 -15.682  1.7930  2.2740  2.3880 -5.9228  1.7930  2.2740  2.3880 
  7384.500 -15.679  1.8230  2.2960  2.4030 -5.9231  1.8230  2.2960  2.4030 
  7385.000 -15.890  1.9030  2.3330  2.3830 -6.1375  1.9030  2.3330  2.3830 
  7385.500 -16.351  1.9610  2.3510  2.3050 -6.6018  1.9610  2.3510  2.3050 
  7386.000 -16.778  1.9970  2.3700  2.2480 -7.0322  1.9970  2.3700  2.2480 
  7386.500 -17.097  2.0340  2.4290  2.2210 -7.3545  2.0340  2.4290  2.2210 
  7387.000 -17.738  2.1070  2.4470  2.1710 -7.9989  2.1070  2.4470  2.1710 
  7387.500 -18.236  2.1580  2.4660  2.1220 -8.5002  2.1580  2.4660  2.1220 
  7388.000 -18.948  2.2020  2.5170  2.0730 -9.2156  2.2020  2.5170  2.0730 
  7388.500 -19.517  2.2600  2.5250  2.0590 -9.7879  2.2600  2.5250  2.0590 
  7389.000 -19.837  2.2970  2.4400  2.0670 -10.111  2.2970  2.4400  2.0670 
  7389.500 -20.335  2.3260  2.3830  2.1400 -10.613  2.3260  2.3830  2.1400 
  7390.000 -20.689  2.3560  2.3480  2.1910 -10.970  2.3560  2.3480  2.1910 
  7390.500 -20.972  2.3710  2.3210  2.2780 -11.256  2.3710  2.3210  2.2780 
  7391.000 -21.255  2.3720  2.3000  2.3220 -11.543  2.3720  2.3000  2.3220 
  7391.500 -21.538  2.3510  2.2940  2.3800 -11.829  2.3510  2.2940  2.3800 
  7392.000 -21.462  2.2800  2.3020  2.4240 -11.756  2.2800  2.3020  2.4240 
  7392.500 -21.315  2.1880  2.3100  2.3460 -11.613  2.1880  2.3100  2.3460 
  7393.000 -20.989  2.1170  2.3180  2.2960 -11.290  2.1170  2.3180  2.2960 
  7393.500 -20.088  2.0460  2.3330  2.1970 -10.392  2.0460  2.3330  2.1970 
  7394.000 -19.332  1.9820  2.3480  2.1400 -9.6397  1.9820  2.3480  2.1400 
  7394.500 -18.791  1.9190  2.3560  2.0840 -9.1020  1.9190  2.3560  2.0840 
  7395.000 -18.107  1.8050  2.3640  2.0270 -8.4214  1.8050  2.3640  2.0270 
  7395.500 -17.565  1.7560  2.3720  2.0140 -7.8827  1.7560  2.3720  2.0140 
  7396.000 -17.059  1.7320  2.3730  2.0040 -7.3801  1.7320  2.3730  2.0040 
  7396.500 -16.876  1.7070  2.3670  1.9940 -7.2004  1.7070  2.3670  1.9940 
  7397.000 -16.729  1.6650  2.3600  2.0090 -7.0568  1.6650  2.3600  2.0090 
  7397.500 -16.690  1.6550  2.3260  2.0170 -7.0211  1.6550  2.3260  2.0170 
  7398.000 -16.652  1.6450  2.2910  2.0330 -6.9864  1.6450  2.2910  2.0330 
  7398.500 -16.576  1.6180  2.2630  2.0480 -6.9138  1.6180  2.2630  2.0480 
  7399.000 -16.501  1.6110  2.2280  2.0630 -6.8421  1.6110  2.2280  2.0630 
  7399.500 -16.352  1.6050  2.2140  2.0710 -6.6965  1.6050  2.2140  2.0710 
  7400.000 -16.296  1.5980  2.2010  2.0650 -6.6438  1.5980  2.2010  2.0650 
  7400.500 -16.239  1.5920  2.2010  2.0580 -6.5902  1.5920  2.2010  2.0580 
  7401.000 -16.127  1.5780  2.2020  2.0510 -6.4815  1.5780  2.2020  2.0510 
  7401.500 -16.053  1.5720  2.1950  2.0450 -6.4109  1.5720  2.1950  2.0450 
  7402.000 -15.998  1.5650  2.1880  2.0380 -6.3592  1.5650  2.1880  2.0380 
  7402.500 -15.943  1.5550  2.1900  2.0310 -6.3075  1.5550  2.1900  2.0310 
  7403.000 -15.794  1.5450  2.1900  2.0110 -6.1619  1.5450  2.1900  2.0110 
  7403.500 -15.721  1.5420  2.1980  2.0040 -6.0922  1.5420  2.1980  2.0040 
  7404.000 -15.648  1.5380  2.1980  2.0050 -6.0226  1.5380  2.1980  2.0050 
  7404.500 -15.500  1.5390  2.1980  1.9980 -5.8779  1.5390  2.1980  1.9980 
  7405.000 -15.481  1.5400  2.1990  1.9950 -5.8623  1.5400  2.1990  1.9950 
  7405.500 -15.461  1.5400  2.2000  1.9920 -5.8456  1.5400  2.2000  1.9920 
  7406.000 -15.493  1.5410  2.2000  1.9920 -5.8810  1.5410  2.2000  1.9920 
  7406.500 -15.561  1.5490  2.1940  1.9930 -5.9523  1.5490  2.1940  1.9930 
  7407.000 -15.487  1.5490  2.1870  1.9800 -5.8816  1.5490  2.1870  1.9800 
  7407.500 -15.485  1.5570  2.1810  1.9660 -5.8830  1.5570  2.1810  1.9660 
  7408.000 -15.411  1.5720  2.1740  1.9660 -5.8123  1.5720  2.1740  1.9660 
  7408.500 -15.264  1.5940  2.1680  1.9740 -5.6687  1.5940  2.1680  1.9740 
  7409.000 -15.226  1.6160  2.1680  1.9960 -5.6340  1.6160  2.1680  1.9960 
  7409.500 -15.188  1.6310  2.1690  2.0110 -5.5994  1.6310  2.1690  2.0110 
  7410.000 -15.133  1.6530  2.1620  2.0330 -5.5477  1.6530  2.1620  2.0330 
  7410.500 -15.078  1.6750  2.1630  2.0770 -5.4961  1.6750  2.1630  2.0770 
  7411.000 -14.930  1.6970  2.1630  2.1060 -5.3514  1.6970  2.1630  2.1060 
  7411.500 -14.892  1.7120  2.1640  2.1420 -5.3167  1.7120  2.1640  2.1420 
  7412.000 -14.855  1.7340  2.1640  2.1860 -5.2831  1.7340  2.1640  2.1860 
  7412.500 -14.798  1.7560  2.1870  2.2010 -5.2294  1.7560  2.1870  2.2010 
  7413.000 -14.742  1.7860  2.2010  2.2150 -5.1768  1.7860  2.2010  2.2150 
  7413.500 -14.703  1.8150  2.2240  2.2590 -5.1411  1.8150  2.2240  2.2590 
  7414.000 -14.665  1.8370  2.2460  2.2600 -5.1065  1.8370  2.2460  2.2600 
  7414.500 -14.645  1.8520  2.2640  2.2600 -5.0898  1.8520  2.2640  2.2600 
  7415.000 -14.624  1.8660  2.2820  2.2610 -5.0722  1.8660  2.2820  2.2610 
  7415.500 -14.656  1.8960  2.3120  2.2330 -5.1075  1.8960  2.3120  2.2330 
  7416.000 -14.653  1.9110  2.3340  2.1900 -5.1078  1.9110  2.3340  2.1900 
  7416.500 -14.687  1.9190  2.3560  2.1480 -5.1452  1.9190  2.3560  2.1480 
  7417.000 -14.720  1.9340  2.3780  2.1130 -5.1815  1.9340  2.3780  2.1130 
  7417.500 -14.753  1.9490  2.4220  2.0920 -5.2179  1.9490  2.4220  2.0920 
  7418.000 -14.769  1.9530  2.4360  2.0710 -5.2372  1.9530  2.4360  2.0710 
  7418.500 -14.786  1.9560  2.4730  2.0210 -5.2576  1.9560  2.4730  2.0210 
  7419.000 -14.817  1.9640  2.4880  2.0000 -5.2919  1.9640  2.4880  2.0000 
  7419.500 -14.851  1.9720  2.5100  2.0080 -5.3293  1.9720  2.5100  2.0080 
  7420.000 -14.812  1.9760  2.5030  2.0370 -5.2936  1.9760  2.5030  2.0370 
  7420.500 -14.828  1.9800  2.4970  2.0590 -5.3130  1.9800  2.4970  2.0590 
  7421.000 -14.844  1.9670  2.4690  2.0810 -5.3323  1.9670  2.4690  2.0810 
  7421.500 -14.839  1.9680  2.4190  2.1830 -5.3306  1.9680  2.4190  2.1830 
  7422.000 -14.838  1.9540  2.3980  2.2190 -5.3330  1.9540  2.3980  2.2190 
  7422.500 -14.907  1.9400  2.3840  2.2770 -5.4053  1.9400  2.3840  2.2770 
  7423.000 -15.012  1.9190  2.3700  2.2990 -5.5137  1.9190  2.3700  2.2990 
  7423.500 -15.117  1.9050  2.3710  2.3070 -5.6220  1.9050  2.3710  2.3070 
  7424.000 -15.257  1.8840  2.3860  2.2710 -5.7654  1.8840  2.3860  2.2710 
  7424.500 -15.327  1.8630  2.4080  2.2430 -5.8387  1.8630  2.4080  2.2430 
  7425.000 -15.432  1.8490  2.4300  2.2080 -5.9471  1.8490  2.4300  2.2080 
  7425.500 -15.573  1.9940  2.4520  2.1440 -6.0914  1.9940  2.4520  2.1440 
  7426.000 -16.502  2.0870  2.4740  2.1160 -7.0237  2.0870  2.4740  2.1160 
  7426.500 -17.144  2.2380  2.5180  2.0590 -7.6691  2.2380  2.5180  2.0590 
  7427.000 -17.608  2.3250  2.5470  1.9950 -8.1364  2.3250  2.5470  1.9950 
  7427.500 -18.608  2.4330  2.5690  1.9460 -9.1398  2.4330  2.5690  1.9460 
  7428.000 -19.824  2.4910  2.6060  1.9250 -10.359  2.4910  2.6060  1.9250 
  7428.500 -21.255  2.5130  2.6240  1.9040 -11.793  2.5130  2.6240  1.9040 
  7429.000 -22.901  2.4710  2.6420  1.8820 -13.443  2.4710  2.6420  1.8820 
  7429.500 -25.084  2.4070  2.6500  1.8610 -15.629  2.4070  2.6500  1.8610 
