~Version Information
VERS.                     2.0: CWLS log ASCII Standard Version 2.00
WRAP.                      NO: One line per depth step
~Well Information Block
#MNEM.UNIT                               Data Type  Information
#---------                               ---------  -----------
STRT.FT                                   540.0000:
STOP.FT                                  8500.0000:
STEP.FT                                     0.5000:
NULL.                 -999.25                     :
COMP.                                             :COMPANY            
WELL.     LLU 48-21                               :WELL               
FLD .                                             :FIELD              
CTRY.                                             :COUNTRY            
STAT.                                             :STATE              
LOC .                                             :LOCATION           
UWI .                                             :UNIQUE WELL ID     
SRVC.                                             :Service company    
DATE.                                             :LOG DATE           
~Curve Information
#MNEM.UNIT           API CODE  Curve Description
#---------           --------  -----------------
DEPT.FT                      :   1 DEPTH
SP  .MV                      :   2
AM16.OHMM                    :   3
AM64.OHMM                    :   4
LAT .OHMM                    :   5
SBL .MV                      :   6
RS  .OHMM                    :   7
RM  .OHMM                    :   8
RD  .OHMM                    :   9
~A
# ...
  3720.000 -25.894  5.9170  7.0650  8.3350 -15.919  5.9170  7.0650  8.3350 
  3720.500 -27.548  6.3470  7.2510  8.8070 -17.568  6.3470  7.2510  8.8070 
  3721.000 -29.274  6.6680  7.4360  9.0790 -19.289  6.6680  7.4360  9.0790 
  3721.500 -31.324  6.9110  7.6640  9.3140 -21.334  6.9110  7.6640  9.3140 
  3722.000 -32.800  7.1900  7.9000  9.5790 -22.805  7.1900  7.9000  9.5790 
  3722.500 -33.522  7.3900  8.0210  9.9290 -23.522  7.3900  8.0210  9.9290 
  3723.000 -33.993  7.5390  8.2850  10.093 -23.992  7.5390  8.2850  10.093 
  3723.500 -34.536  7.6810  8.5210  10.236 -24.535  7.6810  8.5210  10.236 
  3724.000 -34.791  7.7380  8.6420  10.335 -24.789  7.7380  8.6420  10.335 
  3724.500 -35.047  7.7800  8.8340  10.435 -25.044  7.7800  8.8340  10.435 
  3725.000 -35.304  7.8070  8.9410  10.519 -25.301  7.8070  8.9410  10.519 
  3725.500 -35.274  7.8270  9.0690  10.583 -25.270  7.8270  9.0690  10.583 
  3726.000 -35.243  7.8550  9.1470  10.610 -25.238  7.8550  9.1470  10.610 
  3726.500 -35.142  7.8680  9.1670  10.652 -25.137  7.8680  9.1670  10.652 
  3727.000 -35.111  7.8820  9.1520  10.680 -25.105  7.8820  9.1520  10.680 
  3727.500 -34.953  7.8950  9.0570  10.722 -24.946  7.8950  9.0570  10.722 
  3728.000 -34.796  7.9010  8.9700  10.735 -24.789  7.9010  8.9700  10.735 
  3728.500 -34.518  7.9000  8.8680  10.748 -24.510  7.9000  8.8680  10.748 
  3729.000 -34.379  7.8920  8.6730  10.747 -24.370  7.8920  8.6730  10.747 
  3729.500 -34.097  7.8550  8.5650  10.746 -24.088  7.8550  8.5650  10.746 
  3730.000 -33.852  7.7670  8.1120  10.730 -23.842  7.7670  8.1120  10.730 
  3730.500 -33.623  7.6520  7.6800  10.701 -23.612  7.6520  7.6800  10.701 
  3731.000 -33.394  7.4710  6.9760  10.671 -23.383  7.4710  6.9760  10.671 
  3731.500 -32.829  7.2690  6.6660  10.598 -22.817  7.2690  6.6660  10.598 
  3732.000 -32.403  7.0890  6.4720  10.446 -22.390  7.0890  6.4720  10.446 
  3732.500 -31.764  6.8010  6.1620  10.287 -21.751  6.8010  6.1620  10.287 
  3733.000 -31.123  5.9240  5.8880  9.9920 -21.109  5.9240  5.8880  9.9920 
  3733.500 -29.765  4.9260  5.8010  9.5030 -19.750  4.9260  5.8010  9.5030 
  3734.000 -26.830  4.3150  5.6920  8.8560 -16.815  4.3150  5.6920  8.8560 
  3734.500 -23.430  4.0840  5.6410  8.0590 -13.414  4.0840  5.6410  8.0590 
  3735.000 -21.534  3.8180  5.6040  7.1750 -11.517  3.8180  5.6040  7.1750 
  3735.500 -19.604  3.5870  5.5600  6.5720 -9.5868  3.5870  5.5600  6.5720 
  3736.000 -18.569  3.4140  5.5230  5.8310 -8.5512  3.4140  5.5230  5.8310 
  3736.500 -17.606  3.2760  5.4930  5.4290 -7.5875  3.2760  5.4930  5.4290 
  3737.000 -16.788  3.0520  5.4200  5.0830 -6.7688  3.0520  5.4200  5.0830 
  3737.500 -16.541  2.9730  5.3540  4.9030 -6.5212  2.9730  5.3540  4.9030 
  3738.000 -16.690  2.9000  5.2320  4.8010 -6.6695  2.9000  5.2320  4.8010 
  3738.500 -17.161  2.8490  5.0220  4.7930 -7.1399  2.8490  5.0220  4.7930 
  3739.000 -17.202  2.7900  4.9140  4.8200 -7.1802  2.7900  4.9140  4.8200 
  3739.500 -16.670  2.7670  4.8330  4.8620 -6.6475  2.7670  4.8330  4.8620 
  3740.000 -15.886  2.7450  4.8040  4.9040 -5.8629  2.7450  4.8040  4.9040 
  3740.500 -15.246  2.7150  4.7740  4.9320 -5.2222  2.7150  4.7740  4.9320 
  3741.000 -14.857  2.7350  4.7440  5.0020 -4.8326  2.7350  4.7440  5.0020 
  3741.500 -14.844  2.7920  4.7210  5.0440 -4.8189  2.7920  4.7210  5.0440 
  3742.000 -14.830  2.8550  4.6990  5.1010 -4.8042  2.8550  4.6990  5.1010 
  3742.500 -14.945  2.9540  4.6830  5.1570 -4.9186  2.9540  4.6830  5.1570 
  3743.000 -15.058  3.0610  4.6750  5.1920 -5.0309  3.0610  4.6750  5.1920 
  3743.500 -15.206  3.1820  4.6600  5.2190 -5.1783  3.1820  4.6600  5.2190 
  3744.000 -15.571  3.2810  4.6440  5.2830 -5.5426  3.2810  4.6440  5.2830 
  3744.500 -15.791  3.4020  4.6000  5.4180 -5.7619  3.4020  4.6000  5.4180 
  3745.000 -16.120  3.5090  4.5130  5.7250 -6.0903  3.5090  4.5130  5.7250 
  3745.500 -16.339  3.6360  4.3900  6.0900 -6.3086  3.6360  4.3900  6.0900 
  3746.000 -16.846  3.7210  4.3030  6.3040 -6.8150  3.7210  4.3030  6.3040 
  3746.500 -17.534  3.7710  4.1940  6.4470 -7.5023  3.7710  4.1940  6.4470 
  3747.000 -18.470  3.8050  4.0850  6.5390 -8.4376  3.8050  4.0850  6.5390 
  3747.500 -19.695  3.8040  3.9980  6.6170 -9.6620  3.8040  3.9980  6.6170 
  3748.000 -20.955  3.7460  4.0400  6.6510 -10.921  3.7460  4.0400  6.6510 
  3748.500 -21.247  3.5940  4.0820  6.6360 -11.213  3.5940  4.0820  6.6360 
  3749.000 -19.890  3.3270  4.1310  6.5770 -9.8550  3.3270  4.1310  6.5770 
  3749.500 -18.748  3.0750  4.1660  6.5260 -8.7123  3.0750  4.1660  6.5260 
  3750.000 -16.564  2.9200  4.2760  6.2860 -6.5277  2.9200  4.2760  6.2860 
  3750.500 -15.959  2.8680  4.3320  5.7240 -5.9220  2.8680  4.3320  5.7240 
  3751.000 -15.893  2.8090  4.3660  4.9190 -5.8553  2.8090  4.3660  4.9190 
  3751.500 -16.006  2.7570  4.3710  4.6450 -5.9677  2.7570  4.3710  4.6450 
  3752.000 -16.045  2.6910  4.3490  4.4420 -6.0060  2.6910  4.3490  4.4420 
  3752.500 -16.086  2.6390  4.2390  4.3830 -6.0464  2.6390  4.2390  4.3830 
  3753.000 -15.984  2.5800  4.1300  4.3740 -5.9437  2.5800  4.1300  4.3740 
  3753.500 -15.809  2.5280  4.0280  4.3650 -5.7680  2.5280  4.0280  4.3650 
  3754.000 -15.600  2.4690  3.9980  4.3490 -5.5584  2.4690  3.9980  4.3490 
  3754.500 -15.460  2.4100  4.0170  4.3330 -5.4177  2.4100  4.0170  4.3330 
  3755.000 -15.395  2.3510  4.0440  4.2380 -5.3521  2.3510  4.0440  4.2380 
  3755.500 -15.326  2.2840  4.0930  4.0420 -5.2824  2.2840  4.0930  4.0420 
  3756.000 -15.261  2.2320  4.1480  3.8330 -5.2167  2.2320  4.1480  3.8330 
  3756.500 -15.228  2.1950  4.1970  3.6880 -5.1831  2.1950  4.1970  3.6880 
  3757.000 -15.162  2.1580  4.2450  3.6290 -5.1164  2.1580  4.2450  3.6290 
  3757.500 -15.131  2.1410  4.2770  3.5700 -5.0848  2.1410  4.2770  3.5700 
  3758.000 -15.064  2.1540  4.3080  3.4530 -5.0171  2.1540  4.3080  3.4530 
  3758.500 -15.032  2.1960  4.3980  3.3580 -4.9844  2.1960  4.3980  3.3580 
  3759.000 -15.037  2.2370  4.4400  3.2700 -4.9888  2.2370  4.4400  3.2700 
  3759.500 -15.043  2.2930  4.4850  3.1750 -4.9941  2.2930  4.4850  3.1750 
  3760.000 -15.119  2.3700  4.5300  3.0800 -5.0695  2.3700  4.5300  3.0800 
  3760.500 -15.231  2.4400  4.6140  3.0500 -5.1808  2.4400  4.6140  3.0500 
  3761.000 -15.343  2.5530  4.6770  3.0480 -5.2921  2.5530  4.6770  3.0480 
  3761.500 -15.419  2.7520  4.7180  3.0890 -5.3675  2.7520  4.7180  3.0890 
  3762.000 -15.494  2.9150  4.7600  3.1090 -5.4418  2.9150  4.7600  3.1090 
  3762.500 -15.646  3.0940  4.8590  3.1430 -5.5932  3.0940  4.8590  3.1430 
  3763.000 -15.794  3.4140  4.9290  3.1710 -5.7405  3.4140  4.9290  3.1710 
  3763.500 -16.013  3.6140  5.0410  3.2260 -5.9588  3.6140  5.0410  3.2260 
  3764.000 -16.486  4.0710  5.0830  3.3100 -6.4312  4.0710  5.0830  3.3100 
  3764.500 -17.208  4.4360  5.2460  3.3810 -7.1525  4.4360  5.2460  3.3810 
  3765.000 -18.145  4.9360  5.4380  3.5150 -8.0888  4.9360  5.4380  3.5150 
  3765.500 -19.515  5.2290  5.5660  3.7440 -9.4582  5.2290  5.5660  3.7440 
  3766.000 -20.560  5.4780  5.8080  4.0580 -10.503  5.4780  5.8080  4.0580 
  3766.500 -21.857  5.7200  6.1080  4.3500 -11.799  5.7200  6.1080  4.3500 
  3767.000 -23.334  5.9410  6.3070  4.5420 -13.275  5.9410  6.3070  4.5420 
  3767.500 -25.025  6.1980  6.6930  4.7050 -14.966  6.1980  6.6930  4.7050 
  3768.000 -26.645  6.3830  6.9640  4.7830 -16.585  6.3830  6.9640  4.7830 
  3768.500 -28.302  6.6040  7.4650  4.9240 -18.241  6.6040  7.4650  4.9240 
  3769.000 -29.383  6.8170  7.8790  5.1380 -19.322  6.8170  7.8790  5.1380 
  3769.500 -30.824  7.0090  8.1930  5.2730 -20.762  7.0090  8.1930  5.2730 
  3770.000 -31.725  7.1940  8.4350  5.4150 -21.662  7.1940  8.4350  5.4150 
  3770.500 -33.094  7.5800  8.9430  5.6850 -23.031  7.5800  8.9430  5.6850 
  3771.000 -33.818  8.0450  9.5080  5.9570 -23.754  8.0450  9.5080  5.9570 
  3771.500 -34.162  8.4950  9.7220  6.1850 -24.097  8.4950  9.7220  6.1850 
  3772.000 -34.507  8.9740  9.9430  6.3910 -24.442  8.9740  9.9430  6.3910 
  3772.500 -34.801  9.2660  10.407  6.5470 -24.735  9.2660  10.407  6.5470 
