~Version Information
VERS.                     2.0: CWLS log ASCII Standard Version 2.00
WRAP.                      NO: One line per depth step
~Well Information Block
#MNEM.UNIT                               Data Type  Information
#---------                               ---------  -----------
STRT.FT                                   540.0000:
STOP.FT                                  8500.0000:
STEP.FT                                     0.5000:
NULL.                 -999.25                     :
COMP.                                             :COMPANY            
WELL.     LLU 48-21                               :WELL               
FLD .                                             :FIELD              
CTRY.                                             :COUNTRY            
STAT.                                             :STATE              
LOC .                                             :LOCATION           
UWI .                                             :UNIQUE WELL ID     
SRVC.                                             :Service company    
DATE.                                             :LOG DATE           
~Curve Information
#MNEM.UNIT           API CODE  Curve Description
#---------           --------  -----------------
DEPT.FT                      :   1 DEPTH
SP  .MV                      :   2
AM16.OHMM                    :   3
AM64.OHMM                    :   4
LAT .OHMM                    :   5
SBL .MV                      :   6
RS  .OHMM                    :   7
RM  .OHMM                    :   8
RD  .OHMM                    :   9
~A
# ...
  2660.000 -32.624  2.6500  4.0100  4.6660 -15.673  2.6500  4.0100  4.6660 
  2660.500 -33.416  2.4770  4.0780  4.1990 -16.473  2.4770  4.0780  4.1990 
  2661.000 -34.530  2.4050  4.1990  3.7470 -17.595  2.4050  4.1990  3.7470 
  2661.500 -32.991  2.3970  4.2700  3.6100 -16.064  2.3970  4.2700  3.6100 
  2662.000 -31.847  2.3970  4.3120  3.5010 -14.929  2.3970  4.3120  3.5010 
  2662.500 -31.060  2.4320  4.3190  3.4080 -14.150  2.4320  4.3190  3.4080 
  2663.000 -32.713  2.4490  4.2390  3.2490 -15.811  2.4490  4.2390  3.2490 
  2663.500 -32.034  2.4670  4.1520  3.1270 -15.141  2.4670  4.1520  3.1270 
  2664.000 -31.106  2.5090  4.0660  3.2260 -14.221  2.5090  4.0660  3.2260 
  2664.500 -31.538  2.5520  3.9870  3.3330 -14.661  2.5520  3.9870  3.3330 
  2665.000 -33.405  2.5800  3.8710  3.4760 -16.536  2.5800  3.8710  3.4760 
  2665.500 -32.978  2.6150  3.8200  3.6910 -16.118  2.6150  3.8200  3.6910 
  2666.000 -32.122  2.6430  3.7840  3.8560 -15.270  2.6430  3.7840  3.8560 
  2666.500 -32.267  2.6720  3.7760  3.9980 -15.423  2.6720  3.7760  3.9980 
  2667.000 -32.377  2.6990  3.8040  4.0620 -15.541  2.6990  3.8040  4.0620 
  2667.500 -32.201  2.6990  3.8610  4.1050 -15.374  2.6990  3.8610  4.1050 
  2668.000 -31.917  2.6840  3.9250  4.0900 -15.098  2.6840  3.9250  4.0900 
  2668.500 -31.131  2.6480  3.9820  3.9390 -14.320  2.6480  3.9820  3.9390 
  2669.000 -30.165  2.5750  4.0500  3.6800 -13.363  2.5750  4.0500  3.6800 
  2669.500 -28.985  2.4810  4.1170  3.5360 -12.191  2.4810  4.1170  3.5360 
  2670.000 -29.275  2.4310  4.2310  3.3270 -12.489  2.4310  4.2310  3.3270 
  2670.500 -29.529  2.4230  4.2740  3.2190 -12.751  2.4230  4.2740  3.2190 
  2671.000 -29.496  2.4510  4.3170  3.1610 -12.727  2.4510  4.3170  3.1610 
  2671.500 -28.423  2.4650  4.3730  3.1720 -11.662  2.4650  4.3730  3.1720 
  2672.000 -28.749  2.5430  4.4230  3.1820 -11.996  2.5430  4.4230  3.1820 
  2672.500 -30.545  2.7430  4.4580  3.2810 -13.801  2.7430  4.4580  3.2810 
  2673.000 -32.232  2.8570  4.5500  3.3240 -15.496  2.8570  4.5500  3.3240 
  2673.500 -31.447  2.9220  4.5860  3.4740 -14.719  2.9220  4.5860  3.4740 
  2674.000 -30.983  3.1000  4.6360  3.7100 -14.263  3.1000  4.6360  3.7100 
  2674.500 -30.664  3.3150  4.6860  3.8890 -13.953  3.3150  4.6860  3.8890 
  2675.000 -30.560  3.4870  4.7710  4.1970 -13.857  3.4870  4.7710  4.1970 
  2675.500 -32.247  3.7520  4.8280  4.4330 -15.552  3.7520  4.8280  4.4330 
  2676.000 -33.290  3.9520  4.9060  4.6190 -16.604  3.9520  4.9060  4.6190 
  2676.500 -33.867  4.1200  4.9840  4.8190 -17.189  4.1200  4.9840  4.8190 
  2677.000 -35.375  4.2880  5.0550  5.0270 -18.705  4.2880  5.0550  5.0270 
  2677.500 -37.637  4.7110  5.1270  5.1550 -20.975  4.7110  5.1270  5.1550 
  2678.000 -40.007  4.9610  5.2690  5.3840 -23.354  4.9610  5.2690  5.3840 
  2678.500 -42.698  5.3480  5.2980  5.5420 -26.053  5.3480  5.2980  5.5420 
  2679.000 -45.534  5.6420  5.4400  5.7780 -28.897  5.6420  5.4400  5.7780 
  2679.500 -47.545  5.9850  5.5910  5.9420 -30.917  5.9850  5.5910  5.9420 
  2680.000 -47.943  6.2210  5.8550  6.0710 -31.323  6.2210  5.8550  6.0710 
  2680.500 -47.049  6.3070  6.0770  5.9480 -30.437  6.3070  6.0770  5.9480 
  2681.000 -46.478  6.3140  6.2420  5.7540 -29.874  6.3140  6.2420  5.7540 
  2681.500 -47.951  6.3490  6.3850  5.5600 -31.356  6.3490  6.3850  5.5600 
  2682.000 -48.241  6.5560  6.4770  5.4580 -31.654  6.5560  6.4770  5.4580 
  2682.500 -48.387  6.6270  6.5480  5.4510 -31.808  6.6270  6.5480  5.4510 
  2683.000 -47.852  6.6840  6.5700  5.4440 -31.282  6.6840  6.5700  5.4440 
  2683.500 -46.779  6.7120  6.6050  5.4930 -30.217  6.7120  6.6050  5.4930 
  2684.000 -46.567  6.7260  6.6330  5.5850 -30.013  6.7260  6.6330  5.5850 
  2684.500 -47.179  6.7690  6.6400  5.8500 -30.633  6.7690  6.6400  5.8500 
  2685.000 -49.083  6.7540  6.6170  5.9430 -32.546  6.7540  6.6170  5.9430 
  2685.500 -50.341  6.6810  6.5450  5.9140 -33.812  6.6810  6.5450  5.9140 
  2686.000 -51.598  6.5370  6.4150  5.8200 -35.077  6.5370  6.4150  5.8200 
  2686.500 -51.207  6.3790  6.2360  5.7260 -34.695  6.3790  6.2360  5.7260 
  2687.000 -47.768  6.1990  5.9690  5.7040 -31.264  6.1990  5.9690  5.7040 
  2687.500 -45.978  6.0840  5.7540  5.7970 -29.482  6.0840  5.7540  5.7970 
  2688.000 -45.818  5.8750  5.5020  5.9330 -29.330  5.8750  5.5020  5.9330 
  2688.500 -45.659  5.6730  5.2430  6.0320 -29.180  5.6730  5.2430  6.0320 
  2689.000 -45.270  5.4790  5.0850  6.0460 -28.799  5.4790  5.0850  6.0460 
  2689.500 -43.157  5.0770  5.0770  5.9590 -26.694  5.0770  5.0770  5.9590 
  2690.000 -41.510  4.5600  5.1120  5.6930 -25.056  4.5600  5.1120  5.6930 
  2690.500 -39.612  3.9710  5.1690  5.4200 -23.166  3.9710  5.1690  5.4200 
  2691.000 -37.715  3.6980  5.1970  4.9960 -21.277  3.6980  5.1970  4.9960 
  2691.500 -35.638  3.4820  5.2250  4.6590 -19.208  3.4820  5.2250  4.6590 
  2692.000 -32.414  3.3240  5.2610  4.2710 -15.993  3.3240  5.2610  4.2710 
  2692.500 -29.369  3.2940  5.2670  3.8900 -12.956  3.2940  5.2670  3.8900 
  2693.000 -27.149  3.3120  5.1160  3.5520 -10.744  3.3120  5.1160  3.5520 
  2693.500 -26.973  3.3290  4.8570  3.4940 -10.577  3.3290  4.8570  3.4940 
  2694.000 -27.083  3.3610  4.6550  3.8450 -10.695  3.3610  4.6550  3.8450 
  2694.500 -27.230  3.3930  4.5480  4.1530 -10.850  3.3930  4.5480  4.1530 
  2695.000 -28.021  3.4350  4.3960  4.4110 -11.649  3.4350  4.3960  4.4110 
  2695.500 -29.816  3.4780  4.2740  4.5960 -13.453  3.4780  4.2740  4.5960 
  2696.000 -31.110  3.5410  4.1870  4.7110 -14.755  3.5410  4.1870  4.7110 
  2696.500 -32.368  3.5620  4.1430  4.7100 -16.021  3.5620  4.1430  4.7100 
  2697.000 -34.666  3.5760  4.0780  4.6670 -18.328  3.5760  4.0780  4.6670 
  2697.500 -35.924  3.5330  4.0420  4.6300 -19.594  3.5330  4.0420  4.6300 
  2698.000 -35.568  3.3880  4.0270  4.6220 -19.246  3.3880  4.0270  4.6220 
  2698.500 -33.527  3.3090  4.0120  4.6360 -17.213  3.3090  4.0120  4.6360 
  2699.000 -31.235  3.2220  3.9610  4.6720 -14.930  3.2220  3.9610  4.6720 
  2699.500 -31.024  3.1140  3.9460  4.7280 -14.727  3.1140  3.9460  4.7280 
  2700.000 -30.703  3.0630  3.9240  4.8420 -14.414  3.0630  3.9240  4.8420 
  2700.500 -26.692  3.0130  3.9200  4.9280 -10.412  3.0130  3.9200  4.9280 
  2701.000 -27.630  2.8600  3.9150  5.0270 -11.358  2.8600  3.9150  5.0270 
  2701.500 -28.531  2.7810  3.9110  4.9540 -12.267  2.7810  3.9110  4.9540 
  2702.000 -29.790  2.6430  3.9060  4.7380 -13.534  2.6430  3.9060  4.7380 
  2702.500 -28.253  2.5420  3.9050  4.5860 -12.006  2.5420  3.9050  4.5860 
  2703.000 -28.438  2.4690  3.9110  4.4850 -12.199  2.4690  3.9110  4.4850 
  2703.500 -28.944  2.3820  3.9180  4.4050 -12.713  2.3820  3.9180  4.4050 
  2704.000 -30.168  2.3160  3.9310  4.3110 -13.946  2.3160  3.9310  4.3110 
  2704.500 -29.779  2.2220  3.9370  4.1160 -13.565  2.2220  3.9370  4.1160 
  2705.000 -29.891  2.2210  3.9430  3.9360 -13.685  2.2210  3.9430  3.9360 
  2705.500 -30.720  2.2770  3.9130  4.0060 -14.522  2.2770  3.9130  4.0060 
  2706.000 -31.908  2.2910  3.8480  4.0990 -15.719  2.2910  3.8480  4.0990 
  2706.500 -31.734  2.2680  3.7320  4.1770 -15.553  2.2680  3.7320  4.1770 
  2707.000 -29.839  2.2600  3.6660  4.2900 -13.666  2.2600  3.6660  4.2900 
  2707.500 -29.485  2.2810  3.6870  4.3750 -13.321  2.2810  3.6870  4.3750 
  2708.000 -30.278  2.2980  3.6930  4.4460 -14.122  2.2980  3.6930  4.4460 
  2708.500 -32.471  2.3150  3.7000  4.5030 -16.323  2.3150  3.7000  4.5030 
  2709.000 -34.770  2.3280  3.7270  4.5160 -18.630  2.3280  3.7270  4.5160 
  2709.500 -33.341  2.3120  3.7690  4.4900 -17.210  2.3120  3.7690  4.4900 
  2710.000 -33.345  2.3400  3.7960  4.4640 -17.222  2.3400  3.7960  4.4640 
  2710.500 -33.386  2.3610  3.8310  4.3400 -17.271  2.3610  3.8310  4.3400 
  2711.000 -33.247  2.3960  3.8590  4.3180 -17.140  2.3960  3.8590  4.3180 
  2711.500 -34.794  2.4730  3.8800  4.2810 -18.696  2.4730  3.8800  4.2810 
  2712.000 -35.803  2.5940  3.8640  4.2440 -19.713  2.5940  3.8640  4.2440 
  2712.500 -34.984  2.6720  3.7700  4.2150 -18.902  2.6720  3.7700  4.2150 
