~Version Information
VERS.                     2.0: CWLS log ASCII Standard Version 2.00
WRAP.                      NO: One line per depth step
~Well Information Block
#MNEM.UNIT                               Data Type  Information
#---------                               ---------  -----------
STRT.FT                                   510.0000:
STOP.FT                                  7204.0000:
STEP.FT                                     0.5000:
NULL.                 -999.25                     :
COMP.                                             :COMPANY            
WELL.     LLU 41-28                               :WELL               
FLD .                                             :FIELD              
CTRY.                                             :COUNTRY            
STAT.                                             :STATE              
LOC .                                             :LOCATION           
UWI .                                             :UNIQUE WELL ID     
SRVC.                                             :Service company    
DATE.                                             :LOG DATE           
~Curve Information
#MNEM.UNIT           API CODE  Curve Description
#---------           --------  -----------------
DEPT.FT                      :   1 DEPTH
SP  .MV                      :   2
AM16.OHMM                    :   3
AO10.OHMM                    :   4
AO19.OHMM                    :   5
SBL .MV                      :   6
RS  .OHMM                    :   7
RM  .OHMM                    :   8
RD  .OHMM                    :   9
~A
# ...
  3584.000 -29.140  7.2050  11.367  8.6400 -16.831  7.2050  11.367  8.6400 
  3584.500 -23.388  5.9290  11.374  8.5910 -11.080  5.9290  11.374  8.5910 
  3585.000 -21.285  5.1640  10.545  8.2170 -8.9786  5.1640  10.545  8.2170 
  3585.500 -20.121  4.7600  7.9410  7.2010 -7.8161  4.7600  7.9410  7.2010 
  3586.000 -19.535  4.3710  7.2770  5.6440 -7.2316  4.3710  7.2770  5.6440 
  3586.500 -19.202  4.1620  6.5130  5.2190 -6.9002  4.1620  6.5130  5.2190 
  3587.000 -19.988  4.0680  6.1090  5.0320 -7.6877  4.0680  6.1090  5.0320 
  3587.500 -20.486  4.0320  5.9720  4.8820 -8.1872  4.0320  5.9720  4.8820 
  3588.000 -20.803  4.0170  5.7480  5.0130 -8.5057  4.0170  5.7480  5.0130 
  3588.500 -20.072  4.0170  5.5680  5.1000 -7.7763  4.0170  5.5680  5.1000 
  3589.000 -19.270  4.0390  5.4310  5.1150 -6.9758  4.0390  5.4310  5.1150 
  3589.500 -18.575  4.1400  5.3520  5.0590 -6.2823  4.1400  5.3520  5.0590 
  3590.000 -19.037  4.2770  5.4670  5.1530 -6.7458  4.2770  5.4670  5.1530 
  3590.500 -19.426  4.4140  5.8200  5.3560 -7.1364  4.4140  5.8200  5.3560 
  3591.000 -19.707  4.5730  6.0870  5.5160 -7.4189  4.5730  6.0870  5.5160 
  3591.500 -19.735  4.7460  6.3110  5.7550 -7.4484  4.7460  6.3110  5.7550 
  3592.000 -20.052  4.8610  6.4330  5.9500 -7.7669  4.8610  6.4330  5.9500 
  3592.500 -20.838  4.9040  6.5270  6.0560 -8.5545  4.9040  6.5270  6.0560 
  3593.000 -21.480  4.9480  6.6280  6.1610 -9.1980  4.9480  6.6280  6.1610 
  3593.500 -21.906  4.9260  6.7150  6.3140 -9.6255  4.9260  6.7150  6.3140 
  3594.000 -22.150  4.7530  6.7510  6.3360 -9.8710  4.7530  6.7510  6.3360 
  3594.500 -22.431  4.4790  6.7870  6.3590 -10.154  4.4790  6.7870  6.3590 
  3595.000 -21.773  4.1620  6.7290  6.3600 -9.4971  4.1620  6.7290  6.3600 
  3595.500 -18.333  4.0390  6.4770  6.2880 -6.0586  4.0390  6.4770  6.2880 
  3596.000 -17.386  3.8730  5.8780  6.1740 -5.1131  3.8730  5.8780  6.1740 
  3596.500 -16.764  3.7430  5.1280  5.9580 -4.4927  3.7430  5.1280  5.9580 
  3597.000 -16.033  3.6860  4.8900  5.6920 -3.7632  3.6860  4.8900  5.6920 
  3597.500 -15.881  3.6420  4.6450  5.5200 -3.6127  3.6420  4.6450  5.5200 
  3598.000 -16.071  3.6280  4.5080  5.4060 -3.8042  3.6280  4.5080  5.4060 
  3598.500 -16.262  3.6780  4.3270  5.2120 -3.9968  3.6780  4.3270  5.2120 
  3599.000 -16.542  3.8080  4.2480  5.0830 -4.2783  3.8080  4.2480  5.0830 
  3599.500 -16.679  3.9340  4.1900  5.1340 -4.4168  3.9340  4.1900  5.1340 
  3600.000 -17.032  4.0610  4.1760  5.1450 -4.7713  4.0610  4.1760  5.1450 
  3600.500 -17.580  4.7020  4.1830  5.1560 -5.3209  4.7020  4.1830  5.1560 
  3601.000 -18.489  4.9680  4.2830  5.2770 -6.2314  4.9680  4.2830  5.2770 
  3601.500 -19.507  5.3360  4.5930  5.5280 -7.2509  5.3360  4.5930  5.5280 
  3602.000 -21.536  5.8180  5.1190  5.9090 -9.2814  5.8180  5.1190  5.9090 
  3602.500 -25.191  6.2870  5.4430  6.4200 -12.938  6.2870  5.4430  6.4200 
  3603.000 -28.918  6.7690  5.8530  6.8230 -16.666  6.7690  5.8530  6.8230 
  3603.500 -32.284  7.1800  6.0260  7.0740 -20.034  7.1800  6.0260  7.0740 
  3604.000 -34.638  7.3520  6.1840  7.2670 -22.390  7.3520  6.1840  7.2670 
  3604.500 -36.053  7.5540  6.3200  7.3960 -23.806  7.5540  6.3200  7.3960 
  3605.000 -36.674  7.6690  6.4500  7.4810 -24.429  7.6690  6.4500  7.4810 
  3605.500 -36.969  7.7980  6.5500  7.4830 -24.725  7.7980  6.5500  7.4830 
  3606.000 -36.903  7.9270  6.5930  7.4860 -24.661  7.9270  6.5930  7.4860 
  3606.500 -36.837  8.0280  6.6570  7.4410 -24.596  8.0280  6.6570  7.4410 
  3607.000 -36.482  8.0920  6.6860  7.4110 -24.243  8.0920  6.6860  7.4110 
  3607.500 -36.344  8.1060  6.5770  7.3590 -24.106  8.1060  6.5770  7.3590 
  3608.000 -35.989  8.0760  6.5260  7.3220 -23.753  8.0760  6.5260  7.3220 
  3608.500 -35.706  7.9890  6.4820  7.2850 -23.471  7.9890  6.4820  7.2850 
  3609.000 -35.279  7.6930  6.4890  7.2040 -23.046  7.6930  6.4890  7.2040 
  3609.500 -34.455  7.3250  6.5030  7.1450 -22.223  7.3250  6.5030  7.1450 
  3610.000 -32.980  6.4800  6.5020  7.1080 -20.750  6.4800  6.5020  7.1080 
  3610.500 -30.241  5.7800  6.3360  7.0420 -18.012  5.7800  6.3360  7.0420 
  3611.000 -25.660  5.3180  5.9600  6.6800 -13.433  5.3180  5.9600  6.6800 
  3611.500 -21.476  4.9710  5.4400  5.9500 -9.2504  4.9710  5.4400  5.9500 
  3612.000 -21.193  4.6390  4.9560  5.1770 -8.9689  4.6390  4.9560  5.1770 
  3612.500 -20.874  4.3640  4.6820  4.9160 -8.6514  4.3640  4.6820  4.9160 
  3613.000 -20.194  4.2850  4.6020  4.6700 -7.9730  4.2850  4.6020  4.6700 
  3613.500 -19.659  4.2480  4.5650  4.5530 -7.4395  4.2480  4.5650  4.5530 
  3614.000 -19.304  4.2550  4.5790  4.3930 -7.0860  4.2550  4.5790  4.3930 
  3614.500 -19.166  4.3770  4.6510  4.2980 -6.9495  4.3770  4.6510  4.2980 
  3615.000 -19.172  4.5560  4.7150  4.3180 -6.9571  4.5560  4.7150  4.3180 
  3615.500 -24.741  4.7220  4.9960  4.4900 -12.528  4.7220  4.9960  4.4900 
  3616.000 -27.926  4.8370  5.2770  4.6150 -15.714  4.8370  5.2770  4.6150 
  3616.500 -29.414  4.8870  5.7880  4.7400 -17.204  4.8870  5.7880  4.7400 
  3617.000 -30.323  4.9360  6.1410  4.9700 -18.114  4.9360  6.1410  4.9700 
  3617.500 -30.727  4.9580  6.3930  5.0330 -18.520  4.9580  6.3930  5.0330 
  3618.000 -30.842  4.8060  6.4790  5.1190 -18.636  4.8060  6.4790  5.1190 
  3618.500 -30.053  4.5240  6.5430  5.1610 -17.849  4.5240  6.5430  5.1610 
  3619.000 -27.748  4.1630  6.5720  5.1590 -15.545  4.1630  6.5720  5.1590 
  3619.500 -18.470  3.9530  6.5130  5.1440 -6.2688  3.9530  6.5130  5.1440 
  3620.000 -17.537  3.8370  6.2600  5.0410 -5.3373  3.8370  6.2600  5.0410 
  3620.500 -17.101  3.6860  5.6120  4.4860 -4.9028  3.6860  5.6120  4.4860 
  3621.000 -16.701  3.5790  5.0860  4.0020 -4.5044  3.5790  5.0860  4.0020 
  3621.500 -16.626  3.5070  4.9210  3.9080 -4.4309  3.5070  4.9210  3.9080 
  3622.000 -16.732  3.5010  4.8140  3.8280 -4.5384  3.5010  4.8140  3.8280 
  3622.500 -17.054  3.5020  4.7570  3.8050 -4.8619  3.5020  4.7570  3.8050 
  3623.000 -17.268  3.5200  4.7140  4.0210 -5.0775  3.5200  4.7140  4.0210 
  3623.500 -17.518  3.5390  4.6970  4.1580 -5.3290  3.5390  4.6970  4.1580 
  3624.000 -17.697  3.6590  4.6790  4.3660 -5.5095  3.6590  4.6790  4.3660 
  3624.500 -17.947  3.7790  4.6010  4.4890 -5.7610  3.7790  4.6010  4.4890 
  3625.000 -18.016  3.9090  4.5650  4.5930 -5.8315  3.9090  4.5650  4.5930 
  3625.500 -17.905  3.9640  4.5520  4.6970 -5.7221  3.9640  4.5520  4.6970 
  3626.000 -17.794  4.0190  4.6030  4.8220 -5.6126  4.0190  4.6030  4.8220 
  3626.500 -17.864  4.0770  4.6870  4.9480 -5.6841  4.0770  4.6870  4.9480 
  3627.000 -17.933  4.1140  4.7700  5.0630 -5.7546  4.1140  4.7700  5.0630 
  3627.500 -17.641  4.1150  4.9220  5.1780 -5.4642  4.1150  4.9220  5.1780 
  3628.000 -17.241  4.0940  5.0240  5.2600 -5.0657  4.0940  5.0240  5.2600 
  3628.500 -16.986  4.0010  5.0680  5.3420 -4.8122  4.0010  5.0680  5.3420 
  3629.000 -16.694  3.8720  5.0830  5.2340 -4.5217  3.8720  5.0830  5.2340 
  3629.500 -16.402  3.6990  5.0770  5.1750 -4.2313  3.6990  5.0770  5.1750 
  3630.000 -16.219  3.6280  5.0780  5.0780 -4.0498  3.6280  5.0780  5.0780 
  3630.500 -16.108  3.5930  4.7100  4.9800 -3.9403  3.5930  4.7100  4.9800 
  3631.000 -15.997  3.6150  4.4080  4.8350 -3.8308  3.6150  4.4080  4.8350 
  3631.500 -16.175  3.8250  4.2650  4.8990 -4.0104  3.8250  4.2650  4.8990 
  3632.000 -16.714  3.9700  4.1860  5.0930 -4.5509  3.9700  4.1860  5.0930 
  3632.500 -17.361  4.0790  4.3240  5.2590 -5.1994  4.0790  4.3240  5.2590 
  3633.000 -18.117  4.1880  4.5410  5.3160 -5.9569  4.1880  4.5410  5.3160 
  3633.500 -18.584  4.2030  4.6860  5.3880 -6.4255  4.2030  4.6860  5.3880 
  3634.000 -18.979  4.1890  4.8600  5.4300 -6.8220  4.1890  4.8600  5.4300 
  3634.500 -18.506  4.1610  4.9470  5.3790 -6.3505  4.1610  4.9470  5.3790 
  3635.000 -18.143  4.1040  4.9690  5.3140 -5.9890  4.1040  4.9690  5.3140 
  3635.500 -17.706  3.9390  4.8840  5.2480 -5.5536  3.9390  4.8840  5.2480 
  3636.000 -17.342  3.7090  4.7260  4.9520 -5.1911  3.7090  4.7260  4.9520 
  3636.500 -17.141  3.6010  4.5100  4.8430 -4.9916  3.6010  4.5100  4.8430 
