~Version Information
VERS.                     2.0: CWLS log ASCII Standard Version 2.00
WRAP.                      NO: One line per depth step
~Well Information Block
#MNEM.UNIT                               Data Type  Information
#---------                               ---------  -----------
STRT.FT                                   510.0000:
STOP.FT                                  7204.0000:
STEP.FT                                     0.5000:
NULL.                 -999.25                     :
COMP.                                             :COMPANY            
WELL.     LLU 41-28                               :WELL               
FLD .                                             :FIELD              
CTRY.                                             :COUNTRY            
STAT.                                             :STATE              
LOC .                                             :LOCATION           
UWI .                                             :UNIQUE WELL ID     
SRVC.                                             :Service company    
DATE.                                             :LOG DATE           
~Curve Information
#MNEM.UNIT           API CODE  Curve Description
#---------           --------  -----------------
DEPT.FT                      :   1 DEPTH
SP  .MV                      :   2
AM16.OHMM                    :   3
AO10.OHMM                    :   4
AO19.OHMM                    :   5
SBL .MV                      :   6
RS  .OHMM                    :   7
RM  .OHMM                    :   8
RD  .OHMM                    :   9
~A
# ...
  4061.000 -52.605  8.2850  6.2390  5.0210 -41.750  8.2850  6.2390  5.0210 
  4061.500 -53.073  8.3210  6.3110  5.1220 -42.219  8.3210  6.3110  5.1220 
  4062.000 -52.820  8.3070  6.4190  5.2010 -41.968  8.3070  6.4190  5.2010 
  4062.500 -52.061  8.1920  6.4450  5.2580 -41.210  8.1920  6.4450  5.2580 
  4063.000 -51.302  7.9180  6.4700  5.2870 -40.453  7.9180  6.4700  5.2870 
  4063.500 -48.666  7.2690  6.4190  5.3010 -37.818  7.2690  6.4190  5.3010 
  4064.000 -45.092  6.5270  6.3330  5.3080 -34.246  6.5270  6.3330  5.3080 
  4064.500 -40.868  5.9150  5.8570  5.1210 -30.023  5.9150  5.8570  5.1210 
  4065.000 -38.305  5.3820  5.4180  4.8470 -27.462  5.3820  5.4180  4.8470 
  4065.500 -37.185  4.9140  5.0220  4.6810 -26.344  4.9140  5.0220  4.6810 
  4066.000 -36.570  4.6830  4.7260  4.5370 -25.730  4.6830  4.7260  4.5370 
  4066.500 -37.508  4.5240  4.4740  4.2700 -26.670  4.5240  4.4740  4.2700 
  4067.000 -38.373  4.4960  4.3590  4.1690 -27.536  4.4960  4.3590  4.1690 
  4067.500 -38.878  4.5390  4.2440  4.1900 -28.043  4.5390  4.2440  4.1900 
  4068.000 -37.866  4.5820  4.1710  4.2660 -27.032  4.5820  4.1710  4.2660 
  4068.500 -37.252  4.6830  4.1860  4.3410 -26.420  4.6830  4.1860  4.3410 
  4069.000 -38.370  4.7840  4.2000  4.5000 -27.539  4.7840  4.2000  4.5000 
  4069.500 -40.318  5.3960  4.4240  4.7080 -29.489  5.3960  4.4240  4.7080 
  4070.000 -41.652  5.7200  4.6470  4.7730 -30.824  5.7200  4.6470  4.7730 
  4070.500 -43.167  5.9290  4.8200  4.9310 -32.341  5.9290  4.8200  4.9310 
  4071.000 -45.007  6.1820  4.9640  5.0390 -34.182  6.1820  4.9640  5.0390 
  4071.500 -46.920  6.5490  5.0680  5.1830 -36.097  6.5490  5.0680  5.1830 
  4072.000 -47.749  6.7150  5.1730  5.2480 -36.927  6.7150  5.1730  5.2480 
  4072.500 -49.372  6.8800  5.2590  5.3560 -38.552  6.8800  5.2590  5.3560 
  4073.000 -50.021  7.1400  5.3460  5.2550 -39.202  7.1400  5.3460  5.2550 
  4073.500 -50.994  7.3410  5.4390  5.1750 -40.177  7.3410  5.4390  5.1750 
  4074.000 -52.473  7.4500  5.4830  5.0990 -41.657  7.4500  5.4830  5.0990 
  4074.500 -53.375  7.6440  5.5120  5.0240 -42.561  7.6440  5.5120  5.0240 
  4075.000 -54.168  7.7950  5.5400  4.9150 -43.355  7.7950  5.5400  4.9150 
  4075.500 -55.142  7.9470  5.4610  4.8500 -44.331  7.9470  5.4610  4.8500 
  4076.000 -55.574  8.0620  5.3530  4.9440 -44.765  8.0620  5.3530  4.9440 
  4076.500 -55.825  8.1770  5.2810  5.0080 -45.017  8.1770  5.2810  5.0080 
  4077.000 -55.319  8.2420  5.3240  5.0730 -44.513  8.2420  5.3240  5.0730 
  4077.500 -54.777  8.2490  5.3600  5.2600 -43.972  8.2490  5.3600  5.2600 
  4078.000 -53.332  8.1120  5.3890  5.3390 -42.529  8.1120  5.3890  5.3390 
  4078.500 -50.516  7.5070  5.4390  5.3610 -39.714  7.5070  5.4390  5.3610 
  4079.000 -47.231  5.8930  5.4900  5.3820 -36.431  5.8930  5.4900  5.3820 
  4079.500 -45.317  5.6630  5.4970  5.3600 -34.518  5.6630  5.4970  5.3600 
  4080.000 -43.006  5.5190  5.1510  5.2740 -32.209  5.5190  5.1510  5.2740 
  4080.500 -42.464  5.5400  4.9350  5.0210 -31.668  5.5400  4.9350  5.0210 
  4081.000 -42.932  6.0150  4.6240  4.6820 -32.138  6.0150  4.6240  4.6820 
  4081.500 -43.545  7.0160  4.5080  4.5520 -32.752  7.0160  4.5080  4.5520 
  4082.000 -45.385  7.7140  4.5010  4.6450 -34.594  7.7140  4.5010  4.6450 
  4082.500 -48.813  8.3400  4.5870  4.8240 -38.023  8.3400  4.5870  4.8240 
  4083.000 -50.797  8.5770  4.8600  5.2710 -40.009  8.5770  4.8600  5.2710 
  4083.500 -52.492  8.6920  5.2270  5.4640 -41.705  8.6920  5.2270  5.4640 
  4084.000 -53.394  8.7640  5.4500  5.5720 -42.609  8.7640  5.4500  5.5720 
  4084.500 -52.996  8.7270  5.5640  5.5930 -42.212  8.7270  5.5640  5.5930 
  4085.000 -49.025  8.4100  5.7220  5.5710 -38.243  8.4100  5.7220  5.5710 
  4085.500 -42.527  7.8250  5.8370  5.4770 -31.747  7.8250  5.8370  5.4770 
  4086.000 -39.061  6.4630  5.8800  5.2530 -28.282  6.4630  5.8800  5.2530 
  4086.500 -36.714  5.2600  5.8860  5.0000 -25.937  5.2600  5.8860  5.0000 
  4087.000 -35.089  4.8270  5.1870  4.6900 -24.313  4.8270  5.1870  4.6900 
  4087.500 -32.886  4.5670  4.6680  4.4300 -22.112  4.5670  4.6680  4.4300 
  4088.000 -30.828  4.2780  4.4290  3.9540 -20.055  4.2780  4.4290  3.9540 
  4088.500 -30.069  4.0970  4.2920  3.6940 -19.298  4.0970  4.2920  3.6940 
  4089.000 -29.274  3.9310  4.1190  3.5350 -18.504  3.9310  4.1190  3.5350 
  4089.500 -27.829  3.8370  3.9880  3.4410 -17.061  3.8370  3.9880  3.4410 
  4090.000 -26.709  3.7930  3.9010  3.3100 -15.942  3.7930  3.9010  3.3100 
  4090.500 -25.698  3.7710  3.8140  3.2670 -14.933  3.7710  3.8140  3.2670 
  4091.000 -24.903  3.7200  3.6980  3.2520 -14.139  3.7200  3.6980  3.2520 
  4091.500 -24.000  3.6910  3.6730  3.2370 -13.238  3.6910  3.6730  3.2370 
  4092.000 -23.494  3.6400  3.6470  3.2000 -12.733  3.6400  3.6470  3.2000 
  4092.500 -23.096  3.6030  3.6820  3.1920 -12.337  3.6030  3.6820  3.1920 
  4093.000 -23.131  4.0570  3.8690  3.3870 -12.373  4.0570  3.8690  3.3870 
  4093.500 -23.924  4.1570  4.0490  3.8610 -13.168  4.1570  4.0490  3.8610 
  4094.000 -25.006  4.2500  4.3440  4.1060 -14.251  4.2500  4.3440  4.1060 
  4094.500 -28.109  4.3140  4.6600  4.2350 -17.356  4.3140  4.6600  4.2350 
  4095.000 -30.563  4.3430  4.8760  4.3640 -19.811  4.3430  4.8760  4.3640 
  4095.500 -31.644  4.3200  5.0620  4.5650 -20.894  4.3200  5.0620  4.5650 
  4096.000 -30.525  4.0390  5.1630  4.5940 -19.777  4.0390  5.1630  4.5940 
  4096.500 -28.972  3.7500  5.2990  4.4990 -18.225  3.7500  5.2990  4.4990 
  4097.000 -20.669  3.5120  5.3990  4.1670 -9.9236  3.5120  5.3990  4.1670 
  4097.500 -19.297  3.2520  5.2330  3.7130 -8.5531  3.2520  5.2330  3.7130 
  4098.000 -18.935  3.0350  4.7790  3.4460 -8.1926  3.0350  4.7790  3.4460 
  4098.500 -18.284  2.8470  4.4110  3.2870 -7.5431  2.8470  4.4110  3.2870 
  4099.000 -17.923  2.7170  4.0210  3.0850 -7.1837  2.7170  4.0210  3.0850 
  4099.500 -17.723  2.6880  3.6240  2.9260 -6.9852  2.6880  3.6240  2.9260 
  4100.000 -17.523  2.7090  3.3070  2.8530 -6.7867  2.7090  3.3070  2.8530 
  4100.500 -17.165  2.8750  3.1630  2.8750 -6.4302  2.8750  3.1630  2.8750 
  4101.000 -18.251  3.0990  3.0630  3.2500 -7.5178  3.0990  3.0630  3.2500 
  4101.500 -20.347  3.5030  3.2650  3.5670 -9.6153  3.5030  3.2650  3.5670 
  4102.000 -22.912  3.9570  3.6470  3.8620 -12.182  3.9570  3.6470  3.8620 
  4102.500 -27.643  4.3100  3.8560  4.1080 -16.914  4.3100  3.8560  4.1080 
  4103.000 -29.234  4.4690  4.0800  4.2880 -18.507  4.4690  4.0800  4.2880 
  4103.500 -30.464  4.6280  4.0980  4.4680 -19.738  4.6280  4.0980  4.4680 
  4104.000 -31.225  4.6640  4.1170  4.4540 -20.501  4.6640  4.1170  4.4540 
  4104.500 -30.542  4.6860  4.2320  4.4040 -19.819  4.6860  4.2320  4.4040 
  4105.000 -30.039  4.7010  4.2830  4.3820 -19.318  4.7010  4.2830  4.3820 
  4105.500 -29.645  4.6800  4.3630  4.4620 -18.925  4.6800  4.3630  4.4620 
  4106.000 -31.380  4.6800  4.4350  4.6490 -20.662  4.6800  4.4350  4.6490 
  4106.500 -32.105  4.6520  4.4790  4.6850 -21.389  4.6520  4.4790  4.6850 
  4107.000 -32.793  4.6160  4.5220  4.6710 -22.078  4.6160  4.5220  4.6710 
  4107.500 -30.919  4.5800  4.5080  4.6500 -20.206  4.5800  4.5080  4.6500 
  4108.000 -29.622  4.4730  4.3000  4.6070 -18.910  4.4730  4.3000  4.6070 
  4108.500 -28.542  4.4080  4.1920  4.5350 -17.832  4.4080  4.1920  4.5350 
  4109.000 -28.978  4.3000  4.0190  4.4700 -18.269  4.3000  4.0190  4.4700 
  4109.500 -29.053  4.1420  3.8690  4.2970 -18.346  4.1420  3.8690  4.2970 
  4110.000 -25.266  3.8540  3.6670  4.1390 -14.560  3.8540  3.6670  4.1390 
  4110.500 -23.464  3.7400  3.4590  4.0170 -12.760  3.7400  3.4590  4.0170 
  4111.000 -21.951  3.5530  3.3080  3.9520 -11.248  3.5530  3.3080  3.9520 
  4111.500 -21.051  3.2940  3.1640  3.6930 -10.350  3.2940  3.1640  3.6930 
  4112.000 -20.368  3.2800  3.0780  3.4550 -9.6683  3.2800  3.0780  3.4550 
  4112.500 -19.901  3.3020  2.9920  3.3400 -9.2028  3.3020  2.9920  3.3400 
  4113.000 -19.543  3.3240  3.0390  3.2180 -8.8464  3.3240  3.0390  3.2180 
  4113.500 -19.401  3.3530  3.0860  3.1600 -8.7059  3.3530  3.0860  3.1600 
