~Version Information
VERS.                     2.0: CWLS log ASCII Standard Version 2.00
WRAP.                      NO: One line per depth step
~Well Information Block
#MNEM.UNIT                               Data Type  Information
#---------                               ---------  -----------
STRT.FT                                   540.0000:
STOP.FT                                  8500.0000:
STEP.FT                                     0.5000:
NULL.                 -999.25                     :
COMP.                                             :COMPANY            
WELL.     LLU 48-21                               :WELL               
FLD .                                             :FIELD              
CTRY.                                             :COUNTRY            
STAT.                                             :STATE              
LOC .                                             :LOCATION           
UWI .                                             :UNIQUE WELL ID     
SRVC.                                             :Service company    
DATE.                                             :LOG DATE           
~Curve Information
#MNEM.UNIT           API CODE  Curve Description
#---------           --------  -----------------
DEPT.FT                      :   1 DEPTH
SP  .MV                      :   2
AM16.OHMM                    :   3
AM64.OHMM                    :   4
LAT .OHMM                    :   5
SBL .MV                      :   6
RS  .OHMM                    :   7
RM  .OHMM                    :   8
RD  .OHMM                    :   9
~A
# ...
  5787.000 -28.799  3.8260  4.2770  3.3460 -16.071  3.8260  4.2770  3.3460 
  5787.500 -29.051  3.8470  4.2910  3.3600 -16.323  3.8470  4.2910  3.3600 
  5788.000 -28.909  3.8900  4.2980  3.4530 -16.180  3.8900  4.2980  3.4530 
  5788.500 -28.661  3.9970  4.2760  3.6320 -15.931  3.9970  4.2760  3.6320 
  5789.000 -28.591  4.1750  4.1900  3.8890 -15.861  4.1750  4.1900  3.8890 
  5789.500 -28.628  4.4830  4.0460  4.1180 -15.897  4.4830  4.0460  4.1180 
  5790.000 -28.845  4.7980  3.6520  5.1490 -16.113  4.7980  3.6520  5.1490 
  5790.500 -29.241  5.0770  3.2860  6.0220 -16.509  5.0770  3.2860  6.0220 
  5791.000 -30.173  5.2910  3.0000  6.9380 -17.440  5.2910  3.0000  6.9380 
  5791.500 -33.253  5.4050  2.9060  7.6390 -20.519  5.4050  2.9060  7.6390 
  5792.000 -34.114  5.4410  2.9270  7.9830 -21.380  5.4410  2.9270  7.9830 
  5792.500 -34.617  5.4120  3.0060  7.9540 -21.882  5.4120  3.0060  7.9540 
  5793.000 -34.779  5.3830  3.1410  7.7310 -22.043  5.3830  3.1410  7.7310 
  5793.500 -34.941  5.2820  3.3840  7.3230 -22.205  5.2820  3.3840  7.3230 
  5794.000 -35.338  5.0380  3.7640  6.5710 -22.601  5.0380  3.7640  6.5710 
  5794.500 -35.411  4.7940  4.2290  5.8610 -22.673  4.7940  4.2290  5.8610 
  5795.000 -35.520  4.6080  4.4070  5.3240 -22.782  4.6080  4.4070  5.3240 
  5795.500 -35.701  4.5720  4.4500  4.5860 -22.962  4.5720  4.4500  4.5860 
  5796.000 -36.240  4.5930  4.4640  3.4110 -23.500  4.5930  4.4640  3.4110 
  5796.500 -36.814  4.6070  4.4350  3.0170 -24.074  4.6070  4.4350  3.0170 
  5797.000 -37.317  4.6210  4.3770  2.7160 -24.576  4.6210  4.3770  2.7160 
  5797.500 -38.071  4.6710  4.3200  2.5370 -25.329  4.6710  4.3200  2.5370 
  5798.000 -38.466  4.7270  4.2190  2.3860 -25.724  4.7270  4.2190  2.3860 
  5798.500 -38.933  4.8060  4.1180  2.2570 -26.190  4.8060  4.1180  2.2570 
  5799.000 -39.472  4.8770  3.9750  2.2280 -26.728  4.8770  3.9750  2.2280 
  5799.500 -39.831  4.9340  3.8240  2.2560 -27.087  4.9340  3.8240  2.2560 
  5800.000 -39.941  4.9700  3.6520  2.2840 -27.196  4.9700  3.6520  2.2840 
  5800.500 -40.015  4.9830  3.5150  2.3120 -27.270  4.9830  3.5150  2.3120 
  5801.000 -39.766  4.9690  3.4580  2.3480 -27.020  4.9690  3.4580  2.3480 
  5801.500 -39.053  4.7530  3.4930  2.3690 -26.306  4.7530  3.4930  2.3690 
  5802.000 -38.018  4.4160  3.5280  2.3610 -25.271  4.4160  3.5280  2.3610 
  5802.500 -36.517  4.0000  3.5850  2.3390 -23.769  4.0000  3.5850  2.3390 
  5803.000 -34.658  3.5420  3.6270  2.2810 -21.909  3.5420  3.6270  2.2810 
  5803.500 -32.513  3.2830  3.6630  2.1300 -19.764  3.2830  3.6630  2.1300 
  5804.000 -30.833  3.1040  3.7050  1.9720 -18.083  3.1040  3.7050  1.9720 
  5804.500 -29.296  2.9670  3.7480  1.8640 -16.545  2.9670  3.7480  1.8640 
  5805.000 -28.153  2.8590  3.7690  1.8070 -15.402  2.8590  3.7690  1.8070 
  5805.500 -28.729  2.8090  3.7830  1.8060 -15.977  2.8090  3.7830  1.8060 
  5806.000 -28.516  2.8150  3.7320  1.8630 -15.763  2.8150  3.7320  1.8630 
  5806.500 -28.054  2.8650  3.6600  1.9550 -15.301  2.8650  3.6600  1.9550 
  5807.000 -27.734  2.9580  3.5590  2.1200 -14.980  2.9580  3.5590  2.1200 
  5807.500 -27.593  3.2080  3.4800  2.3560 -14.838  3.2080  3.4800  2.3560 
  5808.000 -28.061  3.5220  3.4290  2.5630 -15.306  3.5220  3.4290  2.5630 
  5808.500 -29.781  3.7720  3.3640  2.8200 -17.025  3.7720  3.3640  2.8200 
  5809.000 -32.361  3.8220  3.2850  3.0990 -19.604  3.8220  3.2850  3.0990 
  5809.500 -33.616  3.7860  3.2630  3.3270 -20.859  3.7860  3.2630  3.3270 
  5810.000 -33.941  3.7600  3.2980  3.6920 -21.183  3.7600  3.2980  3.6920 
  5810.500 -34.158  3.7350  3.3410  3.9780 -21.399  3.7350  3.3410  3.9780 
  5811.000 -34.196  3.7050  3.3900  4.1350 -21.437  3.7050  3.3900  4.1350 
  5811.500 -34.270  3.7050  3.4540  4.1850 -21.510  3.7050  3.4540  4.1850 
  5812.000 -34.380  3.7400  3.5040  4.2340 -21.619  3.7400  3.5040  4.2340 
  5812.500 -34.633  3.9760  3.5320  4.2550 -21.872  3.9760  3.5320  4.2550 
  5813.000 -35.101  4.3980  3.5600  4.2050 -22.339  4.3980  3.5600  4.2050 
  5813.500 -35.962  4.4830  3.6450  4.0970 -23.199  4.4830  3.6450  4.0970 
  5814.000 -37.325  4.5330  3.6880  3.9320 -24.562  4.5330  3.6880  3.9320 
  5814.500 -38.830  4.5320  3.7950  3.8020 -26.066  4.5320  3.7950  3.8020 
  5815.000 -40.730  4.5390  3.9090  3.6370 -27.965  4.5390  3.9090  3.6370 
  5815.500 -42.057  4.5530  4.0020  3.5650 -29.292  4.5530  4.0020  3.5650 
  5816.000 -43.347  4.6460  4.0510  3.5070 -30.581  4.6460  4.0510  3.5070 
  5816.500 -44.460  4.7380  4.0580  3.4630 -31.693  4.7380  4.0580  3.4630 
  5817.000 -45.106  4.8670  4.0570  3.4270 -32.339  4.8670  4.0570  3.4270 
  5817.500 -45.502  4.9520  4.0570  3.4120 -32.734  4.9520  4.0570  3.4120 
  5818.000 -46.078  5.0380  4.0630  3.3830 -33.309  5.0380  4.0630  3.3830 
  5818.500 -46.402  5.1520  4.0700  3.3680 -33.633  5.1520  4.0700  3.3680 
  5819.000 -46.727  5.2150  4.0770  3.3460 -33.957  5.2150  4.0770  3.3460 
  5819.500 -47.051  5.1860  4.0840  3.3240 -34.280  5.1860  4.0840  3.3240 
  5820.000 -47.376  5.1210  4.1010  3.2950 -34.605  5.1210  4.1010  3.2950 
  5820.500 -47.665  5.0130  4.1190  3.2660 -34.893  5.0130  4.1190  3.2660 
  5821.000 -47.918  4.9630  4.1460  3.2150 -35.145  4.9630  4.1460  3.2150 
  5821.500 -48.278  4.9550  4.1600  3.1860 -35.505  4.9550  4.1600  3.1860 
  5822.000 -48.746  5.0480  4.1950  3.2150 -35.972  5.0480  4.1950  3.2150 
  5822.500 -49.249  5.2120  4.2170  3.3140 -36.474  5.2120  4.2170  3.3140 
  5823.000 -50.326  5.4620  4.2410  3.3640 -37.551  5.4620  4.2410  3.3640 
  5823.500 -51.688  5.7120  4.2660  3.3420 -38.912  5.7120  4.2660  3.3420 
  5824.000 -52.764  5.9620  4.3150  3.2990 -39.987  5.9620  4.3150  3.2990 
  5824.500 -54.091  6.0840  4.3430  3.2550 -41.314  6.0840  4.3430  3.2550 
  5825.000 -54.917  6.0970  4.3640  3.3620 -42.139  6.0970  4.3640  3.3620 
  5825.500 -55.492  6.0900  4.3850  3.3970 -42.713  6.0900  4.3850  3.3970 
  5826.000 -55.888  6.0820  4.4060  3.3820 -43.109  6.0820  4.4060  3.3820 
  5826.500 -56.249  6.0600  4.4270  3.3600 -43.469  6.0600  4.4270  3.3600 
  5827.000 -56.215  6.0450  4.4380  3.3530 -43.434  6.0450  4.4380  3.3530 
  5827.500 -55.931  6.0300  4.4480  3.3590 -43.150  6.0300  4.4480  3.3590 
  5828.000 -55.469  5.9940  4.4690  3.3730 -42.687  5.9940  4.4690  3.3730 
  5828.500 -55.184  5.9790  4.4830  3.4010 -42.402  5.9790  4.4830  3.4010 
  5829.000 -54.471  5.9610  4.4890  3.4080 -41.688  5.9610  4.4890  3.4080 
  5829.500 -53.579  5.9430  4.4890  3.4220 -40.795  5.9430  4.4890  3.4220 
  5830.000 -52.686  5.8990  4.4810  3.4430 -39.902  5.8990  4.4810  3.4430 
  5830.500 -51.686  5.8630  4.4520  3.4640 -38.901  5.8630  4.4520  3.4640 
  5831.000 -50.687  5.8050  4.3940  3.4850 -37.901  5.8050  4.3940  3.4850 
  5831.500 -49.401  5.7690  4.3010  3.5340 -36.615  5.7690  4.3010  3.5340 
  5832.000 -48.294  5.7250  4.1640  3.5550 -35.507  5.7250  4.1640  3.5550 
  5832.500 -47.115  5.6750  3.9850  3.5760 -34.327  5.6750  3.9850  3.5760 
  5833.000 -46.222  5.4520  3.7260  3.5900 -33.434  5.4520  3.7260  3.5900 
  5833.500 -45.473  5.0650  3.8980  3.6180 -32.684  5.0650  3.8980  3.6180 
  5834.000 -44.545  4.6990  3.9900  3.4890 -31.755  4.6990  3.9900  3.4890 
  5834.500 -43.545  4.3260  4.0330  3.3380 -30.755  4.3260  4.0330  3.3380 
  5835.000 -42.188  3.9750  4.0540  3.1510 -29.397  3.9750  4.0540  3.1510 
  5835.500 -40.795  3.6450  4.0600  3.0220 -28.003  3.6450  4.0600  3.0220 
  5836.000 -39.437  3.4870  4.0600  2.8500 -26.645  3.4870  4.0600  2.8500 
  5836.500 -38.401  3.7010  4.0380  2.7990 -25.608  3.7010  4.0380  2.7990 
  5837.000 -38.654  4.1090  3.9440  2.8920 -25.860  4.1090  3.9440  2.8920 
  5837.500 -39.731  4.5170  3.8360  3.1630 -26.937  4.5170  3.8360  3.1630 
  5838.000 -41.308  4.8810  3.7000  3.3700 -28.513  4.8810  3.7000  3.3700 
  5838.500 -44.209  5.2460  3.6130  3.4630 -31.413  5.2460  3.6130  3.4630 
  5839.000 -45.643  5.4170  3.5480  3.4340 -32.847  5.4170  3.5480  3.4340 
  5839.500 -45.896  5.4880  3.6620  3.4080 -33.099  5.4880  3.6620  3.4080 
