~Version Information
VERS.                     2.0: CWLS log ASCII Standard Version 2.00
WRAP.                      NO: One line per depth step
~Well Information Block
#MNEM.UNIT                               Data Type  Information
#---------                               ---------  -----------
STRT.FT                                   450.0000:
STOP.FT                                  8370.0000:
STEP.FT                                     0.5000:
NULL.                 -999.25                     :
COMP.                                             :COMPANY            
WELL.     LLU56-20 OR CCMO 56-20                  :WELL               
FLD .                                             :FIELD              
CTRY.                                             :COUNTRY            
STAT.                                             :STATE              
LOC .                                             :LOCATION           
UWI .                                             :UNIQUE WELL ID     
SRVC.                                             :Service company    
DATE.                                             :LOG DATE           
~Curve Information
#MNEM.UNIT           API CODE  Curve Description
#---------           --------  -----------------
DEPT.FT                      :   1 DEPTH
SP  .MV                      :   2
SN16.OHMM                    :   3
LN64.OHMM                    :   4
LAT .OHMM                    :   5
SBL .MV                      :   6
RS  .OHMM                    :   7
RM  .OHMM                    :   8
RD  .OHMM                    :   9
DEVI.DEG                     :  10
TVD .FT                      :  11
AZIM.DEG                     :  12
NORT.FT                      :  13
EAST.FT                      :  14
OFFS.FT                      :  15
~A
# ...
  4122.500 -24.895  8.1870  8.5460  6.8160 -24.460  8.1870  8.5460  6.8160  2.5000  4120.3  49.000  95.698  74.646  120.45 
  4123.000 -25.609  8.9410  8.8690  7.0310 -25.173  8.9410  8.8690  7.0310  2.5000  4120.8  49.000  95.712  74.662  120.47 
  4123.500 -26.324  9.1560  9.3360  7.1750 -25.888  9.1560  9.3360  7.1750  2.5000  4121.3  49.000  95.727  74.679  120.49 
  4124.000 -26.591  9.3000  9.7660  7.1390 -26.155  9.3000  9.7660  7.1390  2.5000  4121.8  49.000  95.741  74.695  120.52 
  4124.500 -26.858  9.3000  9.9460  7.1030 -26.422  9.3000  9.9460  7.1030  2.5000  4122.3  49.000  95.755  74.711  120.54 
  4125.000 -27.214  9.3720  10.233  7.0670 -26.777  9.3720  10.233  7.0670  2.5000  4122.8  49.000  95.769  74.728  120.56 
  4125.500 -27.214  9.4440  10.520  6.9240 -26.777  9.4440  10.520  6.9240  2.5000  4123.3  49.000  95.784  74.744  120.58 
  4126.000 -27.392  9.5160  10.628  6.8880 -26.955  9.5160  10.628  6.8880  2.5000  4123.8  49.000  95.798  74.761  120.60 
  4126.500 -27.570  9.7320  10.700  6.8520 -27.133  9.7320  10.700  6.8520  2.5000  4124.3  49.000  95.812  74.777  120.63 
  4127.000 -27.926  9.9110  10.736  6.8520 -27.488  9.9110  10.736  6.8520  2.5000  4124.8  49.000  95.827  74.794  120.65 
  4127.500 -28.104  10.055  10.700  6.8520 -27.666  10.055  10.700  6.8520  2.5000  4125.3  49.000  95.841  74.810  120.67 
  4128.000 -28.282  10.055  10.665  6.9240 -27.844  10.055  10.665  6.9240  2.5000  4125.8  49.000  95.855  74.827  120.69 
  4128.500 -28.459  10.055  10.665  6.9960 -28.021  10.055  10.665  6.9960  2.5000  4126.3  49.000  95.870  74.843  120.71 
  4129.000 -28.459  9.9480  10.629  7.0670 -28.020  9.9480  10.629  7.0670  2.5000  4126.8  49.000  95.884  74.860  120.73 
  4129.500 -28.458  9.7680  10.522  7.0670 -28.019  9.7680  10.522  7.0670  2.5000  4127.3  49.000  95.898  74.876  120.76 
  4130.000 -27.921  9.6610  10.486  7.0670 -27.482  9.6610  10.486  7.0670  2.5000  4127.8  49.000  95.913  74.893  120.78 
  4130.500 -27.383  9.4100  10.450  7.0310 -26.944  9.4100  10.450  7.0310  2.5000  4128.3  49.000  95.927  74.909  120.80 
  4131.000 -26.310  9.2850  10.451  6.9950 -25.870  9.2850  10.451  6.9950  2.5000  4128.8  49.000  95.941  74.925  120.82 
  4131.500 -25.236  9.1590  10.433  6.9600 -24.796  9.1590  10.433  6.9600  2.5000  4129.3  49.000  95.955  74.942  120.84 
  4132.000 -24.878  8.6930  10.415  6.9240 -24.438  8.6930  10.415  6.9240  2.5000  4129.8  49.000  95.970  74.958  120.86 
  4132.500 -24.698  8.5500  10.344  6.7440 -24.258  8.5500  10.344  6.7440  2.5000  4130.3  49.000  95.984  74.975  120.89 
  4133.000 -24.519  8.4780  10.272  6.3500 -24.078  8.4780  10.272  6.3500  2.5000  4130.8  49.000  95.998  74.991  120.91 
  4133.500 -24.160  8.4070  10.165  6.2420 -23.719  8.4070  10.165  6.2420  2.5000  4131.3  49.000  96.013  75.008  120.93 
  4134.000 -24.696  8.4070  9.9140  6.1700 -24.255  8.4070  9.9140  6.1700  2.5000  4131.8  49.000  96.027  75.024  120.95 
  4134.500 -25.410  8.4430  9.7520  6.1350 -24.969  8.4430  9.7520  6.1350  2.5000  4132.3  49.000  96.041  75.041  120.97 
  4135.000 -25.945  8.4070  9.5910  6.5290 -25.503  8.4070  9.5910  6.5290  2.5000  4132.8  49.000  96.056  75.057  121.00 
  4135.500 -26.123  8.3720  9.0530  6.6370 -25.681  8.3720  9.0530  6.6370  2.5000  4133.3  49.000  96.070  75.074  121.02 
  4136.000 -25.228  8.1920  8.5510  6.6730 -24.786  8.1920  8.5510  6.6730  2.5000  4133.8  49.000  96.084  75.090  121.04 
  4136.500 -24.512  7.9770  8.2640  6.7090 -24.070  7.9770  8.2640  6.7090  2.5000  4134.3  49.000  96.099  75.107  121.06 
  4137.000 -23.260  7.6190  7.7980  6.7440 -22.817  7.6190  7.7980  6.7440  2.5000  4134.8  49.000  96.113  75.123  121.08 
  4137.500 -21.472  7.4750  7.6550  6.7800 -21.029  7.4750  7.6550  6.7800  2.5000  4135.3  49.000  96.127  75.139  121.10 
  4138.000 -20.399  7.2960  7.5470  6.7090 -19.956  7.2960  7.5470  6.7090  2.5000  4135.8  49.000  96.142  75.156  121.13 
  4138.500 -18.253  6.0050  7.4760  6.6370 -17.810  6.0050  7.4760  6.6370  2.5000  4136.3  49.000  96.156  75.172  121.15 
  4139.000 -16.464  5.8260  7.4400  6.2780 -16.020  5.8260  7.4400  6.2780  2.5000  4136.8  49.000  96.170  75.189  121.17 
  4139.500 -15.212  5.6820  7.4760  5.9910 -14.768  5.6820  7.4760  5.9910  2.5000  4137.3  49.000  96.184  75.205  121.19 
  4140.000 -14.675  5.5390  7.5120  5.7760 -14.231  5.5390  7.5120  5.7760  2.5000  4137.8  49.000  96.199  75.222  121.21 
  4140.500 -14.495  5.1800  7.5120  5.5250 -14.051  5.1800  7.5120  5.5250  2.5000  4138.3  49.000  96.213  75.238  121.23 
  4141.000 -14.227  5.0370  7.4410  5.2380 -13.782  5.0370  7.4410  5.2380  2.5000  4138.8  49.000  96.227  75.255  121.26 
  4141.500 -13.958  4.9120  7.4050  5.1300 -13.513  4.9120  7.4050  5.1300  2.5000  4139.3  49.000  96.242  75.271  121.28 
  4142.000 -12.884  4.7860  7.3690  5.0940 -12.439  4.7860  7.3690  5.0940  2.5000  4139.8  49.000  96.256  75.288  121.30 
  4142.500 -11.811  4.6430  7.2260  5.0580 -11.366  4.6430  7.2260  5.0580  2.5000  4140.3  49.000  96.270  75.304  121.32 
  4143.000 -10.916  4.4640  7.0830  5.0940 -10.470  4.4640  7.0830  5.0940  2.5000  4140.8  49.000  96.285  75.321  121.34 
  4143.500 -10.736  4.3210  6.9390  5.1120 -10.290  4.3210  6.9390  5.1120  2.5000  4141.3  49.000  96.299  75.337  121.36 
  4144.000 -10.735  4.2850  6.8320  5.1300 -10.289  4.2850  6.8320  5.1300  2.5000  4141.8  49.000  96.313  75.353  121.39 
  4144.500 -10.735  4.2490  6.6530  5.1840 -10.289  4.2490  6.6530  5.1840  2.5000  4142.3  49.000  96.328  75.370  121.41 
  4145.000 -11.091  4.2490  6.5810  5.2380 -10.644  4.2490  6.5810  5.2380  2.5000  4142.8  49.000  96.342  75.386  121.43 
  4145.500 -11.805  4.3210  6.4020  5.3810 -11.358  4.3210  6.4020  5.3810  2.5000  4143.3  49.000  96.356  75.403  121.45 
  4146.000 -12.519  4.3930  6.3300  5.5960 -12.072  4.3930  6.3300  5.5960  2.5000  4143.8  49.000  96.370  75.419  121.47 
  4146.500 -13.412  4.3930  6.3130  5.8830 -12.965  4.3930  6.3130  5.8830  2.5000  4144.3  49.000  96.385  75.436  121.50 
  4147.000 -13.680  4.3940  6.2950  6.1350 -13.232  4.3940  6.2950  6.1350  2.5000  4144.8  49.000  96.399  75.452  121.52 
  4147.500 -13.947  4.4660  6.2590  6.3140 -13.499  4.4660  6.2590  6.3140  2.5000  4145.3  49.000  96.413  75.469  121.54 
  4148.000 -12.337  4.5020  6.2230  6.2060 -11.889  4.5020  6.2230  6.2060  2.5000  4145.8  49.000  96.428  75.485  121.56 
  4148.500 -10.549  4.4660  6.1880  6.0990 -10.101  4.4660  6.1880  6.0990  2.5000  4146.3  49.000  96.442  75.502  121.58 
  4149.000 -9.2970  4.4300  6.1520  6.0090 -8.8483  4.4300  6.1520  6.0090  2.5000  4146.8  49.000  96.456  75.518  121.60 
  4149.500 -9.2960  4.3940  6.1160  5.9190 -8.8470  4.3940  6.1160  5.9190  2.5000  4147.3  49.000  96.471  75.535  121.63 
  4150.000 -9.4730  4.3590  6.1170  5.8480 -9.0238  4.3590  6.1170  5.8480  2.5000  4147.8  49.000  96.485  75.551  121.65 
  4150.500 -9.4730  4.2870  6.0810  5.9550 -9.0235  4.2870  6.0810  5.9550  2.5000  4148.3  49.000  96.499  75.567  121.67 
  4151.000 -9.8290  4.1800  6.0810  6.0990 -9.3793  4.1800  6.0810  6.0990  2.5000  4148.8  49.000  96.514  75.584  121.69 
  4151.500 -10.901  4.1440  6.0810  6.2420 -10.451  4.1440  6.0810  6.2420  2.5000  4149.3  49.000  96.528  75.600  121.71 
  4152.000 -12.509  4.1080  6.0810  6.4220 -12.059  4.1080  6.0810  6.4220  2.5000  4149.8  49.000  96.542  75.617  121.73 
  4152.500 -12.508  4.0730  6.0820  6.4220 -12.058  4.0730  6.0820  6.4220  2.5000  4150.3  49.000  96.556  75.633  121.76 
  4153.000 -12.507  4.0370  6.0820  6.3140 -12.056  4.0370  6.0820  6.3140  2.5000  4150.8  49.000  96.571  75.650  121.78 
  4153.500 -10.361  4.0010  6.0820  6.0990 -9.9100  4.0010  6.0820  6.0990  2.5000  4151.3  49.000  96.585  75.666  121.80 
  4154.000 -9.2880  3.9660  6.1180  5.9190 -8.8368  3.9660  6.1180  5.9190  2.5000  4151.8  49.000  96.599  75.683  121.82 
  4154.500 -9.1970  3.9480  6.1360  5.8480 -8.7455  3.9480  6.1360  5.8480  2.5000  4152.3  49.000  96.614  75.699  121.84 
