~Version Information
VERS.                     2.0: CWLS log ASCII Standard Version 2.00
WRAP.                      NO: One line per depth step
~Well Information Block
#MNEM.UNIT                               Data Type  Information
#---------                               ---------  -----------
STRT.FT                                   450.0000:
STOP.FT                                  8370.0000:
STEP.FT                                     0.5000:
NULL.                 -999.25                     :
COMP.                                             :COMPANY            
WELL.     LLU56-20 OR CCMO 56-20                  :WELL               
FLD .                                             :FIELD              
CTRY.                                             :COUNTRY            
STAT.                                             :STATE              
LOC .                                             :LOCATION           
UWI .                                             :UNIQUE WELL ID     
SRVC.                                             :Service company    
DATE.                                             :LOG DATE           
~Curve Information
#MNEM.UNIT           API CODE  Curve Description
#---------           --------  -----------------
DEPT.FT                      :   1 DEPTH
SP  .MV                      :   2
SN16.OHMM                    :   3
LN64.OHMM                    :   4
LAT .OHMM                    :   5
SBL .MV                      :   6
RS  .OHMM                    :   7
RM  .OHMM                    :   8
RD  .OHMM                    :   9
DEVI.DEG                     :  10
TVD .FT                      :  11
AZIM.DEG                     :  12
NORT.FT                      :  13
EAST.FT                      :  14
OFFS.FT                      :  15
~A
# ...
  8347.500 -5.9650  2.7030  3.0260  2.2960  6.0350  2.7030  3.0260  2.2960  3.3442  8341.7  178.87  32.960  188.20  156.39 
  8348.000 -6.0520  2.6860  2.9910  2.2970  5.9480  2.6860  2.9910  2.2970  3.3478  8342.2  178.83  32.931  188.20  156.37 
  8348.500 -6.0480  2.6690  2.9920  2.2980  5.9520  2.6690  2.9920  2.2980  3.3515  8342.7  178.78  32.902  188.20  156.35 
  8349.000 -5.8650  2.6700  2.9750  2.2990  6.1350  2.6700  2.9750  2.2990  3.3551  8343.2  178.74  32.873  188.21  156.33 
  8349.500 -5.3250  2.6700  2.9570  2.2990  6.6750  2.6700  2.9570  2.2990  3.3587  8343.7  178.69  32.843  188.21  156.31 
  8350.000 -5.3220  2.6710  2.9580  2.3000  6.6780  2.6710  2.9580  2.3000  3.3623  8344.2  178.65  32.814  188.21  156.29 
  8350.500 -5.1390  2.6720  2.9590  2.3010  6.8610  2.6720  2.9590  2.3010  3.3660  8344.7  178.61  32.785  188.21  156.26 
  8351.000 -4.9570  2.6730  2.9420  2.3370  7.0430  2.6730  2.9420  2.3370  3.3696  8345.2  178.56  32.755  188.21  156.24 
  8351.500 -5.1330  2.6740  2.9250  2.3740  6.8670  2.6740  2.9250  2.3740  3.3732  8345.7  178.52  32.726  188.21  156.22 
  8352.000 -5.1290  2.6750  2.9260  2.3930  6.8710  2.6750  2.9260  2.3930  3.3768  8346.2  178.48  32.697  188.21  156.20 
  8352.500 -5.1260  2.6760  2.9270  2.4110  6.8740  2.6760  2.9270  2.4110  3.3804  8346.7  178.43  32.667  188.21  156.18 
  8353.000 -5.3020  2.6770  2.9280  2.4480  6.6980  2.6770  2.9280  2.4480  3.3841  8347.2  178.39  32.638  188.21  156.16 
  8353.500 -5.2990  2.6780  2.9290  2.4850  6.7010  2.6780  2.9290  2.4850  3.3877  8347.7  178.35  32.608  188.21  156.14 
  8354.000 -5.2960  2.6790  2.9290  2.5210  6.7040  2.6790  2.9290  2.5210  3.3913  8348.2  178.30  32.578  188.21  156.12 
  8354.500 -5.2930  2.6790  2.9130  2.5220  6.7070  2.6790  2.9130  2.5220  3.3949  8348.7  178.26  32.549  188.21  156.10 
  8355.000 -5.2010  2.6800  2.8960  2.5230  6.7990  2.6800  2.8960  2.5230  3.3986  8349.2  178.22  32.519  188.21  156.08 
  8355.500 -5.1080  2.6810  2.8610  2.5240  6.8920  2.6810  2.8610  2.5240  3.4022  8349.7  178.17  32.490  188.22  156.06 
  8356.000 -5.1040  2.6820  2.8620  2.4890  6.8960  2.6820  2.8620  2.4890  3.4058  8350.2  178.13  32.460  188.22  156.04 
  8356.500 -5.1010  2.7190  2.8620  2.4890  6.8990  2.7190  2.8620  2.4890  3.4094  8350.7  178.09  32.430  188.22  156.02 
  8357.000 -5.0980  2.6840  2.8630  2.4540  6.9020  2.6840  2.8630  2.4540  3.4131  8351.2  178.04  32.400  188.22  156.00 
  8357.500 -5.0950  2.6670  2.8820  2.4190  6.9050  2.6670  2.8820  2.4190  3.4167  8351.7  178.00  32.371  188.22  155.98 
  8358.000 -5.2710  2.6500  2.9010  2.3840  6.7290  2.6500  2.9010  2.3840  3.4203  8352.2  177.96  32.341  188.22  155.96 
  8358.500 -6.1630  2.5790  2.9380  2.3850  5.8370  2.5790  2.9380  2.3850  3.4239  8352.7  177.91  32.311  188.22  155.94 
  8359.000 -6.1600  2.5800  3.0100  2.3860  5.8400  2.5800  3.0100  2.3860  3.4275  8353.2  177.87  32.281  188.22  155.92 
  8359.500 -5.9770  2.5630  3.0470  2.2790  6.0230  2.5630  3.0470  2.2790  3.4312  8353.7  177.83  32.251  188.22  155.90 
  8360.000 -5.4370  2.5460  3.0660  2.2440  6.5630  2.5460  3.0660  2.2440  3.4348  8354.2  177.78  32.221  188.23  155.88 
  8360.500 -5.3440  2.5830  3.0850  2.2090  6.6560  2.5830  3.0850  2.2090  3.4384  8354.7  177.74  32.191  188.23  155.86 
  8361.000 -5.2520  2.6190  3.3010  2.1730  6.7480  2.6190  3.3010  2.1730  3.4420  8355.2  177.69  32.161  188.23  155.84 
  8361.500 -5.2490  2.6920  3.3380  2.0670  6.7510  2.6920  3.3380  2.0670  3.4457  8355.7  177.65  32.131  188.23  155.82 
  8362.000 -5.2450  2.7650  3.3030  2.0490  6.7550  2.7650  3.3030  2.0490  3.4493  8356.2  177.61  32.101  188.23  155.80 
  8362.500 -5.7790  2.9450  3.3210  2.0320  6.2210  2.9450  3.3210  2.0320  3.4529  8356.7  177.56  32.071  188.23  155.78 
  8363.000 -5.9550  3.1250  3.3400  2.0330  6.0450  3.1250  3.3400  2.0330  3.4565  8357.2  177.52  32.041  188.23  155.76 
  8363.500 -6.3100  3.2340  3.3410  2.0340  5.6900  3.2340  3.3410  2.0340  3.4602  8357.7  177.48  32.011  188.23  155.74 
  8364.000 -6.4850  3.3420  3.3420  2.0700  5.5150  3.3420  3.3420  2.0700  3.4638  8358.2  177.43  31.981  188.24  155.72 
  8364.500 -6.5720  3.5580  3.3610  2.1070  5.4280  3.5580  3.3610  2.1070  3.4674  8358.7  177.39  31.951  188.24  155.70 
  8365.000 -6.6590  3.8460  3.3790  2.2160  5.3410  3.8460  3.3790  2.2160  3.4710  8359.2  177.35  31.920  188.24  155.68 
  8365.500 -7.0140  3.9190  3.3620  2.2700  4.9860  3.9190  3.3620  2.2700  3.4747  8359.7  177.30  31.890  188.24  155.66 
  8366.000 -7.1900  3.9550  3.3450  2.3240  4.8100  3.9550  3.3450  2.3240  3.4783  8360.2  177.26  31.860  188.24  155.63 
  8366.500 -7.2760  3.9200  3.3110  2.3970  4.7240  3.9200  3.3110  2.3970  3.4819  8360.7  177.22  31.829  188.24  155.61 
  8367.000 -7.3630  3.8850  3.2940  2.3980  4.6370  3.8850  3.2940  2.3980  3.4855  8361.2  177.17  31.799  188.24  155.59 
  8367.500 -7.3590  3.8680  3.2770  2.3990  4.6410  3.8680  3.2770  2.3990  3.4891  8361.7  177.13  31.769  188.25  155.57 
  8368.000 -7.3560  3.8510  3.2590  2.3990  4.6440  3.8510  3.2590  2.3990  3.4928  8362.2  177.09  31.738  188.25  155.55 
  8368.500 -7.3530  3.8520  3.2420  2.3640  4.6470  3.8520  3.2420  2.3640  3.4964  8362.7  177.04  31.708  188.25  155.53 
  8369.000 -7.3500  3.8530  3.2610  2.3290  4.6500  3.8530  3.2610  2.3290  3.5000  8363.1  177.00  31.677  188.25  155.51 
  8369.500 -7.3460  3.8540  3.2800  2.3300  4.6540  3.8540  3.2800  2.3300  3.5000  8363.6  177.00  31.647  188.25  155.49 
  8370.000 -999.25  3.8550  3.2810 -999.25 -999.25  3.8550  3.2810 -999.25  3.5000  8364.1  177.00  31.616  188.25  155.47 
