~Version Information
VERS.                     2.0: CWLS log ASCII Standard Version 2.00
WRAP.                      NO: One line per depth step
~Well Information Block
#MNEM.UNIT                               Data Type  Information
#---------                               ---------  -----------
STRT.FT                                   350.0000:
STOP.FT                                  6900.0000:
STEP.FT                                     0.5000:
NULL.                 -999.25                     :
COMP.                                             :COMPANY            
WELL.     LLU 57-20 OR CCMO 57-20                 :WELL               
FLD .                                             :FIELD              
CTRY.                                             :COUNTRY            
STAT.                                             :STATE              
LOC .                                             :LOCATION           
UWI .                                             :UNIQUE WELL ID     
SRVC.                                             :Service company    
DATE.                                             :LOG DATE           
~Curve Information
#MNEM.UNIT           API CODE  Curve Description
#---------           --------  -----------------
DEPT.FT                      :   1 DEPTH
SP  .MV                      :   2
AM10.OHMM                    :   3
AO10.OHMM                    :   4
AO19.OHMM                    :   5
SBL .MV                      :   6
RS  .OHMM                    :   7
RM  .OHMM                    :   8
RD  .OHMM                    :   9
~A
# ...
  4643.000 -48.278  10.187  8.1150  8.1720 -47.570  10.187  8.1150  8.1720 
  4643.500 -48.995  10.416  8.1230  8.2160 -48.289  10.416  8.1230  8.2160 
  4644.000 -49.568  10.582  8.1300  8.1950 -48.865  10.582  8.1300  8.1950 
  4644.500 -49.709  10.647  8.1380  8.1670 -49.009  10.647  8.1380  8.1670 
  4645.000 -49.671  10.662  8.1670  8.1240 -48.973  10.662  8.1670  8.1240 
  4645.500 -49.309  10.713  8.1960  8.1170 -48.614  10.713  8.1960  8.1170 
  4646.000 -47.723  10.770  8.2400  8.1400 -47.031  10.770  8.2400  8.1400 
  4646.500 -45.417  10.864  8.2980  8.1540 -44.727  10.864  8.2980  8.1540 
  4647.000 -43.435  10.936  8.3910  8.2340 -42.748  10.936  8.3910  8.2340 
  4647.500 -41.308  11.417  8.5350  8.3350 -40.624  11.417  8.5350  8.3350 
  4648.000 -40.083  11.862  8.7650  8.4930 -39.401  11.862  8.7650  8.4930 
  4648.500 -38.749  12.593  8.9880  8.8590 -38.070  12.593  8.9880  8.8590 
  4649.000 -37.667  13.741  9.2750  9.1530 -36.991  13.741  9.2750  9.1530 
  4649.500 -36.585  15.878  9.8920  9.5340 -35.911  15.878  9.8920  9.5340 
  4650.000 -36.438  16.674  10.208  9.5200 -35.767  16.674  10.208  9.5200 
  4650.500 -37.874  16.718  10.510  9.4920 -37.206  16.718  10.510  9.4920 
  4651.000 -39.418  15.994  10.331  9.3350 -38.752  15.994  10.331  9.3350 
  4651.500 -40.746  13.816  9.9950  8.7550 -40.083  13.816  9.9950  8.7550 
  4652.000 -42.038  12.548  9.9310  8.3830 -41.378  12.548  9.9310  8.3830 
  4652.500 -42.898  11.258  10.083  8.3550 -42.240  11.258  10.083  8.3550 
  4653.000 -42.534  10.757  10.184  8.3480 -41.879  10.757  10.184  8.3480 
  4653.500 -41.991  10.048  10.206  8.3350 -41.338  10.048  10.206  8.3350 
  4654.000 -40.189  9.6110  10.113  8.2710 -39.539  9.6110  10.113  8.2710 
  4654.500 -36.982  9.2680  9.7560  7.8270 -36.335  9.2680  9.7560  7.8270 
  4655.000 -32.985  8.9460  9.5130  7.3410 -32.340  8.9460  9.5130  7.3410 
  4655.500 -29.886  8.3520  9.0260  6.9970 -29.244  8.3520  9.0260  6.9970 
  4656.000 -26.247  7.2490  8.5390  6.5960 -25.608  7.2490  8.5390  6.5960 
  4656.500 -23.617  5.9740  8.2390  6.1530 -22.980  5.9740  8.2390  6.1530 
  4657.000 -21.167  5.2000  7.7090  5.8810 -20.533  5.2000  7.7090  5.8810 
  4657.500 -19.220  4.5560  6.7350  5.5230 -18.589  4.5560  6.7350  5.5230 
  4658.000 -17.633  3.6670  6.0190  5.3380 -17.004  3.6670  6.0190  5.3380 
  4658.500 -16.154  3.2600  5.8760  5.2740 -15.528  3.2600  5.8760  5.2740 
  4659.000 -14.711  3.0670  5.9560  5.3390 -14.088  3.0670  5.9560  5.3390 
  4659.500 -14.816  3.0170  6.0710  5.4400 -14.195  3.0170  6.0710  5.4400 
  4660.000 -16.143  3.1070  6.1940  5.6270 -15.525  3.1070  6.1940  5.6270 
  4660.500 -16.968  3.1980  6.2520  5.9360 -16.353  3.1980  6.2520  5.9360 
  4661.000 -18.295  3.4350  6.3390  6.1590 -17.682  3.4350  6.3390  6.1590 
  4661.500 -17.968  3.6150  6.3750  6.3460 -17.358  3.6150  6.3750  6.3460 
  4662.000 -16.489  3.7310  6.3900  6.3620 -15.882  3.7310  6.3900  6.3620 
  4662.500 -14.722  3.8750  6.3550  6.2690 -14.117  3.8750  6.3550  6.2690 
  4663.000 -13.243  3.8390  6.3230  6.2190 -12.641  3.8390  6.3230  6.2190 
  4663.500 -11.981  3.6750  6.2910  6.1910 -11.382  3.6750  6.2910  6.1910 
  4664.000 -10.861  3.5400  6.1920  6.2850 -10.264  3.5400  6.1920  6.2850 
  4664.500 -10.570  3.3900  6.1430  6.4290 -9.9758  3.3900  6.1430  6.4290 
  4665.000 -10.890  3.3190  6.0790  6.5020 -10.298  3.3190  6.0790  6.5020 
  4665.500 -11.102  3.3270  6.0080  6.4950 -10.513  3.3270  6.0080  6.4950 
  4666.000 -11.207  3.3420  5.8300  6.4320 -10.621  3.3420  5.8300  6.4320 
  4666.500 -11.347  3.3930  5.5940  6.3680 -10.763  3.3930  5.5940  6.3680 
  4667.000 -11.416  3.4510  5.4150  6.3760 -10.835  3.4510  5.4150  6.3760 
  4667.500 -11.772  3.5380  5.2870  6.4340 -11.194  3.5380  5.2870  6.4340 
  4668.000 -12.668  3.5990  5.2370  6.5350 -12.092  3.5990  5.2370  6.5350 
  4668.500 -14.248  3.6610  5.2380  6.7290 -13.675  3.6610  5.2380  6.7290 
  4669.000 -15.432  3.9050  5.3180  6.8800 -14.862  3.9050  5.3180  6.8800 
  4669.500 -17.804  4.1280  5.4260  7.0680 -17.236  4.1280  5.4260  7.0680 
  4670.000 -22.190  4.4090  5.6270  7.2190 -21.625  4.4090  5.6270  7.2190 
  4670.500 -26.109  4.8750  5.8070  7.3340 -25.547  4.8750  5.8070  7.3340 
  4671.000 -29.884  5.7790  5.9660  7.4420 -29.324  5.7790  5.9660  7.4420 
  4671.500 -35.098  6.7330  6.1170  7.5290 -34.541  6.7330  6.1170  7.5290 
  4672.000 -37.830  7.1710  6.2110  7.5870 -37.276  7.1710  6.2110  7.5870 
  4672.500 -39.230  7.3870  6.2480  7.6450 -38.678  7.3870  6.2480  7.6450 
  4673.000 -39.766  7.5530  6.2480  7.6820 -39.217  7.5530  6.2480  7.6820 
  4673.500 -38.395  7.5890  6.1990  7.5250 -37.849  7.5890  6.1990  7.5250 
  4674.000 -35.944  7.2460  5.8270  7.2460 -35.400  7.2460  5.8270  7.2460 
  4674.500 -33.314  6.5300  5.4900  6.6230 -32.773  6.5300  5.4900  6.6230 
  4675.000 -30.828  5.5410  5.1180  6.3080 -30.290  5.5410  5.1180  6.3080 
  4675.500 -27.477  5.0900  4.9400  5.9360 -26.941  5.0900  4.9400  5.9360 
  4676.000 -23.659  4.7180  4.7470  5.7650 -23.126  4.7180  4.7470  5.7650 
  4676.500 -19.373  4.4830  4.5110  5.4930 -18.842  4.4830  4.5110  5.4930 
  4677.000 -15.627  4.2040  4.3830  5.3720 -15.099  4.2040  4.3830  5.3720 
  4677.500 -14.832  3.9100  4.4340  5.4450 -14.307  3.9100  4.4340  5.4450 
  4678.000 -15.225  3.7180  4.5490  5.9250 -14.702  3.7180  4.5490  5.9250 
  4678.500 -16.732  3.8550  4.7220  6.7510 -16.212  3.8550  4.7220  6.7510 
  4679.000 -18.708  4.0060  5.0310  7.3100 -18.191  4.0060  5.0310  7.3100 
  4679.500 -21.871  4.2570  5.6340  7.8920 -21.356  4.2570  5.6340  7.8920 
  4680.000 -25.250  4.7810  6.3370  8.4440 -24.738  4.7810  6.3370  8.4440 
  4680.500 -28.989  5.4270  7.1760  8.8540 -28.480  5.4270  7.1760  8.8540 
  4681.000 -31.036  6.7830  8.0230  9.1130 -30.529  6.7830  8.0230  9.1130 
  4681.500 -33.228  7.1130  8.2750  9.0850 -32.724  7.1130  8.2750  9.0850 
  4682.000 -35.492  7.3860  8.3540  8.1180 -34.991  7.3860  8.3540  8.1180 
  4682.500 -37.431  8.0970  8.1900  7.2290 -36.932  8.0970  8.1900  7.2290 
  4683.000 -39.263  8.5640  7.2730  6.7790 -38.767  8.5640  7.2730  6.7790 
  4683.500 -40.123  8.7430  6.7580  6.3640 -39.630  8.7430  6.7580  6.3640 
  4684.000 -40.696  8.7870  6.1490  6.1630 -40.205  8.7870  6.1490  6.1630 
  4684.500 -40.512  8.4440  5.8490  5.9850 -40.024  8.4440  5.8490  5.9850 
  4685.000 -40.292  8.0930  5.6990  5.7990 -39.807  8.0930  5.6990  5.7990 
  4685.500 -40.073  7.7430  5.5560  5.7210 -39.590  7.7430  5.5560  5.7210 
  4686.000 -39.782  7.5000  5.4000  5.7290 -39.302  7.5000  5.4000  5.7290 
  4686.500 -39.454  7.3210  5.3140  5.7730 -38.977  7.3210  5.3140  5.7730 
  4687.000 -39.054  7.2000  5.2070  5.8170 -38.579  7.2000  5.2070  5.8170 
  4687.500 -38.836  7.1150  5.1720  5.8600 -38.364  7.1150  5.1720  5.8600 
  4688.000 -38.472  7.0720  5.1590  5.9110 -38.003  7.0720  5.1590  5.9110 
  4688.500 -38.684  7.1590  5.1950  5.9870 -38.217  7.1590  5.1950  5.9870 
  4689.000 -39.689  7.3320  5.2310  6.0630 -39.225  7.3320  5.2310  6.0630 
  4689.500 -41.269  7.6980  5.4550  6.2930 -40.807  7.6980  5.4550  6.2930 
  4690.000 -43.604  8.0930  5.7490  6.4590 -43.145  8.0930  5.7490  6.4590 
  4690.500 -45.507  8.4240  6.8610  6.6170 -45.051  8.4240  6.8610  6.6170 
  4691.000 -45.936  8.7260  7.4140  6.7760 -45.482  8.7260  7.4140  6.7760 
  4691.500 -46.184  8.9410  7.7080  6.9130 -45.733  8.9410  7.7080  6.9130 
  4692.000 -46.217  9.1000  8.0680  6.9990 -45.769  9.1000  8.0680  6.9990 
  4692.500 -45.745  9.2370  8.2900  7.0720 -45.299  9.2370  8.2900  7.0720 
  4693.000 -45.094  9.3810  8.5130  7.1510 -44.651  9.3810  8.5130  7.1510 
  4693.500 -43.759  9.4460  8.6500  7.2020 -43.319  9.4460  8.6500  7.2020 
  4694.000 -41.344  9.3030  8.7080  7.2170 -40.906  9.3030  8.7080  7.2170 
  4694.500 -37.562  9.1250  8.7230  6.9240 -37.127  9.1250  8.7230  6.9240 
  4695.000 -34.032  8.8100  8.6950  6.5160 -33.600  8.8100  8.6950  6.5160 
  4695.500 -28.595  8.2160  8.4810  6.2440 -28.165  8.2160  8.4810  6.2440 
