~Version Information
VERS.                     2.0: CWLS log ASCII Standard Version 2.00
WRAP.                      NO: One line per depth step
~Well Information Block
#MNEM.UNIT                               Data Type  Information
#---------                               ---------  -----------
STRT.FT                                   450.0000:
STOP.FT                                  8370.0000:
STEP.FT                                     0.5000:
NULL.                 -999.25                     :
COMP.                                             :COMPANY            
WELL.     LLU56-20 OR CCMO 56-20                  :WELL               
FLD .                                             :FIELD              
CTRY.                                             :COUNTRY            
STAT.                                             :STATE              
LOC .                                             :LOCATION           
UWI .                                             :UNIQUE WELL ID     
SRVC.                                             :Service company    
DATE.                                             :LOG DATE           
~Curve Information
#MNEM.UNIT           API CODE  Curve Description
#---------           --------  -----------------
DEPT.FT                      :   1 DEPTH
SP  .MV                      :   2
SN16.OHMM                    :   3
LN64.OHMM                    :   4
LAT .OHMM                    :   5
SBL .MV                      :   6
RS  .OHMM                    :   7
RM  .OHMM                    :   8
RD  .OHMM                    :   9
DEVI.DEG                     :  10
TVD .FT                      :  11
AZIM.DEG                     :  12
NORT.FT                      :  13
EAST.FT                      :  14
OFFS.FT                      :  15
~A
# ...
  5195.000 -29.398  7.0840  6.1170  4.6310 -28.419  7.0840  6.1170  4.6310  2.2500  5192.2  93.600  112.23  106.59  154.73 
  5195.500 -29.928  7.2470  6.2970  4.6850 -28.948  7.2470  6.2970  4.6850  2.2500  5192.7  93.640  112.23  106.61  154.74 
  5196.000 -30.279  7.4090  6.6210  4.7940 -29.299  7.4090  6.6210  4.7940  2.2500  5193.2  93.680  112.22  106.63  154.76 
  5196.500 -29.382  7.5540  7.0880  4.8310 -28.402  7.5540  7.0880  4.8310  2.2500  5193.7  93.720  112.22  106.65  154.77 
  5197.000 -29.020  7.5550  7.2510  4.8680 -28.040  7.5550  7.2510  4.8680  2.2500  5194.2  93.760  112.22  106.67  154.78 
  5197.500 -28.658  7.5570  7.4130  5.0130 -27.677  7.5570  7.4130  5.0130  2.2500  5194.7  93.800  112.22  106.69  154.80 
  5198.000 -28.474  7.5580  7.8090  5.1030 -27.493  7.5580  7.8090  5.1030  2.2500  5195.2  93.840  112.22  106.71  154.81 
  5198.500 -28.826  7.5950  8.0250  5.1940 -27.845  7.5950  8.0250  5.1940  2.2500  5195.7  93.880  112.22  106.73  154.82 
  5199.000 -29.179  7.8110  8.1700  5.3020 -28.198  7.8110  8.1700  5.3020  2.2500  5196.2  93.920  112.22  106.75  154.83 
  5199.500 -31.668  7.9380  8.3140  5.4110 -30.686  7.9380  8.3140  5.4110  2.2500  5196.7  93.960  112.22  106.77  154.85 
  5200.000 -32.198  8.0640  8.5310  5.8430 -31.216  8.0640  8.5310  5.8430  2.2500  5197.2  94.000  112.21  106.79  154.86 
  5200.500 -32.550  9.1770  8.6390  5.8800 -31.568  9.1770  8.6390  5.8800  2.2512  5197.7  93.990  112.21  106.81  154.87 
  5201.000 -32.901  9.5000  8.7830  6.1320 -31.919  9.5000  8.7830  6.1320  2.2525  5198.2  93.980  112.21  106.83  154.89 
  5201.500 -33.432  9.8230  8.9630  6.2940 -32.449  9.8230  8.9630  6.2940  2.2537  5198.7  93.970  112.21  106.85  154.90 
  5202.000 -33.963  9.8240  9.0710  6.4560 -32.980  9.8240  9.0710  6.4560  2.2550  5199.2  93.960  112.21  106.87  154.91 
  5202.500 -34.314  9.8600  9.2510  6.4570 -33.331  9.8600  9.2510  6.4570  2.2562  5199.7  93.950  112.21  106.89  154.92 
  5203.000 -34.666  9.8970  9.4670  6.4220 -33.683  9.8970  9.4670  6.4220  2.2575  5200.2  93.940  112.21  106.91  154.94 
  5203.500 -34.839  9.8980  9.5750  6.3520 -33.855  9.8980  9.5750  6.3520  2.2587  5200.7  93.930  112.20  106.93  154.95 
  5204.000 -35.012  9.9340  9.6470  6.3170 -34.028  9.9340  9.6470  6.3170  2.2600  5201.2  93.920  112.20  106.95  154.96 
  5204.500 -35.361  10.078  9.7560  6.2640 -34.377  10.078  9.7560  6.2640  2.2612  5201.7  93.910  112.20  106.97  154.98 
  5205.000 -35.534  10.151  9.7740  6.2110 -34.550  10.151  9.7740  6.2110  2.2625  5202.2  93.900  112.20  106.99  154.99 
  5205.500 -35.707  10.223  9.7920  6.0340 -34.722  10.223  9.7920  6.0340  2.2637  5202.7  93.890  112.20  107.01  155.00 
  5206.000 -35.881  10.313  9.7940  5.9810 -34.896  10.313  9.7940  5.9810  2.2650  5203.2  93.880  112.20  107.03  155.02 
  5206.500 -35.875  10.404  9.7940  5.9280 -34.890  10.404  9.7940  5.9280  2.2662  5203.7  93.870  112.20  107.05  155.03 
  5207.000 -35.870  10.441  9.7590  5.7850 -34.885  10.441  9.7590  5.7850  2.2675  5204.2  93.860  112.20  107.07  155.04 
  5207.500 -35.865  10.441  9.7240  5.6430 -34.879  10.441  9.7240  5.6430  2.2687  5204.7  93.850  112.19  107.09  155.05 
  5208.000 -35.861  10.370  9.6890  5.4300 -34.875  10.370  9.6890  5.4300  2.2700  5205.2  93.840  112.19  107.11  155.07 
  5208.500 -35.856  10.263  9.6540  5.2870 -34.870  10.263  9.6540  5.2870  2.2712  5205.7  93.830  112.19  107.13  155.08 
  5209.000 -35.670  10.193  9.6550  5.2170 -34.684  10.193  9.6550  5.2170  2.2725  5206.2  93.820  112.19  107.15  155.09 
  5209.500 -35.487  10.086  9.5840  5.1820 -34.500  10.086  9.5840  5.1820  2.2737  5206.7  93.810  112.19  107.17  155.11 
  5210.000 -35.482  10.015  9.5130  5.1830 -34.495  10.015  9.5130  5.1830  2.2750  5207.2  93.800  112.19  107.18  155.12 
  5210.500 -35.298  9.8360  9.4060  5.1840 -34.311  9.8360  9.4060  5.1840  2.2762  5207.7  93.790  112.19  107.20  155.13 
  5211.000 -35.293  9.7650  9.3520  5.1850 -34.306  9.7650  9.3520  5.1850  2.2775  5208.2  93.780  112.18  107.22  155.15 
  5211.500 -34.931  9.6400  9.2990  5.2220 -33.943  9.6400  9.2990  5.2220  2.2787  5208.7  93.770  112.18  107.24  155.16 
  5212.000 -34.747  9.5150  9.1570  5.2590 -33.759  9.5150  9.1570  5.2590  2.2800  5209.2  93.760  112.18  107.26  155.17 
  5212.500 -34.563  9.3730  9.0860  5.2600 -33.575  9.3730  9.0860  5.2600  2.2812  5209.7  93.750  112.18  107.28  155.19 
  5213.000 -34.292  9.2300  9.0150  5.2610 -33.304  9.2300  9.0150  5.2610  2.2825  5210.2  93.740  112.18  107.30  155.20 
  5213.500 -34.020  8.9800  8.9440  5.2980 -33.031  8.9800  8.9440  5.2980  2.2837  5210.7  93.730  112.18  107.32  155.21 
  5214.000 -33.299  8.8010  8.8730  5.2630 -32.310  8.8010  8.8730  5.2630  2.2850  5211.2  93.720  112.18  107.34  155.22 
  5214.500 -32.759  8.6590  8.6950  5.2640 -31.770  8.6590  8.6950  5.2640  2.2862  5211.7  93.710  112.18  107.36  155.24 
  5215.000 -31.146  8.4090  8.6240  5.2650 -30.157  8.4090  8.6240  5.2650  2.2875  5212.1  93.700  112.17  107.38  155.25 
  5215.500 -30.963  8.3020  8.5890  5.2660 -29.973  8.3020  8.5890  5.2660  2.2887  5212.6  93.690  112.17  107.40  155.26 
  5216.000 -30.781  8.1950  8.4460  5.3030 -29.791  8.1950  8.4460  5.3030  2.2900  5213.1  93.680  112.17  107.42  155.28 
  5216.500 -30.954  7.9810  8.4110  5.3760 -29.964  7.9810  8.4110  5.3760  2.2912  5213.6  93.670  112.17  107.44  155.29 
  5217.000 -31.127  7.9450  8.3750  5.4130 -30.137  7.9450  8.3750  5.4130  2.2925  5214.1  93.660  112.17  107.46  155.30 
  5217.500 -31.476  7.9100  8.2690  5.5940 -30.485  7.9100  8.2690  5.5940  2.2937  5214.6  93.650  112.17  107.48  155.32 
  5218.000 -31.739  8.1980  8.1620  5.6840 -30.748  8.1980  8.1620  5.6840  2.2950  5215.1  93.640  112.17  107.50  155.33 
  5218.500 -32.003  8.6650  8.0190  5.7740 -31.012  8.6650  8.0190  5.7740  2.2962  5215.6  93.630  112.17  107.52  155.34 
  5219.000 -31.641  8.7730  7.8050  6.1700 -30.649  8.7730  7.8050  6.1700  2.2975  5216.1  93.620  112.16  107.54  155.36 
  5219.500 -31.279  8.8100  7.5550  6.4940 -30.287  8.8100  7.5550  6.4940  2.2987  5216.6  93.610  112.16  107.56  155.37 
  5220.000 -29.488  8.7030  7.0900  6.7460 -28.496  8.7030  7.0900  6.7460  2.3000  5217.1  93.600  112.16  107.58  155.38 
  5220.500 -28.235  8.5240  6.6960  6.8900 -27.243  8.5240  6.6960  6.8900  2.3012  5217.6  93.590  112.16  107.60  155.40 
  5221.000 -26.982  8.2380  6.5710  6.8910 -25.989  8.2380  6.5710  6.8910  2.3025  5218.1  93.580  112.16  107.62  155.41 
  5221.500 -23.942  8.0600  6.4460  6.8560 -22.949  8.0600  6.4460  6.8560  2.3037  5218.6  93.570  112.16  107.64  155.42 
  5222.000 -21.259  7.4510  6.3760  6.7500 -20.266  7.4510  6.3760  6.7500  2.3050  5219.1  93.560  112.16  107.66  155.44 
  5222.500 -19.649  6.1620  6.4840  6.5000 -18.656  6.1620  6.4840  6.5000  2.3062  5219.6  93.550  112.16  107.68  155.45 
  5223.000 -18.930  5.3740  6.5560  6.1070 -17.936  5.3740  6.5560  6.1070  2.3075  5220.1  93.540  112.15  107.70  155.46 
  5223.500 -17.319  5.0520  6.5570  5.7500 -16.325  5.0520  6.5570  5.7500  2.3087  5220.6  93.530  112.15  107.72  155.48 
  5224.000 -15.709  4.9810  6.5580  5.0340 -14.715  4.9810  6.5580  5.0340  2.3100  5221.1  93.520  112.15  107.74  155.49 
  5224.500 -15.526  4.9090  6.5590  4.4620 -14.532  4.9090  6.5590  4.4620  2.3112  5221.6  93.510  112.15  107.76  155.50 
  5225.000 -15.344  4.6600  6.4870  4.4270 -14.349  4.6600  6.4870  4.4270  2.3125  5222.1  93.500  112.15  107.78  155.52 
  5225.500 -15.693  4.5890  6.4160  4.3920 -14.698  4.5890  6.4160  4.3920  2.3137  5222.6  93.490  112.15  107.80  155.53 
  5226.000 -16.401  4.5890  6.2380  4.5370 -15.406  4.5890  6.2380  4.5370  2.3150  5223.1  93.480  112.15  107.82  155.54 
  5226.500 -17.466  4.6260  6.1130  4.6450 -16.471  4.6260  6.1130  4.6450  2.3162  5223.6  93.470  112.15  107.84  155.56 
  5227.000 -17.996  4.6990  5.9880  4.8250 -17.000  4.6990  5.9880  4.8250  2.3175  5224.1  93.460  112.14  107.86  155.57 
