~Version Information
VERS.                     2.0: CWLS log ASCII Standard Version 2.00
WRAP.                      NO: One line per depth step
~Well Information Block
#MNEM.UNIT                               Data Type  Information
#---------                               ---------  -----------
STRT.FT                                   350.0000:
STOP.FT                                  6900.0000:
STEP.FT                                     0.5000:
NULL.                 -999.25                     :
COMP.                                             :COMPANY            
WELL.     LLU 57-20 OR CCMO 57-20                 :WELL               
FLD .                                             :FIELD              
CTRY.                                             :COUNTRY            
STAT.                                             :STATE              
LOC .                                             :LOCATION           
UWI .                                             :UNIQUE WELL ID     
SRVC.                                             :Service company    
DATE.                                             :LOG DATE           
~Curve Information
#MNEM.UNIT           API CODE  Curve Description
#---------           --------  -----------------
DEPT.FT                      :   1 DEPTH
SP  .MV                      :   2
AM10.OHMM                    :   3
AO10.OHMM                    :   4
AO19.OHMM                    :   5
SBL .MV                      :   6
RS  .OHMM                    :   7
RM  .OHMM                    :   8
RD  .OHMM                    :   9
~A
   350.000 -999.25 -999.25 -999.25 -999.25 -999.25 -999.25 -999.25 -999.25 
   350.500 -999.25  0.3090  0.1080 -999.25 -999.25  0.3090  0.1080 -999.25 
   351.000 -999.25  0.3060  0.1080 -999.25 -999.25  0.3060  0.1080 -999.25 
   351.500 -999.25  0.3020  0.1090 -999.25 -999.25  0.3020  0.1090 -999.25 
   352.000 -999.25  0.3020  0.1120 -999.25 -999.25  0.3020  0.1120 -999.25 
   352.500 -999.25  0.2950  0.1160 -999.25 -999.25  0.2950  0.1160 -999.25 
   353.000 -999.25  0.2880  0.1020 -999.25 -999.25  0.2880  0.1020 -999.25 
   353.500 -999.25  0.2890  0.0950 -999.25 -999.25  0.2890  0.0950 -999.25 
   354.000 -999.25  0.2930  0.0810 -999.25 -999.25  0.2930  0.0810 -999.25 
   354.500 -999.25  0.2970  0.0740 -999.25 -999.25  0.2970  0.0740 -999.25 
   355.000 -999.25  0.3260  0.0680 -999.25 -999.25  0.3260  0.0680 -999.25 
   355.500 -999.25  0.3470  0.0600 -999.25 -999.25  0.3470  0.0600 -999.25 
   356.000 -999.25  0.4770  0.0610 -999.25 -999.25  0.4770  0.0610 -999.25 
   356.500 -999.25  0.5630  0.0610 -999.25 -999.25  0.5630  0.0610 -999.25 
   357.000 -999.25  0.5920  0.0680 -999.25 -999.25  0.5920  0.0680 -999.25 
   357.500 -999.25  0.5780  0.0620 -999.25 -999.25  0.5780  0.0620 -999.25 
   358.000 -999.25  0.5350  0.0620 -999.25 -999.25  0.5350  0.0620 -999.25 
   358.500 -999.25  0.5070  0.0620 -999.25 -999.25  0.5070  0.0620 -999.25 
   359.000 -999.25  0.4500  0.0630 -999.25 -999.25  0.4500  0.0630 -999.25 
   359.500 -999.25  0.4070  0.0700 -999.25 -999.25  0.4070  0.0700 -999.25 
   360.000 -999.25  0.3790  0.0700 -999.25 -999.25  0.3790  0.0700 -999.25 
   360.500 -999.25  0.3930  0.0710 -999.25 -999.25  0.3930  0.0710 -999.25 
   361.000 -999.25  0.4440  0.0710 -999.25 -999.25  0.4440  0.0710 -999.25 
   361.500 -999.25  0.4800  0.0710 -999.25 -999.25  0.4800  0.0710 -999.25 
   362.000 -999.25  0.5160  0.0680 -999.25 -999.25  0.5160  0.0680 -999.25 
   362.500 -999.25  0.8110  0.0650 -999.25 -999.25  0.8110  0.0650 -999.25 
   363.000 -999.25  1.1770  0.0500 -999.25 -999.25  1.1770  0.0500 -999.25 
   363.500 -999.25  1.6000  0.0330 -999.25 -999.25  1.6000  0.0330 -999.25 
   364.000 -999.25  2.3970  0.0150 -999.25 -999.25  2.3970  0.0150 -999.25 
   364.500 -999.25  3.7100 -0.0210 -999.25 -999.25  3.7100 -0.0210 -999.25 
   365.000 -0.0230  4.6930 -0.0490 -999.25  33.977  4.6930 -0.0490 -999.25 
   365.500 -3.4390  7.2250 -0.0700 -999.25  30.561  7.2250 -0.0700 -999.25 
   366.000 -8.4750  8.1080 -0.0840 -999.25  25.525  8.1080 -0.0840 -999.25 
   366.500 -11.820  9.5650 -0.0840 -999.25  22.180  9.5650 -0.0840 -999.25 
   367.000 -13.618  9.9240 -0.0840 -999.25  20.382  9.9240 -0.0840 -999.25 
   367.500 -15.739  10.024 -0.0760 -999.25  18.261  10.024 -0.0760 -999.25 
   368.000 -17.717  9.8240 -0.0690  0.1750  16.283  9.8240 -0.0690  0.1750 
   368.500 -20.199  9.7310 -0.0610  0.1770  13.801  9.7310 -0.0610  0.1770 
   369.000 -21.709  9.7310 -0.0470  0.1780  12.291  9.7310 -0.0470  0.1780 
   369.500 -22.895  9.7460 -0.0250  0.1790  11.105  9.7460 -0.0250  0.1790 
   370.000 -24.549  9.7750 -0.0140  0.1800  9.4510  9.7750 -0.0140  0.1800 
   370.500 -25.771  9.8040 -0.0020  0.1820  8.2290  9.8040 -0.0020  0.1820 
   371.000 -26.849  9.8180  0.0480  0.1830  7.1510  9.8180  0.0480  0.1830 
   371.500 -27.891  9.7320  0.1060  0.1840  6.1090  9.7320  0.1060  0.1840 
   372.000 -28.969  9.6400  0.5360  0.1700  5.0310  9.6400  0.5360  0.1700 
   372.500 -30.192  9.5570  1.6340  0.1630  3.8080  9.5570  1.6340  0.1630 
   373.000 -30.946  9.4750  2.5380  0.1570  3.0540  9.4750  2.5380  0.1570 
   373.500 -31.629  9.2600  5.4150  0.1530  2.3710  9.2600  5.4150  0.1530 
   374.000 -32.455  9.1170  7.4380  0.1500  1.5450  9.1170  7.4380  0.1500 
   374.500 -33.102  8.9740  8.5650  0.1290  0.8980  8.9740  8.5650  0.1290 
   375.000 -33.857  8.8090  9.2320  0.1070  0.1430  8.8090  9.2320  0.1070 
   375.500 -34.089  8.6520  9.8210  0.0860 -0.0890  8.6520  9.8210  0.0860 
   376.000 -34.320  8.5440  10.244  0.0720 -0.3200  8.5440  10.244  0.0720 
   376.500 -34.788  8.4440  10.661  0.0800 -0.7880  8.4440  10.661  0.0800 
   377.000 -34.932  8.3440  11.099  0.0870 -0.9320  8.3440  11.099  0.0870 
   377.500 -35.002  8.3080  11.623  0.0950 -1.0020  8.3080  11.623  0.0950 
   378.000 -35.038  8.3090  12.118  0.1240 -1.0380  8.3090  12.118  0.1240 
   378.500 -35.072  8.3310  12.993  0.1600 -1.0720  8.3310  12.993  0.1600 
   379.000 -35.107  8.3880  13.998  0.2100 -1.1070  8.3880  13.998  0.2100 
   379.500 -35.178  8.5100  14.651  0.3180 -1.1780  8.5100  14.651  0.3180 
   380.000 -35.248  8.6040  15.283  0.5260 -1.2480  8.6040  15.283  0.5260 
   380.500 -35.967  8.7120  16.316  1.4380 -1.9670  8.7120  16.316  1.4380 
   381.000 -37.189  8.8270  16.711  2.4640 -3.1890  8.8270  16.711  2.4640 
   381.500 -39.024  8.9350  16.933  4.9680 -5.0240  8.9350  16.933  4.9680 
   382.000 -39.562  9.0500  17.120  6.3960 -5.5620  9.0500  17.120  6.3960 
   382.500 -39.885  9.1940  17.278  7.1850 -5.8850  9.1940  17.278  7.1850 
   383.000 -39.668  9.1150  17.415  7.7450 -5.6680  9.1150  17.415  7.7450 
   383.500 -39.451  8.9500  17.437  8.6990 -5.4510  8.9500  17.437  8.6990 
   384.000 -39.378  8.7930  16.870  9.9620 -5.3780  8.7930  16.870  9.9620 
   384.500 -39.520  8.6850  16.677  11.218 -5.5200  8.6850  16.677  11.218 
   385.000 -39.735  8.5570  16.634  12.237 -5.7350  8.5570  16.634  12.237 
   385.500 -40.202  8.4560  16.670  13.349 -6.2020  8.4560  16.670  13.349 
   386.000 -40.632  8.3850  16.714  14.475 -6.6320  8.3850  16.714  14.475 
   386.500 -41.423  8.3420  16.750  15.107 -7.4230  8.3420  16.750  15.107 
   387.000 -41.926  8.3350  16.807  15.846 -7.9260  8.3350  16.807  15.846 
   387.500 -42.752  8.3860  16.836  16.051 -8.7520  8.3860  16.836  16.051 
   388.000 -43.183  8.4290  16.880  16.256 -9.1830  8.4290  16.880  16.256 
   388.500 -43.829  8.5080  16.930  17.246 -9.8290  8.5080  16.930  17.246 
   389.000 -44.368  8.5520  17.016  17.655 -10.368  8.5520  17.016  17.655 
   389.500 -45.086  8.6240  17.117  18.028 -11.086  8.6240  17.117  18.028 
   390.000 -45.769  8.7240  17.232  18.653 -11.769  8.7240  17.232  18.653 
   390.500 -44.796  8.8040  17.419  19.033 -10.796  8.8040  17.419  19.033 
   391.000 -44.399  8.9260  17.627  19.464 -10.399  8.9260  17.627  19.464 
   391.500 -44.938  9.2780  17.865  19.923 -10.938  9.2780  17.865  19.923 
   392.000 -45.692  9.8160  18.223  22.980 -11.692  9.8160  18.223  22.980 
   392.500 -46.843  10.318  18.417  24.203 -12.843  10.318  18.417  24.203 
   393.000 -47.922  10.814  21.769  26.501 -13.922  10.814  21.769  26.501 
   393.500 -48.820  11.460  22.812  28.011 -14.820  11.460  22.812  28.011 
   394.000 -49.681  12.199  23.855  30.093 -15.681  12.199  23.855  30.093 
   394.500 -50.688  12.838  25.791  31.531 -16.688  12.838  25.791  31.531 
   395.000 -51.227  13.390  26.370  32.252 -17.227  13.390  26.370  32.252 
   395.500 -51.369  13.699  27.161  32.542 -17.369  13.699  27.161  32.542 
   396.000 -51.189  13.764  27.595  32.617 -17.189  13.764  27.595  32.617 
   396.500 -51.008  13.599  27.957  32.333 -17.008  13.599  27.957  32.333 
   397.000 -50.611  13.176  28.318  31.690 -16.611  13.176  28.318  31.690 
   397.500 -50.286  12.746  28.321  30.113 -16.286  12.746  28.321  30.113 
   398.000 -49.961  12.144  28.109  29.400 -15.961  12.144  28.109  29.400 
   398.500 -49.492  11.584  27.609  27.177 -15.492  11.584  27.609  27.177 
   399.000 -49.131  10.659  27.039  26.106 -15.131  10.659  27.039  26.106 
   399.500 -48.519  9.1460  26.108  24.315 -14.519  9.1460  26.108  24.315 
   400.000 -47.978  7.9270  24.820  22.238 -13.978  7.9270  24.820  22.238 
   400.500 -47.619  7.2160  23.742  20.083 -13.619  7.2160  23.742  20.083 
   401.000 -47.297  6.4770  22.161  18.041 -13.297  6.4770  22.161  18.041 
   401.500 -47.118  6.0610  20.581  16.599 -13.118  6.0610  20.581  16.599 
   402.000 -46.939  6.2760  18.930  16.326 -12.939  6.2760  18.930  16.326 
   402.500 -46.832  6.5480  15.695  16.082 -12.832  6.5480  15.695  16.082 
