~Version Information
VERS.                     2.0: CWLS log ASCII Standard Version 2.00
WRAP.                      NO: One line per depth step
~Well Information Block
#MNEM.UNIT                               Data Type  Information
#---------                               ---------  -----------
STRT.FT                                   350.0000:
STOP.FT                                  6900.0000:
STEP.FT                                     0.5000:
NULL.                 -999.25                     :
COMP.                                             :COMPANY            
WELL.     LLU 57-20 OR CCMO 57-20                 :WELL               
FLD .                                             :FIELD              
CTRY.                                             :COUNTRY            
STAT.                                             :STATE              
LOC .                                             :LOCATION           
UWI .                                             :UNIQUE WELL ID     
SRVC.                                             :Service company    
DATE.                                             :LOG DATE           
~Curve Information
#MNEM.UNIT           API CODE  Curve Description
#---------           --------  -----------------
DEPT.FT                      :   1 DEPTH
SP  .MV                      :   2
AM10.OHMM                    :   3
AO10.OHMM                    :   4
AO19.OHMM                    :   5
SBL .MV                      :   6
RS  .OHMM                    :   7
RM  .OHMM                    :   8
RD  .OHMM                    :   9
~A
# ...
  5968.000 -8.4430  1.6630  1.6700  1.9390 -6.8934  1.6630  1.6700  1.9390 
  5968.500 -8.1190  1.6270  1.6590  1.9110 -6.5716  1.6270  1.6590  1.9110 
  5969.000 -7.5440  1.5760  1.6480  1.9000 -5.9988  1.5760  1.6480  1.9000 
  5969.500 -7.2920  1.5690  1.6270  1.8890 -5.7491  1.5690  1.6270  1.8890 
  5970.000 -7.0410  1.5400  1.6160  1.8670 -5.5003  1.5400  1.6160  1.8670 
  5970.500 -6.9690  1.5120  1.6050  1.8670 -5.4305  1.5120  1.6050  1.8670 
  5971.000 -6.9330  1.4900  1.5980  1.8600 -5.3968  1.4900  1.5980  1.8600 
  5971.500 -6.9690  1.4680  1.5910  1.8530 -5.4350  1.4680  1.5910  1.8530 
  5972.000 -7.0050  1.4540  1.5830  1.8530 -5.4732  1.4540  1.5830  1.8530 
  5972.500 -7.0420  1.4470  1.5830  1.8670 -5.5125  1.4470  1.5830  1.8670 
  5973.000 -7.1140  1.4470  1.5900  1.8740 -5.5867  1.4470  1.5900  1.8740 
  5973.500 -7.4010  1.4390  1.5940  1.8810 -5.8759  1.4390  1.5940  1.8810 
  5974.000 -7.5450  1.4470  1.5980  1.8810 -6.0221  1.4470  1.5980  1.8810 
  5974.500 -7.8690  1.4540  1.6120  1.8850 -6.3484  1.4540  1.6120  1.8850 
  5975.000 -8.2650  1.4540  1.6230  1.8890 -6.7466  1.4540  1.6230  1.8890 
  5975.500 -7.8330  1.4610  1.6330  1.8960 -6.3168  1.4610  1.6330  1.8960 
  5976.000 -7.6180  1.4680  1.6410  1.8960 -6.1041  1.4680  1.6410  1.8960 
  5976.500 -7.1150  1.4820  1.6480  1.8960 -5.6033  1.4820  1.6480  1.8960 
  5977.000 -6.6110  1.4860  1.6510  1.8960 -5.1015  1.4860  1.6510  1.8960 
  5977.500 -6.3590  1.4890  1.6550  1.8920 -4.8518  1.4890  1.6550  1.8920 
  5978.000 -6.3240  1.4930  1.6620  1.8880 -4.8190  1.4930  1.6620  1.8880 
  5978.500 -6.3240  1.4970  1.6840  1.8880 -4.8212  1.4970  1.6840  1.8880 
  5979.000 -6.2520  1.4970  1.6910  1.8880 -4.7514  1.4970  1.6910  1.8880 
  5979.500 -6.1620  1.4970  1.6980  1.8880 -4.6637  1.4970  1.6980  1.8880 
  5980.000 -6.0730  1.5000  1.7050  1.8880 -4.5769  1.5000  1.7050  1.8880 
  5980.500 -5.9290  1.5040  1.7120  1.8880 -4.4351  1.5040  1.7120  1.8880 
  5981.000 -5.7130  1.4960  1.7260  1.8880 -4.2214  1.4960  1.7260  1.8880 
  5981.500 -5.5330  1.4960  1.7340  1.8880 -4.0436  1.4960  1.7340  1.8880 
  5982.000 -5.3900  1.4960  1.7410  1.8880 -3.9028  1.4960  1.7410  1.8880 
  5982.500 -5.2820  1.4820  1.7480  1.8880 -3.7971  1.4820  1.7480  1.8880 
  5983.000 -5.4620  1.4820  1.7550  1.8880 -3.9793  1.4820  1.7550  1.8880 
  5983.500 -6.0370  1.4820  1.7620  1.8880 -4.5565  1.4820  1.7620  1.8880 
  5984.000 -6.3970  1.4780  1.7620  1.8880 -4.9187  1.4780  1.7620  1.8880 
  5984.500 -7.0090  1.4750  1.7620  1.8880 -5.5330  1.4750  1.7620  1.8880 
  5985.000 -6.2540  1.4670  1.7620  1.8950 -4.7802  1.4670  1.7620  1.8950 
  5985.500 -5.4630  1.4670  1.7690  1.9020 -3.9914  1.4670  1.7690  1.9020 
  5986.000 -4.5640  1.4670  1.7730  1.9090 -3.0947  1.4670  1.7730  1.9090 
  5986.500 -3.7010  1.4670  1.7760  1.9170 -2.2339  1.4670  1.7760  1.9170 
  5987.000 -3.7370  1.4600  1.7840  1.9240 -2.2721  1.4600  1.7840  1.9240 
  5987.500 -4.0600  1.4530  1.7840  1.9270 -2.5973  1.4530  1.7840  1.9270 
  5988.000 -4.4560  1.4460  1.7800  1.9310 -2.9956  1.4460  1.7800  1.9310 
  5988.500 -4.7080  1.4460  1.7760  1.9310 -3.2498  1.4460  1.7760  1.9310 
  5989.000 -4.8520  1.4460  1.7760  1.9310 -3.3960  1.4460  1.7760  1.9310 
  5989.500 -4.9060  1.4350  1.7760  1.9230 -3.4523  1.4350  1.7760  1.9230 
  5990.000 -4.9600  1.4240  1.7760  1.9160 -3.5085  1.4240  1.7760  1.9160 
  5990.500 -4.9600  1.4240  1.7760  1.9090 -3.5107  1.4240  1.7760  1.9090 
  5991.000 -4.9610  1.4240  1.7760  1.9020 -3.5140  1.4240  1.7760  1.9020 
  5991.500 -4.9430  1.4270  1.7760  1.9020 -3.4982  1.4270  1.7760  1.9020 
  5992.000 -4.9250  1.4310  1.7690  1.9020 -3.4824  1.4310  1.7690  1.9020 
  5992.500 -4.8890  1.4380  1.7690  1.9020 -3.4486  1.4380  1.7690  1.9020 
  5993.000 -4.8890  1.4450  1.7690  1.9020 -3.4509  1.4450  1.7690  1.9020 
  5993.500 -4.8900  1.4520  1.7760  1.9020 -3.4541  1.4520  1.7760  1.9020 
  5994.000 -4.9250  1.4600  1.7760  1.9020 -3.4913  1.4600  1.7760  1.9020 
  5994.500 -4.9440  1.4810  1.7760  1.8940 -3.5126  1.4810  1.7760  1.8940 
  5995.000 -4.9620  1.4880  1.7760  1.8870 -3.5328  1.4880  1.7760  1.8870 
  5995.500 -5.0700  1.4880  1.7760  1.8800 -3.6430  1.4880  1.7760  1.8800 
  5996.000 -5.1420  1.4950  1.7760  1.8800 -3.7173  1.4950  1.7760  1.8800 
  5996.500 -5.2860  1.4950  1.7760  1.8800 -3.8635  1.4950  1.7760  1.8800 
  5997.000 -5.3940  1.4950  1.7760  1.8800 -3.9737  1.4950  1.7760  1.8800 
  5997.500 -5.6460  1.5020  1.7760  1.8800 -4.2279  1.5020  1.7760  1.8800 
  5998.000 -5.7540  1.5170  1.7610  1.8870 -4.3382  1.5170  1.7610  1.8870 
  5998.500 -5.8620  1.5240  1.7540  1.8870 -4.4484  1.5240  1.7540  1.8870 
  5999.000 -5.9700  1.5310  1.7320  1.8870 -4.5586  1.5310  1.7320  1.8870 
  5999.500 -6.2940  1.5380  1.7250  1.8870 -4.8849  1.5380  1.7250  1.8870 
  6000.000 -6.0750 -999.25  1.7110  1.8990 -4.6681 -999.25  1.7110  1.8990 
  6000.500 -6.1470  1.4500  1.6270  1.8990 -4.7423  1.4500  1.6270  1.8990 
  6001.000 -6.3270  1.3850  1.5430  1.8990 -4.9245  1.3850  1.5430  1.8990 
  6001.500 -6.4710  1.3570  1.5630  1.9060 -5.0708  1.3570  1.5630  1.9060 
  6002.000 -6.6340  1.3640  1.5830  1.9130 -5.2360  1.3640  1.5830  1.9130 
  6002.500 -6.7960  1.4140  1.6030  1.9090 -5.4002  1.4140  1.6030  1.9090 
  6003.000 -7.2650  1.4460  1.6230  1.9060 -5.8715  1.4460  1.6230  1.9060 
  6003.500 -7.7700  1.4780  1.6440  1.9060 -6.3787  1.4780  1.6440  1.9060 
  6004.000 -8.2020  1.5220  1.6650  1.9050 -6.8129  1.5220  1.6650  1.9050 
  6004.500 -8.6710  1.5650  1.6940  1.9050 -7.2842  1.5650  1.6940  1.9050 
  6005.000 -9.1400  1.5930  1.7080  1.9050 -7.7554  1.5930  1.7080  1.9050 
  6005.500 -10.186  1.6000  1.7290  1.9020 -8.8036  1.6000  1.7290  1.9020 
  6006.000 -11.159  1.6000  1.7290  1.8980 -9.7788  1.6000  1.7290  1.8980 
  6006.500 -11.952  1.6000  1.7370  1.9050 -10.574  1.6000  1.7370  1.9050 
  6007.000 -12.205  1.6150  1.7330  1.9120 -10.829  1.6150  1.7330  1.9120 
  6007.500 -12.025  1.6320  1.7290  1.9270 -10.652  1.6320  1.7290  1.9270 
  6008.000 -11.808  1.6500  1.7220  1.9410 -10.437  1.6500  1.7220  1.9410 
  6008.500 -11.124  1.6790  1.7220  1.9480 -9.7550  1.6790  1.7220  1.9480 
  6009.000 -10.727  1.6830  1.7220  1.9550 -9.3602  1.6830  1.7220  1.9550 
  6009.500 -10.331  1.6860  1.7220  1.9630 -8.9665  1.6860  1.7220  1.9630 
  6010.000 -9.9340  1.6860  1.7220  1.9700 -8.5717  1.6860  1.7220  1.9700 
  6010.500 -9.0690  1.6790  1.7220  1.9730 -7.7089  1.6790  1.7220  1.9730 
  6011.000 -8.6370  1.6650  1.7220  1.9770 -7.2791  1.6650  1.7220  1.9770 
  6011.500 -8.0960  1.6500  1.7220  1.9730 -6.7404  1.6500  1.7220  1.9730 
  6012.000 -7.7000  1.6250  1.7220  1.9700 -6.3466  1.6250  1.7220  1.9700 
  6012.500 -7.4830  1.6000  1.7220  1.9620 -6.1318  1.6000  1.7220  1.9620 
  6013.000 -7.5200  1.5850  1.7220  1.9660 -6.1711  1.5850  1.7220  1.9660 
  6013.500 -7.6640  1.5820  1.7290  1.9690 -6.3173  1.5820  1.7290  1.9690 
  6014.000 -7.7720  1.5780  1.7290  1.9730 -6.4275  1.5780  1.7290  1.9730 
  6014.500 -7.8440  1.5780  1.7290  1.9770 -6.5017  1.5780  1.7290  1.9770 
  6015.000 -8.0250  1.5780  1.7320  1.9800 -6.6850  1.5780  1.7320  1.9800 
  6015.500 -8.0610  1.5820  1.7360  1.9840 -6.7232  1.5820  1.7360  1.9840 
  6016.000 -8.2770  1.5850  1.7400  1.9840 -6.9414  1.5850  1.7400  1.9840 
  6016.500 -8.4940  1.5850  1.7430  1.9870 -7.1607  1.5850  1.7430  1.9870 
  6017.000 -8.8540  1.5850  1.7430  1.9910 -7.5229  1.5850  1.7430  1.9910 
  6017.500 -9.1790  1.5920  1.7430  2.0050 -7.8501  1.5920  1.7430  2.0050 
  6018.000 -9.5030  1.5920  1.7430  2.0270 -8.1764  1.5920  1.7430  2.0270 
  6018.500 -9.7200  1.5920  1.7430  2.0340 -8.3956  1.5920  1.7430  2.0340 
  6019.000 -9.8640  1.6030  1.7430  2.0260 -8.5418  1.6030  1.7430  2.0260 
  6019.500 -9.5760  1.6140  1.7430  2.0190 -8.2560  1.6140  1.7430  2.0190 
  6020.000 -9.1790  1.6280  1.7430  2.0190 -7.8613  1.6280  1.7430  2.0190 
  6020.500 -8.8190  1.6490  1.7500  2.0190 -7.5035  1.6490  1.7500  2.0190 
