~Version Information
VERS.                     2.0: CWLS log ASCII Standard Version 2.00
WRAP.                      NO: One line per depth step
~Well Information Block
#MNEM.UNIT                               Data Type  Information
#---------                               ---------  -----------
STRT.FT                                   350.0000:
STOP.FT                                  6900.0000:
STEP.FT                                     0.5000:
NULL.                 -999.25                     :
COMP.                                             :COMPANY            
WELL.     LLU 57-20 OR CCMO 57-20                 :WELL               
FLD .                                             :FIELD              
CTRY.                                             :COUNTRY            
STAT.                                             :STATE              
LOC .                                             :LOCATION           
UWI .                                             :UNIQUE WELL ID     
SRVC.                                             :Service company    
DATE.                                             :LOG DATE           
~Curve Information
#MNEM.UNIT           API CODE  Curve Description
#---------           --------  -----------------
DEPT.FT                      :   1 DEPTH
SP  .MV                      :   2
AM10.OHMM                    :   3
AO10.OHMM                    :   4
AO19.OHMM                    :   5
SBL .MV                      :   6
RS  .OHMM                    :   7
RM  .OHMM                    :   8
RD  .OHMM                    :   9
~A
# ...
  2523.000 -55.513  12.543  15.263  14.237 -47.981  12.543  15.263  14.237 
  2523.500 -55.697  12.729  15.557  14.661 -48.164  12.729  15.557  14.661 
  2524.000 -55.881  12.901  16.038  15.049 -48.346  12.901  16.038  15.049 
  2524.500 -56.064  13.058  16.656  15.437 -48.528  13.058  16.656  15.437 
  2525.000 -56.248  13.194  17.267  15.702 -48.711  13.194  17.267  15.702 
  2525.500 -56.468  13.265  17.885  15.874 -48.929  13.265  17.885  15.874 
  2526.000 -56.508  13.286  18.849  15.981 -48.968  13.286  18.849  15.981 
  2526.500 -56.548  13.278  19.042  15.894 -49.007  13.278  19.042  15.894 
  2527.000 -56.588  13.241  19.092  15.713 -49.045  13.241  19.092  15.713 
  2527.500 -56.628  12.744  19.084  15.539 -49.084  12.744  19.084  15.539 
  2528.000 -55.842  12.225  18.852  15.236 -48.297  12.225  18.852  15.236 
  2528.500 -55.163  11.770  18.506  14.976 -47.617  11.770  18.506  14.976 
  2529.000 -54.304  11.309  18.102  14.997 -46.756  11.309  18.102  14.997 
  2529.500 -53.193  10.927  17.778  15.147 -45.644  10.927  17.778  15.147 
  2530.000 -51.831  10.473  17.935  15.305 -44.281  10.473  17.935  15.305 
  2530.500 -49.965  10.220  18.114  15.419 -42.413  10.220  18.114  15.419 
  2531.000 -48.351  10.039  18.084  15.267 -40.798  10.039  18.084  15.267 
  2531.500 -47.133  9.8080  17.853  15.094 -39.579  9.8080  17.853  15.094 
  2532.000 -45.447  9.4620  17.313  14.762 -37.892  9.4620  17.313  14.762 
  2532.500 -43.869  9.0720  16.830  14.437 -36.312  9.0720  16.830  14.437 
  2533.000 -42.614  8.5890  16.037  14.335 -35.056  8.5890  16.037  14.335 
  2533.500 -41.540  8.2500  15.482  14.500 -33.981  8.2500  15.482  14.500 
  2534.000 -41.256  7.8170  15.424  14.823 -33.695  7.8170  15.424  14.823 
  2534.500 -41.944  7.8170  15.711  15.254 -34.382  7.8170  15.711  15.254 
  2535.000 -43.781  8.3840  16.199  15.822 -36.218  8.3840  16.199  15.822 
  2535.500 -49.826  9.1890  16.889  16.504 -42.261  9.1890  16.889  16.504 
  2536.000 -52.096  9.8360  17.478  16.950 -44.530  9.8360  17.478  16.950 
  2536.500 -53.358  10.742  17.722  17.258 -45.791  10.742  17.722  17.258 
  2537.000 -54.765  11.367  17.894  17.344 -47.197  11.367  17.894  17.344 
  2537.500 -55.704  11.863  17.972  17.372 -48.134  11.863  17.972  17.372 
  2538.000 -55.744  11.934  17.979  17.378 -48.173  11.934  17.979  17.378 
  2538.500 -55.532  11.868  17.935  17.377 -47.960  11.868  17.935  17.377 
  2539.000 -55.105  11.828  17.840  17.376 -47.531  11.828  17.840  17.376 
  2539.500 -54.318  11.788  17.731  17.368 -46.743  11.788  17.731  17.368 
  2540.000 -52.632  11.650  17.630  17.029 -45.056  11.650  17.630  17.029 
  2540.500 -51.018  11.376  17.557  16.884 -43.441  11.376  17.557  16.884 
  2541.000 -48.505  10.979  17.398  16.855 -40.926  10.979  17.398  16.855 
  2541.500 -47.071  10.431  17.210  16.695 -39.491  10.431  17.210  16.695 
  2542.000 -44.918  9.8110  16.957  15.932 -37.337  9.8110  16.957  15.932 
  2542.500 -42.944  9.1200  16.546  15.010 -35.361  9.1200  16.546  15.010 
  2543.000 -41.294  8.4710  16.063  14.505 -33.710  8.4710  16.063  14.505 
  2543.500 -38.961  7.7220  14.695  14.087 -31.376  7.7220  14.695  14.087 
  2544.000 -37.599  7.0880  13.802  13.834 -30.012  7.0880  13.802  13.834 
  2544.500 -36.273  6.5260  13.117  13.718 -28.685  6.5260  13.117  13.718 
  2545.000 -36.205  6.3520  12.483  14.027 -28.616  6.3520  12.483  14.027 
  2545.500 -36.748  6.7330  12.209  14.357 -29.158  6.7330  12.209  14.357 
  2546.000 -38.334  7.9260  12.575  14.709 -30.742  7.9260  12.575  14.709 
  2546.500 -42.294  8.9260  13.157  15.125 -34.701  8.9260  13.157  15.125 
  2547.000 -48.231  9.8030  13.667  15.520 -40.637  9.8030  13.667  15.520 
  2547.500 -50.716  10.716  14.148  15.886 -43.120  10.716  14.148  15.886 
  2548.000 -52.770  11.521  14.565  16.188 -45.173  11.521  14.565  16.188 
  2548.500 -54.033  12.161  14.866  16.583 -46.435  12.161  14.866  16.583 
  2549.000 -54.648  12.455  15.081  16.862 -47.049  12.455  15.081  16.862 
  2549.500 -55.083  12.547  15.296  17.077 -47.482  12.547  15.296  17.077 
  2550.000 -55.411  12.575  15.432  17.379 -47.809  12.575  15.432  17.379 
  2550.500 -55.591  12.554  15.562  17.609 -47.988  12.554  15.562  17.609 
  2551.000 -55.520  12.525  15.641  17.796 -47.915  12.525  15.641  17.796 
  2551.500 -54.550  12.438  15.727  17.918 -46.944  12.438  15.727  17.918 
  2552.000 -53.507  12.352  15.813  17.997 -45.900  12.352  15.813  17.997 
  2552.500 -51.818  12.122  15.892  18.105 -44.209  12.122  15.892  18.105 
  2553.000 -50.236  11.719  15.914  18.155 -42.626  11.719  15.914  18.155 
  2553.500 -48.475  11.229  15.842  18.213 -40.864  11.229  15.842  18.213 
  2554.000 -47.397  10.790  15.712  18.292 -39.785  10.790  15.712  18.292 
  2554.500 -46.498  10.394  15.547  18.357 -38.884  10.394  15.547  18.357 
  2555.000 -45.744  10.171  15.460  18.112 -38.129  10.171  15.460  18.112 
  2555.500 -45.456  9.9980  15.496  17.896 -37.840  9.9980  15.496  17.896 
  2556.000 -45.601  9.8330  15.690  17.587 -37.983  9.8330  15.690  17.587 
  2556.500 -47.975  9.9190  15.849  17.529 -40.356  9.9190  15.849  17.529 
  2557.000 -50.348  10.135  16.079  17.630 -42.728  10.135  16.079  17.630 
  2557.500 -52.542  10.761  16.367  17.788 -44.921  10.761  16.367  17.788 
  2558.000 -53.514  11.257  16.726  17.889 -45.891  11.257  16.726  17.889 
  2558.500 -53.802  11.732  17.223  18.047 -46.178  11.732  17.223  18.047 
  2559.000 -53.802  11.991  17.885  18.112 -46.177  11.991  17.885  18.112 
  2559.500 -53.695  12.128  18.424  18.183 -46.068  12.128  18.424  18.183 
  2560.000 -53.192  12.157  18.784  18.198 -45.564  12.157  18.784  18.198 
  2560.500 -52.618  12.128  19.029  18.162 -44.989  12.128  19.029  18.162 
  2561.000 -51.683  11.861  19.209  18.068 -44.052  11.861  19.209  18.068 
  2561.500 -51.108  11.386  19.295  17.773 -43.476  11.386  19.295  17.773 
  2562.000 -49.958  10.875  19.324  17.075 -42.325  10.875  19.324  17.075 
  2562.500 -49.203  10.292  19.136  16.600 -41.569  10.292  19.136  16.600 
  2563.000 -48.448  9.6230  18.791  16.103 -40.812  9.6230  18.791  16.103 
  2563.500 -46.185  9.0980  18.359  15.822 -38.548  9.0980  18.359  15.822 
  2564.000 -44.926  8.7020  17.539  15.506 -37.288  8.7020  17.539  15.506 
  2564.500 -43.561  8.2050  16.920  15.196 -35.921  8.2050  16.920  15.196 
  2565.000 -42.195  7.9890  16.495  15.009 -34.554  7.9890  16.495  15.009 
  2565.500 -40.865  7.7730  16.106  14.771 -33.223  7.7730  16.106  14.771 
  2566.000 -40.002  7.2410  15.567  14.685 -32.359  7.2410  15.567  14.685 
  2566.500 -39.140  7.0390  15.178  14.685 -31.495  7.0390  15.178  14.685 
  2567.000 -38.853  6.9740  14.861  14.750 -31.207  6.9740  14.861  14.750 
  2567.500 -39.321  6.8660  14.775  14.879 -31.674  6.8660  14.775  14.879 
  2568.000 -41.227  6.9600  14.832  15.037 -33.578  6.9600  14.832  15.037 
  2568.500 -42.594  7.2400  14.926  15.354 -34.944  7.2400  14.926  15.354 
  2569.000 -43.889  7.3990  15.077  15.699 -36.238  7.3990  15.077  15.699 
  2569.500 -46.083  7.7370  15.192  15.915 -38.430  7.7370  15.192  15.915 
  2570.000 -46.731  8.2400  15.278  16.124 -39.077  8.2400  15.278  16.124 
  2570.500 -47.954  8.7300  15.429  16.397 -40.299  8.7300  15.429  16.397 
  2571.000 -48.961  9.0250  15.516  16.570 -41.305  9.0250  15.516  16.570 
  2571.500 -49.393  9.2760  15.717  16.757 -41.735  9.2760  15.717  16.757 
  2572.000 -49.681  9.5350  15.785  16.937 -42.022  9.5350  15.785  16.937 
  2572.500 -49.682  9.6940  15.854  17.116 -42.022  9.6940  15.854  17.116 
  2573.000 -49.610  9.8090  16.019  17.239 -41.948  9.8090  16.019  17.239 
  2573.500 -49.467  9.8880  16.148  17.426 -41.804  9.8880  16.148  17.426 
  2574.000 -49.252  9.9670  16.285  17.505 -41.588  9.9670  16.285  17.505 
  2574.500 -49.073  10.024  16.415  17.649 -41.408  10.024  16.415  17.649 
  2575.000 -48.822  10.067  16.508  17.757 -41.155  10.067  16.508  17.757 
  2575.500 -48.714  10.096  16.573  17.857 -41.046  10.096  16.573  17.857 
