~Version Information
VERS.                     2.0: CWLS log ASCII Standard Version 2.00
WRAP.                      NO: One line per depth step
~Well Information Block
#MNEM.UNIT                               Data Type  Information
#---------                               ---------  -----------
STRT.FT                                   350.0000:
STOP.FT                                  6900.0000:
STEP.FT                                     0.5000:
NULL.                 -999.25                     :
COMP.                                             :COMPANY            
WELL.     LLU 57-20 OR CCMO 57-20                 :WELL               
FLD .                                             :FIELD              
CTRY.                                             :COUNTRY            
STAT.                                             :STATE              
LOC .                                             :LOCATION           
UWI .                                             :UNIQUE WELL ID     
SRVC.                                             :Service company    
DATE.                                             :LOG DATE           
~Curve Information
#MNEM.UNIT           API CODE  Curve Description
#---------           --------  -----------------
DEPT.FT                      :   1 DEPTH
SP  .MV                      :   2
AM10.OHMM                    :   3
AO10.OHMM                    :   4
AO19.OHMM                    :   5
SBL .MV                      :   6
RS  .OHMM                    :   7
RM  .OHMM                    :   8
RD  .OHMM                    :   9
~A
# ...
  1198.000 -19.489  4.0560  11.330  11.114 -12.169  4.0560  11.330  11.114 
  1198.500 -19.348  4.1770  11.343  10.368 -12.018  4.1770  11.343  10.368 
  1199.000 -17.409  4.1190  11.307  9.3990 -10.069  4.1190  11.307  9.3990 
  1199.500 -16.476  3.8100  11.191  8.7670 -9.1261  3.8100  11.191  8.7670 
  1200.000 -15.292  3.4720  10.280  8.1850 -7.9322  3.4720  10.280  8.1850 
  1200.500 -14.434  3.1340  8.5430  7.8180 -7.0643  3.1340  8.5430  7.8180 
  1201.000 -14.476  2.8810  7.5870  7.5800 -7.0963  2.8810  7.5870  7.5800 
  1201.500 -14.607  2.6360  7.0120  7.4780 -7.2174  2.6360  7.0120  7.4780 
  1202.000 -14.737  2.5490  6.7310  7.4840 -7.3375  2.5490  6.7310  7.4840 
  1202.500 -14.925  2.4900  6.4500  7.5190 -7.5156  2.4900  6.4500  7.5190 
  1203.000 -15.002  2.4390  6.2120  7.5540 -7.5826  2.4390  6.2120  7.5540 
  1203.500 -15.009  2.5160  6.0240  7.5950 -7.5797  2.5160  6.0240  7.5950 
  1204.000 -14.942  2.5660  5.7930  7.6730 -7.5028  2.5660  5.7930  7.6730 
  1204.500 -14.876  2.6570  5.6850  7.7290 -7.4269  2.6570  5.6850  7.7290 
  1205.000 -14.738  2.6920  5.5190  7.8140 -7.2789  2.6920  5.5190  7.8140 
  1205.500 -14.689  2.7270  5.4460  7.9780 -7.2200  2.7270  5.4460  7.9780 
  1206.000 -14.640  2.7470  5.3940  8.2710 -7.1611  2.7470  5.3940  8.2710 
  1206.500 -14.503  2.7670  5.3640  8.7290 -7.0142  2.7670  5.3640  8.7290 
  1207.000 -14.454  2.8160  5.3780  9.2510 -6.9552  2.8160  5.3780  9.2510 
  1207.500 -14.405  2.8510  5.3910  9.8740 -6.8963  2.8510  5.3910  9.8740 
  1208.000 -14.519  2.9430  5.5760  10.439 -7.0004  2.9430  5.5760  10.439 
  1208.500 -15.138  3.1210  5.7320  10.847 -7.6095  3.1210  5.7320  10.847 
  1209.000 -15.502  3.2920  5.9610  11.506 -7.9635  3.2920  5.9610  11.506 
  1209.500 -16.228  3.5990  6.2390  12.129 -8.6796  3.5990  6.2390  12.129 
  1210.000 -17.277  3.9210  6.5900  12.687 -9.7187  3.9210  6.5900  12.687 
  1210.500 -19.369  4.5870  7.0260  13.224 -11.801  4.5870  7.0260  13.224 
  1211.000 -24.592  5.7770  7.3620  13.553 -17.014  5.7770  7.3620  13.553 
  1211.500 -27.799  6.9590  7.7410  13.788 -20.211  6.9590  7.7410  13.788 
  1212.000 -30.216  7.5680  7.9550  13.952 -22.618  7.5680  7.9550  13.952 
  1212.500 -31.193  7.9540  8.1620  14.152 -23.585  7.9540  8.1620  14.152 
  1213.000 -32.458  8.3610  8.3760  14.301 -24.840  8.3610  8.3760  14.301 
  1213.500 -33.795  8.5750  8.4820  14.451 -26.167  8.5750  8.4820  14.451 
  1214.000 -35.132  8.7890  8.6600  14.621 -27.494  8.7890  8.6600  14.621 
  1214.500 -36.504  8.9600  8.7880  14.757 -28.856  8.9600  8.7880  14.757 
  1215.000 -37.626  9.0810  8.8940  14.884 -29.968  9.0810  8.8940  14.884 
  1215.500 -38.855  9.1950  9.0150  14.926 -31.188  9.1950  9.0150  14.926 
  1216.000 -39.688  9.3290  9.1500  14.939 -32.011  9.3290  9.1500  14.939 
  1216.500 -40.269  9.3860  9.2640  14.895 -32.582  9.3860  9.2640  14.895 
  1217.000 -39.376  9.2910  9.3060  14.679 -31.679  9.2910  9.3060  14.679 
  1217.500 -38.338  8.9960  9.2690  14.111 -30.631  8.9960  9.2690  14.111 
  1218.000 -35.465  8.5000  8.9660  13.019 -27.748  8.5000  8.9660  13.019 
  1218.500 -32.557  7.8890  7.8460  11.920 -24.830  7.8890  7.8460  11.920 
  1219.000 -29.144  7.3780  7.2780  10.449 -21.407  7.3780  7.2780  10.449 
  1219.500 -26.524  6.8390  6.9400  9.4790 -18.777  6.8390  6.9400  9.4790 
  1220.000 -25.090  6.1850  6.5220  8.7680 -17.333  6.1850  6.5220  8.7680 
  1220.500 -24.880  5.5960  6.2560  8.2710 -17.113  5.5960  6.2560  8.2710 
  1221.000 -26.397  4.8120  6.3830  7.6890 -18.620  4.8120  6.3830  7.6890 
  1221.500 -26.835  4.4740  6.6260  7.1860 -19.048  4.4740  6.6260  7.1860 
  1222.000 -26.517  4.5520  6.8040  6.6320 -18.720  4.5520  6.8040  6.6320 
  1222.500 -25.802  4.6300  6.9750  6.0430 -17.996  4.6300  6.9750  6.0430 
  1223.000 -24.765  4.3990  6.9810  5.5890 -16.949  4.3990  6.9810  5.5890 
  1223.500 -23.367  3.9890  6.9300  5.2300 -15.541  3.9890  6.9300  5.2300 
  1224.000 -22.222  3.6640  6.6410  4.8770 -14.386  3.6640  6.6410  4.8770 
  1224.500 -21.724  3.3480  6.4320  4.6600 -13.878  3.3480  6.4320  4.6600 
  1225.000 -21.550  2.9520  6.1510  4.5440 -13.694  2.9520  6.1510  4.5440 
  1225.500 -21.483  2.7430  5.8560  4.4570 -13.617  2.7430  5.8560  4.4570 
  1226.000 -21.346  2.5690  5.6390  4.4420 -13.470  2.5690  5.6390  4.4420 
  1226.500 -21.315  2.4960  5.5450  4.4260 -13.429  2.4960  5.5450  4.4260 
  1227.000 -21.320  2.3950  5.5220  4.6470 -13.424  2.3950  5.5220  4.6470 
  1227.500 -21.362  2.3500  5.5210  4.8110 -13.456  2.3500  5.5210  4.8110 
  1228.000 -21.403  2.4850  5.5410  5.0390 -13.487  2.4850  5.5410  5.0390 
  1228.500 -21.554  2.6200  5.5620  5.4110 -13.628  2.6200  5.5620  5.4110 
  1229.000 -21.667  2.7770  5.6180  5.7900 -13.732  2.7770  5.6180  5.7900 
  1229.500 -21.781  2.9620  5.6670  6.2120 -13.836  2.9620  5.6670  6.2120 
  1230.000 -22.003  3.0970  5.7520  6.4760 -14.048  3.0970  5.7520  6.4760 
  1230.500 -22.261  3.1680  5.8220  6.6970 -14.296  3.1680  5.8220  6.6970 
  1231.000 -22.589  3.2170  5.9000  7.1050 -14.614  3.2170  5.9000  7.1050 
  1231.500 -23.207  3.3160  5.9780  7.2830 -15.222  3.3160  5.9780  7.2830 
  1232.000 -23.717  3.3510  6.0480  7.6050 -15.722  3.3510  6.0480  7.6050 
  1232.500 -24.550  3.4360  6.0830  7.7760 -16.545  3.4360  6.0830  7.7760 
  1233.000 -25.203  3.6070  6.1100  8.0470 -17.188  3.6070  6.1100  8.0470 
  1233.500 -26.540  3.8490  6.1230  8.3760 -18.515  3.8490  6.1230  8.3760 
  1234.000 -27.697  4.1060  6.1220  8.5540 -19.662  4.1060  6.1220  8.5540 
  1234.500 -28.637  4.2420  6.0710  8.7820 -20.592  4.2420  6.0710  8.7820 
  1235.000 -28.355  4.3190  5.9690  9.1040 -20.300  4.3190  5.9690  9.1040 
  1235.500 -28.072  4.4010  5.8460  9.3900 -20.007  4.4010  5.8460  9.3900 
  1236.000 -28.043  4.4820  5.7800  9.6320 -19.969  4.4820  5.7800  9.6320 
  1236.500 -30.064  4.9750  5.7860  9.9180 -21.980  4.9750  5.7860  9.9180 
  1237.000 -32.012  5.4690  5.8490  10.175 -23.918  5.4690  5.8490  10.175 
  1237.500 -33.421  5.9850  5.9630  10.403 -25.317  5.9850  5.9630  10.403 
  1238.000 -35.370  6.3920  6.1120  10.625 -27.256  6.3920  6.1120  10.625 
  1238.500 -37.031  6.7070  6.3120  10.738 -28.907  6.7070  6.3120  10.738 
  1239.000 -38.115  7.1140  6.5620  10.880 -29.981  7.1140  6.5620  10.880 
  1239.500 -39.813  7.3780  6.7690  10.951 -31.669  7.3780  6.7690  10.951 
  1240.000 -40.717  7.6070  6.9110  11.050 -32.563  7.6070  6.9110  11.050 
  1240.500 -41.442  7.9640  7.1030  11.142 -33.278  7.9640  7.1030  11.142 
  1241.000 -42.276  8.3580  7.3030  11.234 -34.102  8.3580  7.3030  11.234 
  1241.500 -42.281  8.7010  7.6320  11.290 -34.097  8.7010  7.6320  11.290 
  1242.000 -41.621  8.9650  7.9610  11.261 -33.427  8.9650  7.9610  11.261 
  1242.500 -40.960  9.0350  8.2750  11.022 -32.757  9.0350  8.2750  11.022 
  1243.000 -38.701  9.0270  8.5970  10.720 -30.488  9.0270  8.5970  10.720 
  1243.500 -36.620  8.7390  8.7030  10.317 -28.397  8.7390  8.7030  10.317 
  1244.000 -33.963  8.3570  8.2930  9.9140 -25.730  8.3570  8.2930  9.9140 
  1244.500 -32.637  7.8760  8.0910  9.4680 -24.394  7.8760  8.0910  9.4680 
  1245.000 -30.340  7.3150  7.9320  8.9650 -22.087  7.3150  7.9320  8.9650 
  1245.500 -27.684  6.7610  7.7370  8.4540 -19.421  6.7610  7.7370  8.4540 
  1246.000 -26.178  6.3940  7.6420  8.0150 -17.905  6.3940  7.6420  8.0150 
  1246.500 -25.285  5.9980  7.5760  7.7780 -17.002  5.9980  7.5760  7.7780 
  1247.000 -24.966  5.6460  7.5680  7.5610 -16.673  5.6460  7.5680  7.5610 
  1247.500 -24.829  5.4720  7.6530  7.3950 -16.526  5.4720  7.6530  7.3950 
  1248.000 -24.690  5.2700  7.8810  7.2570 -16.377  5.2700  7.8810  7.2570 
  1248.500 -23.616  5.1330  8.0880  7.0770 -15.293  5.1330  8.0880  7.0770 
  1249.000 -22.292  5.0920  8.4030  6.9180 -13.959  5.0920  8.4030  6.9180 
  1249.500 -22.117  5.0520  8.6810  6.8380 -13.775  5.0520  8.6810  6.8380 
  1250.000 -22.087  4.9640  8.8590  6.9150 -13.735  4.9640  8.8590  6.9150 
  1250.500 -23.277  4.9130  9.1380  7.0360 -14.915  4.9130  9.1380  7.0360 
