~Version Information
VERS.                     2.0: CWLS log ASCII Standard Version 2.00
WRAP.                      NO: One line per depth step
~Well Information Block
#MNEM.UNIT                               Data Type  Information
#---------                               ---------  -----------
STRT.FT                                   450.0000:
STOP.FT                                  8370.0000:
STEP.FT                                     0.5000:
NULL.                 -999.25                     :
COMP.                                             :COMPANY            
WELL.     LLU56-20 OR CCMO 56-20                  :WELL               
FLD .                                             :FIELD              
CTRY.                                             :COUNTRY            
STAT.                                             :STATE              
LOC .                                             :LOCATION           
UWI .                                             :UNIQUE WELL ID     
SRVC.                                             :Service company    
DATE.                                             :LOG DATE           
~Curve Information
#MNEM.UNIT           API CODE  Curve Description
#---------           --------  -----------------
DEPT.FT                      :   1 DEPTH
SP  .MV                      :   2
SN16.OHMM                    :   3
LN64.OHMM                    :   4
LAT .OHMM                    :   5
SBL .MV                      :   6
RS  .OHMM                    :   7
RM  .OHMM                    :   8
RD  .OHMM                    :   9
DEVI.DEG                     :  10
TVD .FT                      :  11
AZIM.DEG                     :  12
NORT.FT                      :  13
EAST.FT                      :  14
OFFS.FT                      :  15
~A
# ...
  3082.500 -36.313  14.960  19.534  15.775 -36.313  14.960  19.534  15.775  2.0437  3081.4  27.050  60.713  42.411  72.920 
  3083.000 -36.314  14.960  19.587  15.919 -36.314  14.960  19.587  15.919  2.0425  3081.9  27.020  60.729  42.419  72.937 
  3083.500 -36.138  14.852  19.516  16.099 -36.138  14.852  19.516  16.099  2.0412  3082.4  26.990  60.745  42.427  72.954 
  3084.000 -35.961  14.780  19.408  16.386 -35.961  14.780  19.408  16.386  2.0400  3082.9  26.960  60.761  42.435  72.971 
  3084.500 -35.962  14.565  19.265  16.494 -35.962  14.565  19.265  16.494  2.0387  3083.4  26.930  60.777  42.443  72.988 
  3085.000 -35.785  14.386  19.014  16.602 -35.785  14.386  19.014  16.602  2.0375  3083.9  26.900  60.792  42.451  73.004 
  3085.500 -35.698  14.170  18.691  16.674 -35.698  14.170  18.691  16.674  2.0362  3084.4  26.870  60.808  42.459  73.021 
  3086.000 -35.611  13.883  18.260  16.602 -35.611  13.883  18.260  16.602  2.0350  3084.9  26.840  60.824  42.467  73.038 
  3086.500 -35.255  13.525  17.794  16.531 -35.255  13.525  17.794  16.531  2.0337  3085.4  26.810  60.840  42.475  73.055 
  3087.000 -35.167  13.166  17.471  16.388 -35.167  13.166  17.471  16.388  2.0325  3085.9  26.780  60.856  42.483  73.072 
  3087.500 -35.080  12.807  16.825  16.352 -35.080  12.807  16.825  16.352  2.0312  3086.4  26.750  60.872  42.491  73.089 
  3088.000 -34.187  12.413  16.574  16.173 -34.187  12.413  16.574  16.173  2.0300  3086.9  26.720  60.887  42.499  73.106 
  3088.500 -33.832  12.018  16.323  16.102 -33.832  12.018  16.323  16.102  2.0287  3087.4  26.690  60.903  42.507  73.122 
  3089.000 -32.940  11.516  15.498  15.887 -32.940  11.516  15.498  15.887  2.0275  3087.9  26.660  60.919  42.515  73.139 
  3089.500 -31.332  10.978  14.960  15.743 -31.332  10.978  14.960  15.743  2.0262  3088.4  26.630  60.935  42.523  73.156 
  3090.000 -29.904  10.009  14.601  15.385 -29.904  10.009  14.601  15.385  2.0250  3088.9  26.600  60.951  42.531  73.173 
  3090.500 -28.833  8.4310  14.529  14.847 -28.833  8.4310  14.529  14.847  2.0237  3089.4  26.570  60.967  42.539  73.189 
  3091.000 -25.796  7.8570  14.637  14.112 -25.796  7.8570  14.637  14.112  2.0225  3089.9  26.540  60.982  42.547  73.206 
  3091.500 -23.832  7.6770  14.637  13.376 -23.832  7.6770  14.637  13.376  2.0212  3090.4  26.510  60.998  42.555  73.223 
  3092.000 -21.331  7.7130  14.493  12.480 -21.331  7.7130  14.493  12.480  2.0200  3090.9  26.480  61.014  42.563  73.240 
  3092.500 -20.439  7.8210  14.314  12.086 -20.439  7.8210  14.314  12.086  2.0187  3091.4  26.450  61.030  42.570  73.256 
  3093.000 -19.637  8.0000  14.027  11.942 -19.637  8.0000  14.027  11.942  2.0175  3091.9  26.420  61.045  42.578  73.273 
  3093.500 -18.835  8.3950  13.596  12.050 -18.835  8.3950  13.596  12.050  2.0162  3092.4  26.390  61.061  42.586  73.290 
  3094.000 -19.909  8.7890  13.309  12.589 -19.909  8.7890  13.309  12.589  2.0150  3092.9  26.360  61.077  42.594  73.306 
  3094.500 -24.379  9.3630  12.771  14.383 -24.379  9.3630  12.771  14.383  2.0137  3093.4  26.330  61.093  42.602  73.323 
  3095.000 -28.492  9.5790  12.269  14.670 -28.492  9.5790  12.269  14.670  2.0125  3093.9  26.300  61.108  42.609  73.340 
  3095.500 -29.566  9.9730  11.731  14.921 -29.566  9.9730  11.731  14.921  2.0112  3094.4  26.270  61.124  42.617  73.356 
  3096.000 -30.641  10.152  11.336  15.101 -30.641  10.152  11.336  15.101  2.0100  3094.9  26.240  61.140  42.625  73.373 
  3096.500 -31.715  10.296  11.049  15.352 -31.715  10.296  11.049  15.352  2.0087  3095.4  26.210  61.156  42.633  73.389 
  3097.000 -31.895  10.278  10.655  15.676 -31.895  10.278  10.655  15.676  2.0075  3095.9  26.180  61.171  42.640  73.406 
  3097.500 -30.914  10.260  10.439  15.891 -30.914  10.260  10.439  15.891  2.0062  3096.4  26.150  61.187  42.648  73.423 
  3098.000 -29.933  9.8300  10.152  16.071 -29.933  9.8300  10.152  16.071  2.0050  3096.9  26.120  61.203  42.656  73.439 
  3098.500 -28.684  9.0400  10.117  16.035 -28.684  9.0400  10.117  16.035  2.0037  3097.4  26.090  61.218  42.664  73.456 
  3099.000 -27.434  8.3230  10.224  15.892 -27.434  8.3230  10.224  15.892  2.0025  3097.9  26.060  61.234  42.671  73.472 
  3099.500 -26.006  7.6050  10.404  15.641 -26.006  7.6050  10.404  15.641  2.0012  3098.4  26.030  61.250  42.679  73.489 
  3100.000 -24.399  6.4930  10.726  15.103 -24.399  6.4930  10.726  15.103  2.0000  3098.9  26.000  61.265  42.687  73.505 
  3100.500 -23.145  6.0990  10.942  13.489 -23.145  6.0990  10.942  13.489  2.0037  3099.4  26.055  61.281  42.694  73.522 
  3101.000 -20.461  5.8850  11.302  11.301 -20.461  5.8850  11.302  11.301  2.0075  3099.9  26.110  61.297  42.702  73.538 
  3101.500 -17.062  5.7060  11.446  10.188 -17.062  5.7060  11.446  10.188  2.0112  3100.4  26.165  61.313  42.710  73.555 
  3102.000 -15.093  5.5990  11.482  9.7940 -15.093  5.5990  11.482  9.7940  2.0150  3100.9  26.220  61.328  42.717  73.572 
  3102.500 -14.376  5.4560  11.465  9.4350 -14.376  5.4560  11.465  9.4350  2.0187  3101.4  26.275  61.344  42.725  73.588 
  3103.000 -13.658  5.4560  11.447  9.0400 -13.658  5.4560  11.447  9.0400  2.0225  3101.9  26.330  61.360  42.733  73.605 
  3103.500 -14.549  5.5640  11.412  9.2560 -14.549  5.5640  11.412  9.2560  2.0262  3102.4  26.385  61.376  42.741  73.622 
  3104.000 -14.993  5.9060  11.376  9.3630 -14.993  5.9060  11.376  9.3630  2.0300  3102.9  26.440  61.392  42.749  73.638 
  3104.500 -15.438  6.2470  11.162  9.7220 -15.438  6.2470  11.162  9.7220  2.0337  3103.4  26.495  61.408  42.757  73.655 
  3105.000 -17.043  7.0370  11.019  10.475 -17.043  7.0370  11.019  10.475  2.0375  3103.9  26.550  61.424  42.765  73.672 
  3105.500 -19.901  7.3600  10.876  10.870 -19.901  7.3600  10.876  10.870  2.0412  3104.4  26.605  61.439  42.773  73.689 
  3106.000 -22.222  8.7240  10.661  11.301 -22.222  8.7240  10.661  11.301  2.0450  3104.9  26.660  61.455  42.781  73.706 
  3106.500 -24.721  9.0470  10.482  12.628 -24.721  9.0470  10.482  12.628  2.0487  3105.4  26.715  61.471  42.789  73.723 
  3107.000 -27.936  9.3710  10.304  13.130 -27.936  9.3710  10.304  13.130  2.0525  3105.9  26.770  61.487  42.797  73.740 
  3107.500 -29.006  10.161  10.322  13.489 -29.006  10.161  10.322  13.489  2.0562  3106.4  26.825  61.503  42.805  73.757 
  3108.000 -30.791  10.556  10.340  13.596 -30.791  10.556  10.340  13.596  2.0600  3106.9  26.880  61.519  42.813  73.774 
  3108.500 -32.754  10.772  10.413  13.704 -32.754  10.772  10.413  13.704  2.0637  3107.4  26.935  61.535  42.821  73.791 
  3109.000 -33.645  10.772  10.378  13.740 -33.645  10.772  10.378  13.740  2.0675  3107.9  26.990  61.552  42.829  73.808 
  3109.500 -34.000  10.773  10.306  13.740 -34.000  10.773  10.306  13.740  2.0712  3108.4  27.045  61.568  42.838  73.826 
  3110.000 -34.176  10.737  9.0150  13.561 -34.176  10.737  9.0150  13.561  2.0750  3108.9  27.100  61.584  42.846  73.843 
  3110.500 -33.995  10.594  8.8900  13.417 -33.995  10.594  8.8900  13.417  2.0787  3109.4  27.155  61.600  42.854  73.860 
  3111.000 -33.546  10.057  8.7650  13.238 -33.546  10.057  8.7650  13.238  2.0825  3109.9  27.210  61.616  42.862  73.877 
  3111.500 -33.096  8.4790  8.2990  12.807 -33.096  8.4790  8.2990  12.807  2.0862  3110.4  27.265  61.632  42.871  73.895 
  3112.000 -31.306  8.0850  8.3000  11.982 -31.306  8.0850  8.3000  11.982  2.0900  3110.9  27.320  61.648  42.879  73.912 
  3112.500 -29.873  7.4040  8.3180  11.623 -29.873  7.4040  8.3180  11.623  2.0937  3111.4  27.375  61.665  42.887  73.929 
  3113.000 -27.189  6.9380  8.3370  10.906 -27.189  6.9380  8.3370  10.906  2.0975  3111.9  27.430  61.681  42.896  73.947 
  3113.500 -23.969  5.6110  8.5890  9.4350 -23.969  5.6110  8.5890  9.4350  2.1012  3112.4  27.485  61.697  42.904  73.964 
  3114.000 -21.643  4.6790  8.7150  8.4660 -21.643  4.6790  8.7150  8.4660  2.1050  3112.9  27.540  61.713  42.913  73.982 
  3114.500 -19.316  4.2130  8.8410  7.4980 -19.316  4.2130  8.8410  7.4980  2.1087  3113.4  27.595  61.730  42.921  74.000 
