~Version Information
VERS.                     2.0: CWLS log ASCII Standard Version 2.00
WRAP.                      NO: One line per depth step
~Well Information Block
#MNEM.UNIT                               Data Type  Information
#---------                               ---------  -----------
STRT.FT                                   450.0000:
STOP.FT                                  8370.0000:
STEP.FT                                     0.5000:
NULL.                 -999.25                     :
COMP.                                             :COMPANY            
WELL.     LLU56-20 OR CCMO 56-20                  :WELL               
FLD .                                             :FIELD              
CTRY.                                             :COUNTRY            
STAT.                                             :STATE              
LOC .                                             :LOCATION           
UWI .                                             :UNIQUE WELL ID     
SRVC.                                             :Service company    
DATE.                                             :LOG DATE           
~Curve Information
#MNEM.UNIT           API CODE  Curve Description
#---------           --------  -----------------
DEPT.FT                      :   1 DEPTH
SP  .MV                      :   2
SN16.OHMM                    :   3
LN64.OHMM                    :   4
LAT .OHMM                    :   5
SBL .MV                      :   6
RS  .OHMM                    :   7
RM  .OHMM                    :   8
RD  .OHMM                    :   9
DEVI.DEG                     :  10
TVD .FT                      :  11
AZIM.DEG                     :  12
NORT.FT                      :  13
EAST.FT                      :  14
OFFS.FT                      :  15
~A
# ...
  2562.500 -18.005  3.1370  5.8300  3.6540 -18.005  3.1370  5.8300  3.6540  2.0937  2561.7  41.000  46.492  31.302  55.008 
  2563.000 -16.574  3.0650  5.8300  3.7970 -16.574  3.0650  5.8300  3.7970  2.0925  2562.2  41.040  46.505  31.314  55.026 
  2563.500 -16.038  3.0290  5.8300  3.8140 -16.038  3.0290  5.8300  3.8140  2.0912  2562.7  41.080  46.519  31.326  55.045 
  2564.000 -15.681  2.9930  5.8300  3.8320 -15.681  2.9930  5.8300  3.8320  2.0900  2563.2  41.120  46.533  31.338  55.063 
  2564.500 -15.324  2.9750  5.8300  3.9030 -15.324  2.9750  5.8300  3.9030  2.0887  2563.7  41.160  46.547  31.350  55.081 
  2565.000 -15.325  2.9570  5.8650  3.9750 -15.325  2.9570  5.8650  3.9750  2.0875  2564.2  41.200  46.560  31.362  55.099 
  2565.500 -15.326  2.9570  5.9010  4.0460 -15.326  2.9570  5.9010  4.0460  2.0862  2564.7  41.240  46.574  31.374  55.117 
  2566.000 -15.506  2.9570  6.0800  4.1180 -15.506  2.9570  6.0800  4.1180  2.0850  2565.2  41.280  46.588  31.386  55.136 
  2566.500 -15.507  2.9560  6.1880  4.1890 -15.507  2.9560  6.1880  4.1890  2.0837  2565.7  41.320  46.601  31.398  55.154 
  2567.000 -15.687  2.9560  6.2600  4.2790 -15.687  2.9560  6.2600  4.2790  2.0825  2566.2  41.360  46.615  31.410  55.172 
  2567.500 -16.045  3.0280  6.3310  4.3680 -16.045  3.0280  6.3310  4.3680  2.0812  2566.7  41.400  46.629  31.422  55.190 
  2568.000 -16.136  3.0990  6.4030  4.4390 -16.136  3.0990  6.4030  4.4390  2.0800  2567.2  41.440  46.642  31.434  55.208 
  2568.500 -16.226  3.2070  6.4750  4.5290 -16.226  3.2070  6.4750  4.5290  2.0787  2567.7  41.480  46.656  31.446  55.226 
  2569.000 -16.406  3.3150  6.6000  4.6180 -16.406  3.3150  6.6000  4.6180  2.0775  2568.2  41.520  46.669  31.458  55.244 
  2569.500 -16.586  3.5660  6.7250  4.8690 -16.586  3.5660  6.7250  4.8690  2.0762  2568.7  41.560  46.683  31.470  55.262 
  2570.000 -16.676  3.6730  6.8690  4.9770 -16.676  3.6730  6.8690  4.9770  2.0750  2569.2  41.600  46.696  31.482  55.280 
  2570.500 -16.766  3.7990  7.0120  5.1020 -16.766  3.7990  7.0120  5.1020  2.0737  2569.7  41.640  46.710  31.494  55.298 
  2571.000 -17.662  3.9240  7.1200  5.2270 -17.662  3.9240  7.1200  5.2270  2.0725  2570.2  41.680  46.723  31.506  55.316 
  2571.500 -18.379  4.1220  7.2630  5.3880 -18.379  4.1220  7.2630  5.3880  2.0712  2570.7  41.720  46.737  31.518  55.335 
  2572.000 -19.274  4.3190  7.6220  5.5500 -19.274  4.3190  7.6220  5.5500  2.0700  2571.2  41.760  46.750  31.530  55.353 
  2572.500 -19.991  4.4620  7.9450  5.9800 -19.991  4.4620  7.9450  5.9800  2.0687  2571.7  41.800  46.764  31.542  55.371 
  2573.000 -20.349  4.6060  8.0890  6.2670 -20.349  4.6060  8.0890  6.2670  2.0675  2572.2  41.840  46.777  31.554  55.389 
  2573.500 -20.708  5.2520  8.3760  6.7340 -20.708  5.2520  8.3760  6.7340  2.0662  2572.7  41.880  46.791  31.566  55.407 
  2574.000 -22.141  5.8260  8.6270  6.9850 -22.141  5.8260  8.6270  6.9850  2.0650  2573.2  41.920  46.804  31.578  55.425 
  2574.500 -23.215  6.0060  8.8060  7.2710 -23.215  6.0060  8.8060  7.2710  2.0637  2573.7  41.960  46.818  31.590  55.443 
  2575.000 -25.005  6.2930  9.1650  7.3790 -25.005  6.2930  9.1650  7.3790  2.0625  2574.2  42.000  46.831  31.602  55.461 
  2575.500 -27.332  6.6870  9.6320  7.4860 -27.332  6.6870  9.6320  7.4860  2.0612  2574.7  42.040  46.844  31.614  55.478 
  2576.000 -29.122  7.1900  9.8470  7.8810 -29.122  7.1900  9.8470  7.8810  2.0600  2575.2  42.080  46.858  31.626  55.496 
  2576.500 -30.912  8.6620  10.278  8.0600 -30.912  8.6620  10.278  8.0600  2.0587  2575.7  42.120  46.871  31.638  55.514 
  2577.000 -34.134  9.4520  10.403  8.2030 -34.134  9.4520  10.403  8.2030  2.0575  2576.2  42.160  46.884  31.650  55.532 
  2577.500 -35.924  9.9540  10.529  8.3110 -35.924  9.9540  10.529  8.3110  2.0562  2576.7  42.200  46.898  31.662  55.550 
  2578.000 -37.535  10.564  11.175  8.3820 -37.535  10.564  11.175  8.3820  2.0550  2577.2  42.240  46.911  31.674  55.568 
  2578.500 -38.252  10.923  12.180  8.4890 -38.252  10.923  12.180  8.4890  2.0537  2577.7  42.280  46.924  31.686  55.586 
  2579.000 -38.790  11.426  12.539  8.6330 -38.790  11.426  12.539  8.6330  2.0525  2578.2  42.320  46.937  31.699  55.604 
  2579.500 -38.969  11.785  12.790  8.7400 -38.969  11.785  12.790  8.7400  2.0512  2578.7  42.360  46.951  31.711  55.622 
  2580.000 -39.149  12.072  13.113  8.8470 -39.149  12.072  13.113  8.8470  2.0500  2579.2  42.400  46.964  31.723  55.640 
  2580.500 -39.508  12.359  13.508  9.0620 -39.508  12.359  13.508  9.0620  2.0487  2579.7  42.440  46.977  31.735  55.658 
  2581.000 -39.688  12.538  13.795  9.3490 -39.688  12.538  13.795  9.3490  2.0475  2580.2  42.480  46.990  31.747  55.675 
  2581.500 -39.689  12.646  14.226  9.6360 -39.689  12.646  14.226  9.6360  2.0462  2580.7  42.520  47.003  31.759  55.693 
  2582.000 -39.690  12.933  14.333  9.9590 -39.690  12.933  14.333  9.9590  2.0450  2581.2  42.560  47.016  31.771  55.711 
  2582.500 -39.691  13.112  14.692  9.9230 -39.691  13.112  14.692  9.9230  2.0437  2581.7  42.600  47.030  31.783  55.729 
  2583.000 -39.691  13.220  14.800  9.8870 -39.691  13.220  14.800  9.8870  2.0425  2582.2  42.640  47.043  31.795  55.747 
  2583.500 -39.513  13.184  14.764  9.7960 -39.513  13.184  14.764  9.7960  2.0412  2582.7  42.680  47.056  31.807  55.764 
  2584.000 -39.425  12.932  14.727  9.7060 -39.425  12.932  14.727  9.7060  2.0400  2583.2  42.720  47.069  31.819  55.782 
  2584.500 -39.336  12.752  14.620  9.4550 -39.336  12.752  14.620  9.4550  2.0387  2583.7  42.760  47.082  31.831  55.800 
  2585.000 -38.621  12.393  14.404  9.3820 -38.621  12.393  14.404  9.3820  2.0375  2584.2  42.800  47.095  31.843  55.818 
  2585.500 -38.264  11.962  14.188  9.3100 -38.264  11.962  14.188  9.3100  2.0362  2584.7  42.840  47.108  31.855  55.836 
  2586.000 -37.371  11.675  13.901  9.2020 -37.371  11.675  13.901  9.2020  2.0350  2585.2  42.880  47.121  31.867  55.853 
  2586.500 -37.014  11.208  13.685  9.0580 -37.014  11.208  13.685  9.0580  2.0337  2585.7  42.920  47.134  31.880  55.871 
  2587.000 -35.583  10.777  13.470  8.8780 -35.583  10.777  13.470  8.8780  2.0325  2586.2  42.960  47.147  31.892  55.889 
  2587.500 -33.616  10.166  13.434  8.6980 -33.616  10.166  13.434  8.6980  2.0312  2586.7  43.000  47.160  31.904  55.906 
  2588.000 -31.649  9.6270  13.397  7.9800 -31.649  9.6270  13.397  7.9800  2.0300  2587.2  43.040  47.173  31.916  55.924 
  2588.500 -29.502  8.9450  13.541  7.5130 -29.502  8.9450  13.541  7.5130  2.0287  2587.7  43.080  47.186  31.928  55.942 
  2589.000 -26.283  8.5140  13.684  7.0460 -26.283  8.5140  13.684  7.0460  2.0275  2588.2  43.120  47.199  31.940  55.960 
  2589.500 -24.852  8.1900  13.684  6.3630 -24.852  8.1900  13.684  6.3630  2.0262  2588.7  43.160  47.212  31.952  55.977 
  2590.000 -23.958  7.9030  13.540  5.8960 -23.958  7.9030  13.540  5.8960  2.0250  2589.2  43.200  47.224  31.964  55.995 
  2590.500 -25.570  7.7230  13.361  5.7880 -25.570  7.7230  13.361  5.7880  2.0237  2589.7  43.240  47.237  31.976  56.012 
  2591.000 -26.465  7.8670  13.145  5.9130 -26.465  7.8670  13.145  5.9130  2.0225  2590.2  43.280  47.250  31.988  56.030 
  2591.500 -27.360  8.0100  11.565  6.0380 -27.360  8.0100  11.565  6.0380  2.0212  2590.7  43.320  47.263  32.000  56.048 
  2592.000 -28.972  8.2970  10.739  6.6130 -28.972  8.2970  10.739  6.6130  2.0200  2591.2  43.360  47.276  32.013  56.065 
  2592.500 -30.046  8.4770  10.272  7.2940 -30.046  8.4770  10.272  7.2940  2.0187  2591.7  43.400  47.289  32.025  56.083 
  2593.000 -31.210  8.7280  9.4820  8.2990 -31.210  8.7280  9.4820  8.2990  2.0175  2592.2  43.440  47.301  32.037  56.101 
  2593.500 -32.374  8.7640  9.2840  9.4480 -32.374  8.7640  9.2840  9.4480  2.0162  2592.7  43.480  47.314  32.049  56.118 
  2594.000 -32.733  8.7990  9.0870  9.6270 -32.733  8.7990  9.0870  9.6270  2.0150  2593.2  43.520  47.327  32.061  56.136 
  2594.500 -32.376  8.8350  8.9070  9.9500 -32.376  8.8350  8.9070  9.9500  2.0137  2593.7  43.560  47.340  32.073  56.153 
