~Version Information
VERS.                     2.0: CWLS log ASCII Standard Version 2.00
WRAP.                      NO: One line per depth step
~Well Information Block
#MNEM.UNIT                               Data Type  Information
#---------                               ---------  -----------
STRT.FT                                   350.0000:
STOP.FT                                  6900.0000:
STEP.FT                                     0.5000:
NULL.                 -999.25                     :
COMP.                                             :COMPANY            
WELL.     LLU 57-20 OR CCMO 57-20                 :WELL               
FLD .                                             :FIELD              
CTRY.                                             :COUNTRY            
STAT.                                             :STATE              
LOC .                                             :LOCATION           
UWI .                                             :UNIQUE WELL ID     
SRVC.                                             :Service company    
DATE.                                             :LOG DATE           
~Curve Information
#MNEM.UNIT           API CODE  Curve Description
#---------           --------  -----------------
DEPT.FT                      :   1 DEPTH
SP  .MV                      :   2
AM10.OHMM                    :   3
AO10.OHMM                    :   4
AO19.OHMM                    :   5
SBL .MV                      :   6
RS  .OHMM                    :   7
RM  .OHMM                    :   8
RD  .OHMM                    :   9
~A
# ...
   774.000 -40.240  3.2760  5.3740  7.2250 -18.029  3.2760  5.3740  7.2250 
   774.500 -40.170  3.3220  5.3950  7.3100 -17.982  3.3220  5.3950  7.3100 
   775.000 -40.045  3.4070  5.3950  7.3170 -17.880  3.4070  5.3950  7.3170 
   775.500 -39.921  3.3930  5.2220  7.2950 -17.778  3.3930  5.2220  7.2950 
   776.000 -39.673  3.3850  5.0210  6.9790 -17.553  3.3850  5.0210  6.9790 
   776.500 -39.675  3.3670  4.7330  6.7560 -17.578  3.3670  4.7330  6.7560 
   777.000 -39.965  3.3480  4.4600  6.4110 -17.891  3.3480  4.4600  6.4110 
   777.500 -40.219  3.3190  4.2300  6.1890 -18.167  3.3190  4.2300  6.1890 
   778.000 -40.581  3.2970  4.1080  6.0300 -18.552  3.2970  4.1080  6.0300 
   778.500 -40.799  3.1390  4.0360  5.9220 -18.793  3.1390  4.0360  5.9220 
   779.000 -40.981  3.0240  3.9920  5.8290 -18.997  3.0240  3.9920  5.8290 
   779.500 -41.127  2.9160  3.9410  5.7200 -19.166  2.9160  3.9410  5.7200 
   780.000 -41.201  2.9220  3.9050  5.6840 -19.263  2.9220  3.9050  5.6840 
   780.500 -41.203  2.9440  3.8540  5.5910 -19.287  2.9440  3.8540  5.5910 
   781.000 -41.097  2.9650  3.8360  5.4750 -19.204  2.9650  3.8360  5.4750 
   781.500 -40.488  2.9710  3.8180  5.3670 -18.618  2.9710  3.8180  5.3670 
   782.000 -39.987  2.9640  3.7960  5.2160 -18.139  2.9640  3.7960  5.2160 
   782.500 -39.557  2.9490  3.7810  5.0800 -17.732  2.9490  3.7810  5.0800 
   783.000 -39.020  2.8980  3.7880  4.9570 -17.218  2.8980  3.7880  4.9570 
   783.500 -38.770  2.8410  3.8160  4.8270 -16.990  2.8410  3.8160  4.8270 
   784.000 -38.736  2.6890  3.8370  4.7630 -16.979  2.6890  3.8370  4.7630 
   784.500 -38.918  2.5530  3.8940  4.6760 -17.184  2.5530  3.8940  4.6760 
   785.000 -39.009  2.5450  3.9440  4.6180 -17.297  2.5450  3.9440  4.6180 
   785.500 -39.100  2.5590  4.0660  4.7180 -17.411  2.5590  4.0660  4.7180 
   786.000 -39.249  2.5800  4.1940  4.8610 -17.583  2.5800  4.1940  4.8610 
   786.500 -39.250  2.6010  4.2940  4.9900 -17.606  2.6010  4.2940  4.9900 
   787.000 -39.216  2.6510  4.4090  5.0760 -17.595  2.6510  4.4090  5.0760 
   787.500 -39.182  2.7010  4.5230  5.2040 -17.584  2.7010  4.5230  5.2040 
   788.000 -39.042  2.7650  4.6520  5.2470 -17.466  2.7650  4.6520  5.2470 
   788.500 -39.007  2.8220  4.7230  5.2900 -17.454  2.8220  4.7230  5.2900 
   789.000 -38.972  2.8790  4.7940  5.2100 -17.442  2.8790  4.7940  5.2100 
   789.500 -38.830  3.0430  4.8080  5.0810 -17.322  3.0430  4.8080  5.0810 
   790.000 -38.688  3.0930  4.7930  5.0230 -17.203  3.0930  4.7930  5.0230 
   790.500 -38.511  3.1430  4.7070  4.9290 -17.049  3.1430  4.7070  4.9290 
   791.000 -38.333  3.1500  4.5840  4.8710 -16.893  3.1500  4.5840  4.8710 
   791.500 -38.085  3.1210  4.4620  4.8350 -16.668  3.1210  4.4620  4.8350 
   792.000 -37.871  3.0630  4.4190  4.8990 -16.477  3.0630  4.4190  4.8990 
   792.500 -37.441  2.9400  4.3610  4.9850 -16.069  2.9400  4.3610  4.9850 
   793.000 -36.436  2.9260  4.3240  5.0560 -15.087  2.9260  4.3240  5.0560 
   793.500 -35.178  2.9320  4.2670  5.1240 -13.852  2.9320  4.2670  5.1240 
   794.000 -33.670  2.9610  4.2300  5.1920 -12.366  2.9610  4.2300  5.1920 
   794.500 -32.808  2.9820  4.1800  5.2490 -11.527  2.9820  4.1800  5.2490 
   795.000 -31.480  3.0170  4.1220  5.1910 -10.222  3.0170  4.1220  5.1910 
   795.500 -30.870  3.0740  4.0780  5.0610 -9.6344  3.0740  4.0780  5.0610 
   796.000 -29.973  3.1020  3.9780  5.0110 -8.7600  3.1020  3.9780  5.0110 
   796.500 -29.687  3.1310  3.8260  4.8810 -8.4967  3.1310  3.8260  4.8810 
   797.000 -29.689  3.0660  3.6900  4.7660 -8.5214  3.0660  3.6900  4.7660 
   797.500 -29.799  2.9720  3.5170  4.5930 -8.6541  2.9720  3.5170  4.5930 
   798.000 -29.765  2.8640  3.4450  4.5140 -8.6427  2.8640  3.4450  4.5140 
   798.500 -29.731  2.6910  3.4160  4.4780 -8.6314  2.6910  3.4160  4.4780 
   799.000 -29.626  2.5910  3.4230  4.5200 -8.5491  2.5910  3.4230  4.5200 
   799.500 -29.448  2.5760  3.4440  4.7560 -8.3937  2.5760  3.4440  4.7560 
   800.000 -29.306  2.5970  3.5580  4.8710 -8.2744  2.5970  3.5580  4.8710 
   800.500 -29.199  2.6540  3.6730  5.0280 -8.1901  2.6540  3.6730  5.0280 
   801.000 -29.128  2.7830  3.8950  5.2220 -8.1418  2.7830  3.8950  5.2220 
   801.500 -29.453  2.9770  4.0810  5.3940 -8.4894  2.9770  4.0810  5.3940 
   802.000 -31.036  3.2350  4.2460  5.6160 -10.095  3.2350  4.2460  5.6160 
   802.500 -35.211  3.5360  4.4320  5.8240 -14.293  3.5360  4.4320  5.8240 
   803.000 -37.622  3.9520  4.5690  5.9100 -16.726  3.9520  4.5690  5.9100 
   803.500 -38.703  4.4250  4.7410  6.0180 -17.830  4.4250  4.7410  6.0180 
   804.000 -39.099  4.8480  5.0060  6.1110 -18.249  4.8480  5.0060  6.1110 
   804.500 -39.137  5.2710  5.1490  6.2680 -18.309  5.2710  5.1490  6.2680 
   805.000 -39.102  5.5150  5.3430  6.3900 -18.297  5.5150  5.3430  6.3900 
   805.500 -38.959  5.7660  5.5150  6.5190 -18.177  5.7660  5.5150  6.5190 
   806.000 -38.851  5.9740  5.7010  6.6980 -18.091  5.9740  5.7010  6.6980 
   806.500 -38.815  6.1320  5.8160  6.8270 -18.078  6.1320  5.8160  6.8270 
   807.000 -39.932  6.2890  5.9160  6.9640 -19.218  6.2890  5.9160  6.9640 
   807.500 -40.796  6.4250  5.9880  7.0490 -20.105  6.4250  5.9880  7.0490 
   808.000 -41.408  6.5110  6.0020  7.0060 -20.739  6.5110  6.0020  7.0060 
   808.500 -41.805  6.5610  5.9590  6.8910 -21.159  6.5610  5.9590  6.8910 
   809.000 -41.986  6.5970  5.8940  6.6470 -21.363  6.5970  5.8940  6.6470 
   809.500 -40.332  6.5970  5.8080  6.2740 -19.731  6.5970  5.8080  6.2740 
   810.000 -36.195  6.4530  5.7140  6.1020 -15.617  6.4530  5.7140  6.1020 
   810.500 -33.102  5.8290  5.5640  5.9510 -12.547  5.8290  5.5640  5.9510 
   811.000 -31.448  5.2980  5.3910  5.9010 -10.915  5.2980  5.3910  5.9010 
   811.500 -30.657  5.0250  5.2120  5.9010 -10.147  5.0250  5.2120  5.9010 
   812.000 -30.119  4.9100  5.1110  5.9220 -9.6315  4.9100  5.1110  5.9220 
   812.500 -30.227  4.8600  5.0750  6.0150 -9.7622  4.8600  5.0750  6.0150 
   813.000 -32.566  4.8460  5.1470  6.0650 -12.124  4.8460  5.1470  6.0650 
   813.500 -33.179  4.8530  5.2970  6.1080 -12.760  4.8530  5.2970  6.1080 
   814.000 -33.252  4.8740  5.6060  6.1580 -12.855  4.8740  5.6060  6.1580 
   814.500 -33.217  4.9170  5.8420  6.1790 -12.843  4.9170  5.8420  6.1790 
   815.000 -33.074  4.9170  6.0140  6.1790 -12.723  4.9170  6.0140  6.1790 
   815.500 -32.859  4.8880  6.1220  6.0790 -12.530  4.8880  6.1220  6.0790 
   816.000 -32.463  4.8370  6.1650  5.8490 -12.157  4.8370  6.1650  5.8490 
   816.500 -31.350  4.7730  6.1430  5.4260 -11.067  4.7730  6.1430  5.4260 
   817.000 -30.488  4.7010  5.9990  5.0090 -10.227  4.7010  5.9990  5.0090 
   817.500 -29.984  4.4140  5.7700  4.7940 -9.7459  4.4140  5.7700  4.7940 
   818.000 -29.481  4.0980  5.5330  4.6580 -9.2656  4.0980  5.5330  4.6580 
   818.500 -29.266  3.8400  5.2810  4.5790 -9.0733  3.8400  5.2810  4.5790 
   819.000 -29.303  3.4450  5.1740  4.5710 -9.1330  3.4450  5.1740  4.5710 
   819.500 -29.915  3.2080  5.1090  4.6640 -9.7676  3.2080  5.1090  4.6640 
   820.000 -31.464  3.0860  5.1880  4.8080 -11.339  3.0860  5.1880  4.8080 
   820.500 -32.471  3.0570  5.2310  4.9290 -12.369  3.0570  5.2310  4.9290 
   821.000 -33.911  3.0720  5.2880  4.9800 -13.832  3.0720  5.2880  4.9800 
   821.500 -35.028  3.0860  5.3240  5.0870 -14.971  3.0860  5.3240  5.0870 
   822.000 -35.748  3.1220  5.2810  5.1160 -15.714  3.1220  5.2810  5.1160 
   822.500 -36.469  3.1570  5.2370  5.1800 -16.458  3.1570  5.2370  5.1800 
   823.000 -36.866  3.2500  5.2090  5.2800 -16.877  3.2500  5.2090  5.2800 
   823.500 -37.334  3.3360  5.1940  5.3810 -17.368  3.3360  5.1940  5.3810 
   824.000 -37.478  3.3720  5.2010  5.6240 -17.535  3.3720  5.2010  5.6240 
   824.500 -37.731  3.4290  5.2440  5.9610 -17.810  3.4290  5.2440  5.9610 
   825.000 -37.552  3.4720  5.3510  6.1980 -17.654  3.4720  5.3510  6.1980 
   825.500 -36.906  3.5150  5.4590  6.4850 -17.031  3.5150  5.4590  6.4850 
   826.000 -36.438  3.6150  5.6090  6.5710 -16.585  3.6150  5.6090  6.5710 
   826.500 -35.756  3.6650  5.7810  6.6140 -15.926  3.6650  5.7810  6.6140 
