~Version Information
VERS.                     2.0: CWLS log ASCII Standard Version 2.00
WRAP.                      NO: One line per depth step
~Well Information Block
#MNEM.UNIT                               Data Type  Information
#---------                               ---------  -----------
STRT.FT                                   350.0000:
STOP.FT                                  6900.0000:
STEP.FT                                     0.5000:
NULL.                 -999.25                     :
COMP.                                             :COMPANY            
WELL.     LLU 57-20 OR CCMO 57-20                 :WELL               
FLD .                                             :FIELD              
CTRY.                                             :COUNTRY            
STAT.                                             :STATE              
LOC .                                             :LOCATION           
UWI .                                             :UNIQUE WELL ID     
SRVC.                                             :Service company    
DATE.                                             :LOG DATE           
~Curve Information
#MNEM.UNIT           API CODE  Curve Description
#---------           --------  -----------------
DEPT.FT                      :   1 DEPTH
SP  .MV                      :   2
AM10.OHMM                    :   3
AO10.OHMM                    :   4
AO19.OHMM                    :   5
SBL .MV                      :   6
RS  .OHMM                    :   7
RM  .OHMM                    :   8
RD  .OHMM                    :   9
~A
# ...
  6816.000 -8.9840  2.2870  2.0430  2.3190 -8.9840  2.2870  2.0430  2.3190 
  6816.500 -8.6250  2.2940  2.0490  2.3190 -8.6250  2.2940  2.0490  2.3190 
  6817.000 -8.3390  2.3000  2.0560  2.3180 -8.3390  2.3000  2.0560  2.3180 
  6817.500 -8.1240  2.3070  2.0590  2.3180 -8.1240  2.3070  2.0590  2.3180 
  6818.000 -7.9820  2.3140  2.0630  2.3170 -7.9820  2.3140  2.0630  2.3170 
  6818.500 -7.9120  2.3280  2.0660  2.3170 -7.9120  2.3280  2.0660  2.3170 
  6819.000 -7.9500  2.3310  2.0690  2.3160 -7.9500  2.3310  2.0690  2.3160 
  6819.500 -8.0600  2.3340  2.0760  2.3230 -8.0600  2.3340  2.0760  2.3230 
  6820.000 -8.2060  2.3370  2.0750  2.3520 -8.2060  2.3370  2.0750  2.3520 
  6820.500 -8.8200  2.3400  2.0750  2.3800 -8.8200  2.3400  2.0750  2.3800 
  6821.000 -9.2550  2.3540  2.0740  2.4150 -9.2550  2.3540  2.0740  2.4150 
  6821.500 -9.1130  2.3680  2.0740  2.4360 -9.1130  2.3680  2.0740  2.4360 
  6822.000 -8.9700  2.3710  2.0660  2.4650 -8.9700  2.3710  2.0660  2.4650 
  6822.500 -9.3690  2.3750  2.0660  2.3350 -9.3690  2.3750  2.0660  2.3350 
  6823.000 -9.5870  2.3740  2.0580  2.2700 -9.5870  2.3740  2.0580  2.2700 
  6823.500 -10.166  2.3660  1.9640  2.2050 -10.166  2.3660  1.9640  2.2050 
  6824.000 -10.889  2.3370  1.9570  2.1690 -10.889  2.3370  1.9570  2.1690 
  6824.500 -10.891  2.3120  1.9490  2.1750 -10.891  2.3120  1.9490  2.1750 
  6825.000 -10.712  2.2860  1.9420  2.1890 -10.712  2.2860  1.9420  2.1890 
  6825.500 -10.317  2.1920  1.9410  2.2250 -10.317  2.1920  1.9410  2.2250 
  6826.000 -9.8870  2.0840  1.9410  2.2670 -9.8870  2.0840  1.9410  2.2670 
  6826.500 -9.4560  1.9760  1.9400  2.3030 -9.4560  1.9760  1.9400  2.3030 
  6827.000 -9.0970  1.9260  1.9400  2.3170 -9.0970  1.9260  1.9400  2.3170 
  6827.500 -9.6400  1.8610  1.9400  2.3310 -9.6400  1.8610  1.9400  2.3310 
  6828.000 -10.904  2.0900  1.9460  2.3730 -10.904  2.0900  1.9460  2.3730 
  6828.500 -11.915  2.2260  1.9460  2.3160 -11.915  2.2260  1.9460  2.3160 
  6829.000 -12.998  2.3980  1.9450  2.2290 -12.998  2.3980  1.9450  2.2290 
  6829.500 -13.613  2.5910  1.9450  2.1710 -13.613  2.5910  1.9450  2.1710 
  6830.000 -14.913  2.8350  1.9520  2.0990 -14.913  2.8350  1.9520  2.0990 
  6830.500 -16.104  2.8560  1.9730  2.0630 -16.104  2.8560  1.9730  2.0630 
  6831.000 -16.827  2.8620  1.9870  2.0480 -16.827  2.8620  1.9870  2.0480 
  6831.500 -17.586  2.8760  2.0290  2.0690 -17.586  2.8760  2.0290  2.0690 
  6832.000 -17.696  2.8900  2.0790  2.1040 -17.696  2.8900  2.0790  2.1040 
  6832.500 -17.374  2.9040  2.1220  2.2690 -17.374  2.9040  2.1220  2.2690 
  6833.000 -17.303  2.9970  2.2860  2.5840 -17.303  2.9970  2.2860  2.5840 
  6833.500 -17.233  3.2550  2.4440  2.8570 -17.233  3.2550  2.4440  2.8570 
  6834.000 -16.875  3.6420  2.6370  3.0930 -16.875  3.6420  2.6370  3.0930 
  6834.500 -16.228  3.9790  2.8590  3.2510 -16.228  3.9790  2.8590  3.2510 
  6835.000 -15.220  4.2090  3.0240  3.3580 -15.220  4.2090  3.0240  3.3580 
  6835.500 -14.609  4.3160  3.1100  3.4080 -14.609  4.3160  3.1100  3.4080 
  6836.000 -14.070  4.3230  3.1310  3.3430 -14.070  4.3230  3.1310  3.3430 
  6836.500 -13.531  4.1070  3.0160  3.1560 -13.531  4.1070  3.0160  3.1560 
  6837.000 -13.209  3.1440  2.8210  2.5880 -13.209  3.1440  2.8210  2.5880 
  6837.500 -13.139  2.7710  2.4330  2.3290 -13.139  2.7710  2.4330  2.3290 
  6838.000 -13.069  2.5260  2.0810  2.1570 -13.069  2.5260  2.0810  2.1570 
  6838.500 -13.034  2.3540  1.9230  2.1060 -13.034  2.3540  1.9230  2.1060 
  6839.000 -13.000  2.2600  1.9080  2.0910 -13.000  2.2600  1.9080  2.0910 
  6839.500 -13.363  2.2090  1.9220  2.0980 -13.363  2.2090  1.9220  2.0980 
  6840.000 -13.473  2.1800  1.9930  2.1120 -13.473  2.1800  1.9930  2.1120 
  6840.500 -13.583  2.1870  2.0290  2.1260 -13.583  2.1870  2.0290  2.1260 
  6841.000 -13.657  2.2220  2.1070  2.1400 -13.657  2.2220  2.1070  2.1400 
  6841.500 -13.803  2.2940  2.1360  2.1750 -13.803  2.2940  2.1360  2.1750 
  6842.000 -14.057  2.3430  2.1140  2.2110 -14.057  2.3430  2.1140  2.2110 
  6842.500 -14.888  2.4360  2.0560  2.2390 -14.888  2.4360  2.0560  2.2390 
  6843.000 -16.296  2.4930  2.0340  2.2740 -16.296  2.4930  2.0340  2.2740 
  6843.500 -17.776  2.6220  2.0480  2.3170 -17.776  2.6220  2.0480  2.3170 
  6844.000 -19.076  2.7150  2.1050  2.3380 -19.076  2.7150  2.1050  2.3380 
  6844.500 -20.123  2.7790  2.1900  2.3810 -20.123  2.7790  2.1900  2.3810 
  6845.000 -21.423  2.8220  2.2940  2.4300 -21.423  2.8220  2.2940  2.4300 
  6845.500 -22.650  2.8210  2.3980  2.4660 -22.650  2.8210  2.3980  2.4660 
  6846.000 -23.734  2.7780  2.6200  2.5520 -23.734  2.7780  2.6200  2.5520 
  6846.500 -24.853  2.7340  2.7340  2.7240 -24.853  2.7340  2.7340  2.7240 
  6847.000 -25.972  2.6980  2.7910  2.9600 -25.972  2.6980  2.7910  2.9600 
  6847.500 -27.452  2.8340  2.8410  3.1460 -27.452  2.8340  2.8410  3.1460 
  6848.000 -29.329  2.9200  2.9050  3.4260 -29.329  2.9200  2.9050  3.4260 
  6848.500 -31.602  3.0050  2.9910  3.6050 -31.602  3.0050  2.9910  3.6050 
  6849.000 -34.019  3.2350  3.0480  3.7910 -34.019  3.2350  3.0480  3.7910 
  6849.500 -37.915  3.4490  3.2630  4.0130 -37.915  3.4490  3.2630  4.0130 
  6850.000 -76.635  3.7070  3.5350  4.1560 -76.635  3.7070  3.5350  4.1560 
  6850.500 -83.018  5.0420  3.8510  4.2780 -83.018  5.0420  3.8510  4.2780 
  6851.000 -87.381  6.9510  4.0370  4.3710 -87.381  6.9510  4.0370  4.3710 
  6851.500 -83.850  7.1800  4.1660  4.4200 -83.850  7.1800  4.1660  4.4200 
  6852.000 -82.915  7.3590  4.1940  4.4270 -82.915  7.3590  4.1940  4.4270 
  6852.500 -80.574  7.3660  4.1790  4.3840 -80.574  7.3660  4.1790  4.3840 
  6853.000 -78.412  7.2870  4.1140  4.3040 -78.412  7.2870  4.1140  4.3040 
  6853.500 -72.935  7.1570  4.0130  4.1320 -72.935  7.1570  4.0130  4.1320 
  6854.000 -68.791  6.9700  3.8980  3.9800 -68.791  6.9700  3.8980  3.9800 
  6854.500 -54.192  6.5750  3.7180  3.7930 -54.192  6.5750  3.7180  3.7930 
  6855.000 -46.984  5.9500  3.5240  3.6780 -46.984  5.9500  3.5240  3.6780 
  6855.500 -44.535  5.0310  3.3220  3.5560 -44.535  5.0310  3.3220  3.5560 
  6856.000 -42.013  4.5780  3.0850  3.4330 -42.013  4.5780  3.0850  3.4330 
  6856.500 -44.935  4.1110  2.9190  3.3610 -44.935  4.1110  2.9190  3.3610 
  6857.000 -59.681  4.0240  2.8260  3.2960 -59.681  4.0240  2.8260  3.2960 
  6857.500 -59.900  4.2320  2.7820  3.2450 -59.900  4.2320  2.7820  3.2450 
  6858.000 -58.964  4.3250  2.7750  3.2020 -58.964  4.3250  2.7750  3.2020 
  6858.500 -57.885  4.3750  2.7810  3.1800 -57.885  4.3750  2.7810  3.1800 
  6859.000 -55.507  4.3670  2.8020  3.1580 -55.507  4.3670  2.8020  3.1580 
  6859.500 -49.885  4.3170  2.8520  3.1290 -49.885  4.3170  2.8520  3.1290 
  6860.000 -48.120  4.1870  2.9380  3.1210 -48.120  4.1870  2.9380  3.1210 
  6860.500 -54.756  3.9780  3.0600  3.1170 -54.756  3.9780  3.0600  3.1170 
  6861.000 -68.925  3.8200  3.1880  3.1130 -68.925  3.8200  3.1880  3.1130 
  6861.500 -71.343  3.8770  3.3460  3.1020 -71.343  3.8770  3.3460  3.1020 
  6862.000 -72.967  3.9910  3.4390  3.0910 -72.967  3.9910  3.4390  3.0910 
  6862.500 -74.339  4.1490  3.5240  3.0760 -74.339  4.1490  3.5240  3.0760 
  6863.000 -73.259  4.2200  3.6390  3.0610 -73.259  4.2200  3.6390  3.0610 
  6863.500 -66.123  4.1480  3.6810  3.0390 -66.123  4.1480  3.6810  3.0390 
  6864.000 -61.474  3.9970  3.6950  2.9810 -61.474  3.9970  3.6950  2.9810 
  6864.500 -57.078  3.7380  3.6520  2.8230 -57.078  3.7380  3.6520  2.8230 
  6865.000 -53.475  3.4290  3.4940  2.7000 -53.475  3.4290  3.4940  2.7000 
  6865.500 -51.494  3.2130  3.3850  2.6350 -51.494  3.2130  3.3850  2.6350 
  6866.000 -54.164  2.9760  3.3780  2.6060 -54.164  2.9760  3.3780  2.6060 
  6866.500 -56.905  2.8030  3.3740  2.5770 -56.905  2.8030  3.3740  2.5770 
  6867.000 -56.835  2.6810  3.3700  2.5550 -56.835  2.6810  3.3700  2.5550 
  6867.500 -55.756  2.5870  3.3770  2.5550 -55.756  2.5870  3.3770  2.5550 
  6868.000 -55.000  2.5080  3.3830  2.5540 -55.000  2.5080  3.3830  2.5540 
  6868.500 -54.570  2.4640  3.3900  2.5540 -54.570  2.4640  3.3900  2.5540 
