~Version Information
VERS.                     2.0: CWLS log ASCII Standard Version 2.00
WRAP.                      NO: One line per depth step
~Well Information Block
#MNEM.UNIT                               Data Type  Information
#---------                               ---------  -----------
STRT.FT                                   450.0000:
STOP.FT                                  8370.0000:
STEP.FT                                     0.5000:
NULL.                 -999.25                     :
COMP.                                             :COMPANY            
WELL.     LLU56-20 OR CCMO 56-20                  :WELL               
FLD .                                             :FIELD              
CTRY.                                             :COUNTRY            
STAT.                                             :STATE              
LOC .                                             :LOCATION           
UWI .                                             :UNIQUE WELL ID     
SRVC.                                             :Service company    
DATE.                                             :LOG DATE           
~Curve Information
#MNEM.UNIT           API CODE  Curve Description
#---------           --------  -----------------
DEPT.FT                      :   1 DEPTH
SP  .MV                      :   2
SN16.OHMM                    :   3
LN64.OHMM                    :   4
LAT .OHMM                    :   5
SBL .MV                      :   6
RS  .OHMM                    :   7
RM  .OHMM                    :   8
RD  .OHMM                    :   9
DEVI.DEG                     :  10
TVD .FT                      :  11
AZIM.DEG                     :  12
NORT.FT                      :  13
EAST.FT                      :  14
OFFS.FT                      :  15
~A
# ...
  6755.000 -6.3210  1.5150  2.1720  1.7290 -4.5503  1.5150  2.1720  1.7290  1.7750  6750.5  99.998  90.846  173.03  186.59 
  6755.500 -6.2300  1.5030  2.1720  1.7300 -4.4590  1.5030  2.1720  1.7300  1.7775  6751.0  100.30  90.843  173.04  186.60 
  6756.000 -6.2290  1.4910  2.1730  1.7310 -4.4578  1.4910  2.1730  1.7310  1.7800  6751.5  100.60  90.840  173.06  186.61 
  6756.500 -6.2270  1.4910  2.1550  1.7130 -4.4555  1.4910  2.1550  1.7130  1.7825  6752.0  100.90  90.837  173.07  186.61 
  6757.000 -6.2250  1.4910  2.1370  1.6960 -4.4533  1.4910  2.1370  1.6960  1.7850  6752.5  101.20  90.834  173.09  186.62 
  6757.500 -6.2230  1.4560  2.1370  1.6790 -4.4510  1.4560  2.1370  1.6790  1.7875  6753.0  101.50  90.831  173.11  186.63 
  6758.000 -6.2220  1.4560  2.1370  1.6620 -4.4498  1.4560  2.1370  1.6620  1.7900  6753.5  101.80  90.828  173.12  186.64 
  6758.500 -6.1310  1.4560  2.1380  1.6440 -4.3585  1.4560  2.1380  1.6440  1.7925  6754.0  102.10  90.825  173.14  186.65 
  6759.000 -6.0400  1.4380  2.1380  1.6270 -4.2673  1.4380  2.1380  1.6270  1.7950  6754.5  102.40  90.821  173.15  186.66 
  6759.500 -5.8590  1.4200  2.1380  1.6280 -4.0860  1.4200  2.1380  1.6280  1.7975  6755.0  102.70  90.818  173.17  186.66 
  6760.000 -5.6780  1.4030  2.1380  1.6290 -3.9048  1.4030  2.1380  1.6290  1.8000  6755.5  103.00  90.814  173.18  186.67 
  6760.500 -5.6770  1.3850  2.1380  1.6290 -3.9035  1.3850  2.1380  1.6290  1.8025  6756.0  103.30  90.811  173.20  186.68 
  6761.000 -5.4960  1.3850  2.1560  1.6300 -3.7223  1.3850  2.1560  1.6300  1.8050  6756.5  103.60  90.807  173.21  186.69 
  6761.500 -5.4940  1.3670  2.1740  1.6310 -3.7200  1.3670  2.1740  1.6310  1.8075  6757.0  103.90  90.803  173.23  186.70 
  6762.000 -5.4040  1.3500  2.1750  1.6140 -3.6297  1.3500  2.1750  1.6140  1.8100  6757.5  104.20  90.799  173.24  186.71 
  6762.500 -5.3130  1.3500  2.1750  1.5960 -3.5385  1.3500  2.1750  1.5960  1.8125  6758.0  104.50  90.795  173.26  186.71 
  6763.000 -5.3110  1.3500  2.1750  1.5970 -3.5362  1.3500  2.1750  1.5970  1.8150  6758.5  104.80  90.791  173.27  186.72 
  6763.500 -5.3090  1.3500  2.1750  1.5980 -3.5340  1.3500  2.1750  1.5980  1.8175  6759.0  105.10  90.787  173.29  186.73 
  6764.000 -5.3070  1.3500  2.1750  1.5990 -3.5317  1.3500  2.1750  1.5990  1.8200  6759.5  105.40  90.783  173.30  186.74 
  6764.500 -5.3950  1.3680  2.1760  1.5990 -3.6195  1.3680  2.1760  1.5990  1.8225  6760.0  105.70  90.779  173.32  186.75 
  6765.000 -5.4820  1.3860  2.1760  1.6180 -3.7062  1.3860  2.1760  1.6180  1.8250  6760.5  106.00  90.774  173.33  186.75 
  6765.500 -5.5700  1.3870  2.1580  1.6370 -3.7940  1.3870  2.1580  1.6370  1.8275  6761.0  106.30  90.770  173.35  186.76 
  6766.000 -5.6580  1.3870  2.1400  1.6370 -3.8817  1.3870  2.1400  1.6370  1.8300  6761.5  106.60  90.765  173.37  186.77 
  6766.500 -5.8340  1.3870  2.1400  1.6380 -4.0575  1.3870  2.1400  1.6380  1.8325  6762.0  106.90  90.760  173.38  186.78 
  6767.000 -6.1890  1.4230  2.1410  1.6390 -4.4122  1.4230  2.1410  1.6390  1.8350  6762.5  107.20  90.756  173.40  186.78 
  6767.500 -6.3660  1.4410  2.1410  1.6390 -4.5890  1.4410  2.1410  1.6390  1.8375  6763.0  107.50  90.751  173.41  186.79 
  6768.000 -6.5430  1.4590  2.1410  1.6760 -4.7657  1.4590  2.1410  1.6760  1.8400  6763.5  107.80  90.746  173.43  186.80 
  6768.500 -6.7200  1.4600  2.1410  1.7130 -4.9424  1.4600  2.1410  1.7130  1.8425  6764.0  108.10  90.741  173.44  186.81 
  6769.000 -6.8070  1.4600  2.1410  1.7310 -5.0292  1.4600  2.1410  1.7310  1.8450  6764.5  108.40  90.736  173.46  186.81 
  6769.500 -6.8950  1.4960  2.1410  1.7500 -5.1169  1.4960  2.1410  1.7500  1.8475  6765.0  108.70  90.731  173.47  186.82 
  6770.000 -7.1610  1.4960  2.1420  1.7860 -5.3827  1.4960  2.1420  1.7860  1.8500  6765.5  109.00  90.726  173.49  186.83 
  6770.500 -7.4270  1.5320  2.1420  1.8230 -5.6484  1.5320  2.1420  1.8230  1.8525  6766.0  109.30  90.720  173.50  186.83 
  6771.000 -7.6930  1.5680  2.1780  1.8420 -5.9142  1.5680  2.1780  1.8420  1.8550  6766.5  109.60  90.715  173.52  186.84 
  6771.500 -7.9590  1.5860  2.1780  1.8600 -6.1799  1.5860  2.1780  1.8600  1.8575  6767.0  109.90  90.709  173.53  186.85 
  6772.000 -8.1360  1.6040  2.1780  1.8610 -6.3567  1.6040  2.1780  1.8610  1.8600  6767.5  110.20  90.704  173.55  186.85 
  6772.500 -8.3130  1.6220  2.1780  1.8980 -6.5334  1.6220  2.1780  1.8980  1.8625  6768.0  110.50  90.698  173.56  186.86 
  6773.000 -8.6670  1.6410  2.1790  1.8990 -6.8872  1.6410  2.1790  1.8990  1.8650  6768.5  110.80  90.692  173.58  186.87 
  6773.500 -8.6660  1.6770  2.1790  1.8990 -6.8859  1.6770  2.1790  1.8990  1.8675  6769.0  111.10  90.686  173.59  186.87 
  6774.000 -8.6640  1.6770  2.1790  1.9000 -6.8837  1.6770  2.1790  1.9000  1.8700  6769.5  111.40  90.680  173.61  186.88 
  6774.500 -8.6620  1.6770  2.1790  1.9010 -6.8814  1.6770  2.1790  1.9010  1.8725  6770.0  111.70  90.674  173.62  186.89 
  6775.000 -8.6600  1.6770  2.1790  1.9010 -6.8791  1.6770  2.1790  1.9010  1.8750  6770.5  112.00  90.668  173.64  186.89 
  6775.500 -8.6590  1.6770  2.1800  1.9020 -6.8779  1.6770  2.1800  1.9020  1.8775  6771.0  112.30  90.662  173.65  186.90 
  6776.000 -8.4780  1.6770  2.1800  1.9030 -6.6966  1.6770  2.1800  1.9030  1.8800  6771.5  112.60  90.656  173.67  186.91 
  6776.500 -8.1190  1.6780  2.1800  1.8800 -6.3374  1.6780  2.1800  1.8800  1.8825  6772.0  112.90  90.649  173.69  186.91 
  6777.000 -7.9390  1.6780  2.2160  1.8560 -6.1571  1.6780  2.2160  1.8560  1.8850  6772.5  113.20  90.643  173.70  186.92 
  6777.500 -7.5800  1.6780  2.2520  1.8330 -5.7979  1.6780  2.2520  1.8330  1.8875  6773.0  113.50  90.636  173.72  186.92 
  6778.000 -7.4890  1.6780  2.2880  1.7620 -5.7066  1.6780  2.2880  1.7620  1.8900  6773.5  113.80  90.630  173.73  186.93 
  6778.500 -7.3980  1.6780  2.2880  1.7630 -5.6154  1.6780  2.2880  1.7630  1.8925  6774.0  114.10  90.623  173.75  186.94 
  6779.000 -7.2180  1.6790  2.3240  1.7640 -5.4351  1.6790  2.3240  1.7640  1.8950  6774.5  114.40  90.616  173.76  186.94 
  6779.500 -7.0380  1.6790  2.3250  1.7640 -5.2549  1.6790  2.3250  1.7640  1.8975  6775.0  114.70  90.609  173.78  186.95 
  6780.000 -7.0350  1.6790  2.3610  1.7290 -5.2516  1.6790  2.3610  1.7290  1.9000  6775.5  115.00  90.602  173.79  186.95 
  6780.500 -7.2120  1.6790  2.3970  1.7300 -5.4284  1.6790  2.3970  1.7300  1.9025  6776.0  115.30  90.595  173.81  186.96 
  6781.000 -7.3890  1.7150  2.3970  1.7130 -5.6051  1.7150  2.3970  1.7130  1.9050  6776.5  115.60  90.588  173.82  186.97 
  6781.500 -7.5660  1.7150  2.3970  1.6950 -5.7819  1.7150  2.3970  1.6950  1.9075  6777.0  115.90  90.581  173.84  186.97 
  6782.000 -7.7430  1.7510  2.3610  1.7320 -5.9586  1.7510  2.3610  1.7320  1.9100  6777.5  116.20  90.573  173.85  186.98 
  6782.500 -8.0090  1.7870  2.3260  1.7330 -6.2243  1.7870  2.3260  1.7330  1.9125  6778.0  116.50  90.566  173.87  186.98 
  6783.000 -8.2750  1.8950  2.3260  1.7690 -6.4901  1.8950  2.3260  1.7690  1.9150  6778.5  116.80  90.558  173.88  186.99 
  6783.500 -8.6300  1.9130  2.3020  1.7700 -6.8448  1.9130  2.3020  1.7700  1.9175  6779.0  117.10  90.551  173.90  186.99 
  6784.000 -8.9850  1.9310  2.2780  1.8430 -7.1996  1.9310  2.2780  1.8430  1.9200  6779.5  117.40  90.543  173.91  187.00 
  6784.500 -9.1630  1.9500  2.2540  1.8790 -7.3773  1.9500  2.2540  1.8790  1.9225  6780.0  117.70  90.535  173.93  187.00 
  6785.000 -9.3400  1.9680  2.2190  1.9160 -7.5541  1.9680  2.2190  1.9160  1.9250  6780.5  118.00  90.527  173.94  187.01 
  6785.500 -9.7840  1.9680  2.2010  1.9340 -7.9978  1.9680  2.2010  1.9340  1.9275  6781.0  118.30  90.519  173.95  187.01 
  6786.000 -10.229  1.9320  2.1830  1.9530 -8.4426  1.9320  2.1830  1.9530  1.9300  6781.5  118.60  90.511  173.97  187.02 
  6786.500 -10.406  1.9320  2.1830  1.9180 -8.6193  1.9320  2.1830  1.9180  1.9325  6782.0  118.90  90.503  173.98  187.02 
  6787.000 -10.582  1.9150  2.1840  1.8830 -8.7951  1.9150  2.1840  1.8830  1.9350  6782.5  119.20  90.495  174.00  187.03 
