~Version Information
VERS.                     2.0: CWLS log ASCII Standard Version 2.00
WRAP.                      NO: One line per depth step
~Well Information Block
#MNEM.UNIT                               Data Type  Information
#---------                               ---------  -----------
STRT.FT                                   450.0000:
STOP.FT                                  8370.0000:
STEP.FT                                     0.5000:
NULL.                 -999.25                     :
COMP.                                             :COMPANY            
WELL.     LLU56-20 OR CCMO 56-20                  :WELL               
FLD .                                             :FIELD              
CTRY.                                             :COUNTRY            
STAT.                                             :STATE              
LOC .                                             :LOCATION           
UWI .                                             :UNIQUE WELL ID     
SRVC.                                             :Service company    
DATE.                                             :LOG DATE           
~Curve Information
#MNEM.UNIT           API CODE  Curve Description
#---------           --------  -----------------
DEPT.FT                      :   1 DEPTH
SP  .MV                      :   2
SN16.OHMM                    :   3
LN64.OHMM                    :   4
LAT .OHMM                    :   5
SBL .MV                      :   6
RS  .OHMM                    :   7
RM  .OHMM                    :   8
RD  .OHMM                    :   9
DEVI.DEG                     :  10
TVD .FT                      :  11
AZIM.DEG                     :  12
NORT.FT                      :  13
EAST.FT                      :  14
OFFS.FT                      :  15
~A
# ...
  2042.500 -11.809  2.7650  4.3450  4.7960 -10.985  2.7650  4.3450  4.7960  0.9625  2042.0  26.050  31.494  22.647  38.283 
  2043.000 -10.736  2.7650  4.3810  4.7240 -9.9251  2.7650  4.3810  4.7240  0.9650  2042.5  25.980  31.501  22.650  38.291 
  2043.500 -10.557  2.7650  4.4160  4.6880 -9.7588  2.7650  4.4160  4.6880  0.9675  2043.0  25.910  31.509  22.654  38.299 
  2044.000 -10.199  2.6930  4.4340  4.6520 -9.4135  2.6930  4.4340  4.6520  0.9700  2043.5  25.840  31.517  22.658  38.307 
  2044.500 -10.020  2.6930  4.4520  4.6160 -9.2471  2.6930  4.4520  4.6160  0.9725  2044.0  25.770  31.524  22.662  38.315 
  2045.000 -9.8410  2.6930  4.4880  4.5080 -9.0808  2.6930  4.4880  4.5080  0.9750  2044.5  25.700  31.532  22.665  38.323 
  2045.500 -10.020  2.6930  4.5240  4.4000 -9.2725  2.6930  4.5240  4.4000  0.9775  2045.0  25.630  31.540  22.669  38.331 
  2046.000 -10.199  2.6930  4.5240  4.4360 -9.4642  2.6930  4.5240  4.4360  0.9800  2045.5  25.560  31.547  22.673  38.339 
  2046.500 -10.378  2.7290  4.5240  4.4720 -9.6558  2.7290  4.5240  4.4720  0.9825  2046.0  25.490  31.555  22.676  38.347 
  2047.000 -10.557  2.7650  4.5240  4.5430 -9.8475  2.7650  4.5240  4.5430  0.9850  2046.5  25.420  31.563  22.680  38.355 
  2047.500 -10.915  2.8010  4.5240  4.5070 -10.218  2.8010  4.5240  4.5070  0.9875  2047.0  25.350  31.571  22.684  38.364 
  2048.000 -11.272  2.8370  4.5420  4.5070 -10.588  2.8370  4.5420  4.5070  0.9900  2047.5  25.280  31.578  22.687  38.372 
  2048.500 -11.451  2.9440  4.5600  4.4350 -10.780  2.9440  4.5600  4.4350  0.9925  2048.0  25.210  31.586  22.691  38.380 
  2049.000 -11.809  2.9800  4.5600  4.3990 -11.150  2.9800  4.5600  4.3990  0.9950  2048.5  25.140  31.594  22.695  38.388 
  2049.500 -11.988  3.0160  4.5960  4.3630 -11.342  3.0160  4.5960  4.3630  0.9975  2049.0  25.070  31.602  22.698  38.396 
  2050.000 -11.630  3.0520  4.6320  4.2910 -10.997  3.0520  4.6320  4.2910  1.0000  2049.5  25.000  31.610  22.702  38.404 
  2050.500 -11.451  3.1240  4.6680  4.2550 -10.830  3.1240  4.6680  4.2550  1.0025  2050.0  24.930  31.618  22.706  38.413 
  2051.000 -11.630  3.1420  4.6860  4.2190 -11.022  3.1420  4.6860  4.2190  1.0050  2050.5  24.860  31.626  22.710  38.421 
  2051.500 -11.630  3.1600  4.7040  4.1830 -11.035  3.1600  4.7040  4.1830  1.0075  2051.0  24.790  31.634  22.713  38.429 
  2052.000 -11.720  3.1600  4.7400  4.1820 -11.137  3.1600  4.7400  4.1820  1.0100  2051.5  24.720  31.642  22.717  38.437 
  2052.500 -11.809  3.1780  4.7760  4.1820 -11.239  3.1780  4.7760  4.1820  1.0125  2052.0  24.650  31.650  22.721  38.446 
  2053.000 -11.988  3.1960  4.7580  4.1640 -11.431  3.1960  4.7580  4.1640  1.0150  2052.5  24.580  31.658  22.724  38.454 
  2053.500 -11.988  3.1600  4.7400  4.1460 -11.443  3.1600  4.7400  4.1460  1.0175  2053.0  24.510  31.666  22.728  38.462 
  2054.000 -12.167  3.2320  4.7580  4.1280 -11.635  3.2320  4.7580  4.1280  1.0200  2053.5  24.440  31.674  22.732  38.471 
  2054.500 -12.167  3.2670  4.7760  4.1100 -11.648  3.2670  4.7760  4.1100  1.0225  2054.0  24.370  31.682  22.735  38.479 
  2055.000 -12.167  3.3030  4.8110  4.0380 -11.660  3.3030  4.8110  4.0380  1.0250  2054.5  24.300  31.690  22.739  38.487 
  2055.500 -11.988  3.3030  4.8470  4.0020 -11.494  3.3030  4.8470  4.0020  1.0275  2055.0  24.230  31.698  22.743  38.496 
  2056.000 -11.899  3.3030  4.8830  3.9660 -11.418  3.3030  4.8830  3.9660  1.0300  2055.5  24.160  31.707  22.746  38.504 
  2056.500 -11.809  3.3030  4.9370  3.8580 -11.340  3.3030  4.9370  3.8580  1.0325  2056.0  24.090  31.715  22.750  38.513 
  2057.000 -11.273  3.3210  4.9910  3.7860 -10.817  3.3210  4.9910  3.7860  1.0350  2056.5  24.020  31.723  22.754  38.521 
  2057.500 -11.094  3.3390  5.0270  3.7680 -10.651  3.3390  5.0270  3.7680  1.0375  2057.0  23.950  31.731  22.757  38.529 
  2058.000 -11.094  3.3750  5.0630  3.7490 -10.663  3.3750  5.0630  3.7490  1.0400  2057.5  23.880  31.740  22.761  38.538 
  2058.500 -11.630  3.4290  5.1710  3.7670 -11.212  3.4290  5.1710  3.7670  1.0425  2058.0  23.810  31.748  22.765  38.546 
  2059.000 -11.988  3.4830  5.2060  3.7850 -11.583  3.4830  5.2060  3.7850  1.0450  2058.5  23.740  31.756  22.768  38.555 
  2059.500 -12.883  3.5910  5.2420  3.8920 -12.490  3.5910  5.2420  3.8920  1.0475  2059.0  23.670  31.765  22.772  38.563 
  2060.000 -13.956  3.6980  5.3140  4.0000 -13.576  3.6980  5.3140  4.0000  1.0500  2059.5  23.600  31.773  22.776  38.572 
  2060.500 -15.388  3.8420  5.3500  4.1790 -15.021  3.8420  5.3500  4.1790  1.0525  2060.0  23.530  31.782  22.779  38.580 
  2061.000 -16.640  3.9500  5.4220  4.4300 -16.285  3.9500  5.4220  4.4300  1.0550  2060.5  23.460  31.790  22.783  38.589 
  2061.500 -18.430  4.0930  5.4580  4.5020 -18.088  4.0930  5.4580  4.5020  1.0575  2061.0  23.390  31.799  22.787  38.598 
  2062.000 -20.219  4.3450  5.4580  4.5740 -19.890  4.3450  5.4580  4.5740  1.0600  2061.5  23.320  31.807  22.790  38.606 
  2062.500 -20.040  4.5600  5.4940  4.6450 -19.723  4.5600  5.4940  4.6450  1.0625  2062.0  23.250  31.816  22.794  38.615 
  2063.000 -19.861  4.7400  5.5300  4.6810 -19.557  4.7400  5.5300  4.6810  1.0650  2062.5  23.180  31.824  22.798  38.623 
  2063.500 -19.503  5.0630  5.5660  4.8250 -19.212  5.0630  5.5660  4.8250  1.0675  2063.0  23.110  31.833  22.801  38.632 
  2064.000 -19.682  5.3500  5.4580  4.9680 -19.403  5.3500  5.4580  4.9680  1.0700  2063.5  23.040  31.841  22.805  38.641 
  2064.500 -20.219  5.4580  5.3500  5.1830 -19.953  5.4580  5.3500  5.1830  1.0725  2064.0  22.970  31.850  22.809  38.649 
  2065.000 -21.113  5.6010  5.2060  5.4340 -20.860  5.6010  5.2060  5.4340  1.0750  2064.5  22.900  31.858  22.812  38.658 
  2065.500 -21.471  5.6370  5.1710  5.6500 -21.230  5.6370  5.1710  5.6500  1.0775  2065.0  22.830  31.867  22.816  38.667 
  2066.000 -21.650  5.6010  5.1890  6.0090 -21.422  5.6010  5.1890  6.0090  1.0800  2065.5  22.760  31.876  22.820  38.676 
  2066.500 -21.561  5.4580  5.2070  6.1340 -21.346  5.4580  5.2070  6.1340  1.0825  2066.0  22.690  31.885  22.823  38.684 
  2067.000 -21.471  5.2060  5.2420  6.2600 -21.268  5.2060  5.2420  6.2600  1.0850  2066.5  22.620  31.893  22.827  38.693 
  2067.500 -21.203  4.8830  5.2780  5.8290 -21.013  4.8830  5.2780  5.8290  1.0875  2067.0  22.550  31.902  22.831  38.702 
  2068.000 -20.934  4.8290  5.4580  5.3970 -20.757  4.8290  5.4580  5.3970  1.0900  2067.5  22.480  31.911  22.834  38.711 
  2068.500 -19.861  4.7760  5.7090  4.2840 -19.696  4.7760  5.7090  4.2840  1.0925  2068.0  22.410  31.920  22.838  38.719 
  2069.000 -19.503  4.7040  5.9250  4.1400 -19.351  4.7040  5.9250  4.1400  1.0950  2068.5  22.340  31.928  22.841  38.728 
  2069.500 -19.503  4.5960  6.2120  3.9970 -19.364  4.5960  6.2120  3.9970  1.0975  2069.0  22.270  31.937  22.845  38.737 
  2070.000 -19.861  4.5780  6.4270  3.8530 -19.734  4.5780  6.4270  3.8530  1.1000  2069.5  22.200  31.946  22.849  38.746 
  2070.500 -20.040  4.5600  6.4990  3.7090 -19.926  4.5600  6.4990  3.7090  1.1025  2070.0  22.130  31.955  22.852  38.755 
  2071.000 -20.219  4.4170  6.4990  3.7450 -20.118  4.4170  6.4990  3.7450  1.1050  2070.5  22.060  31.964  22.856  38.764 
  2071.500 -20.397  4.4170  6.4630  3.7800 -20.308  4.4170  6.4630  3.7800  1.1075  2071.0  21.990  31.973  22.860  38.773 
  2072.000 -20.935  4.4170  6.3200  3.9600 -20.859  4.4170  6.3200  3.9600  1.1100  2071.5  21.920  31.982  22.863  38.781 
  2072.500 -21.471  4.4340  6.2120  4.0670 -21.408  4.4340  6.2120  4.0670  1.1125  2072.0  21.850  31.991  22.867  38.790 
  2073.000 -21.650  4.4520  6.1040  4.1030 -21.599  4.4520  6.1040  4.1030  1.1150  2072.5  21.780  32.000  22.870  38.799 
  2073.500 -21.292  4.4520  5.9610  4.1210 -21.254  4.4520  5.9610  4.1210  1.1175  2073.0  21.710  32.009  22.874  38.808 
  2074.000 -21.113  4.4880  5.8890  4.1390 -21.088  4.4880  5.8890  4.1390  1.1200  2073.5  21.640  32.018  22.878  38.817 
  2074.500 -20.934  4.5240  5.7450  4.2100 -20.921  4.5240  5.7450  4.2100  1.1225  2074.0  21.570  32.027  22.881  38.826 
