~Version Information
VERS.                     2.0: CWLS log ASCII Standard Version 2.00
WRAP.                      NO: One line per depth step
~Well Information Block
#MNEM.UNIT                               Data Type  Information
#---------                               ---------  -----------
STRT.FT                                   350.0000:
STOP.FT                                  6900.0000:
STEP.FT                                     0.5000:
NULL.                 -999.25                     :
COMP.                                             :COMPANY            
WELL.     LLU 57-20 OR CCMO 57-20                 :WELL               
FLD .                                             :FIELD              
CTRY.                                             :COUNTRY            
STAT.                                             :STATE              
LOC .                                             :LOCATION           
UWI .                                             :UNIQUE WELL ID     
SRVC.                                             :Service company    
DATE.                                             :LOG DATE           
~Curve Information
#MNEM.UNIT           API CODE  Curve Description
#---------           --------  -----------------
DEPT.FT                      :   1 DEPTH
SP  .MV                      :   2
AM10.OHMM                    :   3
AO10.OHMM                    :   4
AO19.OHMM                    :   5
SBL .MV                      :   6
RS  .OHMM                    :   7
RM  .OHMM                    :   8
RD  .OHMM                    :   9
~A
# ...
  1622.000 -46.417  12.584  24.041  19.807 -34.182  12.584  24.041  19.807 
  1622.500 -46.241  12.475  24.178  19.873 -34.017  12.475  24.178  19.873 
  1623.000 -46.461  12.388  24.385  19.938 -34.247  12.388  24.385  19.938 
  1623.500 -46.608  12.237  24.591  20.074 -34.404  12.237  24.591  20.074 
  1624.000 -46.288  11.985  24.943  20.209 -34.094  11.985  24.943  20.209 
  1624.500 -46.075  12.049  25.366  20.344 -33.891  12.049  25.366  20.344 
  1625.000 -45.180  12.141  25.717  20.480 -33.006  12.141  25.717  20.480 
  1625.500 -43.816  12.212  26.283  20.615 -31.652  12.212  26.283  20.615 
  1626.000 -40.366  12.247  26.562  20.464 -28.212  12.247  26.562  20.464 
  1626.500 -37.348  11.995  26.338  20.026 -25.204  11.995  26.338  20.026 
  1627.000 -34.078  11.306  25.972  18.616 -21.944  11.306  25.972  18.616 
  1627.500 -31.994  10.200  25.247  17.769 -19.870  10.200  25.247  17.769 
  1628.000 -29.804  8.8220  23.159  16.699 -17.691  8.8220  23.159  16.699 
  1628.500 -28.368  7.1430  20.209  11.999 -16.265  7.1430  20.209  11.999 
  1629.000 -26.753  5.9800  17.548  11.073 -14.660  5.9800  17.548  11.073 
  1629.500 -24.994  5.1470  16.173  10.111 -12.911  5.1470  16.173  10.111 
  1630.000 -23.235  4.4430  14.867  9.5150 -11.162  4.4430  14.867  9.5150 
  1630.500 -21.476  3.9760  13.381  8.7900 -9.4129  3.9760  13.381  8.7900 
  1631.000 -20.507  3.4660  11.221  8.4800 -8.4540  3.4660  11.221  8.4800 
  1631.500 -19.217  3.1640  9.7780  8.8740 -7.1741  3.1640  9.7780  8.8740 
  1632.000 -18.572  2.9620  9.1820  9.1030 -6.5392  2.9620  9.1820  9.1030 
  1632.500 -17.857  2.9470  8.3060  9.4320 -5.8343  2.9470  8.3060  9.4320 
  1633.000 -17.644  3.0250  8.4200  9.6610 -5.6314  3.0250  8.4200  9.6610 
  1633.500 -17.252  3.1180  8.5840  9.9040 -5.2495  3.1180  8.5840  9.9040 
  1634.000 -17.040  3.2960  8.7410  10.068 -5.0476  3.2960  8.7410  10.068 
  1634.500 -17.080  3.4030  8.8050  10.139 -5.0977  3.4030  8.8050  10.139 
  1635.000 -17.876  3.4530  8.7970  9.9950 -5.9037  3.4530  8.7970  9.9950 
  1635.500 -18.707  3.4450  8.7530  9.8290 -6.7448  3.4450  8.7530  9.8290 
  1636.000 -18.927  3.3940  8.6300  9.6850 -6.9749  3.3940  8.6300  9.6850 
  1636.500 -18.931  3.3350  8.3350  9.6770 -6.9890  3.3350  8.3350  9.6770 
  1637.000 -18.575  3.2910  7.9760  9.8050 -6.6431  3.2910  7.9760  9.8050 
  1637.500 -18.344  3.2840  7.7100  9.9480 -6.4222  3.2840  7.7100  9.9480 
  1638.000 -18.112  3.2970  7.5650  10.256 -6.2003  3.2970  7.5650  10.256 
  1638.500 -17.938  3.3320  7.4430  10.534 -6.0364  3.3320  7.4430  10.534 
  1639.000 -17.834  3.4680  7.4130  10.713 -5.9424  3.4680  7.4130  10.713 
  1639.500 -18.053  3.5890  7.4410  10.956 -6.1715  3.5890  7.4410  10.956 
  1640.000 -18.345  3.8540  7.4910  11.199 -6.4736  3.8540  7.4910  11.199 
  1640.500 -22.738  4.1760  7.6910  11.457 -10.877  4.1760  7.6910  11.457 
  1641.000 -24.613  4.3970  7.9340  11.621 -12.762  4.3970  7.9340  11.621 
  1641.500 -25.839  4.6830  8.0620  11.800 -13.998  4.6830  8.0620  11.800 
  1642.000 -26.887  4.8620  8.1470  11.985 -15.056  4.8620  8.1470  11.985 
  1642.500 -27.539  5.0910  8.1900  12.049 -15.718  5.0910  8.1900  12.049 
  1643.000 -27.470  5.2690  8.2100  12.034 -15.659  5.2690  8.2100  12.034 
  1643.500 -26.431  5.4120  8.1590  11.732 -14.630  5.4120  8.1590  11.732 
  1644.000 -26.110  5.4330  7.8930  11.100 -14.319  5.4330  7.8930  11.100 
  1644.500 -24.891  5.2880  7.4330  10.676 -13.110  5.2880  7.4330  10.676 
  1645.000 -22.988  4.7930  7.1740  10.223 -11.218  4.7930  7.1740  10.223 
  1645.500 -21.697  4.2470  6.7500  9.5910 -9.9366  4.2470  6.7500  9.5910 
  1646.000 -20.657  3.8230  6.3330  8.9020 -8.9067  3.8230  6.3330  8.9020 
  1646.500 -19.581  3.4990  5.8810  8.4850 -7.8408  3.4990  5.8810  8.4850 
  1647.000 -18.578  3.2260  5.5500  8.0530 -6.8479  3.2260  5.5500  8.0530 
  1647.500 -18.257  2.9240  5.1550  7.5940 -6.5369  2.9240  5.1550  7.5940 
  1648.000 -17.902  2.7360  4.8740  7.3420 -6.1920  2.7360  4.8740  7.3420 
  1648.500 -17.833  2.6780  4.7220  7.1540 -6.1331  2.6780  4.7220  7.1540 
  1649.000 -17.764  2.6130  4.7220  7.0250 -6.0742  2.6130  4.7220  7.0250 
  1649.500 -17.661  2.5470  4.7500  6.8940 -5.9813  2.5470  4.7500  6.8940 
  1650.000 -17.593  2.5320  4.7780  6.8360 -5.9234  2.5320  4.7780  6.8360 
  1650.500 -17.631  2.5170  4.8340  6.9290 -5.9715  2.5170  4.8340  6.9290 
  1651.000 -18.641  2.5960  4.9560  7.1080 -6.9916  2.5960  4.9560  7.1080 
  1651.500 -20.226  2.7030  5.0560  7.2870 -8.5867  2.7030  5.0560  7.2870 
  1652.000 -20.805  2.8170  5.2420  7.3870 -9.1757  2.8170  5.2420  7.3870 
  1652.500 -21.167  2.9460  5.4490  7.5230 -9.5478  2.9460  5.4490  7.5230 
  1653.000 -20.990  3.1030  5.6640  7.6150 -9.3809  3.1030  5.6640  7.6150 
  1653.500 -20.669  3.2240  5.8210  7.4280 -9.0700  3.2240  5.8210  7.4280 
  1654.000 -20.455  3.2890  5.9640  7.2990 -8.8661  3.2890  5.9640  7.2990 
  1654.500 -20.169  3.3890  6.0500  7.1260 -8.5902  3.3890  6.0500  7.1260 
  1655.000 -19.633  3.4670  6.1000  6.9820 -8.0643  3.4670  6.1000  6.9820 
  1655.500 -19.348  3.3370  5.9770  6.9310 -7.7894  3.3370  5.9770  6.9310 
  1656.000 -19.151  3.2290  5.8620  6.8950 -7.6024  3.2290  5.8620  6.8950 
  1656.500 -18.955  3.2430  5.7540  6.8660 -7.4165  3.2430  5.7540  6.8660 
  1657.000 -18.527  3.2640  5.6310  6.8510 -6.9986  3.2640  5.6310  6.8510 
  1657.500 -18.314  3.3490  5.5520  6.9010 -6.7957  3.3490  5.5520  6.9010 
  1658.000 -18.316  3.4140  5.5230  7.1650 -6.8078  3.4140  5.5230  7.1650 
  1658.500 -18.966  3.5350  5.4970  7.4230 -7.4679  3.5350  5.4970  7.4230 
  1659.000 -19.508  3.6570  5.4720  7.6590 -8.0200  3.6570  5.4720  7.6590 
  1659.500 -20.698  3.8430  5.5430  7.7950 -9.2201  3.8430  5.5430  7.7950 
  1660.000 -23.219  4.0210  5.7070  7.8880 -11.751  4.0210  5.7070  7.8880 
  1660.500 -24.481  4.3360  5.8650  7.9880 -13.023  4.3360  5.8650  7.9880 
  1661.000 -25.059  4.5080  6.0150  8.0520 -13.611  4.5080  6.0150  8.0520 
  1661.500 -24.378  4.6660  6.0790  8.0800 -12.940  4.6660  6.0790  8.0800 
  1662.000 -23.516  4.7580  6.1000  8.1230 -12.089  4.7580  6.1000  8.1230 
  1662.500 -22.727  4.8010  6.1210  8.1400 -11.310  4.8010  6.1210  8.1400 
  1663.000 -22.802  4.8220  6.1420  8.1580 -11.395  4.8220  6.1420  8.1580 
  1663.500 -23.848  4.8280  6.1630  8.1710 -12.451  4.8280  6.1630  8.1710 
  1664.000 -24.534  4.8280  6.1840  8.1640 -13.147  4.8280  6.1840  8.1640 
  1664.500 -24.897  4.7920  6.2090  8.1060 -13.520  4.7920  6.2090  8.1060 
  1665.000 -24.683  4.6980  6.2330  7.8830 -13.316  4.6980  6.2330  7.8830 
  1665.500 -24.325  4.6180  6.2760  7.5240 -12.968  4.6180  6.2760  7.5240 
  1666.000 -23.644  4.4750  6.3040  7.1860 -12.297  4.4750  6.3040  7.1860 
  1666.500 -22.962  4.3020  6.1600  6.8560 -11.625  4.3020  6.1600  6.8560 
  1667.000 -21.994  4.1080  5.9370  6.5680 -10.667  4.1080  5.9370  6.5680 
  1667.500 -21.241  3.8560  5.7500  6.2740 -9.9245  3.8560  5.7500  6.2740 
  1668.000 -20.739  3.5470  5.3400  6.0510 -9.4326  3.5470  5.3400  6.0510 
  1668.500 -20.238  3.2960  4.9020  5.7340 -8.9417  3.2960  4.9020  5.7340 
  1669.000 -19.342  3.0580  4.5650  5.6050 -8.0557  3.0580  4.5650  5.6050 
  1669.500 -18.841  2.8930  4.5570  5.5760 -7.5648  2.8930  4.5570  5.5760 
  1670.000 -19.095  2.6840  4.6640  5.7260 -7.8289  2.6840  4.6640  5.7260 
  1670.500 -19.745  2.6120  4.8430  5.8330 -8.4890  2.6120  4.8430  5.8330 
  1671.000 -20.431  2.7840  5.1510  5.9040 -9.1851  2.7840  5.1510  5.9040 
  1671.500 -20.073  2.8840  5.2870  5.9610 -8.8372  2.8840  5.2870  5.9610 
  1672.000 -19.069  3.0480  5.4010  5.9890 -7.8433  3.0480  5.4010  5.9890 
  1672.500 -18.495  3.2200  5.4650  5.9890 -7.2794  3.2200  5.4650  5.9890 
  1673.000 -18.066  3.3340  5.5360  5.9380 -6.8605  3.3340  5.5360  5.9380 
  1673.500 -17.853  3.4270  5.5430  5.8300 -6.6575  3.4270  5.5430  5.8300 
  1674.000 -17.855  3.5480  5.5280  5.7220 -6.6696  3.5480  5.5280  5.7220 
  1674.500 -18.038  3.4900  5.5130  5.6710 -6.8627  3.4900  5.5130  5.6710 
