~Version Information
VERS.                     2.0: CWLS log ASCII Standard Version 2.00
WRAP.                      NO: One line per depth step
~Well Information Block
#MNEM.UNIT                               Data Type  Information
#---------                               ---------  -----------
STRT.FT                                   450.0000:
STOP.FT                                  8370.0000:
STEP.FT                                     0.5000:
NULL.                 -999.25                     :
COMP.                                             :COMPANY            
WELL.     LLU56-20 OR CCMO 56-20                  :WELL               
FLD .                                             :FIELD              
CTRY.                                             :COUNTRY            
STAT.                                             :STATE              
LOC .                                             :LOCATION           
UWI .                                             :UNIQUE WELL ID     
SRVC.                                             :Service company    
DATE.                                             :LOG DATE           
~Curve Information
#MNEM.UNIT           API CODE  Curve Description
#---------           --------  -----------------
DEPT.FT                      :   1 DEPTH
SP  .MV                      :   2
SN16.OHMM                    :   3
LN64.OHMM                    :   4
LAT .OHMM                    :   5
SBL .MV                      :   6
RS  .OHMM                    :   7
RM  .OHMM                    :   8
RD  .OHMM                    :   9
DEVI.DEG                     :  10
TVD .FT                      :  11
AZIM.DEG                     :  12
NORT.FT                      :  13
EAST.FT                      :  14
OFFS.FT                      :  15
~A
# ...
  6235.000 -9.3390  4.4020  4.6170  4.4250 -7.8321  4.4020  4.6170  4.4250  3.2375  6230.9  105.35  95.503  154.35  176.67 
  6235.500 -9.3370  4.4020  4.4380  4.6410 -7.8298  4.4020  4.4380  4.6410  3.2338  6231.4  105.35  95.495  154.38  176.69 
  6236.000 -9.1570  4.3670  4.4030  4.8200 -7.6496  4.3670  4.4030  4.8200  3.2300  6231.9  105.36  95.488  154.41  176.70 
  6236.500 -9.1550  4.3310  4.4030  4.8020 -7.6473  4.3310  4.4030  4.8020  3.2263  6232.4  105.36  95.480  154.43  176.72 
  6237.000 -9.1540  4.1160  4.4030  4.7850 -7.6461  4.1160  4.4030  4.7850  3.2225  6232.9  105.37  95.473  154.46  176.73 
  6237.500 -9.1520  3.8660  4.5470  4.5340 -7.6438  3.8660  4.5470  4.5340  3.2188  6233.4  105.37  95.465  154.49  176.74 
  6238.000 -9.1500  3.7580  4.6010  4.2470 -7.6416  3.7580  4.6010  4.2470  3.2150  6233.9  105.38  95.458  154.51  176.76 
  6238.500 -9.1480  3.6690  4.6550  4.0320 -7.6393  3.6690  4.6550  4.0320  3.2113  6234.4  105.38  95.450  154.54  176.77 
  6239.000 -9.3250  3.5800  4.9430  3.7450 -7.8161  3.5800  4.9430  3.7450  3.2075  6234.9  105.39  95.443  154.57  176.78 
  6239.500 -9.6800  3.5080  5.0870  3.4940 -8.1708  3.5080  5.0870  3.4940  3.2038  6235.4  105.39  95.436  154.60  176.80 
  6240.000 -10.214  3.4730  5.1230  3.1350 -8.7046  3.4730  5.1230  3.1350  3.2000  6235.9  105.40  95.428  154.62  176.81 
  6240.500 -10.748  3.4370  5.0870  2.9200 -9.2383  3.4370  5.0870  2.9200  3.1963  6236.4  105.40  95.421  154.65  176.83 
  6241.000 -11.282  3.4910  5.1240  2.9380 -9.7720  3.4910  5.1240  2.9380  3.1925  6236.9  105.41  95.413  154.68  176.84 
  6241.500 -11.816  3.5450  5.0520  2.9570 -10.306  3.5450  5.0520  2.9570  3.1888  6237.4  105.41  95.406  154.70  176.85 
  6242.000 -12.350  3.7610  4.9810  3.1360 -10.840  3.7610  4.9810  3.1360  3.1850  6237.9  105.42  95.399  154.73  176.87 
  6242.500 -14.491  4.0130  4.8380  3.2440 -12.980  4.0130  4.8380  3.2440  3.1813  6238.4  105.42  95.391  154.76  176.88 
  6243.000 -16.811  4.2640  4.6940  3.3520 -15.300  4.2640  4.6940  3.3520  3.1775  6238.9  105.43  95.384  154.78  176.89 
  6243.500 -20.023  4.5160  4.6050  3.6390 -18.512  4.5160  4.6050  3.6390  3.1738  6239.4  105.43  95.376  154.81  176.91 
  6244.000 -23.057  4.8030  4.5160  3.7290 -21.546  4.8030  4.5160  3.7290  3.1700  6239.9  105.44  95.369  154.84  176.92 
  6244.500 -26.627  5.0900  4.4980  3.8190 -25.115  5.0900  4.4980  3.8190  3.1663  6240.4  105.44  95.362  154.86  176.94 
  6245.000 -32.875  5.3780  4.4810  3.8910 -31.363  5.3780  4.4810  3.8910  3.1625  6240.9  105.45  95.354  154.89  176.95 
  6245.500 -35.016  5.5930  4.5530  3.9270 -33.504  5.5930  4.5530  3.9270  3.1588  6241.4  105.45  95.347  154.92  176.96 
  6246.000 -36.800  5.6650  4.5710  3.9270 -35.288  5.6650  4.5710  3.9270  3.1550  6241.9  105.46  95.340  154.94  176.98 
  6246.500 -36.620  5.7370  4.5890  3.9270 -35.107  5.7370  4.5890  3.9270  3.1513  6242.4  105.46  95.332  154.97  176.99 
  6247.000 -36.440  5.8810  4.5900  3.8560 -34.927  5.8810  4.5900  3.8560  3.1475  6242.9  105.47  95.325  155.00  177.00 
  6247.500 -35.723  5.8100  4.5900  3.7840 -34.210  5.8100  4.5900  3.7840  3.1438  6243.4  105.47  95.318  155.02  177.02 
  6248.000 -35.007  5.7380  4.5900  3.7840 -33.493  5.7380  4.5900  3.7840  3.1400  6243.9  105.48  95.310  155.05  177.03 
  6248.500 -34.113  5.6850  4.5910  3.7130 -32.599  5.6850  4.5910  3.7130  3.1363  6244.4  105.48  95.303  155.07  177.04 
  6249.000 -33.218  5.6310  4.5910  3.6770 -31.704  5.6310  4.5910  3.6770  3.1325  6244.9  105.49  95.296  155.10  177.06 
  6249.500 -31.252  5.4880  4.5920  3.6410 -29.738  5.4880  4.5920  3.6410  3.1288  6245.4  105.49  95.289  155.13  177.07 
  6250.000 -30.893  5.4170  4.5740  3.6410 -29.378  5.4170  4.5740  3.6410  3.1250  6245.9  105.50  95.281  155.15  177.08 
  6250.500 -30.177  5.3640  4.5560  3.6410 -28.662  5.3640  4.5560  3.6410  3.1213  6246.4  105.50  95.274  155.18  177.10 
  6251.000 -29.997  5.3100  4.5210  3.6420 -28.482  5.3100  4.5210  3.6420  3.1175  6246.9  105.51  95.267  155.21  177.11 
  6251.500 -29.816  5.2390  4.4500  3.6780 -28.301  5.2390  4.4500  3.6780  3.1138  6247.4  105.51  95.259  155.23  177.12 
  6252.000 -29.457  5.2030  4.4140  3.7140 -27.941  5.2030  4.4140  3.7140  3.1100  6247.9  105.52  95.252  155.26  177.14 
  6252.500 -29.277  5.1320  4.3780  3.7500 -27.761  5.1320  4.3780  3.7500  3.1063  6248.4  105.52  95.245  155.28  177.15 
  6253.000 -29.097  5.0960  4.3430  3.7860 -27.581  5.0960  4.3430  3.7860  3.1025  6248.9  105.53  95.238  155.31  177.16 
  6253.500 -28.648  5.0250  4.3430  3.7860 -27.132  5.0250  4.3430  3.7860  3.0988  6249.4  105.53  95.230  155.34  177.18 
  6254.000 -28.200  4.9540  4.3440  3.7860 -26.683  4.9540  4.3440  3.7860  3.0950  6249.9  105.54  95.223  155.36  177.19 
  6254.500 -27.662  4.8820  4.3440  3.7860 -26.145  4.8820  4.3440  3.7860  3.0913  6250.4  105.54  95.216  155.39  177.20 
  6255.000 -26.946  4.8110  4.3440  3.7870 -25.429  4.8110  4.3440  3.7870  3.0875  6250.9  105.55  95.209  155.41  177.22 
  6255.500 -26.230  4.7390  4.3810  3.8230 -24.713  4.7390  4.3810  3.8230  3.0838  6251.4  105.55  95.202  155.44  177.23 
  6256.000 -25.693  4.6320  4.3810  3.8230 -24.175  4.6320  4.3810  3.8230  3.0800  6251.9  105.56  95.194  155.47  177.24 
  6256.500 -24.977  4.5610  4.3810  3.8230 -23.459  4.5610  4.3810  3.8230  3.0763  6252.4  105.56  95.187  155.49  177.26 
  6257.000 -24.261  4.4540  4.3820  3.7870 -22.743  4.4540  4.3820  3.7870  3.0725  6252.9  105.57  95.180  155.52  177.27 
  6257.500 -22.294  4.3460  4.3820  3.7520 -20.776  4.3460  4.3820  3.7520  3.0688  6253.4  105.57  95.173  155.54  177.28 
  6258.000 -21.221  4.2750  4.3820  3.7160 -19.702  4.2750  4.3820  3.7160  3.0650  6253.8  105.58  95.166  155.57  177.30 
  6258.500 -21.041  4.2030  4.3830  3.6800 -19.522  4.2030  4.3830  3.6800  3.0613  6254.3  105.58  95.158  155.60  177.31 
  6259.000 -20.861  4.1500  4.3110  3.6800 -19.342  4.1500  4.3110  3.6800  3.0575  6254.8  105.59  95.151  155.62  177.32 
  6259.500 -20.681  4.0960  4.2400  3.6800 -19.162  4.0960  4.2400  3.6800  3.0538  6255.3  105.59  95.144  155.65  177.34 
  6260.000 -20.500  4.0250  4.0970  3.7880 -18.980  4.0250  4.0970  3.7880  3.0500  6255.8  105.60  95.137  155.67  177.35 
  6260.500 -20.320  3.9540  4.0260  3.8600 -18.800  3.9540  4.0260  3.8600  3.0463  6256.3  105.60  95.130  155.70  177.36 
  6261.000 -19.425  3.8110  3.8820  4.1830 -17.905  3.8110  3.8820  4.1830  3.0425  6256.8  105.61  95.123  155.72  177.37 
  6261.500 -18.173  3.7030  3.7390  4.4710 -16.653  3.7030  3.7390  4.4710  3.0388  6257.3  105.61  95.116  155.75  177.39 
  6262.000 -16.207  3.5600  3.5240  4.6860 -14.686  3.5600  3.5240  4.6860  3.0350  6257.8  105.62  95.108  155.77  177.40 
  6262.500 -14.241  3.4170  3.4170  4.7580 -12.720  3.4170  3.4170  4.7580  3.0313  6258.3  105.62  95.101  155.80  177.41 
  6263.000 -12.989  2.9870  3.4170  4.8300 -11.468  2.9870  3.4170  4.8300  3.0275  6258.8  105.63  95.094  155.83  177.43 
  6263.500 -12.809  2.8080  3.4180  4.8300 -11.288  2.8080  3.4180  4.8300  3.0238  6259.3  105.63  95.087  155.85  177.44 
  6264.000 -12.629  2.8440  3.4900  4.7580 -11.107  2.8440  3.4900  4.7580  3.0200  6259.8  105.64  95.080  155.88  177.45 
  6264.500 -12.448  2.8800  3.5620  4.6870 -10.926  2.8800  3.5620  4.6870  3.0163  6260.3  105.64  95.073  155.90  177.47 
  6265.000 -12.982  2.9170  3.6340  4.3280 -11.460  2.9170  3.6340  4.3280  3.0125  6260.8  105.65  95.066  155.93  177.48 
  6265.500 -13.873  3.0250  3.7060  4.0420 -12.351  3.0250  3.7060  4.0420  3.0088  6261.3  105.65  95.059  155.95  177.49 
  6266.000 -16.371  3.0610  3.8140  3.7190 -14.848  3.0610  3.8140  3.7190  3.0050  6261.8  105.66  95.052  155.98  177.50 
  6266.500 -19.941  3.1330  3.8860  3.5750 -18.418  3.1330  3.8860  3.5750  3.0013  6262.3  105.66  95.045  156.00  177.52 
  6267.000 -22.975  3.2050  3.9230  3.5040 -21.452  3.2050  3.9230  3.5040  2.9975  6262.8  105.67  95.037  156.03  177.53 
