~Version Information
VERS.                     2.0: CWLS log ASCII Standard Version 2.00
WRAP.                      NO: One line per depth step
~Well Information Block
#MNEM.UNIT                               Data Type  Information
#---------                               ---------  -----------
STRT.FT                                   350.0000:
STOP.FT                                  6900.0000:
STEP.FT                                     0.5000:
NULL.                 -999.25                     :
COMP.                                             :COMPANY            
WELL.     LLU 57-20 OR CCMO 57-20                 :WELL               
FLD .                                             :FIELD              
CTRY.                                             :COUNTRY            
STAT.                                             :STATE              
LOC .                                             :LOCATION           
UWI .                                             :UNIQUE WELL ID     
SRVC.                                             :Service company    
DATE.                                             :LOG DATE           
~Curve Information
#MNEM.UNIT           API CODE  Curve Description
#---------           --------  -----------------
DEPT.FT                      :   1 DEPTH
SP  .MV                      :   2
AM10.OHMM                    :   3
AO10.OHMM                    :   4
AO19.OHMM                    :   5
SBL .MV                      :   6
RS  .OHMM                    :   7
RM  .OHMM                    :   8
RD  .OHMM                    :   9
~A
# ...
  5544.000 -29.419  1.6000  1.6790  1.9920 -25.979  1.6000  1.6790  1.9920 
  5544.500 -29.132  1.6070  1.6720  1.9880 -25.694  1.6070  1.6720  1.9880 
  5545.000 -28.593  1.6220  1.6720  1.9850 -25.157  1.6220  1.6720  1.9850 
  5545.500 -28.090  1.6070  1.6790  1.9700 -24.656  1.6070  1.6790  1.9700 
  5546.000 -27.550  1.6070  1.6830  1.9630 -24.119  1.6070  1.6830  1.9630 
  5546.500 -26.796  1.6000  1.6860  1.9560 -23.367  1.6000  1.6860  1.9560 
  5547.000 -25.933  1.5850  1.6860  1.9410 -22.506  1.5850  1.6860  1.9410 
  5547.500 -25.537  1.5850  1.6860  1.9340 -22.112  1.5850  1.6860  1.9340 
  5548.000 -25.250  1.5560  1.6930  1.9270 -21.827  1.5560  1.6930  1.9270 
  5548.500 -25.035  1.5200  1.7000  1.9230 -21.615  1.5200  1.7000  1.9230 
  5549.000 -24.819  1.5130  1.7000  1.9190 -21.401  1.5130  1.7000  1.9190 
  5549.500 -24.622  1.4700  1.7000  1.9160 -21.206  1.4700  1.7000  1.9160 
  5550.000 -24.424  1.4560  1.7000  1.9120 -21.010  1.4560  1.7000  1.9120 
  5550.500 -24.026  1.4380  1.7000  1.9090 -20.615  1.4380  1.7000  1.9090 
  5551.000 -23.916  1.4210  1.7010  1.9060 -20.507  1.4210  1.7010  1.9060 
  5551.500 -23.842  1.4000  1.7050  1.8990 -20.435  1.4000  1.7050  1.8990 
  5552.000 -23.768  1.3930  1.7090  1.9000 -20.363  1.3930  1.7090  1.9000 
  5552.500 -23.513  1.3860  1.7100  1.9000 -20.111  1.3860  1.7100  1.9000 
  5553.000 -23.403  1.3790  1.7100  1.8860 -20.003  1.3790  1.7100  1.8860 
  5553.500 -23.293  1.3730  1.7110  1.8870 -19.895  1.3730  1.7110  1.8870 
  5554.000 -23.219  1.3660  1.7110  1.8800 -19.823  1.3660  1.7110  1.8800 
  5554.500 -23.145  1.3670  1.7080  1.8810 -19.751  1.3670  1.7080  1.8810 
  5555.000 -23.034  1.3670  1.7050  1.8740 -19.643  1.3670  1.7050  1.8740 
  5555.500 -22.960  1.3710  1.6980  1.8740 -19.571  1.3710  1.6980  1.8740 
  5556.000 -22.922  1.3750  1.6990  1.8750 -19.535  1.3750  1.6990  1.8750 
  5556.500 -22.920  1.3760  1.6990  1.8750 -19.535  1.3760  1.6990  1.8750 
  5557.000 -23.025  1.3840  1.6930  1.8760 -19.643  1.3840  1.6930  1.8760 
  5557.500 -23.059  1.3800  1.6860  1.8760 -19.679  1.3800  1.6860  1.8760 
  5558.000 -23.093  1.3770  1.6790  1.8770 -19.715  1.3770  1.6790  1.8770 
  5558.500 -23.090  1.3780  1.6760  1.8770 -19.714  1.3780  1.6760  1.8770 
  5559.000 -23.052  1.3710  1.6730  1.8780 -19.679  1.3710  1.6730  1.8780 
  5559.500 -22.978  1.3750  1.6740  1.8820 -19.607  1.3750  1.6740  1.8820 
  5560.000 -22.904  1.3790  1.6700  1.8860 -19.535  1.3790  1.6700  1.8860 
  5560.500 -22.685  1.3910  1.6670  1.8900 -19.318  1.3910  1.6670  1.8900 
  5561.000 -22.467  1.4020  1.6640  1.8940 -19.102  1.4020  1.6640  1.8940 
  5561.500 -22.249  1.4100  1.6610  1.9090 -18.887  1.4100  1.6610  1.9090 
  5562.000 -21.995  1.4170  1.6580  1.9170 -18.635  1.4170  1.6580  1.9170 
  5562.500 -21.849  1.4250  1.6550  1.9170 -18.491  1.4250  1.6550  1.9170 
  5563.000 -21.559  1.4330  1.6520  1.9180 -18.203  1.4330  1.6520  1.9180 
  5563.500 -21.485  1.4440  1.6490  1.9260 -18.132  1.4440  1.6490  1.9260 
  5564.000 -21.483  1.4550  1.6490  1.9330 -18.132  1.4550  1.6490  1.9330 
  5564.500 -21.624  1.4850  1.6500  1.9410 -18.275  1.4850  1.6500  1.9410 
  5565.000 -21.802  1.4920  1.6580  1.9450 -18.455  1.4920  1.6580  1.9450 
  5565.500 -22.087  1.5070  1.6580  1.9490 -18.743  1.5070  1.6580  1.9490 
  5566.000 -22.265  1.5180  1.6550  1.9500 -18.923  1.5180  1.6550  1.9500 
  5566.500 -22.406  1.5300  1.6520  1.9570 -19.066  1.5300  1.6520  1.9570 
  5567.000 -22.656  1.5340  1.6560  1.9610 -19.318  1.5340  1.6560  1.9610 
  5567.500 -22.689  1.5380  1.6600  1.9650 -19.353  1.5380  1.6600  1.9650 
  5568.000 -22.723  1.5380  1.6570  1.9700 -19.390  1.5380  1.6570  1.9700 
  5568.500 -22.613  1.5390  1.6540  1.9740 -19.282  1.5390  1.6540  1.9740 
  5569.000 -22.539  1.5390  1.6620  1.9740 -19.210  1.5390  1.6620  1.9740 
  5569.500 -22.357  1.5400  1.6690  1.9750 -19.030  1.5400  1.6690  1.9750 
  5570.000 -22.174  1.5260  1.6730  1.9750 -18.850  1.5260  1.6730  1.9750 
  5570.500 -22.100  1.5120  1.6770  1.9690 -18.778  1.5120  1.6770  1.9690 
  5571.000 -22.026  1.4840  1.6810  1.9690 -18.706  1.4840  1.6810  1.9690 
  5571.500 -21.844  1.4560  1.6860  1.9700 -18.526  1.4560  1.6860  1.9700 
  5572.000 -21.734  1.4200  1.7010  1.9700 -18.419  1.4200  1.7010  1.9700 
  5572.500 -21.588  1.4060  1.7120  1.9630 -18.275  1.4060  1.7120  1.9630 
  5573.000 -21.513  1.3710  1.7230  1.9570 -18.202  1.3710  1.7230  1.9570 
  5573.500 -21.439  1.3500  1.7380  1.9500 -18.130  1.3500  1.7380  1.9500 
  5574.000 -21.437  1.2780  1.7380  1.9430 -18.130  1.2780  1.7380  1.9430 
  5574.500 -22.046  1.3010  1.7460  1.9370 -18.742  1.3010  1.7460  1.9370 
  5575.000 -23.482  1.3510  1.7540  1.9370 -20.180  1.3510  1.7540  1.9370 
  5575.500 -24.739  1.3880  1.7690  1.9450 -21.439  1.3880  1.7690  1.9450 
  5576.000 -26.031  1.4530  1.7760  1.9450 -22.733  1.4530  1.7760  1.9450 
  5576.500 -27.036  1.4970  1.7910  1.9460 -23.741  1.4970  1.7910  1.9460 
  5577.000 -27.933  1.5620  1.7990  1.9540 -24.640  1.5620  1.7990  1.9540 
  5577.500 -29.009  1.5980  1.8070  1.9680 -25.718  1.5980  1.8070  1.9680 
  5578.000 -29.582  1.6450  1.8250  1.9760 -26.293  1.6450  1.8250  1.9760 
  5578.500 -29.508  1.6930  1.8440  1.9840 -26.221  1.6930  1.8440  1.9840 
  5579.000 -29.146  1.7580  1.8510  1.9990 -25.862  1.7580  1.8510  1.9990 
  5579.500 -28.676  1.7940  1.8550  2.0140 -25.394  1.7940  1.8550  2.0140 
  5580.000 -28.099  1.8310  1.8590  2.0320 -24.819  1.8310  1.8590  2.0320 
  5580.500 -27.701  1.9320  1.8740  2.0500 -24.423  1.9320  1.8740  2.0500 
  5581.000 -27.087  1.9610  1.8890  2.0650 -23.812  1.9610  1.8890  2.0650 
  5581.500 -26.473  1.9830  1.8970  2.0800 -23.200  1.9830  1.8970  2.0800 
  5582.000 -25.752  2.0200  1.8900  2.1020 -22.481  2.0200  1.8900  2.1020 
  5582.500 -25.066  2.0490  1.8910  2.1240 -21.797  2.0490  1.8910  2.1240 
  5583.000 -24.453  2.0570  1.8910  2.1030 -21.187  2.0570  1.8910  2.1030 
  5583.500 -24.055  1.9920  1.8950  2.0890 -20.791  1.9920  1.8950  2.0890 
  5584.000 -24.124  1.9210  1.8990  2.0760 -20.862  1.9210  1.8990  2.0760 
  5584.500 -24.374  1.8570  1.8960  2.0510 -21.114  1.8570  1.8960  2.0510 
  5585.000 -24.443  1.7930  1.8930  2.0260 -21.185  1.7930  1.8930  2.0260 
  5585.500 -24.459  1.7210  1.8940  1.9690 -21.204  1.7210  1.8940  1.9690 
  5586.000 -24.475  1.6500  1.8940  1.9480 -21.222  1.6500  1.8940  1.9480 
  5586.500 -24.365  1.5710  1.8950  1.9270 -21.114  1.5710  1.8950  1.9270 
  5587.000 -24.182  1.5430  1.8880  1.9060 -20.933  1.5430  1.8880  1.9060 
  5587.500 -23.785  1.5150  1.8850  1.8850 -20.539  1.5150  1.8850  1.8850 
  5588.000 -23.135  1.4720  1.8820  1.8640 -19.891  1.4720  1.8820  1.8640 
  5588.500 -22.449  1.4440  1.8750  1.8460 -19.207  1.4440  1.8750  1.8460 
  5589.000 -22.051  1.4340  1.8690  1.8290 -18.811  1.4340  1.8690  1.8290 
  5589.500 -21.582  1.4230  1.8620  1.8080 -18.345  1.4230  1.8620  1.8080 
  5590.000 -21.471  1.3880  1.8550  1.7940 -18.236  1.3880  1.8550  1.7940 
  5590.500 -21.433  1.3880  1.8410  1.7870 -18.200  1.3880  1.8410  1.7870 
  5591.000 -21.359  1.3890  1.8350  1.7810 -18.128  1.3890  1.8350  1.7810 
  5591.500 -21.177  1.3860  1.8320  1.7740 -17.948  1.3860  1.8320  1.7740 
  5592.000 -21.067  1.3830  1.8280  1.7750 -17.841  1.3830  1.8280  1.7750 
  5592.500 -20.992  1.3900  1.8220  1.7820 -17.768  1.3900  1.8220  1.7820 
  5593.000 -21.026  1.3980  1.8190  1.7900 -17.804  1.3980  1.8190  1.7900 
  5593.500 -21.276  1.4060  1.8160  1.7940 -18.056  1.4060  1.8160  1.7940 
  5594.000 -21.381  1.4060  1.8120  1.7980 -18.164  1.4060  1.8120  1.7980 
  5594.500 -21.487  1.4210  1.8090  1.8270 -18.272  1.4210  1.8090  1.8270 
  5595.000 -21.772  1.4290  1.8060  1.8420 -18.559  1.4290  1.8060  1.8420 
  5595.500 -21.842  1.4370  1.8030  1.8610 -18.631  1.4370  1.8030  1.8610 
  5596.000 -22.055  1.4440  1.8040  1.8790 -18.847  1.4440  1.8040  1.8790 
  5596.500 -22.017  1.4560  1.8040  1.8940 -18.811  1.4560  1.8040  1.8940 
