~Version Information
VERS.                     2.0: CWLS log ASCII Standard Version 2.00
WRAP.                      NO: One line per depth step
~Well Information Block
#MNEM.UNIT                               Data Type  Information
#---------                               ---------  -----------
STRT.FT                                   450.0000:
STOP.FT                                  8370.0000:
STEP.FT                                     0.5000:
NULL.                 -999.25                     :
COMP.                                             :COMPANY            
WELL.     LLU56-20 OR CCMO 56-20                  :WELL               
FLD .                                             :FIELD              
CTRY.                                             :COUNTRY            
STAT.                                             :STATE              
LOC .                                             :LOCATION           
UWI .                                             :UNIQUE WELL ID     
SRVC.                                             :Service company    
DATE.                                             :LOG DATE           
~Curve Information
#MNEM.UNIT           API CODE  Curve Description
#---------           --------  -----------------
DEPT.FT                      :   1 DEPTH
SP  .MV                      :   2
SN16.OHMM                    :   3
LN64.OHMM                    :   4
LAT .OHMM                    :   5
SBL .MV                      :   6
RS  .OHMM                    :   7
RM  .OHMM                    :   8
RD  .OHMM                    :   9
DEVI.DEG                     :  10
TVD .FT                      :  11
AZIM.DEG                     :  12
NORT.FT                      :  13
EAST.FT                      :  14
OFFS.FT                      :  15
~A
# ...
   970.000 -33.634  5.5650  8.2900  6.3900 -15.151  5.5650  8.2900  6.3900  1.4250  969.90  36.350  9.6234  7.0905  11.818 
   970.500 -32.556  5.6010  8.3260  6.4260 -14.094  5.6010  8.3260  6.4260  1.4263  970.40  36.327  9.6334  7.0978  11.831 
   971.000 -32.196  5.6010 -999.25  6.5340 -13.756  5.6010 -999.25  6.5340  1.4275  970.90  36.305  9.6435  7.1052  11.843 
   971.500 -33.807  5.7450  8.3990  6.6770 -15.388  5.7450  8.3990  6.6770  1.4288  971.40  36.282  9.6535  7.1126  11.855 
   972.000 -34.433  5.8170  8.3990  6.8210 -16.035  5.8170  8.3990  6.8210  1.4300  971.90  36.260  9.6636  7.1200  11.868 
   972.500 -35.059  5.8530  8.3630  6.9650 -16.682  5.8530  8.3630  6.9650  1.4313  972.40  36.237  9.6736  7.1274  11.880 
   973.000 -36.491  5.8890  8.2920  7.0540 -18.136  5.8890  8.2920  7.0540  1.4325  972.90  36.215  9.6837  7.1347  11.892 
   973.500 -36.848  6.0330 -999.25  7.1440 -18.514  6.0330 -999.25  7.1440  1.4338  973.40  36.192  9.6938  7.1421  11.905 
   974.000 -37.205  6.2120  8.2560  7.1620 -18.892  6.2120  8.2560  7.1620  1.4350  973.90  36.170  9.7039  7.1495  11.917 
   974.500 -38.099  6.3200 -999.25  7.1800 -19.807  6.3200 -999.25  7.1800  1.4363  974.40  36.147  9.7141  7.1569  11.930 
   975.000 -38.994  6.3920  8.4000  7.2160 -20.723  6.3920  8.4000  7.2160  1.4375  974.90  36.125  9.7242  7.1643  11.942 
   975.500 -40.785  6.4280  8.4720  7.3060 -22.536  6.4280  8.4720  7.3060  1.4388  975.40  36.102  9.7343  7.1717  11.954 
   976.000 -40.604  6.4640  8.5080  7.3960 -22.376  6.4640  8.5080  7.3960  1.4400  975.90  36.080  9.7445  7.1791  11.967 
   976.500 -40.423  6.5180  8.6160  7.6110 -22.216  6.5180  8.6160  7.6110  1.4413  976.40  36.057  9.7547  7.1865  11.979 
   977.000 -39.704  6.5720  8.6520  7.6470 -21.518  6.5720  8.6520  7.6470  1.4425  976.90  36.035  9.7648  7.1939  11.992 
   977.500 -38.985  6.6080  8.7590  7.6840 -20.821  6.6080  8.7590  7.6840  1.4438  977.40  36.012  9.7750  7.2013  12.004 
   978.000 -38.625  6.6260  8.8310  7.7200 -20.482  6.6260  8.8310  7.7200  1.4450  977.90  35.990  9.7852  7.2087  12.017 
   978.500 -38.444  6.6440  9.0110  7.7560 -20.322  6.6440  9.0110  7.7560  1.4463  978.40  35.967  9.7954  7.2161  12.029 
   979.000 -38.442  6.6800  9.1540  7.7920 -20.341  6.6800  9.1540  7.7920  1.4475  978.90  35.945  9.8057  7.2235  12.041 
   979.500 -38.978  6.7160  9.2980  7.8460 -20.898  6.7160  9.2980  7.8460  1.4488  979.40  35.922  9.8159  7.2310  12.054 
   980.000 -39.156  6.8240  9.4060  7.9000 -21.098  6.8240  9.4060  7.9000  1.4500  979.90  35.900  9.8261  7.2384  12.066 
   980.500 -39.333  6.8600  9.5130  7.9180 -21.296  6.8600  9.5130  7.9180  1.4513  980.40  35.877  9.8364  7.2458  12.079 
   981.000 -38.973  6.9140 -999.25  7.9360 -20.957  6.9140 -999.25  7.9360  1.4525  980.90  35.855  9.8467  7.2532  12.091 
   981.500 -38.433  6.9680  9.6570  8.0440 -20.438  6.9680  9.6570  8.0440  1.4538  981.40  35.832  9.8570  7.2607  12.104 
   982.000 -37.535  7.0760  9.8370  8.0440 -19.562  7.0760  9.8370  8.0440  1.4550  981.90  35.810  9.8673  7.2681  12.117 
   982.500 -37.354  7.2010  9.8730  8.1160 -19.402  7.2010  9.8730  8.1160  1.4563  982.40  35.787  9.8776  7.2755  12.129 
   983.000 -37.710  7.3270  9.9800  8.1880 -19.779  7.3270  9.9800  8.1880  1.4575  982.90  35.765  9.8879  7.2829  12.142 
   983.500 -39.143  7.5060 -999.25  8.2420 -21.233  7.5060 -999.25  8.2420  1.4588  983.40  35.742  9.8982  7.2904  12.154 
   984.000 -40.396  7.8290  10.088  8.2960 -22.507  7.8290  10.088  8.2960  1.4600  983.90  35.720  9.9086  7.2978  12.167 
   984.500 -41.022  8.0800 -999.25  8.4390 -23.155  8.0800 -999.25  8.4390  1.4613  984.40  35.697  9.9189  7.3053  12.179 
   985.000 -41.647  8.2060  10.340  8.5110 -23.801  8.2060  10.340  8.5110  1.4625  984.90  35.675  9.9293  7.3127  12.192 
   985.500 -42.004  8.3320  10.447  8.6190 -24.179  8.3320  10.447  8.6190  1.4638  985.40  35.652  9.9397  7.3201  12.205 
   986.000 -42.720  8.5470  10.627  8.7270 -24.916  8.5470  10.627  8.7270  1.4650  985.90  35.630  9.9501  7.3276  12.217 
   986.500 -43.435  8.7980  10.663  8.9420 -25.653  8.7980  10.663  8.9420  1.4663  986.40  35.607  9.9605  7.3350  12.230 
   987.000 -44.061  9.0850  10.842  9.0500 -26.300  9.0850  10.842  9.0500  1.4675  986.90  35.585  9.9709  7.3425  12.242 
   987.500 -44.686  9.3370  10.986  9.1930 -26.946  9.3370  10.986  9.1930  1.4688  987.40  35.562  9.9813  7.3499  12.255 
   988.000 -45.043  9.5880  11.166  9.2470 -27.324  9.5880  11.166  9.2470  1.4700  987.90  35.540  9.9917  7.3574  12.268 
   988.500 -45.400  9.7310  11.345  9.3010 -27.702  9.7310  11.345  9.3010  1.4713  988.40  35.517  10.002  7.3649  12.280 
   989.000 -45.577  9.8210  11.381  9.4090 -27.901  9.8210  11.381  9.4090  1.4725  988.90  35.495  10.013  7.3723  12.293 
   989.500 -45.755  9.9110 -999.25  9.4810 -28.100  9.9110 -999.25  9.4810  1.4738  989.40  35.472  10.023  7.3798  12.306 
   990.000 -46.112  10.055  11.453  9.5530 -28.478  10.055  11.453  9.5530  1.4750  989.90  35.450  10.034  7.3872  12.318 
   990.500 -46.648  10.198  11.453  9.6600 -29.035  10.198  11.453  9.6600  1.4763  990.40  35.427  10.044  7.3947  12.331 
   991.000 -46.646  10.324  11.453  9.6960 -29.054  10.324  11.453  9.6960  1.4775  990.90  35.405  10.055  7.4022  12.344 
   991.500 -46.285  10.450 -999.25  9.7330 -28.715  10.450 -999.25  9.7330  1.4788  991.40  35.382  10.065  7.4097  12.357 
   992.000 -46.015  10.522  11.310  9.9120 -28.466  10.522  11.310  9.9120  1.4800  991.90  35.360  10.076  7.4171  12.369 
   992.500 -45.744  10.558  10.593  9.9480 -28.216  10.558  10.593  9.9480  1.4813  992.40  35.337  10.086  7.4246  12.382 
   993.000 -45.384  10.522  9.8050  9.9660 -27.877  10.522  9.8050  9.9660  1.4825  992.90  35.315  10.097  7.4321  12.395 
   993.500 -45.023  9.9840  9.3750  9.9840 -27.538  9.9840  9.3750  9.9840  1.4838  993.40  35.292  10.107  7.4396  12.408 
   994.000 -44.125  9.4820  8.9440  9.8770 -26.661  9.4820  8.9440  9.8770  1.4850  993.90  35.270  10.118  7.4470  12.420 
   994.500 -43.406  9.1240  8.6940  9.7340 -25.963  9.1240  8.6940  9.7340  1.4863  994.40  35.247  10.128  7.4545  12.433 
   995.000 -41.970  8.7660 -999.25  9.4470 -24.548  8.7660 -999.25  9.4470  1.4875  994.90  35.225  10.139  7.4620  12.446 
   995.500 -40.893  8.2280  8.4790  9.0170 -23.492  8.2280  8.4790  9.0170  1.4888  995.40  35.202  10.150  7.4695  12.459 
   996.000 -40.263  7.7620  8.2640  8.5150 -22.884  7.7620  8.2640  8.5150  1.4900  995.90  35.180  10.160  7.4770  12.471 
   996.500 -39.634  6.7220  8.2280  7.6540 -22.276  6.7220  8.2280  7.6540  1.4913  996.40  35.157  10.171  7.4845  12.484 
   997.000 -38.377  6.1840  8.0850  7.2600 -21.040  6.1840  8.0850  7.2600  1.4925  996.90  35.135  10.182  7.4920  12.497 
   997.500 -36.941  5.8620  7.9060  6.7580 -19.625  5.8620  7.9060  6.7580  1.4938  997.40  35.112  10.192  7.4995  12.510 
   998.000 -34.967  5.7550  7.8340  6.3640 -17.673  5.7550  7.8340  6.3640  1.4950  997.89  35.090  10.203  7.5070  12.523 
   998.500 -34.428  5.5400  7.6190  6.1130 -17.155  5.5400  7.6190  6.1130  1.4963  998.39  35.067  10.214  7.5145  12.536 
   999.000 -32.633  5.4320 -999.25  6.0420 -15.381  5.4320 -999.25  6.0420  1.4975  998.89  35.045  10.224  7.5220  12.549 
   999.500 -31.735  5.3250  7.5120  5.9700 -14.504  5.3250  7.5120  5.9700  1.4988  999.39  35.022  10.235  7.5295  12.561 
  1000.000 -32.866  5.3790  7.6740  5.8990 -15.656  5.3790  7.6740  5.8990  1.5000  999.89  35.000  10.246  7.5370  12.574 
  1000.500 -33.761  5.2350  7.5840  5.9340 -16.573  5.2350  7.5840  5.9340  1.4988  1000.4  35.050  10.256  7.5445  12.587 
  1001.000 -34.119  5.0920  7.4940  5.9700 -16.952  5.0920  7.4940  5.9700  1.4975  1000.9  35.100  10.267  7.5520  12.600 
  1001.500 -33.403  4.9480  7.4050  5.8980 -16.257  4.9480  7.4050  5.8980  1.4963  1001.4  35.150  10.278  7.5595  12.613 
  1002.000 -32.149  4.8050  7.3150  5.8620 -15.024  4.8050  7.3150  5.8620  1.4950  1001.9  35.200  10.289  7.5671  12.626 
