~Version Information
VERS.                     2.0: CWLS log ASCII Standard Version 2.00
WRAP.                      NO: One line per depth step
~Well Information Block
#MNEM.UNIT                               Data Type  Information
#---------                               ---------  -----------
STRT.FT                                   450.0000:
STOP.FT                                  8370.0000:
STEP.FT                                     0.5000:
NULL.                 -999.25                     :
COMP.                                             :COMPANY            
WELL.     LLU56-20 OR CCMO 56-20                  :WELL               
FLD .                                             :FIELD              
CTRY.                                             :COUNTRY            
STAT.                                             :STATE              
LOC .                                             :LOCATION           
UWI .                                             :UNIQUE WELL ID     
SRVC.                                             :Service company    
DATE.                                             :LOG DATE           
~Curve Information
#MNEM.UNIT           API CODE  Curve Description
#---------           --------  -----------------
DEPT.FT                      :   1 DEPTH
SP  .MV                      :   2
SN16.OHMM                    :   3
LN64.OHMM                    :   4
LAT .OHMM                    :   5
SBL .MV                      :   6
RS  .OHMM                    :   7
RM  .OHMM                    :   8
RD  .OHMM                    :   9
DEVI.DEG                     :  10
TVD .FT                      :  11
AZIM.DEG                     :  12
NORT.FT                      :  13
EAST.FT                      :  14
OFFS.FT                      :  15
~A
# ...
  1490.000 -45.331  9.6460  12.156  13.164 -31.199  9.6460  12.156  13.164  1.9750  1489.7  39.000  22.409  16.084  27.219 
  1490.500 -47.484  10.793  12.264  13.414 -33.354  10.793  12.264  13.414  1.9762  1490.2  39.050  22.423  16.095  27.236 
  1491.000 -48.383  11.116  12.515  13.773 -34.255  11.116  12.515  13.773  1.9775  1490.7  39.100  22.436  16.106  27.253 
  1491.500 -49.282  11.295  12.801  14.024 -35.156  11.295  12.801  14.024  1.9787  1491.2  39.150  22.449  16.117  27.271 
  1492.000 -50.719  11.510  13.124  14.239 -36.596  11.510  13.124  14.239  1.9800  1491.7  39.200  22.463  16.128  27.288 
  1492.500 -51.797  11.654  13.877  14.328 -37.676  11.654  13.877  14.328  1.9812  1492.2  39.250  22.476  16.139  27.305 
  1493.000 -52.696  11.869  14.307  14.418 -38.577  11.869  14.307  14.418  1.9825  1492.7  39.300  22.490  16.150  27.322 
  1493.500 -52.879  12.048  14.702  14.543 -38.762  12.048  14.702  14.543  1.9837  1493.2  39.350  22.503  16.161  27.339 
  1494.000 -53.420  12.156  15.204  14.668 -39.305  12.156  15.204  14.668  1.9850  1493.7  39.400  22.516  16.172  27.357 
  1494.500 -53.782  12.299  15.562  14.883 -39.669  12.299  15.562  14.883  1.9862  1494.2  39.450  22.530  16.183  27.374 
  1495.000 -53.964  12.389  15.742  14.919 -39.853  12.389  15.742  14.919  1.9875  1494.7  39.500  22.543  16.194  27.391 
  1495.500 -54.057  12.479  15.957  14.954 -39.948  12.479  15.957  14.954  1.9887  1495.2  39.550  22.557  16.205  27.408 
  1496.000 -54.150  12.622  15.993  14.990 -40.043  12.622  15.993  14.990  1.9900  1495.7  39.600  22.570  16.216  27.426 
  1496.500 -54.154  12.766  16.029  14.990 -40.049  12.766  16.029  14.990  1.9912  1496.2  39.650  22.583  16.227  27.443 
  1497.000 -54.158  12.766  16.029  15.026 -40.055  12.766  16.029  15.026  1.9925  1496.7  39.700  22.597  16.238  27.460 
  1497.500 -54.340  12.837  15.993  15.061 -40.239  12.837  15.993  15.061  1.9937  1497.2  39.750  22.610  16.249  27.478 
  1498.000 -54.344  12.855  15.957  15.097 -40.245  12.855  15.957  15.097  1.9950  1497.7  39.800  22.623  16.260  27.495 
  1498.500 -53.989  12.873  15.849  15.133 -39.892  12.873  15.849  15.133  1.9962  1498.2  39.850  22.637  16.272  27.512 
  1499.000 -53.814  12.801  15.742  15.168 -39.719  12.801  15.742  15.168  1.9975  1498.7  39.900  22.650  16.283  27.530 
  1499.500 -53.638  12.783  15.670  15.204 -39.545  12.783  15.670  15.204  1.9987  1499.2  39.950  22.663  16.294  27.547 
  1500.000 -53.284  12.766  15.527  15.222 -39.193  12.766  15.527  15.222  2.0000  1499.7  40.000  22.677  16.305  27.564 
  1500.500 -53.102  12.622  15.276  15.240 -39.013  12.622  15.276  15.240  1.9962  1500.2  39.967  22.690  16.316  27.582 
  1501.000 -52.920  12.407  15.096  15.096 -38.833  12.407  15.096  15.096  1.9925  1500.7  39.935  22.704  16.328  27.599 
  1501.500 -52.559  12.013  14.774  14.738 -38.474  12.013  14.774  14.738  1.9887  1501.2  39.902  22.717  16.339  27.616 
  1502.000 -52.198  11.690  14.487  14.558 -38.115  11.690  14.487  14.558  1.9850  1501.7  39.870  22.730  16.350  27.634 
  1502.500 -51.658  11.403  14.236  14.379 -37.577  11.403  14.236  14.379  1.9812  1502.2  39.837  22.743  16.361  27.651 
  1503.000 -51.208  10.757  14.056  13.770 -37.129  10.757  14.056  13.770  1.9775  1502.7  39.805  22.757  16.372  27.668 
  1503.500 -50.757  10.578  13.698  13.447 -36.680  10.578  13.698  13.447  1.9737  1503.2  39.772  22.770  16.383  27.685 
  1504.000 -50.217  10.399  13.411  13.160 -36.142  10.399  13.411  13.160  1.9700  1503.7  39.740  22.783  16.394  27.702 
  1504.500 -49.498  10.004  12.766  12.837 -35.425  10.004  12.766  12.837  1.9662  1504.2  39.707  22.796  16.405  27.719 
  1505.000 -48.958  9.6460  11.905  12.550 -34.887  9.6460  11.905  12.550  1.9625  1504.7  39.675  22.810  16.416  27.736 
  1505.500 -47.344  9.3590  11.367  12.228 -33.275  9.3590  11.367  12.228  1.9587  1505.2  39.642  22.823  16.427  27.753 
  1506.000 -46.087  9.1080  10.793  11.833 -32.020  9.1080  10.793  11.833  1.9550  1505.7  39.610  22.836  16.438  27.770 
  1506.500 -40.711  8.8570  10.471  11.439 -26.646  8.8570  10.471  11.439  1.9512  1506.2  39.577  22.849  16.448  27.787 
  1507.000 -39.724  7.9610  10.148  11.044 -25.661  7.9610  10.148  11.044  1.9475  1506.7  39.545  22.862  16.459  27.804 
  1507.500 -38.736  7.4590  9.8610  10.220 -24.675  7.4590  9.8610  10.220  1.9437  1507.2  39.512  22.875  16.470  27.821 
  1508.000 -37.121  7.1720  9.7530  10.040 -23.062  7.1720  9.7530  10.040  1.9400  1507.7  39.480  22.888  16.481  27.838 
  1508.500 -35.686  6.8130  9.6100  9.7530 -21.629  6.8130  9.6100  9.7530  1.9362  1508.2  39.447  22.901  16.492  27.855 
  1509.000 -34.429  6.5620  9.5020  9.2870 -20.374  6.5620  9.5020  9.2870  1.9325  1508.7  39.415  22.914  16.502  27.872 
  1509.500 -32.636  6.2030  9.3590  8.7140 -18.583  6.2030  9.3590  8.7140  1.9287  1509.2  39.382  22.927  16.513  27.888 
  1510.000 -31.200  5.8090  9.2870  8.3550 -17.149  5.8090  9.2870  8.3550  1.9250  1509.7  39.350  22.940  16.524  27.905 
  1510.500 -30.660  5.5580  9.2160  8.1760 -16.611  5.5580  9.2160  8.1760  1.9212  1510.2  39.317  22.953  16.534  27.922 
  1511.000 -30.120  5.2350  9.0360  8.0680 -16.073  5.2350  9.0360  8.0680  1.9175  1510.6  39.285  22.966  16.545  27.938 
  1511.500 -29.938  5.1280  8.9830  8.0680 -15.893  5.1280  8.9830  8.0680  1.9137  1511.1  39.252  22.979  16.555  27.955 
  1512.000 -30.115  4.9840  8.9290  8.0680 -16.072  4.9840  8.9290  8.0680  1.9100  1511.6  39.220  22.992  16.566  27.972 
  1512.500 -30.291  4.8410  8.8210  8.0680 -16.251  4.8410  8.8210  8.0680  1.9062  1512.1  39.187  23.005  16.576  27.988 
  1513.000 -30.468  4.8770  8.7140  8.0860 -16.430  4.8770  8.7140  8.0860  1.9025  1512.6  39.155  23.018  16.587  28.005 
  1513.500 -30.107  4.9130  8.5340  8.1040 -16.071  4.9130  8.5340  8.1040  1.8987  1513.1  39.122  23.031  16.597  28.021 
  1514.000 -29.567  4.9840  8.3910  8.1400 -15.533  4.9840  8.3910  8.1400  1.8950  1513.6  39.090  23.043  16.608  28.038 
  1514.500 -29.743  5.0200  8.2470  8.1760 -15.711  5.0200  8.2470  8.1760  1.8912  1514.1  39.057  23.056  16.618  28.054 
  1515.000 -29.919  5.0200  8.1040  8.3190 -15.889  5.0200  8.1040  8.3190  1.8875  1514.6  39.025  23.069  16.628  28.070 
  1515.500 -30.275  5.0560  7.9610  8.4980 -16.247  5.0560  7.9610  8.4980  1.8837  1515.1  38.992  23.082  16.639  28.087 
  1516.000 -30.630  5.0920  7.8530  8.6780 -16.604  5.0920  7.8530  8.6780  1.8800  1515.6  38.960  23.095  16.649  28.103 
  1516.500 -31.523  5.3070  7.7810  9.0000 -17.499  5.3070  7.7810  9.0000  1.8762  1516.1  38.927  23.107  16.659  28.119 
  1517.000 -32.058  5.4150  7.7100  9.2510 -18.036  5.4150  7.7100  9.2510  1.8725  1516.6  38.895  23.120  16.670  28.136 
  1517.500 -32.951  5.4500  7.6020  10.004 -18.931  5.4500  7.6020  10.004  1.8687  1517.1  38.862  23.133  16.680  28.152 
  1518.000 -33.127  5.4860  7.5660  10.112 -19.109  5.4860  7.5660  10.112  1.8650  1517.6  38.830  23.145  16.690  28.168 
  1518.500 -33.304  5.4860  7.4940  10.011 -19.288  5.4860  7.4940  10.011  1.8612  1518.1  38.797  23.158  16.700  28.184 
  1519.000 -33.301  5.4860  7.5120  9.9090 -19.287  5.4860  7.5120  9.9090  1.8575  1518.6  38.765  23.171  16.710  28.200 
  1519.500 -33.298  5.4500  7.5300  9.8070 -19.286  5.4500  7.5300  9.8070  1.8537  1519.1  38.732  23.183  16.721  28.216 
  1520.000 -33.116  5.4150  7.5660  9.7060 -19.106  5.4150  7.5660  9.7060  1.8500  1519.6  38.700  23.196  16.731  28.232 
  1520.500 -33.114  5.4150  7.5660  9.6040 -19.106  5.4150  7.5660  9.6040  1.8462  1520.1  38.667  23.208  16.741  28.248 
  1521.000 -32.932  5.3790  7.5660  9.5030 -18.926  5.3790  7.5660  9.5030  1.8425  1520.6  38.635  23.221  16.751  28.264 
  1521.500 -32.929  5.3250  7.5300  9.4310 -18.925  5.3250  7.5300  9.4310  1.8387  1521.1  38.602  23.234  16.761  28.280 
  1522.000 -32.747  5.2710  7.4590  9.3590 -18.745  5.2710  7.4590  9.3590  1.8350  1521.6  38.570  23.246  16.771  28.296 
