~Version Information
VERS.                     2.0: CWLS log ASCII Standard Version 2.00
WRAP.                      NO: One line per depth step
~Well Information Block
#MNEM.UNIT                               Data Type  Information
#---------                               ---------  -----------
STRT.FT                                   450.0000:
STOP.FT                                  8370.0000:
STEP.FT                                     0.5000:
NULL.                 -999.25                     :
COMP.                                             :COMPANY            
WELL.     LLU56-20 OR CCMO 56-20                  :WELL               
FLD .                                             :FIELD              
CTRY.                                             :COUNTRY            
STAT.                                             :STATE              
LOC .                                             :LOCATION           
UWI .                                             :UNIQUE WELL ID     
SRVC.                                             :Service company    
DATE.                                             :LOG DATE           
~Curve Information
#MNEM.UNIT           API CODE  Curve Description
#---------           --------  -----------------
DEPT.FT                      :   1 DEPTH
SP  .MV                      :   2
SN16.OHMM                    :   3
LN64.OHMM                    :   4
LAT .OHMM                    :   5
SBL .MV                      :   6
RS  .OHMM                    :   7
RM  .OHMM                    :   8
RD  .OHMM                    :   9
DEVI.DEG                     :  10
TVD .FT                      :  11
AZIM.DEG                     :  12
NORT.FT                      :  13
EAST.FT                      :  14
OFFS.FT                      :  15
~A
   450.000 -999.25  13.841 -999.25 -999.25 -999.25  13.841 -999.25 -999.25  0.9000  449.98  31.500  3.2749  1.2587  3.2057 
   450.500 -999.25  13.984 -999.25 -999.25 -999.25  13.984 -999.25 -999.25  0.9010  450.48  31.535  3.2816  1.2628  3.2134 
   451.000 -999.25  14.056 -999.25 -999.25 -999.25  14.056 -999.25 -999.25  0.9020  450.98  31.570  3.2883  1.2669  3.2210 
   451.500 -999.25  14.091 -999.25 -999.25 -999.25  14.091 -999.25 -999.25  0.9030  451.48  31.605  3.2951  1.2710  3.2287 
   452.000 -999.25  14.127 -999.25 -999.25 -999.25  14.127 -999.25 -999.25  0.9040  451.98  31.640  3.3018  1.2752  3.2364 
   452.500 -999.25  14.234 -999.25 -999.25 -999.25  14.234 -999.25 -999.25  0.9050  452.48  31.675  3.3085  1.2793  3.2441 
   453.000 -46.624  14.234 -999.25 -999.25 -22.624  14.234 -999.25 -999.25  0.9060  452.98  31.710  3.3152  1.2835  3.2518 
   453.500 -48.419  14.197 -999.25 -999.25 -24.419  14.197 -999.25 -999.25  0.9070  453.48  31.745  3.3220  1.2876  3.2595 
   454.000 -49.496  13.982 -999.25 -999.25 -25.496  13.982 -999.25 -999.25  0.9080  453.98  31.780  3.3287  1.2918  3.2672 
   454.500 -50.215  14.017 -999.25 -999.25 -26.215  14.017 -999.25 -999.25  0.9090  454.48  31.815  3.3354  1.2960  3.2749 
   455.000 -50.934  14.268 -999.25 -999.25 -26.934  14.268 -999.25 -999.25  0.9100  454.98  31.850  3.3422  1.3002  3.2826 
   455.500 -52.191  14.232 -999.25 -999.25 -28.191  14.232 -999.25 -999.25  0.9110  455.48  31.885  3.3489  1.3044  3.2904 
   456.000 -52.910  14.339 -999.25 -999.25 -28.910  14.339 -999.25 -999.25  0.9120  455.98  31.920  3.3557  1.3086  3.2981 
   456.500 -54.167  14.375 -999.25 -999.25 -30.167  14.375 -999.25 -999.25  0.9130  456.48  31.955  3.3624  1.3128  3.3059 
   457.000 -55.065  14.231 -999.25 -999.25 -31.065  14.231 -999.25 -999.25  0.9140  456.98  31.990  3.3692  1.3170  3.3137 
   457.500 -55.605  14.015 -999.25 -999.25 -31.605  14.015 -999.25 -999.25  0.9150  457.48  32.025  3.3760  1.3213  3.3214 
   458.000 -56.144  13.836 -999.25 -999.25 -32.144  13.836 -999.25 -999.25  0.9160  457.98  32.060  3.3827  1.3255  3.3292 
   458.500 -56.505  13.763 -999.25 -999.25 -32.505  13.763 -999.25 -999.25  0.9170  458.48  32.095  3.3895  1.3298  3.3370 
   459.000 -56.865  13.691 -999.25  0.0000 -32.865  13.691 -999.25  0.0000  0.9180  458.98  32.130  3.3963  1.3340  3.3448 
   459.500 -57.225  13.583 -999.25  0.0000 -33.225  13.583 -999.25  0.0000  0.9190  459.48  32.165  3.4031  1.3383  3.3527 
   460.000 -57.586  13.440 -999.25  0.0000 -33.586  13.440 -999.25  0.0000  0.9200  459.98  32.200  3.4099  1.3426  3.3605 
   460.500 -58.036  13.332 -999.25  0.0000 -34.036  13.332 -999.25  0.0000  0.9210  460.48  32.235  3.4167  1.3468  3.3683 
   461.000 -58.486  13.224 -999.25  0.1080 -34.486  13.224 -999.25  0.1080  0.9220  460.98  32.270  3.4235  1.3511  3.3762 
   461.500 -59.025  13.080 -999.25  0.3940 -35.025  13.080 -999.25  0.3940  0.9230  461.48  32.305  3.4303  1.3554  3.3840 
   462.000 -59.117  12.865 -999.25  1.4340 -35.117  12.865 -999.25  1.4340  0.9240  461.98  32.340  3.4371  1.3598  3.3919 
   462.500 -59.208  12.577 -999.25  2.7250 -35.208  12.577 -999.25  2.7250  0.9250  462.48  32.375  3.4439  1.3641  3.3998 
   463.000 -59.569  12.541 -999.25  4.2670 -35.569  12.541 -999.25  4.2670  0.9260  462.98  32.410  3.4508  1.3684  3.4077 
   463.500 -59.750  12.469 -999.25  10.506 -35.750  12.469 -999.25  10.506  0.9270  463.48  32.445  3.4576  1.3728  3.4156 
   464.000 -59.931  12.397 -999.25  11.260 -35.931  12.397 -999.25  11.260  0.9280  463.98  32.480  3.4644  1.3771  3.4235 
   464.500 -60.201  12.361 -999.25  12.156 -36.201  12.361 -999.25  12.156  0.9290  464.48  32.515  3.4712  1.3815  3.4314 
   465.000 -60.472  12.432 -999.25  12.730 -36.472  12.432 -999.25  12.730  0.9300  464.98  32.550  3.4781  1.3858  3.4393 
   465.500 -60.653  12.503 -999.25  13.160 -36.653  12.503 -999.25  13.160  0.9310  465.48  32.585  3.4849  1.3902  3.4472 
   466.000 -60.834  12.664 -999.25  15.742 -36.834  12.664 -999.25  15.742  0.9320  465.98  32.620  3.4918  1.3946  3.4552 
   466.500 -61.553  12.826 -999.25  16.351 -37.553  12.826 -999.25  16.351  0.9330  466.48  32.655  3.4986  1.3990  3.4631 
   467.000 -61.734  13.220 -999.25  17.104 -37.734  13.220 -999.25  17.104  0.9340  466.98  32.690  3.5055  1.4034  3.4711 
   467.500 -62.274  13.434 -999.25  18.359 -38.274  13.434 -999.25  18.359  0.9350  467.48  32.725  3.5124  1.4078  3.4791 
   468.000 -62.634  14.151 -999.25  18.897 -38.634  14.151 -999.25  18.897  0.9360  467.98  32.760  3.5192  1.4122  3.4871 
   468.500 -63.353  14.509 -999.25  19.507 -39.353  14.509 -999.25  19.507  0.9370  468.48  32.795  3.5261  1.4166  3.4950 
   469.000 -64.072  15.477 -999.25  22.590 -40.072  15.477 -999.25  22.590  0.9380  468.98  32.830  3.5330  1.4211  3.5030 
   469.500 -64.253  15.764 -999.25  23.308 -40.253  15.764 -999.25  23.308  0.9390  469.48  32.865  3.5399  1.4255  3.5111 
   470.000 -64.614  15.978 -999.25  24.025 -40.614  15.978 -999.25  24.025  0.9400  469.98  32.900  3.5467  1.4300  3.5191 
   470.500 -64.974  15.763 -999.25  24.383 -40.974  15.763 -999.25  24.383  0.9410  470.48  32.935  3.5536  1.4344  3.5271 
   471.000 -65.334  15.619 -999.25  24.742 -41.334  15.619 -999.25  24.742  0.9420  470.98  32.970  3.5605  1.4389  3.5351 
   471.500 -65.695  15.619 -999.25  25.459 -41.695  15.619 -999.25  25.459  0.9430  471.48  33.005  3.5674  1.4434  3.5432 
   472.000 -65.876  15.511 -999.25  25.459 -41.876  15.511 -999.25  25.459  0.9440  471.98  33.040  3.5743  1.4479  3.5513 
   472.500 -66.236  15.152 -999.25  25.818 -42.236  15.152 -999.25  25.818  0.9450  472.48  33.075  3.5813  1.4524  3.5593 
   473.000 -66.417  14.865 -999.25  25.639 -42.417  14.865 -999.25  25.639  0.9460  472.98  33.110  3.5882  1.4569  3.5674 
   473.500 -66.509  14.577 -999.25  25.460 -42.509  14.577 -999.25  25.460  0.9470  473.48  33.145  3.5951  1.4614  3.5755 
   474.000 -66.600  14.254 -999.25  25.459 -42.600  14.254 -999.25  25.459  0.9480  473.98  33.180  3.6020  1.4659  3.5836 
   474.500 -66.960  14.003 -999.25  25.101 -42.960  14.003 -999.25  25.101  0.9490  474.48  33.215  3.6089  1.4705  3.5917 
   475.000 -67.141  13.644 -999.25  24.743 -43.141  13.644 -999.25  24.743  0.9500  474.98  33.250  3.6159  1.4750  3.5998 
   475.500 -66.964  12.783 -999.25  24.205 -42.964  12.783 -999.25  24.205  0.9510  475.48  33.285  3.6228  1.4796  3.6079 
   476.000 -66.966  12.101 -999.25  23.667 -42.966  12.101 -999.25  23.667  0.9520  475.98  33.320  3.6297  1.4841  3.6161 
   476.500 -66.609  11.563 -999.25  22.770 -42.609  11.563 -999.25  22.770  0.9530  476.48  33.355  3.6367  1.4887  3.6242 
   477.000 -66.073  11.025 -999.25  21.874 -42.073  11.025 -999.25  21.874  0.9540  476.98  33.390  3.6436  1.4933  3.6324 
   477.500 -65.358  10.236 -999.25  19.364 -41.358  10.236 -999.25  19.364  0.9550  477.48  33.425  3.6506  1.4979  3.6405 
   478.000 -64.822  9.9840 -999.25  18.503 -40.822  9.9840 -999.25  18.503  0.9560  477.98  33.460  3.6576  1.5025  3.6487 
   478.500 -64.465  9.7330 -999.25  17.606 -40.465  9.7330 -999.25  17.606  0.9570  478.48  33.495  3.6645  1.5071  3.6569 
   479.000 -64.108  9.6610 -999.25  17.176 -40.108  9.6610 -999.25  17.176  0.9580  478.98  33.530  3.6715  1.5117  3.6651 
   479.500 -64.289  9.7680 -999.25  16.136 -40.289  9.7680 -999.25  16.136  0.9590  479.48  33.565  3.6785  1.5163  3.6733 
   480.000 -64.649  9.7320 -999.25  16.029 -40.649  9.7320 -999.25  16.029  0.9600  479.98  33.600  3.6854  1.5210  3.6815 
   480.500 -64.831  9.6600 -999.25  15.957 -40.831  9.6600 -999.25  15.957  0.9610  480.48  33.635  3.6924  1.5256  3.6897 
   481.000 -64.653  9.4800 -999.25  15.921 -40.653  9.4800 -999.25  15.921  0.9620  480.98  33.670  3.6994  1.5303  3.6979 
   481.500 -64.117  9.3010 -999.25  15.706 -40.117  9.3010 -999.25  15.706  0.9630  481.48  33.705  3.7064  1.5349  3.7062 
   482.000 -63.581  9.3720 -999.25  15.634 -39.581  9.3720 -999.25  15.634  0.9640  481.98  33.740  3.7134  1.5396  3.7144 
