~Version Information
VERS.                     2.0: CWLS log ASCII Standard Version 2.00
WRAP.                      NO: One line per depth step
~Well Information Block
#MNEM.UNIT                               Data Type  Information
#---------                               ---------  -----------
STRT.FT                                   350.0000:
STOP.FT                                  6900.0000:
STEP.FT                                     0.5000:
NULL.                 -999.25                     :
COMP.                                             :COMPANY            
WELL.     LLU 57-20 OR CCMO 57-20                 :WELL               
FLD .                                             :FIELD              
CTRY.                                             :COUNTRY            
STAT.                                             :STATE              
LOC .                                             :LOCATION           
UWI .                                             :UNIQUE WELL ID     
SRVC.                                             :Service company    
DATE.                                             :LOG DATE           
~Curve Information
#MNEM.UNIT           API CODE  Curve Description
#---------           --------  -----------------
DEPT.FT                      :   1 DEPTH
SP  .MV                      :   2
AM10.OHMM                    :   3
AO10.OHMM                    :   4
AO19.OHMM                    :   5
SBL .MV                      :   6
RS  .OHMM                    :   7
RM  .OHMM                    :   8
RD  .OHMM                    :   9
~A
# ...
  3371.000 -18.918  3.9260  6.7780  8.1540 -9.1911  3.9260  6.7780  8.1540 
  3371.500 -18.200  4.1560  6.7560  8.3840 -8.4718  4.1560  6.7560  8.3840 
  3372.000 -17.339  4.3350  6.6630  8.5560 -7.6095  4.3350  6.6630  8.5560 
  3372.500 -16.728  4.4650  6.5620  8.6210 -6.9972  4.4650  6.5620  8.6210 
  3373.000 -15.938  4.5940  6.4190  8.6390 -6.2059  4.5940  6.4190  8.6390 
  3373.500 -15.399  4.6510  6.3040  8.6570 -5.6656  4.6510  6.3040  8.6570 
  3374.000 -15.686  4.7020  6.2540  8.7210 -5.9513  4.7020  6.2540  8.7210 
  3374.500 -16.871  4.7590  6.1820  8.7790 -7.1350  4.7590  6.1820  8.7790 
  3375.000 -19.493  4.7950  6.1960  8.8650 -9.7557  4.7950  6.1960  8.8650 
  3375.500 -23.731  4.9250  6.3110  9.0800 -13.992  4.9250  6.3110  9.0800 
  3376.000 -27.825  5.0970  6.5270  9.4320 -18.085  5.0970  6.5270  9.4320 
  3376.500 -30.124  5.2980  6.9580  9.8630 -20.383  5.2980  6.9580  9.8630 
  3377.000 -31.525  5.9730  7.3380  10.237 -21.783  5.9730  7.3380  10.237 
  3377.500 -32.422  6.5410  7.7480  10.726 -22.678  6.5410  7.7480  10.726 
  3378.000 -33.141  7.0370  7.9920  10.898 -23.396  7.0370  7.9920  10.898 
  3378.500 -33.177  7.3530  8.1360  11.013 -23.431  7.3530  8.1360  11.013 
  3379.000 -32.997  7.5970  8.2430  11.063 -23.249  7.5970  8.2430  11.063 
  3379.500 -32.889  7.8480  8.0930  11.092 -23.140  7.8480  8.0930  11.092 
  3380.000 -32.818  7.9420  7.9060  10.632 -23.068  7.9420  7.9060  10.632 
  3380.500 -32.818  7.5250  7.6690  9.7840 -23.066  7.5250  7.6690  9.7840 
  3381.000 -32.925  7.1160  7.5110  9.4470 -23.172  7.1160  7.5110  9.4470 
  3381.500 -34.218  6.8930  7.5110  9.3970 -24.464  6.8930  7.5110  9.3970 
  3382.000 -36.050  6.8350  7.6690  9.4320 -26.295  6.8350  7.6690  9.4320 
  3382.500 -38.707  7.3170  8.0350  9.5330 -28.950  7.3170  8.0350  9.5330 
  3383.000 -41.221  8.4450  8.4020  9.6770 -31.463  8.4450  8.4020  9.6770 
  3383.500 -42.371  8.7970  8.7820  9.9500 -32.612  8.7970  8.7820  9.9500 
  3384.000 -42.443  9.0700  9.0840  10.151 -32.682  9.0700  9.0840  10.151 
  3384.500 -41.545  9.2210  9.2420  10.201 -31.783  9.2210  9.2420  10.201 
  3385.000 -39.857  9.3000  9.3790  10.179 -30.094  9.3000  9.3790  10.179 
  3385.500 -37.343  9.3430  9.4290  10.108 -27.579  9.3430  9.4290  10.108 
  3386.000 -35.834  9.1560  9.4290  9.8350 -26.068  9.1560  9.4290  9.8350 
  3386.500 -32.782  8.5160  9.3790  9.6410 -23.015  8.5160  9.3790  9.6410 
  3387.000 -30.412  7.8200  9.2780  9.1670 -20.644  7.8200  9.2780  9.1670 
  3387.500 -26.641  7.1160  9.0620  8.4410 -16.871  7.1160  9.0620  8.4410 
  3388.000 -22.582  6.1460  8.7750  7.4860 -12.811  6.1460  8.7750  7.4860 
  3388.500 -20.032  5.3050  8.4090  6.8100 -10.260  5.3050  8.4090  6.8100 
  3389.000 -17.914  4.5580  7.7410  6.3790 -8.1405  4.5580  7.7410  6.3790 
  3389.500 -16.872  4.3570  7.2310  6.3690 -7.0972  4.3570  7.2310  6.3690 
  3390.000 -16.585  4.3570  6.9220  6.3580 -6.8089  4.3570  6.9220  6.3580 
  3390.500 -16.262  4.3500  6.7780  6.3580 -6.4846  4.3500  6.7780  6.3580 
  3391.000 -16.118  4.3350  6.6920  6.3360 -6.3393  4.3350  6.6920  6.3360 
  3391.500 -15.903  4.3070  6.6200  6.1850 -6.1230  4.3070  6.6200  6.1850 
  3392.000 -15.795  4.2640  6.5550  6.0060 -6.0137  4.2640  6.5550  6.0060 
  3392.500 -15.741  4.1270  6.4910  5.7540 -5.9584  4.1270  6.4910  5.7540 
  3393.000 -15.687  3.8970  6.4040  5.6110 -5.9031  3.8970  6.4040  5.6110 
  3393.500 -15.688  3.5520  6.3110  5.4880 -5.9028  3.5520  6.3110  5.4880 
  3394.000 -15.795  3.2360  6.2540  5.4380 -6.0085  3.2360  6.2540  5.4380 
  3394.500 -16.226  3.0640  6.2030  5.5460 -6.4382  3.0640  6.2030  5.5460 
  3395.000 -17.088  2.9270  6.1820  5.8050 -7.2989  2.9270  6.1820  5.8050 
  3395.500 -18.740  2.8840  6.1890  6.1060 -8.9496  2.8840  6.1890  6.1060 
  3396.000 -23.840  3.3510  6.3470  6.4870 -14.048  3.3510  6.3470  6.4870 
  3396.500 -28.580  3.9760  6.8000  6.9110 -18.787  3.9760  6.8000  6.9110 
  3397.000 -31.669  4.9960  7.5610  7.3710 -21.875  4.9960  7.5610  7.3710 
  3397.500 -35.512  5.7650  8.5810  7.8590 -25.716  5.7650  8.5810  7.8590 
  3398.000 -38.385  6.5340  9.2210  8.3330 -28.588  6.5340  9.2210  8.3330 
  3398.500 -40.396  7.2020  9.7380  8.8790 -30.598  7.2020  9.7380  8.8790 
  3399.000 -42.084  7.7550  9.9680  9.4040 -32.285  7.7550  9.9680  9.4040 
  3399.500 -40.324  8.3150  10.054  9.8130 -30.523  8.3150  10.054  9.8130 
  3400.000 -38.421  8.5160  10.054  10.043 -28.619  8.5160  10.054  10.043 
  3400.500 -36.876  8.5450  9.9390  10.230 -27.073  8.5450  9.9390  10.230 
  3401.000 -35.152  8.3370  9.7020  10.252 -25.347  8.3370  9.7020  10.252 
  3401.500 -31.739  7.9420  9.3290  10.036 -21.933  7.9420  9.3290  10.036 
  3402.000 -28.542  7.0440  8.9480  9.5980 -18.735  7.0440  8.9480  9.5980 
  3402.500 -25.812  6.3050  8.5240  9.2390 -16.004  6.3050  8.5240  9.2390 
  3403.000 -24.267  5.6080  8.0430  8.9160 -14.457  5.6080  8.0430  8.9160 
  3403.500 -24.518  5.2060  7.5980  8.5640 -14.707  5.2060  7.5980  8.5640 
  3404.000 -26.169  4.7750  7.3040  8.3200 -16.357  4.7750  7.3040  8.3200 
  3404.500 -27.534  4.5740  6.9730  8.5640 -17.720  4.5740  6.9730  8.5640 
  3405.000 -28.395  4.5020  6.8150  8.8090 -18.580  4.5020  6.8150  8.8090 
  3405.500 -27.029  4.5810  6.9590  9.0240 -17.213  4.5810  6.9590  9.0240 
  3406.000 -24.802  4.7110  7.0460  9.1180 -14.984  4.7110  7.0460  9.1180 
  3406.500 -23.006  4.8040  6.8520  8.9960 -13.187  4.8040  6.8520  8.9960 
  3407.000 -21.066  4.7540  6.5930  8.4290 -11.246  4.7540  6.5930  8.4290 
  3407.500 -19.414  4.4520  6.3280  7.2580 -9.5926  4.4520  6.3280  7.2580 
  3408.000 -18.479  4.0720  6.0980  6.6400 -8.6563  4.0720  6.0980  6.6400 
  3408.500 -17.473  3.7060  5.8320  6.2670 -7.6490  3.7060  5.8320  6.2670 
  3409.000 -17.006  3.3250  5.4800  5.9940 -7.1807  3.3250  5.4800  5.9940 
  3409.500 -16.789  3.0670  5.3730  5.8430 -6.9624  3.0670  5.3730  5.8430 
  3410.000 -18.153  2.9950  5.7970  6.1020 -8.3251  2.9950  5.7970  6.1020 
  3410.500 -20.487  3.1750  6.1200  6.4400 -10.658  3.1750  6.1200  6.4400 
  3411.000 -22.534  3.7140  6.4870  6.7770 -12.704  3.7140  6.4870  6.7770 
  3411.500 -23.395  4.2090  6.8960  6.9500 -13.563  4.2090  6.8960  6.9500 
  3412.000 -23.538  4.5760  7.1330  7.0150 -13.705  4.5760  7.1330  7.0150 
  3412.500 -23.609  4.7920  7.2560  7.0150 -13.775  4.7920  7.2560  7.0150 
  3413.000 -24.076  4.9140  7.2340  7.0080 -14.240  4.9140  7.2340  7.0080 
  3413.500 -24.578  5.0000  7.1910  7.0080 -14.741  5.0000  7.1910  7.0080 
  3414.000 -26.085  5.1150  7.1560  7.0370 -16.247  5.1150  7.1560  7.0370 
  3414.500 -27.772  5.2660  7.1700  7.1380 -17.932  5.2660  7.1700  7.1380 
  3415.000 -30.178  5.5680  7.2490  7.2380 -20.337  5.5680  7.2490  7.2380 
  3415.500 -32.297  5.8630  7.4940  7.4110 -22.455  5.8630  7.4940  7.4110 
  3416.000 -33.589  6.1790  7.7520  7.6050 -23.746  6.1790  7.7520  7.6050 
  3416.500 -34.055  6.4950  7.8750  8.0220 -24.210  6.4950  7.8750  8.0220 
  3417.000 -34.054  6.6750  8.0260  8.4030 -24.208  6.6750  8.0260  8.4030 
  3417.500 -33.946  6.9270  8.1550  8.8200 -24.099  6.9270  8.1550  8.8200 
  3418.000 -33.694  6.9910  8.2130  9.2360 -23.845  6.9910  8.2130  9.2360 
  3418.500 -33.460  7.1140  8.2770  9.5170 -23.610  7.1140  8.2770  9.5170 
  3419.000 -33.225  7.1640  8.3140  9.9120 -23.374  7.1640  8.3140  9.9120 
  3419.500 -32.722  7.1790  8.3860  10.200 -22.870  7.1790  8.3860  10.200 
  3420.000 -31.824  7.1570  8.4220  10.465 -21.970  7.1570  8.4220  10.465 
  3420.500 -30.494  7.0860  8.3790  10.789 -20.639  7.0860  8.3790  10.789 
  3421.000 -24.891  6.6830  8.1130  10.494 -15.035  6.6830  8.1130  10.494 
  3421.500 -20.366  5.9940  7.5310  9.9490 -10.508  5.9940  7.5310  9.9490 
  3422.000 -18.031  5.2900  5.9370  8.2100 -8.1721  5.2900  5.9370  8.2100 
  3422.500 -16.486  4.6000  5.4910  7.2480 -6.6258  4.6000  5.4910  7.2480 
  3423.000 -14.977  4.3350  5.0890  6.6230 -5.1155  4.3350  5.0890  6.6230 
  3423.500 -14.078  3.8900  4.8020  6.1350 -4.2152  3.8900  4.8020  6.1350 
