~Version Information
VERS.                     2.0: CWLS log ASCII Standard Version 2.00
WRAP.                      NO: One line per depth step
~Well Information Block
#MNEM.UNIT                               Data Type  Information
#---------                               ---------  -----------
STRT.FT                                   350.0000:
STOP.FT                                  6900.0000:
STEP.FT                                     0.5000:
NULL.                 -999.25                     :
COMP.                                             :COMPANY            
WELL.     LLU 57-20 OR CCMO 57-20                 :WELL               
FLD .                                             :FIELD              
CTRY.                                             :COUNTRY            
STAT.                                             :STATE              
LOC .                                             :LOCATION           
UWI .                                             :UNIQUE WELL ID     
SRVC.                                             :Service company    
DATE.                                             :LOG DATE           
~Curve Information
#MNEM.UNIT           API CODE  Curve Description
#---------           --------  -----------------
DEPT.FT                      :   1 DEPTH
SP  .MV                      :   2
AM10.OHMM                    :   3
AO10.OHMM                    :   4
AO19.OHMM                    :   5
SBL .MV                      :   6
RS  .OHMM                    :   7
RM  .OHMM                    :   8
RD  .OHMM                    :   9
~A
# ...
  2947.000 -36.242  8.3140  16.352  10.635 -27.612  8.3140  16.352  10.635 
  2947.500 -33.221  7.2990  15.402  10.009 -24.590  7.2990  15.402  10.009 
  2948.000 -30.056  6.0480  13.496  9.3040 -21.424  6.0480  13.496  9.3040 
  2948.500 -27.682  5.0110  12.553  8.3110 -19.049  5.0110  12.553  8.3110 
  2949.000 -25.200  4.6010  11.755  7.4120 -16.565  4.6010  11.755  7.4120 
  2949.500 -22.682  4.3430  10.632  7.2180 -14.046  4.3430  10.632  7.2180 
  2950.000 -21.855  4.1920  9.8620  7.2900 -13.218  4.1920  9.8620  7.2900 
  2950.500 -22.072  4.1270  9.0560  7.3830 -13.433  4.1270  9.0560  7.3830 
  2951.000 -22.145  4.1840  8.7820  7.4980 -13.505  4.1840  8.7820  7.4980 
  2951.500 -22.219  4.2270  8.6450  7.4470 -13.578  4.2270  8.6450  7.4470 
  2952.000 -22.256  4.2550  8.4080  7.2810 -13.613  4.2550  8.4080  7.2810 
  2952.500 -20.352  4.1180  8.0400  7.1230 -11.708  4.1180  8.0400  7.1230 
  2953.000 -18.088  3.8090  7.5430  6.9860 -9.4429  3.8090  7.5430  6.9860 
  2953.500 -15.321  3.5210  7.1330  6.9570 -6.6746  3.5210  7.1330  6.9570 
  2954.000 -13.273  3.2760  6.9240  6.9780 -4.6253  3.2760  6.9240  6.9780 
  2954.500 -12.627  3.0590  6.6430  7.0710 -3.9780  3.0590  6.6430  7.0710 
  2955.000 -12.377  2.9080  6.6280  7.2440 -3.7267  2.9080  6.6280  7.2440 
  2955.500 -12.307  2.8570  6.7140  7.4880 -3.6554  2.8570  6.7140  7.4880 
  2956.000 -12.236  3.1090  6.7790  7.6890 -3.5831  3.1090  6.7790  7.6890 
  2956.500 -12.346  3.3460  6.9220  7.8980 -3.6918  3.3460  6.9220  7.8980 
  2957.000 -12.671  3.6120  7.0160  8.1060 -4.0155  3.6120  7.0160  8.1060 
  2957.500 -13.248  3.8710  7.1160  8.4870 -4.5913  3.8710  7.1160  8.4870 
  2958.000 -14.292  4.0430  7.2240  8.7890 -5.6340  4.0430  7.2240  8.7890 
  2958.500 -16.019  4.2160  7.3240  9.0190 -7.3597  4.2160  7.3240  9.0190 
  2959.000 -19.005  4.3160  7.4030  9.1630 -10.344  4.3160  7.4030  9.1630 
  2959.500 -21.308  4.4740  7.4320  9.2920 -12.646  4.4740  7.4320  9.2920 
  2960.000 -23.179  4.5600  7.4240  9.3640 -14.516  4.5600  7.4240  9.3640 
  2960.500 -24.511  4.6320  7.3660  9.3060 -15.846  4.6320  7.3660  9.3060 
  2961.000 -25.232  4.6820  7.1930  9.0250 -16.566  4.6820  7.1930  9.0250 
  2961.500 -25.341  4.5880  6.9560  8.7440 -16.674  4.5880  6.9560  8.7440 
  2962.000 -23.006  4.3000  6.6240  8.5350 -14.338  4.3000  6.6240  8.5350 
  2962.500 -20.778  4.0410  6.3510  8.2400 -12.108  4.0410  6.3510  8.2400 
  2963.000 -17.903  3.7740  5.9330  8.0520 -9.2320  3.7740  5.9330  8.0520 
  2963.500 -15.999  3.6160  5.6380  8.1090 -7.3267  3.6160  5.6380  8.1090 
  2964.000 -14.742  3.4930  5.4570  8.2600 -6.0684  3.4930  5.4570  8.2600 
  2964.500 -14.348  3.4780  5.4000  8.4040 -5.6731  3.4780  5.4000  8.4040 
  2965.000 -14.529  3.5860  5.4640  8.4860 -5.8528  3.5860  5.4640  8.4860 
  2965.500 -15.214  3.7150  5.5640  8.5690 -6.5365  3.7150  5.5640  8.5690 
  2966.000 -16.294  3.9230  5.6720  8.7310 -7.6153  3.9230  5.6720  8.7310 
  2966.500 -17.734  4.1970  5.8160  8.8920 -9.0540  4.1970  5.8160  8.8920 
  2967.000 -20.073  4.4270  5.9380  9.0180 -11.392  4.4270  5.9380  9.0180 
  2967.500 -21.728  4.8650  6.1390  9.1440 -13.045  4.8650  6.1390  9.1440 
  2968.000 -24.210  5.2100  6.2970  9.4310 -15.526  5.2100  6.2970  9.4310 
  2968.500 -26.621  5.6490  6.4770  9.5960 -17.936  5.6490  6.4770  9.5960 
  2969.000 -28.744  5.9870  6.6850  9.8910 -20.057  5.9870  6.6850  9.8910 
  2969.500 -31.226  6.3830  7.0300  10.042 -22.538  6.3830  7.0300  10.042 
  2970.000 -34.824  6.8790  7.4190  10.279 -26.135  6.8790  7.4190  10.279 
  2970.500 -36.371  7.3320  7.9220  10.610 -27.681  7.3320  7.9220  10.610 
  2971.000 -39.897  8.0080  8.3390  10.861 -31.205  8.0080  8.3390  10.861 
  2971.500 -41.516  9.0870  8.5690  10.962 -32.823  9.0870  8.5690  10.962 
  2972.000 -43.280  9.7060  8.6620  11.069 -34.586  9.7060  8.6620  11.069 
  2972.500 -44.540  10.224  8.7120  11.120 -35.844  10.224  8.7120  11.120 
  2973.000 -45.368  10.554  8.7630  11.177 -36.671  10.554  8.7630  11.177 
  2973.500 -46.233  10.755  8.8630  11.191 -37.535  10.755  8.8630  11.191 
  2974.000 -47.169  10.906  8.9420  11.169 -38.470  10.906  8.9420  11.169 
  2974.500 -47.674  11.036  8.9810  11.061 -38.973  11.036  8.9810  11.061 
  2975.000 -48.790  11.179  9.0210  10.917 -40.088  11.179  9.0210  10.917 
  2975.500 -49.331  11.273  9.1420  10.729 -40.628  11.273  9.1420  10.729 
  2976.000 -48.793  11.186  9.2000  10.621 -40.088  11.186  9.2000  10.621 
  2976.500 -48.687  11.063  9.2930  10.614 -39.981  11.063  9.2930  10.614 
  2977.000 -48.724  10.919  9.4010  10.667 -40.017  10.919  9.4010  10.667 
  2977.500 -48.869  10.804  9.5590  10.721 -40.160  10.804  9.5590  10.721 
  2978.000 -49.302  10.674  9.8030  10.915 -40.592  10.674  9.8030  10.915 
  2978.500 -50.563  10.839  10.235  11.015 -41.852  10.839  10.235  11.015 
  2979.000 -51.643  11.019  10.659  11.144 -42.931  11.019  10.659  11.144 
  2979.500 -52.615  11.169  11.213  11.187 -43.901  11.169  11.213  11.187 
  2980.000 -53.444  11.234  11.558  11.295 -44.729  11.234  11.558  11.295 
  2980.500 -52.654  11.226  11.939  11.115 -43.938  11.226  11.939  11.115 
  2981.000 -51.397  10.967  12.320  10.805 -42.679  10.967  12.320  10.805 
  2981.500 -50.715  10.621  12.586  10.618 -41.996  10.621  12.586  10.618 
  2982.000 -49.782  10.168  12.902  10.387 -41.062  10.168  12.902  10.387 
  2982.500 -49.388  9.7140  13.233  10.265 -40.667  9.7140  13.233  10.265 
  2983.000 -48.814  9.3400  13.643  10.430 -40.091  9.3400  13.643  10.430 
  2983.500 -49.607  9.1520  13.952  10.602 -40.883  9.1520  13.952  10.602 
  2984.000 -51.478  9.4830  14.405  10.753 -42.753  9.4830  14.405  10.753 
  2984.500 -53.529  10.325  15.211  10.976 -44.802  10.325  15.211  10.976 
  2985.000 -54.357  10.742  15.779  11.170 -45.629  10.742  15.779  11.170 
  2985.500 -54.287  11.231  16.225  11.278 -45.558  11.231  16.225  11.278 
  2986.000 -53.462  11.705  16.664  11.378 -44.731  11.705  16.664  11.378 
  2986.500 -52.960  11.907  17.009  11.479 -44.228  11.907  17.009  11.479 
  2987.000 -51.883  11.935  17.361  11.651 -43.150  11.935  17.361  11.651 
  2987.500 -50.482  11.856  17.656  11.737 -41.748  11.856  17.656  11.737 
  2988.000 -47.571  11.604  17.864  11.773 -38.835  11.604  17.864  11.773 
  2988.500 -44.588  11.359  18.051  11.808 -35.851  11.359  18.051  11.808 
  2989.000 -41.857  10.991  18.065  11.844 -33.119  10.991  18.065  11.844 
  2989.500 -38.119  10.516  17.662  11.628 -29.379  10.516  17.662  11.628 
  2990.000 -34.381  9.6880  16.683  11.225 -25.640  9.6880  16.683  11.225 
  2990.500 -31.074  8.7240  15.661  10.778 -22.332  8.7240  15.661  10.778 
  2991.000 -26.258  7.2340  11.494  10.008 -17.515  7.2340  11.494  10.008 
  2991.500 -23.059  5.7650  10.414  8.5400 -14.314  5.7650  10.414  8.5400 
  2992.000 -16.804  3.4980  8.5860  6.7550 -8.0580  3.4980  8.5860  6.7550 
  2992.500 -13.533  2.9150  7.5640  6.1930 -4.7857  2.9150  7.5640  6.1930 
  2993.000 -13.139  2.5690  6.6140  6.0420 -4.3904  2.5690  6.6140  6.0420 
  2993.500 -12.961  2.3320  6.2180  5.9620 -4.2111  2.3320  6.2180  5.9620 
  2994.000 -12.855  2.2740  6.0660  6.1270 -4.1038  2.2740  6.0660  6.1270 
  2994.500 -12.748  2.2880  6.0590  6.3140 -3.9955  2.2880  6.0590  6.3140 
  2995.000 -12.749  2.3160  6.0870  6.4790 -3.9952  2.3160  6.0870  6.4790 
  2995.500 -12.750  2.3740  6.1370  6.7020 -3.9949  2.3740  6.1370  6.7020 
  2996.000 -12.752  2.4670  6.2160  6.9750 -3.9956  2.4670  6.2160  6.9750 
  2996.500 -12.753  2.6390  6.3090  7.2130 -3.9953  2.6390  6.3090  7.2130 
  2997.000 -12.828  2.8330  6.5030  7.4790 -4.0690  2.8330  6.5030  7.4790 
  2997.500 -13.117  3.1860  6.6830  7.8450 -4.3567  3.1860  6.6830  7.8450 
  2998.000 -14.269  3.5310  7.0500  8.2260 -5.5074  3.5310  7.0500  8.2260 
  2998.500 -17.039  3.7750  7.5320  8.8520 -8.2761  3.7750  7.5320  8.8520 
  2999.000 -19.845  4.0630  8.0060  9.5210 -11.081  4.0630  8.0060  9.5210 
  2999.500 -22.795  4.4010  8.3370  9.9530 -14.030  4.4010  8.3370  9.9530 
