~Version Information
VERS.                     2.0: CWLS log ASCII Standard Version 2.00
WRAP.                      NO: One line per depth step
~Well Information Block
#MNEM.UNIT                               Data Type  Information
#---------                               ---------  -----------
STRT.FT                                   450.0000:
STOP.FT                                  8370.0000:
STEP.FT                                     0.5000:
NULL.                 -999.25                     :
COMP.                                             :COMPANY            
WELL.     LLU56-20 OR CCMO 56-20                  :WELL               
FLD .                                             :FIELD              
CTRY.                                             :COUNTRY            
STAT.                                             :STATE              
LOC .                                             :LOCATION           
UWI .                                             :UNIQUE WELL ID     
SRVC.                                             :Service company    
DATE.                                             :LOG DATE           
~Curve Information
#MNEM.UNIT           API CODE  Curve Description
#---------           --------  -----------------
DEPT.FT                      :   1 DEPTH
SP  .MV                      :   2
SN16.OHMM                    :   3
LN64.OHMM                    :   4
LAT .OHMM                    :   5
SBL .MV                      :   6
RS  .OHMM                    :   7
RM  .OHMM                    :   8
RD  .OHMM                    :   9
DEVI.DEG                     :  10
TVD .FT                      :  11
AZIM.DEG                     :  12
NORT.FT                      :  13
EAST.FT                      :  14
OFFS.FT                      :  15
~A
# ...
  7307.500 -16.719  1.6550  2.1570  1.4910 -12.942  1.6550  2.1570  1.4910  2.5000  7302.5  153.37  72.649  185.75  182.71 
  7308.000 -16.359  1.6550  2.1570  1.4730 -12.573  1.6550  2.1570  1.4730  2.5000  7303.0  153.40  72.630  185.75  182.71 
  7308.500 -15.999  1.6560  2.1580  1.4730 -12.204  1.6560  2.1580  1.4730  2.5000  7303.5  153.42  72.610  185.76  182.70 
  7309.000 -15.818  1.6200  2.1580  1.4730 -12.014  1.6200  2.1580  1.4730  2.5000  7304.0  153.45  72.591  185.77  182.69 
  7309.500 -15.548  1.6030  2.1580  1.4740 -11.735  1.6030  2.1580  1.4740  2.5000  7304.5  153.47  72.571  185.78  182.68 
  7310.000 -15.278  1.5850  2.1590  1.4740 -11.457  1.5850  2.1590  1.4740  2.5000  7305.0  153.50  72.552  185.79  182.68 
  7310.500 -14.918  1.5850  2.1590  1.4740 -11.088  1.5850  2.1590  1.4740  2.5000  7305.5  153.52  72.532  185.80  182.67 
  7311.000 -14.558  1.5860  2.1240  1.4740 -10.719  1.5860  2.1240  1.4740  2.5000  7306.0  153.55  72.513  185.81  182.66 
  7311.500 -14.198  1.5860  2.1420  1.4740 -10.350  1.5860  2.1420  1.4740  2.5000  7306.5  153.57  72.493  185.82  182.66 
  7312.000 -13.838  1.5870  2.1600  1.4750 -9.9812  1.5870  2.1600  1.4750  2.5000  7307.0  153.60  72.474  185.83  182.65 
  7312.500 -13.477  1.5870  2.1430  1.4750 -9.6114  1.5870  2.1430  1.4750  2.5000  7307.5  153.62  72.454  185.84  182.64 
  7313.000 -13.296  1.5870  2.1250  1.4750 -9.4216  1.5870  2.1250  1.4750  2.5000  7308.0  153.65  72.435  185.85  182.64 
  7313.500 -13.295  1.5870  2.1250  1.4750 -9.4117  1.5870  2.1250  1.4750  2.5000  7308.5  153.67  72.415  185.86  182.63 
  7314.000 -13.293  1.5880  2.1260  1.4750 -9.4009  1.5880  2.1260  1.4750  2.5000  7309.0  153.70  72.396  185.87  182.62 
  7314.500 -13.291  1.6060  2.1260  1.4750 -9.3900  1.6060  2.1260  1.4750  2.5000  7309.5  153.72  72.376  185.88  182.62 
  7315.000 -13.289  1.6250  2.1260  1.4930 -9.3792  1.6250  2.1260  1.4930  2.5000  7310.0  153.75  72.356  185.89  182.61 
  7315.500 -13.287  1.6250  2.1270  1.5120 -9.3683  1.6250  2.1270  1.5120  2.5000  7310.5  153.77  72.337  185.90  182.60 
  7316.000 -13.286  1.6250  2.1270  1.5120 -9.3585  1.6250  2.1270  1.5120  2.5000  7311.0  153.80  72.317  185.91  182.59 
  7316.500 -13.463  1.6370  2.1270  1.5120 -9.5267  1.6370  2.1270  1.5120  2.5000  7311.5  153.82  72.298  185.92  182.59 
  7317.000 -13.640  1.6500  2.0920  1.5120 -9.6948  1.6500  2.0920  1.5120  2.5000  7312.0  153.85  72.278  185.93  182.58 
  7317.500 -13.728  1.6620  2.0920  1.5300 -9.7740  1.6620  2.0920  1.5300  2.5000  7312.5  153.87  72.259  185.94  182.57 
  7318.000 -13.817  1.6620  2.0930  1.5480 -9.8541  1.6620  2.0930  1.5480  2.5000  7313.0  153.90  72.239  185.95  182.57 
  7318.500 -13.814  1.6630  2.0570  1.5850 -9.8423  1.6630  2.0570  1.5850  2.5000  7313.5  153.92  72.219  185.96  182.56 
  7319.000 -13.991  1.6810  2.0580  1.5850 -10.010  1.6810  2.0580  1.5850  2.5000  7314.0  153.95  72.200  185.97  182.55 
  7319.500 -14.169  1.6990  2.0580  1.5850 -10.180  1.6990  2.0580  1.5850  2.5000  7314.5  153.97  72.180  185.98  182.54 
  7320.000 -14.167  1.7000  2.0580  1.5850 -10.169  1.7000  2.0580  1.5850  2.5000  7315.0  154.00  72.161  185.99  182.54 
  7320.500 -14.165  1.6640  2.0590  1.5850 -10.158  1.6640  2.0590  1.5850  2.5000  7315.5  154.02  72.141  186.00  182.53 
  7321.000 -14.164  1.6650  2.0590  1.5670 -10.148  1.6650  2.0590  1.5670  2.5000  7316.0  154.05  72.121  186.01  182.52 
  7321.500 -13.982  1.6470  2.0590  1.5500 -9.9572  1.6470  2.0590  1.5500  2.5000  7316.5  154.07  72.102  186.02  182.52 
  7322.000 -13.980  1.6290  2.0600  1.5500 -9.9464  1.6290  2.0600  1.5500  2.5000  7317.0  154.10  72.082  186.02  182.51 
  7322.500 -13.800  1.5940  2.0600  1.5500 -9.7576  1.5940  2.0600  1.5500  2.5000  7317.5  154.12  72.063  186.03  182.50 
  7323.000 -13.440  1.5940  2.0610  1.5500 -9.3887  1.5940  2.0610  1.5500  2.5000  7318.0  154.15  72.043  186.04  182.49 
  7323.500 -13.349  1.5950  2.0610  1.5500 -9.2889  1.5950  2.0610  1.5500  2.5000  7318.5  154.17  72.023  186.05  182.49 
  7324.000 -13.258  1.5950  2.0610  1.5510 -9.1890  1.5950  2.0610  1.5510  2.5000  7319.0  154.20  72.004  186.06  182.48 
  7324.500 -13.076  1.5770  2.0620  1.5510 -8.9982  1.5770  2.0620  1.5510  2.5000  7319.5  154.22  71.984  186.07  182.47 
  7325.000 -13.164  1.5600  2.0620  1.5510 -9.0774  1.5600  2.0620  1.5510  2.5000  7320.0  154.25  71.964  186.08  182.47 
  7325.500 -13.252  1.5600  2.0620  1.5150 -9.1565  1.5600  2.0620  1.5150  2.5000  7320.5  154.27  71.945  186.09  182.46 
  7326.000 -13.429  1.5610  2.0630  1.5150 -9.3247  1.5610  2.0630  1.5150  2.5000  7321.0  154.30  71.925  186.10  182.45 
  7326.500 -13.785  1.5610  2.0630  1.5150 -9.6718  1.5610  2.0630  1.5150  2.5000  7321.5  154.32  71.905  186.11  182.44 
  7327.000 -13.783  1.5610  2.0630  1.5160 -9.6610  1.5610  2.0630  1.5160  2.5000  7322.0  154.35  71.886  186.12  182.44 
  7327.500 -13.961  1.5620  2.0640  1.5160 -9.8301  1.5620  2.0640  1.5160  2.5000  7322.5  154.37  71.866  186.13  182.43 
  7328.000 -14.138  1.5620  2.0640  1.4800 -9.9983  1.5620  2.0640  1.4800  2.5000  7323.0  154.40  71.846  186.14  182.42 
  7328.500 -14.316  1.5620  2.0640  1.4800 -10.167  1.5620  2.0640  1.4800  2.5000  7323.5  154.42  71.827  186.15  182.42 
  7329.000 -14.404  1.5630  2.0650  1.4810 -10.247  1.5630  2.0650  1.4810  2.5000  7324.0  154.45  71.807  186.16  182.41 
  7329.500 -14.492  1.5450  2.0650  1.4810 -10.326  1.5450  2.0650  1.4810  2.5000  7324.5  154.47  71.787  186.17  182.40 
  7330.000 -14.489  1.5280  2.0650  1.4810 -10.314  1.5280  2.0650  1.4810  2.5000  7325.0  154.50  71.768  186.18  182.39 
  7330.500 -14.487  1.5280  2.0660  1.4810 -10.303  1.5280  2.0660  1.4810  2.5000  7325.5  154.52  71.748  186.19  182.39 
  7331.000 -14.485  1.5280  2.0660  1.4460 -10.292  1.5280  2.0660  1.4460  2.5000  7326.0  154.55  71.728  186.19  182.38 
  7331.500 -14.305  1.5290  2.0670  1.4460 -10.103  1.5290  2.0670  1.4460  2.5000  7326.5  154.57  71.709  186.20  182.37 
  7332.000 -14.124  1.5290  2.0670  1.4460 -9.9136  1.5290  2.0670  1.4460  2.5000  7327.0  154.60  71.689  186.21  182.36 
  7332.500 -13.943  1.5470  2.0670  1.4460 -9.7237  1.5470  2.0670  1.4460  2.5000  7327.5  154.62  71.669  186.22  182.36 
  7333.000 -13.763  1.5660  2.0680  1.4460 -9.5349  1.5660  2.0680  1.4460  2.5000  7328.0  154.65  71.650  186.23  182.35 
  7333.500 -13.761  1.5660  2.0860  1.4820 -9.5240  1.5660  2.0860  1.4820  2.5000  7328.5  154.67  71.630  186.24  182.34 
  7334.000 -13.759  1.5660  2.1040  1.4820 -9.5132  1.5660  2.1040  1.4820  2.5000  7329.0  154.70  71.610  186.25  182.34 
  7334.500 -13.847  1.5670  2.1040  1.5000 -9.5924  1.5670  2.1040  1.5000  2.5000  7329.5  154.72  71.590  186.26  182.33 
  7335.000 -13.934  1.5850  2.1050  1.5190 -9.6705  1.5850  2.1050  1.5190  2.5000  7330.0  154.75  71.571  186.27  182.32 
  7335.500 -14.290  1.6030  2.1050  1.5190 -10.018  1.6030  2.1050  1.5190  2.5000  7330.5  154.77  71.551  186.28  182.31 
  7336.000 -14.199  1.6040  2.1060  1.5190 -9.9178  1.6040  2.1060  1.5190  2.5000  7331.0  154.80  71.531  186.29  182.31 
  7336.500 -14.108  1.6400  2.1060  1.5190 -9.8180  1.6400  2.1060  1.5190  2.5000  7331.5  154.82  71.511  186.30  182.30 
  7337.000 -13.838  1.6400  2.1420  1.5190 -9.5391  1.6400  2.1420  1.5190  2.5000  7332.0  154.85  71.492  186.31  182.29 
  7337.500 -13.567  1.6400  2.1430  1.5200 -9.2593  1.6400  2.1430  1.5200  2.5000  7332.5  154.87  71.472  186.32  182.28 
  7338.000 -13.206  1.6410  2.1430  1.5380 -8.8895  1.6410  2.1430  1.5380  2.5000  7333.0  154.90  71.452  186.33  182.28 
  7338.500 -13.026  1.6410  2.1430  1.5560 -8.7006  1.6410  2.1430  1.5560  2.5000  7333.5  154.92  71.432  186.33  182.27 
  7339.000 -12.935  1.6420  2.1440  1.5560 -8.6008  1.6420  2.1440  1.5560  2.5000  7334.0  154.95  71.413  186.34  182.26 
  7339.500 -12.844  1.6600  2.1440  1.5440 -8.5009  1.6600  2.1440  1.5440  2.5000  7334.5  154.97  71.393  186.35  182.25 
