~Version Information
VERS.                     2.0: CWLS log ASCII Standard Version 2.00
WRAP.                      NO: One line per depth step
~Well Information Block
#MNEM.UNIT                               Data Type  Information
#---------                               ---------  -----------
STRT.FT                                   450.0000:
STOP.FT                                  8370.0000:
STEP.FT                                     0.5000:
NULL.                 -999.25                     :
COMP.                                             :COMPANY            
WELL.     LLU56-20 OR CCMO 56-20                  :WELL               
FLD .                                             :FIELD              
CTRY.                                             :COUNTRY            
STAT.                                             :STATE              
LOC .                                             :LOCATION           
UWI .                                             :UNIQUE WELL ID     
SRVC.                                             :Service company    
DATE.                                             :LOG DATE           
~Curve Information
#MNEM.UNIT           API CODE  Curve Description
#---------           --------  -----------------
DEPT.FT                      :   1 DEPTH
SP  .MV                      :   2
SN16.OHMM                    :   3
LN64.OHMM                    :   4
LAT .OHMM                    :   5
SBL .MV                      :   6
RS  .OHMM                    :   7
RM  .OHMM                    :   8
RD  .OHMM                    :   9
DEVI.DEG                     :  10
TVD .FT                      :  11
AZIM.DEG                     :  12
NORT.FT                      :  13
EAST.FT                      :  14
OFFS.FT                      :  15
~A
# ...
  4675.000 -29.985  7.3540  7.4440  4.7530 -29.269  7.3540  7.4440  4.7530  1.7500  4672.5  62.750  107.38  89.553  139.26 
  4675.500 -29.269  7.1570  7.5520  4.6820 -28.553  7.1570  7.5520  4.6820  1.7500  4673.0  62.815  107.39  89.567  139.27 
  4676.000 -28.732  7.0320  7.6600  4.5750 -28.016  7.0320  7.6600  4.5750  1.7500  4673.5  62.880  107.40  89.580  139.28 
  4676.500 -27.658  6.9070  7.7680  4.5030 -26.942  6.9070  7.7680  4.5030  1.7500  4674.0  62.945  107.40  89.594  139.30 
  4677.000 -27.121  6.8000  7.7680  4.4680 -26.404  6.8000  7.7680  4.4680  1.7500  4674.5  63.010  107.41  89.608  139.31 
  4677.500 -27.299  6.8360  7.7510  4.3960 -26.582  6.8360  7.7510  4.3960  1.7500  4675.0  63.075  107.42  89.621  139.33 
  4678.000 -28.371  6.9440  7.7330  4.3610 -27.654  6.9440  7.7330  4.3610  1.7500  4675.5  63.140  107.43  89.635  139.34 
  4678.500 -29.085  7.1240  7.6620  4.3250 -28.368  7.1240  7.6620  4.3250  1.7500  4676.0  63.205  107.43  89.648  139.36 
  4679.000 -30.067  7.5190  7.6440  4.3620 -29.349  7.5190  7.6440  4.3620  1.7500  4676.5  63.270  107.44  89.662  139.37 
  4679.500 -31.050  7.9490  7.6270  4.4340 -30.332  7.9490  7.6270  4.4340  1.7500  4677.0  63.335  107.45  89.676  139.39 
  4680.000 -33.730  8.2730  7.5910  4.5420 -33.012  8.2730  7.5910  4.5420  1.7500  4677.5  63.400  107.45  89.689  139.40 
  4680.500 -34.444  8.5240  7.5560  4.6500 -33.726  8.5240  7.5560  4.6500  1.7500  4678.0  63.465  107.46  89.703  139.42 
  4681.000 -34.800  8.6680  7.5560  4.7220 -34.081  8.6680  7.5560  4.7220  1.7500  4678.5  63.530  107.47  89.717  139.43 
  4681.500 -34.889  8.7760  7.6280  4.7940 -34.170  8.7760  7.6280  4.7940  1.7500  4679.0  63.595  107.47  89.730  139.44 
  4682.000 -34.978  8.8840  7.7000  4.8120 -34.259  8.8840  7.7000  4.8120  1.7500  4679.5  63.660  107.48  89.744  139.46 
  4682.500 -34.976  9.0280  7.7360  4.8300 -34.257  9.0280  7.7360  4.8300  1.7500  4680.0  63.725  107.49  89.758  139.47 
  4683.000 -34.797  9.0640  7.7010  4.8310 -34.077  9.0640  7.7010  4.8310  1.7500  4680.5  63.790  107.49  89.771  139.49 
  4683.500 -34.617  9.0290  7.4860  4.8310 -33.897  9.0290  7.4860  4.8310  1.7500  4681.0  63.855  107.50  89.785  139.50 
  4684.000 -34.170  8.9210  7.1990  4.8320 -33.450  8.9210  7.1990  4.8320  1.7500  4681.5  63.920  107.51  89.799  139.52 
  4684.500 -33.722  8.7780  6.7330  4.8860 -33.002  8.7780  6.7330  4.8860  1.7500  4682.0  63.985  107.51  89.813  139.53 
  4685.000 -33.185  8.5270  6.5180  4.9400 -32.464  8.5270  6.5180  4.9400  1.7500  4682.5  64.050  107.52  89.826  139.55 
  4685.500 -32.648  8.2410  6.4110  5.1200 -31.927  8.2410  6.4110  5.1200  1.7500  4683.0  64.115  107.53  89.840  139.56 
  4686.000 -30.501  7.8820  6.2320  5.3350 -29.780  7.8820  6.2320  5.3350  1.7500  4683.5  64.180  107.53  89.854  139.57 
  4686.500 -28.356  7.5960  6.1250  5.4430 -27.635  7.5960  6.1250  5.4430  1.7500  4684.0  64.245  107.54  89.868  139.59 
  4687.000 -26.925  6.8790  6.1610  5.4440 -26.203  6.8790  6.1610  5.4440  1.7500  4684.5  64.310  107.55  89.881  139.60 
  4687.500 -24.421  6.3410  6.1610  5.3000 -23.699  6.3410  6.1610  5.3000  1.7500  4685.0  64.375  107.55  89.895  139.62 
  4688.000 -21.918  5.6240  6.1980  5.1570 -21.196  5.6240  6.1980  5.1570  1.7500  4685.5  64.440  107.56  89.909  139.63 
  4688.500 -19.951  5.0860  6.4130  4.7990 -19.229  5.0860  6.4130  4.7990  1.7500  4686.0  64.505  107.57  89.923  139.65 
  4689.000 -18.163  4.8710  6.4140  4.0460 -17.440  4.8710  6.4140  4.0460  1.7500  4686.5  64.570  107.57  89.936  139.66 
  4689.500 -16.017  4.6560  6.3420  3.9030 -15.294  4.6560  6.3420  3.9030  1.7500  4687.0  64.635  107.58  89.950  139.68 
  4690.000 -15.658  4.5850  6.2890  3.8670 -14.935  4.5850  6.2890  3.8670  1.7500  4687.5  64.700  107.59  89.964  139.69 
  4690.500 -16.104  4.5490  6.2350  3.8680 -15.381  4.5490  6.2350  3.8680  1.7500  4688.0  64.765  107.59  89.978  139.70 
  4691.000 -16.551  4.5850  5.9850  3.9220 -15.827  4.5850  5.9850  3.9220  1.7500  4688.5  64.830  107.60  89.992  139.72 
  4691.500 -18.337  4.7290  5.8410  3.9760 -17.613  4.7290  5.8410  3.9760  1.7500  4689.0  64.895  107.61  90.006  139.73 
  4692.000 -19.408  4.8370  5.7700  4.2990 -18.684  4.8370  5.7700  4.2990  1.7500  4689.5  64.960  107.61  90.019  139.75 
  4692.500 -19.497  4.9090  5.6990  4.3350 -18.773  4.9090  5.6990  4.3350  1.7500  4690.0  65.025  107.62  90.033  139.76 
  4693.000 -19.585  4.9460  5.5560  4.4430 -18.860  4.9460  5.5560  4.4430  1.7500  4690.5  65.090  107.63  90.047  139.78 
  4693.500 -19.406  4.9820  5.5200  4.5510 -18.681  4.9820  5.5200  4.5510  1.7500  4691.0  65.155  107.63  90.061  139.79 
  4694.000 -19.405  4.9820  5.4840  4.5880 -18.680  4.9820  5.4840  4.5880  1.7500  4691.5  65.220  107.64  90.075  139.80 
  4694.500 -19.404  4.9830  5.3770  4.6240 -18.679  4.9830  5.3770  4.6240  1.7500  4692.0  65.285  107.64  90.089  139.82 
  4695.000 -19.403  4.9470  5.3780  4.6240 -18.677  4.9470  5.3780  4.6240  1.7500  4692.5  65.350  107.65  90.102  139.83 
  4695.500 -19.402  4.8760  5.3780  4.6600 -18.676  4.8760  5.3780  4.6600  1.7500  4693.0  65.415  107.66  90.116  139.85 
  4696.000 -19.223  4.8760  5.4140  4.6790 -18.497  4.8760  5.4140  4.6790  1.7500  4693.5  65.480  107.66  90.130  139.86 
  4696.500 -19.043  4.7690  5.4860  4.6970 -18.317  4.7690  5.4860  4.6970  1.7500  4694.0  65.545  107.67  90.144  139.88 
  4697.000 -17.970  4.6620  5.5940  4.6620 -17.243  4.6620  5.5940  4.6620  1.7500  4694.5  65.610  107.68  90.158  139.89 
  4697.500 -17.432  4.6260  5.6310  4.6260 -16.705  4.6260  5.6310  4.6260  1.7500  4695.0  65.675  107.68  90.172  139.90 
  4698.000 -16.895  4.5910  5.6310  4.5910 -16.168  4.5910  5.6310  4.5910  1.7500  4695.5  65.740  107.69  90.186  139.92 
  4698.500 -16.716  4.5550  5.6310  4.5190 -15.989  4.5550  5.6310  4.5190  1.7500  4696.0  65.805  107.70  90.200  139.93 
  4699.000 -16.715  4.5910  5.5960  4.4480 -15.987  4.5910  5.5960  4.4480  1.7500  4696.5  65.870  107.70  90.214  139.95 
  4699.500 -16.714  4.6270  5.5060  4.4480 -15.986  4.6270  5.5060  4.4480  1.7500  4697.0  65.935  107.71  90.228  139.96 
  4700.000 -17.428  4.8790  5.4170  4.8430 -16.700  4.8790  5.4170  4.8430  1.7500  4697.5  66.000  107.71  90.242  139.98 
  4700.500 -18.858  5.3090  5.1300  5.0940 -18.130  5.3090  5.1300  5.0940  1.7512  4698.0  65.975  107.72  90.256  139.99 
  4701.000 -20.467  5.6320  4.8430  5.3820 -19.738  5.6320  4.8430  5.3820  1.7525  4698.5  65.950  107.73  90.270  140.00 
  4701.500 -24.220  5.8470  4.6270  5.5610 -23.491  5.8470  4.6270  5.5610  1.7537  4699.0  65.925  107.73  90.284  140.02 
  4702.000 -24.757  5.8830  4.5190  5.6330 -24.028  5.8830  4.5190  5.6330  1.7550  4699.5  65.900  107.74  90.298  140.03 
  4702.500 -24.220  5.9180  4.4480  5.7050 -23.491  5.9180  4.4480  5.7050  1.7562  4700.0  65.875  107.75  90.312  140.05 
  4703.000 -23.863  5.1650  4.4470  5.7410 -23.133  5.1650  4.4470  5.7410  1.7575  4700.5  65.850  107.75  90.326  140.06 
  4703.500 -22.433  4.8060  4.4470  5.7770 -21.703  4.8060  4.4470  5.7770  1.7587  4701.0  65.825  107.76  90.340  140.08 
  4704.000 -20.467  4.4470  4.5550  5.6700 -19.737  4.4470  4.5550  5.6700  1.7600  4701.5  65.800  107.76  90.354  140.09 
  4704.500 -18.679  4.2320  4.6980  5.5620 -17.948  4.2320  4.6980  5.5620  1.7612  4702.0  65.775  107.77  90.368  140.10 
  4705.000 -15.998  4.0160  4.8050  5.2750 -15.267  4.0160  4.8050  5.2750  1.7625  4702.5  65.750  107.78  90.382  140.12 
  4705.500 -14.211  3.7650  4.8770  4.8810 -13.480  3.7650  4.8770  4.8810  1.7637  4703.0  65.725  107.78  90.396  140.13 
  4706.000 -12.781  3.5490  4.9490  4.2710 -12.050  3.5490  4.9490  4.2710  1.7650  4703.5  65.700  107.79  90.410  140.15 
  4706.500 -9.2050  3.5130  5.0200  4.0560 -8.4735  3.5130  5.0200  4.0560  1.7662  4704.0  65.675  107.80  90.424  140.16 
  4707.000 -8.4900  3.3340  4.9840  3.9850 -7.7582  3.3340  4.9840  3.9850  1.7675  4704.5  65.650  107.80  90.438  140.18 
