~Version Information
VERS.                     2.0: CWLS log ASCII Standard Version 2.00
WRAP.                      NO: One line per depth step
~Well Information Block
#MNEM.UNIT                               Data Type  Information
#---------                               ---------  -----------
STRT.FT                                   350.0000:
STOP.FT                                  6900.0000:
STEP.FT                                     0.5000:
NULL.                 -999.25                     :
COMP.                                             :COMPANY            
WELL.     LLU 57-20 OR CCMO 57-20                 :WELL               
FLD .                                             :FIELD              
CTRY.                                             :COUNTRY            
STAT.                                             :STATE              
LOC .                                             :LOCATION           
UWI .                                             :UNIQUE WELL ID     
SRVC.                                             :Service company    
DATE.                                             :LOG DATE           
~Curve Information
#MNEM.UNIT           API CODE  Curve Description
#---------           --------  -----------------
DEPT.FT                      :   1 DEPTH
SP  .MV                      :   2
AM10.OHMM                    :   3
AO10.OHMM                    :   4
AO19.OHMM                    :   5
SBL .MV                      :   6
RS  .OHMM                    :   7
RM  .OHMM                    :   8
RD  .OHMM                    :   9
~A
# ...
  5067.000 -32.863  4.1560  3.0990  3.3540 -31.053  4.1560  3.0990  3.3540 
  5067.500 -35.202  4.3850  3.1630  3.4040 -33.389  4.3850  3.1630  3.4040 
  5068.000 -34.987  4.5500  3.2060  3.3460 -33.171  4.5500  3.2060  3.3460 
  5068.500 -33.802  4.5500  3.1560  3.2960 -31.983  4.5500  3.1560  3.2960 
  5069.000 -33.480  4.2910  3.1120  3.2450 -31.658  4.2910  3.1120  3.2450 
  5069.500 -34.416  4.1400  3.0400  3.1590 -32.590  4.1400  3.0400  3.1590 
  5070.000 -38.157  4.0170  2.9610  3.1440 -36.328  4.0170  2.9610  3.1440 
  5070.500 -43.625  4.2690  2.9320  3.1290 -41.793  4.2690  2.9320  3.1290 
  5071.000 -47.582  4.5630  2.9670  3.1150 -45.747  4.5630  2.9670  3.1150 
  5071.500 -52.295  4.7280  2.9890  3.1570 -50.457  4.7280  2.9890  3.1570 
  5072.000 -54.346  4.8710  3.0280  3.1930 -52.505  4.8710  3.0280  3.1930 
  5072.500 -55.858  5.0150  3.0670  3.2860 -54.014  5.0150  3.0670  3.2860 
  5073.000 -55.248  5.2020  3.1240  3.3220 -53.401  5.2020  3.1240  3.3220 
  5073.500 -53.415  5.3310  3.1810  3.3720 -51.565  5.3310  3.1810  3.3720 
  5074.000 -51.186  5.4670  3.2460  3.4290 -49.332  5.4670  3.2460  3.4290 
  5074.500 -47.663  5.4520  3.2890  3.4580 -45.806  5.4520  3.2890  3.4580 
  5075.000 -44.859  5.3660  3.2090  3.4790 -42.999  5.3660  3.2090  3.4790 
  5075.500 -38.711  5.1430  3.0940  3.4350 -36.848  5.1430  3.0940  3.4350 
  5076.000 -33.785  4.2080  3.0290  3.3920 -31.919  4.2080  3.0290  3.3920 
  5076.500 -30.082  3.7480  2.9640  3.3490 -28.213  3.7480  2.9640  3.3490 
  5077.000 -26.199  3.2010  2.8920  3.2870 -24.327  3.2010  2.8920  3.2870 
  5077.500 -23.827  2.7550  2.8560  3.2260 -21.952  2.7550  2.8560  3.2260 
  5078.000 -20.088  2.4670  2.8700  3.1820 -18.209  2.4670  2.8700  3.1820 
  5078.500 -17.284  2.3450  2.8910  3.2110 -15.402  2.3450  2.8910  3.2110 
  5079.000 -16.530  2.3010  2.9270  3.2390 -14.645  2.3010  2.9270  3.2390 
  5079.500 -15.956  2.2870  2.9550  3.2610 -14.068  2.2870  2.9550  3.2610 
  5080.000 -15.705  2.2860  2.9840  3.3110 -13.814  2.2860  2.9840  3.3110 
  5080.500 -15.527  2.2860  3.0480  3.3320 -13.633  2.2860  3.0480  3.3320 
  5081.000 -15.348  2.2930  3.0910  3.3500 -13.451  2.2930  3.0910  3.3500 
  5081.500 -14.954  2.2960  3.1120  3.3670 -13.054  2.2960  3.1120  3.3670 
  5082.000 -14.811  2.3000  3.1620  3.4100 -12.908  2.3000  3.1620  3.4100 
  5082.500 -15.136  2.3070  3.1910  3.4460 -13.229  2.3070  3.1910  3.4460 
  5083.000 -15.964  2.3130  3.2260  3.4530 -14.054  2.3130  3.2260  3.4530 
  5083.500 -17.117  2.3630  3.2400  3.4670 -15.204  2.3630  3.2400  3.4670 
  5084.000 -18.485  2.4710  3.2830  3.4740 -16.569  2.4710  3.2830  3.4740 
  5084.500 -20.104  2.6360  3.3330  3.4730 -18.185  2.6360  3.3330  3.4730 
  5085.000 -21.616  2.8080  3.3900  3.4800 -19.694  2.8080  3.3900  3.4800 
  5085.500 -20.394  2.9660  3.4050  3.4940 -18.469  2.9660  3.4050  3.4940 
  5086.000 -18.669  3.1240  3.3470  3.4010 -16.741  3.1240  3.3470  3.4010 
  5086.500 -16.729  3.2100  3.2750  3.3070 -14.798  3.2100  3.2750  3.3070 
  5087.000 -15.651  3.1230  3.1160  3.1840 -13.716  3.1230  3.1160  3.1840 
  5087.500 -15.221  3.0300  3.0080  3.1450 -13.283  3.0300  3.0080  3.1450 
  5088.000 -15.132  2.8500  2.9070  3.1050 -13.191  2.8500  2.9070  3.1050 
  5088.500 -15.044  2.6480  2.8530  3.0180 -13.100  2.6480  2.8530  3.0180 
  5089.000 -14.865  2.5620  2.7990  2.9890 -12.918  2.5620  2.7990  2.9890 
  5089.500 -14.794  2.5110  2.7480  2.9850 -12.844  2.5110  2.7480  2.9850 
  5090.000 -14.723  2.4680  2.7410  2.9810 -12.770  2.4680  2.7410  2.9810 
  5090.500 -14.689  2.4390  2.7370  2.9810 -12.733  2.4390  2.7370  2.9810 
  5091.000 -14.654  2.4020  2.7330  2.9810 -12.694  2.4020  2.7330  2.9810 
  5091.500 -14.547  2.3730  2.7430  2.9880 -12.584  2.3730  2.7430  2.9880 
  5092.000 -14.549  2.3660  2.7540  2.9950 -12.583  2.3660  2.7540  2.9950 
  5092.500 -14.874  2.3660  2.7820  3.0160 -12.905  2.3660  2.7820  3.0160 
  5093.000 -15.558  2.3940  2.7930  3.0230 -13.586  2.3940  2.7930  3.0230 
  5093.500 -16.387  2.4660  2.8030  3.0330 -14.412  2.4660  2.8030  3.0330 
  5094.000 -17.395  2.5520  2.8390  3.0440 -15.417  2.5520  2.8390  3.0440 
  5094.500 -18.763  2.6370  2.8670  3.0650 -16.782  2.6370  2.8670  3.0650 
  5095.000 -20.706  2.9030  2.8960  3.0720 -18.722  2.9030  2.8960  3.0720 
  5095.500 -22.937  3.1110  2.9210  3.0790 -20.949  3.1110  2.9210  3.0790 
  5096.000 -25.959  3.2840  2.9460  3.0930 -23.968  3.2840  2.9460  3.0930 
  5096.500 -28.658  3.5920  3.0320  3.1070 -26.664  3.5920  3.0320  3.1070 
  5097.000 -32.040  3.8150  3.0820  3.1360 -30.043  3.8150  3.0820  3.1360 
  5097.500 -36.285  4.0450  3.1170  3.1640 -34.285  4.0450  3.1170  3.1640 
  5098.000 -42.040  4.2460  3.1390  3.1780 -40.037  4.2460  3.1390  3.1780 
  5098.500 -45.782  4.4820  3.1530  3.1920 -43.776  4.4820  3.1530  3.1920 
  5099.000 -47.402  4.6760  3.1490  3.1990 -45.393  4.6760  3.1490  3.1990 
  5099.500 -46.108  4.8480  3.1450  3.1130 -44.096  4.8480  3.1450  3.1130 
  5100.000 -44.311  4.9200  3.1020  3.0550 -42.295  4.9200  3.1020  3.0550 
  5100.500 -41.397  4.8840  3.0510  2.9900 -39.378  4.8840  3.0510  2.9900 
  5101.000 -38.843  4.6540  2.9720  2.9330 -36.821  4.6540  2.9720  2.9330 
  5101.500 -36.541  4.3740  2.8940  2.8470 -34.516  4.3740  2.8940  2.8470 
  5102.000 -34.634  3.9360  2.8070  2.8180 -32.606  3.9360  2.8070  2.8180 
  5102.500 -32.188  3.5770  2.6710  2.7750 -30.157  3.5770  2.6710  2.7750 
  5103.000 -28.915  3.2610  2.5560  2.8400 -26.881  3.2610  2.5560  2.8400 
  5103.500 -27.044  3.1170  2.5060  2.9550 -25.007  3.1170  2.5060  2.9550 
  5104.000 -25.425  3.0380  2.5130  3.1350 -23.385  3.0380  2.5130  3.1350 
  5104.500 -28.373  3.0310  2.5210  3.2790 -26.329  3.0310  2.5210  3.2790 
  5105.000 -30.998  3.1960  2.6650  3.4080 -28.951  3.1960  2.6650  3.4080 
  5105.500 -32.903  3.5700  2.7650  3.5380 -30.853  3.5700  2.7650  3.5380 
  5106.000 -30.853  3.9440  2.8730  3.7030 -28.800  3.9440  2.8730  3.7030 
  5106.500 -28.119  4.2530  3.0240  3.8260 -26.063  4.2530  3.0240  3.8260 
  5107.000 -25.708  4.5410  3.1750  3.9120 -23.649  4.5410  3.1750  3.9120 
  5107.500 -23.118  4.7500  3.2910  4.0850 -21.056  4.7500  3.2910  4.0850 
  5108.000 -21.068  4.8580  3.4200  4.1570 -19.003  4.8580  3.4200  4.1570 
  5108.500 -20.060  4.9510  3.5280  4.2580 -17.991  4.9510  3.5280  4.2580 
  5109.000 -21.426  4.9870  3.6580  4.3010 -19.354  4.9870  3.6580  4.3010 
  5109.500 -24.482  4.9950  3.7510  4.3150 -22.407  4.9950  3.7510  4.3150 
  5110.000 -26.568  4.9950  3.7150  4.1500 -24.490  4.9950  3.7150  4.1500 
  5110.500 -27.502  4.9730  3.5140  3.9990 -25.421  4.9730  3.5140  3.9990 
  5111.000 -27.501  4.9300  3.3490  3.6760 -25.417  4.9300  3.3490  3.6760 
  5111.500 -26.062  4.4130  3.1480  3.4750 -23.975  4.4130  3.1480  3.4750 
  5112.000 -22.501  3.9960  2.9180  3.2520 -20.411  3.9960  2.9180  3.2520 
  5112.500 -19.192  4.2050  2.7390  3.1230 -17.099  4.2050  2.7390  3.1230 
  5113.000 -16.601  3.4860  2.5520  2.9440 -14.504  3.4860  2.5520  2.9440 
  5113.500 -12.896  3.0340  2.4230  2.8790 -10.796  3.0340  2.4230  2.8790 
  5114.000 -10.954  2.6740  2.3010  2.8140 -8.8512  2.6740  2.3010  2.8140 
  5114.500 -9.2990  2.3370  2.2220  2.7210 -7.1931  2.3370  2.2220  2.7210 
  5115.000 -8.3990  2.1140  2.2180  2.6420 -6.2900  2.1140  2.2180  2.6420 
  5115.500 -8.0750  1.9700  2.2150  2.6420 -5.9629  1.9700  2.2150  2.6420 
  5116.000 -7.9300  1.9060  2.2940  2.6570 -5.8147  1.9060  2.2940  2.6570 
  5116.500 -7.8930  1.8920  2.3950  2.6710 -5.7746  1.8920  2.3950  2.6710 
  5117.000 -7.8210  1.8770  2.5460  2.7580 -5.6995  1.8770  2.5460  2.7580 
  5117.500 -7.7840  1.8990  2.6900  2.7970 -5.6594  1.8990  2.6900  2.7970 
  5118.000 -7.7830  1.9350  2.8050  2.8370 -5.6553  1.9350  2.8050  2.8370 
  5118.500 -7.8010  1.9780  2.9700  2.8840 -5.6702  1.9780  2.9700  2.8840 
  5119.000 -7.8180  2.0940  3.0780  2.9310 -5.6840  2.0940  3.0780  2.9310 
  5119.500 -7.9970  2.1660  3.2080  3.0030 -5.8599  2.1660  3.2080  3.0030 
