~Version Information
VERS.                     2.0: CWLS log ASCII Standard Version 2.00
WRAP.                      NO: One line per depth step
~Well Information Block
#MNEM.UNIT                               Data Type  Information
#---------                               ---------  -----------
STRT.FT                                   350.0000:
STOP.FT                                  6900.0000:
STEP.FT                                     0.5000:
NULL.                 -999.25                     :
COMP.                                             :COMPANY            
WELL.     LLU 57-20 OR CCMO 57-20                 :WELL               
FLD .                                             :FIELD              
CTRY.                                             :COUNTRY            
STAT.                                             :STATE              
LOC .                                             :LOCATION           
UWI .                                             :UNIQUE WELL ID     
SRVC.                                             :Service company    
DATE.                                             :LOG DATE           
~Curve Information
#MNEM.UNIT           API CODE  Curve Description
#---------           --------  -----------------
DEPT.FT                      :   1 DEPTH
SP  .MV                      :   2
AM10.OHMM                    :   3
AO10.OHMM                    :   4
AO19.OHMM                    :   5
SBL .MV                      :   6
RS  .OHMM                    :   7
RM  .OHMM                    :   8
RD  .OHMM                    :   9
~A
# ...
  2099.000 -46.777  10.805  12.856  14.306 -40.342  10.805  12.856  14.306 
  2099.500 -47.281  11.158  13.396  14.371 -40.845  11.158  13.396  14.371 
  2100.000 -47.929  11.388  13.835  14.421 -41.492  11.388  13.835  14.421 
  2100.500 -48.507  11.574  14.309  14.406 -42.068  11.574  14.309  14.406 
  2101.000 -48.545  11.632  14.834  14.226 -42.105  11.632  14.834  14.226 
  2101.500 -47.829  11.329  15.265  14.089 -41.388  11.329  15.265  14.089 
  2102.000 -47.220  10.925  15.308  13.908 -40.777  10.925  15.308  13.908 
  2102.500 -46.718  10.543  15.494  13.699 -40.274  10.543  15.494  13.699 
  2103.000 -45.966  10.349  15.609  13.555 -39.521  10.349  15.609  13.555 
  2103.500 -45.357  10.226  15.774  13.626 -38.911  10.226  15.774  13.626 
  2104.000 -44.604  10.218  15.946  13.834 -38.156  10.218  15.946  13.834 
  2104.500 -44.823  10.246  16.162  14.143 -38.374  10.246  16.162  14.143 
  2105.000 -45.616  10.325  16.442  14.582 -39.166  10.325  16.442  14.582 
  2105.500 -47.093  10.569  16.736  15.078 -40.641  10.569  16.736  15.078 
  2106.000 -48.821  11.339  17.088  15.674 -42.368  11.339  17.088  15.674 
  2106.500 -50.586  12.259  17.527  16.206 -44.132  12.259  17.527  16.206 
  2107.000 -52.206  13.273  18.145  17.127 -45.750  13.273  18.145  17.127 
  2107.500 -53.252  14.144  18.728  17.681 -46.795  14.144  18.728  17.681 
  2108.000 -53.506  14.618  19.245  18.184 -47.048  14.618  19.245  18.184 
  2108.500 -53.257  14.884  19.849  18.752 -46.798  14.884  19.849  18.752 
  2109.000 -53.007  14.718  20.310  19.255 -46.546  14.718  20.310  19.255 
  2109.500 -52.219  14.624  21.024  19.506 -45.757  14.624  21.024  19.506 
  2110.000 -51.286  13.033  21.451  19.664 -44.823  13.033  21.451  19.664 
  2110.500 -49.167  11.852  21.734  19.541 -42.702  11.852  21.734  19.541 
  2111.000 -47.048  11.269  21.729  18.994 -40.582  11.269  21.729  18.994 
  2111.500 -44.750  10.801  20.933  18.108 -38.283  10.801  20.933  18.108 
  2112.000 -43.673  10.217  19.129  17.108 -37.205  10.217  19.129  17.108 
  2112.500 -42.669  9.6120  18.836  16.503 -36.199  9.6120  18.836  16.503 
  2113.000 -42.096  9.0720  18.903  16.135 -35.625  9.0720  18.903  16.135 
  2113.500 -43.069  8.8700  18.970  15.998 -36.597  8.8700  18.970  15.998 
  2114.000 -44.546  9.0060  19.036  16.134 -38.072  9.0060  19.036  16.134 
  2114.500 -45.556  9.2860  19.103  16.810 -39.081  9.2860  19.103  16.810 
  2115.000 -46.781  9.8330  19.314  17.364 -40.305  9.8330  19.314  17.364 
  2115.500 -48.294  10.394  19.525  17.924 -41.816  10.394  19.525  17.924 
  2116.000 -49.266  10.947  20.024  18.507 -42.787  10.947  20.024  18.507 
  2116.500 -50.492  11.522  20.667  18.873 -44.012  11.522  20.667  18.873 
  2117.000 -50.027  12.364  21.453  19.182 -43.546  12.364  21.453  19.182 
  2117.500 -49.598  13.069  22.024  19.498 -43.115  13.069  22.024  19.498 
  2118.000 -49.349  13.406  22.738  19.779 -42.865  13.406  22.738  19.779 
  2118.500 -49.351  13.643  23.021  19.929 -42.866  13.643  23.021  19.929 
  2119.000 -49.479  13.794  23.232  19.937 -42.992  13.794  23.232  19.937 
  2119.500 -49.607  13.786  23.299  19.944 -43.119  13.786  23.299  19.944 
  2120.000 -50.041  13.584  23.294  19.952 -43.552  13.584  23.294  19.952 
  2120.500 -50.404  13.325  23.001  19.959 -43.914  13.325  23.001  19.959 
  2121.000 -50.658  13.115  22.635  19.967 -44.166  13.115  22.635  19.967 
  2121.500 -50.732  12.820  22.199  19.974 -44.239  12.820  22.199  19.974 
  2122.000 -50.339  12.431  21.618  19.982 -43.845  12.431  21.618  19.982 
  2122.500 -50.054  11.855  20.677  19.989 -43.558  11.855  20.677  19.989 
  2123.000 -49.193  11.271  19.881  19.997 -42.696  11.271  19.881  19.997 
  2123.500 -46.535  10.407  18.941  19.521 -40.037  10.407  18.941  19.521 
  2124.000 -43.409  9.2190  19.583  18.787 -36.909  9.2190  19.583  18.787 
  2124.500 -38.558  8.3980  19.650  17.599 -32.057  8.3980  19.650  17.599 
  2125.000 -32.843  7.2610  19.789  16.411 -26.341  7.2610  19.789  16.411 
  2125.500 -29.070  6.4620  19.928  15.496 -22.567  6.4620  19.928  15.496 
  2126.000 -25.585  5.6410  20.282  14.776 -19.080  5.6410  20.282  14.776 
  2126.500 -23.610  5.1800  20.638  14.042 -17.104  5.1800  20.638  14.042 
  2127.000 -21.742  4.7550  20.705  13.135 -15.235  4.7550  20.705  13.135 
  2127.500 -20.342  4.4370  12.634  12.623 -13.833  4.4370  12.634  12.623 
  2128.000 -19.949  4.2570  11.878  12.256 -13.439  4.2570  11.878  12.256 
  2128.500 -20.851  4.2210  11.575  11.845 -14.340  4.2210  11.575  11.845 
  2129.000 -21.680  4.2740  11.409  11.844 -15.168  4.2740  11.409  11.844 
  2129.500 -22.618  4.3280  11.207  11.822 -16.104  4.3280  11.207  11.822 
  2130.000 -23.087  4.4350  10.998  11.779 -16.572  4.4350  10.998  11.779 
  2130.500 -23.054  4.4420  10.702  11.541 -16.538  4.4420  10.702  11.541 
  2131.000 -22.841  4.2900  10.241  11.224 -16.323  4.2900  10.241  11.224 
  2131.500 -22.448  4.1380  9.8310  10.820 -15.929  4.1380  9.8310  10.820 
  2132.000 -21.515  3.8280  9.4200  10.503 -14.995  3.8280  9.4200  10.503 
  2132.500 -20.080  3.5690  8.9230  10.143 -13.558  3.5690  8.9230  10.143 
  2133.000 -19.651  3.2590  8.3970  9.8110 -13.128  3.2590  8.3970  9.8110 
  2133.500 -19.473  3.0070  8.1590  9.4360 -12.949  3.0070  8.1590  9.4360 
  2134.000 -19.548  2.8050  7.8420  9.3780 -13.023  2.8050  7.8420  9.3780 
  2134.500 -19.694  2.6600  7.6900  9.4430 -13.167  2.6600  7.6900  9.4430 
  2135.000 -19.768  2.6450  7.6830  9.5790 -13.240  2.6450  7.6830  9.5790 
  2135.500 -19.879  2.7090  7.7900  9.9600 -13.350  2.7090  7.7900  9.9600 
  2136.000 -19.737  2.7810  7.9330  10.341 -13.206  2.7810  7.9330  10.341 
  2136.500 -19.165  3.0250  8.0550  10.671 -12.633  3.0250  8.0550  10.671 
  2137.000 -18.592  3.3840  8.1770  10.901 -12.059  3.3840  8.1770  10.901 
  2137.500 -18.343  3.7010  8.2850  11.138 -11.809  3.7010  8.2850  11.138 
  2138.000 -18.291  3.9590  8.3560  11.404 -11.755  3.9590  8.3560  11.404 
  2138.500 -18.239  4.2390  8.4270  11.612 -11.702  4.2390  8.4270  11.612 
  2139.000 -18.458  4.5270  8.4990  11.748 -11.920  4.5270  8.4990  11.748 
  2139.500 -18.640  4.6920  8.5060  11.812 -12.100  4.6920  8.5060  11.812 
  2140.000 -19.362  4.7700  8.3760  11.841 -12.821  4.7700  8.3760  11.841 
  2140.500 -19.796  4.7910  8.2310  11.854 -13.254  4.7910  8.2310  11.854 
  2141.000 -20.446  4.7620  8.1520  11.875 -13.902  4.7620  8.1520  11.875 
  2141.500 -21.203  4.6820  8.0290  11.882 -14.658  4.6820  8.0290  11.882 
  2142.000 -21.709  4.5160  7.9780  12.040 -15.163  4.5160  7.9780  12.040 
  2142.500 -22.934  4.4580  8.0200  12.335 -16.387  4.4580  8.0200  12.335 
  2143.000 -23.619  4.5080  8.2000  12.658 -17.070  4.5080  8.2000  12.658 
  2143.500 -28.332  4.6160  8.4870  12.981 -21.782  4.6160  8.4870  12.981 
  2144.000 -31.104  4.9250  8.8320  13.269 -24.553  4.9250  8.8320  13.269 
  2144.500 -33.191  5.5000  9.1630  13.491 -26.638  5.5000  9.1630  13.491 
  2145.000 -35.387  6.2840  9.3920  13.699 -28.833  6.2840  9.3920  13.699 
  2145.500 -37.044  7.0460  9.5790  13.908 -30.489  7.0460  9.5790  13.908 
  2146.000 -38.952  7.5280  9.7580  14.073 -32.396  7.5280  9.7580  14.073 
  2146.500 -40.249  7.7210  9.9310  14.216 -33.691  7.7210  9.9310  14.216 
  2147.000 -40.719  7.9080  10.067  14.316 -34.160  7.9080  10.067  14.316 
  2147.500 -40.541  8.0440  10.110  14.251 -33.981  8.0440  10.110  14.251 
  2148.000 -39.861  8.1230  9.8860  13.725 -33.299  8.1230  9.8860  13.725 
  2148.500 -35.944  8.0500  9.4900  13.005 -29.381  8.0500  9.4900  13.005 
  2149.000 -32.495  6.9350  9.3090  12.314 -25.931  6.9350  9.3090  12.314 
  2149.500 -29.944  6.0560  9.0420  11.421 -23.378  6.0560  9.0420  11.421 
  2150.000 -27.070  5.4010  8.6170  10.837 -20.503  5.4010  8.6170  10.837 
  2150.500 -25.022  5.1700  8.1570  10.247 -18.454  5.1700  8.1570  10.247 
  2151.000 -23.980  5.0400  7.3580  9.7220 -17.411  5.0400  7.3580  9.7220 
  2151.500 -23.190  4.9110  7.0480  9.1100 -16.619  4.9110  7.0480  9.1100 
