~Version Information
VERS.                     2.0: CWLS log ASCII Standard Version 2.00
WRAP.                      NO: One line per depth step
~Well Information Block
#MNEM.UNIT                               Data Type  Information
#---------                               ---------  -----------
STRT.FT                                   350.0000:
STOP.FT                                  6900.0000:
STEP.FT                                     0.5000:
NULL.                 -999.25                     :
COMP.                                             :COMPANY            
WELL.     LLU 57-20 OR CCMO 57-20                 :WELL               
FLD .                                             :FIELD              
CTRY.                                             :COUNTRY            
STAT.                                             :STATE              
LOC .                                             :LOCATION           
UWI .                                             :UNIQUE WELL ID     
SRVC.                                             :Service company    
DATE.                                             :LOG DATE           
~Curve Information
#MNEM.UNIT           API CODE  Curve Description
#---------           --------  -----------------
DEPT.FT                      :   1 DEPTH
SP  .MV                      :   2
AM10.OHMM                    :   3
AO10.OHMM                    :   4
AO19.OHMM                    :   5
SBL .MV                      :   6
RS  .OHMM                    :   7
RM  .OHMM                    :   8
RD  .OHMM                    :   9
~A
# ...
  3795.000 -45.953  8.6220  11.230  11.011 -38.203  8.6220  11.230  11.011 
  3795.500 -44.411  8.5780  11.718  11.161 -36.669  8.5780  11.718  11.161 
  3796.000 -42.905  8.5200  12.134  11.319 -35.171  8.5200  12.134  11.319 
  3796.500 -41.686  8.4620  12.521  11.562 -33.961  8.4620  12.521  11.562 
  3797.000 -40.468  8.3900  13.254  11.727 -32.751  8.3900  13.254  11.727 
  3797.500 -39.284  8.3030  13.390  11.870 -31.575  8.3030  13.390  11.870 
  3798.000 -33.648  8.0160  13.360  11.388 -25.947  8.0160  13.360  11.388 
  3798.500 -30.454  7.4480  13.310  10.547 -22.762  7.4480  13.310  10.547 
  3799.000 -27.404  6.2330  11.815  9.4050 -19.720  6.2330  11.815  9.4050 
  3799.500 -22.378  5.3270  10.457  8.4770 -14.702  5.3270  10.457  8.4770 
  3800.000 -19.759  4.3570  9.7020  7.8590 -12.091  4.3570  9.7020  7.8590 
  3800.500 -17.999  3.7250  7.4170  7.0550 -10.340  3.7250  7.4170  7.0550 
  3801.000 -16.813  3.1220  7.0150  6.4510 -9.1619  3.1220  7.0150  6.4510 
  3801.500 -16.238  2.8340  6.5630  6.2430 -8.5951  2.8340  6.5630  6.2430 
  3802.000 -16.310  2.9350  6.7140  6.4730 -8.6754  2.9350  6.7140  6.4730 
  3802.500 -17.495  3.0930  6.9870  6.6380 -9.8686  3.0930  6.9870  6.6380 
  3803.000 -18.105  3.2800  7.1950  6.8830 -10.487  3.2800  7.1950  6.8830 
  3803.500 -19.362  3.4380  7.3030  7.1770 -11.752  3.4380  7.3030  7.1770 
  3804.000 -20.655  3.5170  7.3680  7.3500 -13.053  3.5170  7.3680  7.3500 
  3804.500 -21.516  3.5960  7.4040  7.5510 -13.923  3.5960  7.4040  7.5510 
  3805.000 -21.300  3.7540  7.4040  7.7160 -13.715  3.7540  7.4040  7.7160 
  3805.500 -19.899  3.8410  7.3610  7.6620 -12.322  3.8410  7.3610  7.6620 
  3806.000 -18.211  3.8050  7.0590  7.6090 -10.642  3.8050  7.0590  7.6090 
  3806.500 -17.241  3.7110  6.8580  7.4650 -9.6806  3.7110  6.8580  7.4650 
  3807.000 -16.451  3.6320  6.7430  7.3500 -8.8988  3.6320  6.7430  7.3500 
  3807.500 -15.876  3.5460  6.6280  7.2780 -8.3320  3.5460  6.6280  7.2780 
  3808.000 -15.893  3.4960  6.5640  7.2070 -8.3573  3.4960  6.5640  7.2070 
  3808.500 -15.910  3.4170  6.5130  7.1280 -8.3825  3.4170  6.5130  7.1280 
  3809.000 -16.018  3.2950  6.4630  7.0630 -8.4988  3.2950  6.4630  7.0630 
  3809.500 -15.946  3.1660  6.3200  6.9550 -8.4350  3.1660  6.3200  6.9550 
  3810.000 -15.694  2.9580  6.1620  6.8480 -8.1913  2.9580  6.1620  6.8480 
  3810.500 -15.299  2.7210  5.4790  6.6680 -7.8045  2.7210  5.4790  6.6680 
  3811.000 -14.904  2.6200  5.3430  6.5530 -7.4177  2.6200  5.3430  6.5530 
  3811.500 -15.227  2.7280  5.2820  6.6610 -7.7490  2.7280  5.2820  6.6610 
  3812.000 -15.586  2.8640  5.2210  6.7690 -8.1162  2.8640  5.2210  6.7690 
  3812.500 -16.232  2.9720  5.0480  6.8190 -8.7705  2.9720  5.0480  6.8190 
  3813.000 -16.483  3.0120  4.9690  6.7190 -9.0297  3.0120  4.9690  6.7190 
  3813.500 -16.375  3.0520  4.8260  6.5820 -8.9299  3.0520  4.8260  6.5820 
  3814.000 -15.908  3.1020  4.7250  6.3960 -8.4712  3.1020  4.7250  6.3960 
  3814.500 -15.692  3.0160  4.5600  6.1660 -8.2634  3.0160  4.5600  6.1660 
  3815.000 -15.476  2.8720  4.4310  6.0730 -8.0557  2.8720  4.4310  6.0730 
  3815.500 -15.529  2.7640  4.3090  6.0220 -8.1169  2.7640  4.3090  6.0220 
  3816.000 -15.582  2.7430  4.2300  6.1370 -8.1782  2.7430  4.2300  6.1370 
  3816.500 -16.229  2.8000  4.4530  6.3310 -8.8334  2.8000  4.4530  6.3310 
  3817.000 -17.127  3.0590  4.6610  6.5610 -9.7396  3.0590  4.6610  6.5610 
  3817.500 -18.563  3.2750  4.9560  6.7910 -11.184  3.2750  4.9560  6.7910 
  3818.000 -20.538  3.5840  5.1350  6.9710 -13.167  3.5840  5.1350  6.9710 
  3818.500 -22.944  3.8780  5.2360  7.1790 -15.581  3.8780  5.2360  7.1790 
  3819.000 -25.530  4.1510  5.3370  7.3230 -18.176  4.1510  5.3370  7.3230 
  3819.500 -26.966  4.3310  5.1140  7.1720 -19.620  4.3310  5.1140  7.1720 
  3820.000 -22.009  4.3740  4.8050  6.9280 -14.671  4.3740  4.8050  6.9280 
  3820.500 -19.926  4.0870  4.4820  6.5330 -12.596  4.0870  4.4820  6.5330 
  3821.000 -18.849  3.8140  4.3240  6.2100 -11.528  3.8140  4.3240  6.2100 
  3821.500 -18.453  3.5550  4.3100  5.7930 -11.140  3.5550  4.3100  5.7930 
  3822.000 -19.602  3.3970  4.3890  5.8000 -12.297  3.3970  4.3890  5.8000 
  3822.500 -22.331  3.5840  4.4680  5.9660 -15.034  3.5840  4.4680  5.9660 
  3823.000 -24.773  3.8570  4.7770  6.1100 -17.485  3.8570  4.7770  6.1100 
  3823.500 -26.820  4.1590  4.9570  6.2170 -19.540  4.1590  4.9570  6.2170 
  3824.000 -28.687  4.3820  5.0640  6.3680 -21.415  4.3820  5.0640  6.3680 
  3824.500 -30.626  4.5550  5.0500  6.4910 -23.362  4.5550  5.0500  6.4910 
  3825.000 -29.405  4.8560  4.7990  6.4550 -22.150  4.8560  4.7990  6.4550 
  3825.500 -27.753  4.7560  4.6260  6.1310 -20.506  4.7560  4.6260  6.1310 
  3826.000 -26.818  4.6480  4.4760  5.9810 -19.579  4.6480  4.4760  5.9810 
  3826.500 -25.992  4.4330  4.3390  5.6650 -18.761  4.4330  4.3390  5.6650 
  3827.000 -26.782  4.3180  4.2750  5.5280 -19.559  4.3180  4.2750  5.5280 
  3827.500 -28.003  4.2100  4.3650  5.4280 -20.789  4.2100  4.3650  5.4280 
  3828.000 -27.069  4.1530  4.4550  5.3420 -19.863  4.1530  4.4550  5.3420 
  3828.500 -26.350  4.1240  4.5050  5.2840 -19.152  4.1240  4.5050  5.2840 
  3829.000 -25.668  4.1310  4.5690  5.2270 -18.478  4.1310  4.5690  5.2270 
  3829.500 -25.397  4.1390  4.6200  5.1980 -18.216  4.1390  4.6200  5.1980 
  3830.000 -25.127  4.2250  4.7420  5.1980 -17.954  4.2250  4.7420  5.1980 
  3830.500 -26.421  4.3760  4.8140  5.2840 -19.256  4.3760  4.8140  5.2840 
  3831.000 -28.396  4.6780  4.8710  5.3850 -21.239  4.6780  4.8710  5.3850 
  3831.500 -30.442  4.8790  4.9290  5.5290 -23.294  4.8790  4.9290  5.5290 
  3832.000 -32.202  5.0510  4.9870  5.5870 -25.062  5.0510  4.9870  5.5870 
  3832.500 -34.033  5.1950  5.1730  5.6440 -26.901  5.1950  5.1730  5.6440 
  3833.000 -34.823  5.3390  5.2310  5.7880 -27.699  5.3390  5.2310  5.7880 
  3833.500 -33.278  5.4750  5.3030  5.7810 -26.163  5.4750  5.3030  5.7810 
  3834.000 -31.375  5.4540  5.1880  5.5800 -24.268  5.4540  5.1880  5.5800 
  3834.500 -29.291  5.3390  4.9650  5.3570 -22.192  5.3390  4.9650  5.3570 
  3835.000 -25.089  5.0160  4.7280  5.1560 -17.998  5.0160  4.7280  5.1560 
  3835.500 -22.000  4.3910  4.4990  4.9840 -14.918  4.3910  4.4990  4.9840 
  3836.000 -20.276  3.7010  4.3480  4.8330 -13.202  3.7010  4.3480  4.8330 
  3836.500 -19.593  3.4140  4.2900  4.6600 -12.527  3.4140  4.2900  4.6600 
  3837.000 -19.234  3.2200  4.2830  4.5530 -12.176  3.2200  4.2830  4.5530 
  3837.500 -20.491  3.1340  4.3010  4.7680 -13.442  3.1340  4.3010  4.7680 
  3838.000 -23.076  3.1480  4.3200  4.9190 -16.035  3.1480  4.3200  4.9190 
  3838.500 -24.046  3.2420  4.4060  5.0850 -17.013  3.2420  4.4060  5.0850 
  3839.000 -24.405  3.4360  4.5130  5.2430 -17.380  3.4360  4.5130  5.2430 
  3839.500 -24.727  3.7880  4.5640  5.3360 -17.711  3.7880  4.5640  5.3360 
  3840.000 -26.594  4.3410  4.7220  5.4580 -19.586  4.3410  4.7220  5.4580 
  3840.500 -29.395  4.7440  4.8940  5.5590 -22.395  4.7440  4.8940  5.5590 
  3841.000 -35.177  5.0170  5.1960  5.7890 -28.185  5.0170  5.1960  5.7890 
  3841.500 -38.625  5.6200  5.4550  6.1120 -31.641  5.6200  5.4550  6.1120 
  3842.000 -42.719  6.1450  6.1020  6.3930 -35.744  6.1450  6.1020  6.3930 
  3842.500 -44.837  6.5400  6.6760  6.8520 -37.870  6.5400  6.6760  6.8520 
  3843.000 -46.632  7.2510  7.0570  7.1690 -39.673  7.2510  7.0570  7.1690 
  3843.500 -48.536  8.1200  7.4310  7.5780 -41.585  8.1200  7.4310  7.5780 
  3844.000 -50.151  9.5070  7.6750  8.0450 -43.209  9.5070  7.6750  8.0450 
  3844.500 -51.516  10.304  7.9910  8.2610 -44.582  10.304  7.9910  8.2610 
  3845.000 -50.869  10.836  8.2140  8.5700 -43.943  10.836  8.2140  8.5700 
  3845.500 -48.535  11.231  8.4150  8.7490 -41.617  11.231  8.4150  8.7490 
  3846.000 -47.421  11.318  8.5590  8.8570 -40.512  11.318  8.5590  8.8570 
  3846.500 -44.045  11.232  8.6170  8.9000 -37.144  11.232  8.6170  8.9000 
  3847.000 -40.633  10.226  8.3800  8.3330 -33.740  10.226  8.3800  8.3330 
  3847.500 -37.256  9.4790  7.9560  7.6000 -30.371  9.4790  7.9560  7.6000 
