~Version Information
VERS.                     2.0: CWLS log ASCII Standard Version 2.00
WRAP.                      NO: One line per depth step
~Well Information Block
#MNEM.UNIT                               Data Type  Information
#---------                               ---------  -----------
STRT.FT                                   450.0000:
STOP.FT                                  8370.0000:
STEP.FT                                     0.5000:
NULL.                 -999.25                     :
COMP.                                             :COMPANY            
WELL.     LLU56-20 OR CCMO 56-20                  :WELL               
FLD .                                             :FIELD              
CTRY.                                             :COUNTRY            
STAT.                                             :STATE              
LOC .                                             :LOCATION           
UWI .                                             :UNIQUE WELL ID     
SRVC.                                             :Service company    
DATE.                                             :LOG DATE           
~Curve Information
#MNEM.UNIT           API CODE  Curve Description
#---------           --------  -----------------
DEPT.FT                      :   1 DEPTH
SP  .MV                      :   2
SN16.OHMM                    :   3
LN64.OHMM                    :   4
LAT .OHMM                    :   5
SBL .MV                      :   6
RS  .OHMM                    :   7
RM  .OHMM                    :   8
RD  .OHMM                    :   9
DEVI.DEG                     :  10
TVD .FT                      :  11
AZIM.DEG                     :  12
NORT.FT                      :  13
EAST.FT                      :  14
OFFS.FT                      :  15
~A
# ...
  7827.500 -27.067  2.0640  2.5300  2.0640 -15.067  2.0640  2.5300  2.0640  1.0000  7822.2  185.17  54.731  188.84  172.23 
  7828.000 -27.063  2.0640  2.5300  2.0640 -15.063  2.0640  2.5300  2.0640  1.0000  7822.7  185.16  54.722  188.84  172.22 
  7828.500 -27.058  2.0640  2.5300  2.0640 -15.058  2.0640  2.5300  2.0640  1.0000  7823.2  185.14  54.714  188.84  172.22 
  7829.000 -27.053  2.0650  2.5670  2.0650 -15.053  2.0650  2.5670  2.0650  1.0000  7823.7  185.13  54.705  188.83  172.21 
  7829.500 -26.869  2.0650  2.5670  2.0650 -14.869  2.0650  2.5670  2.0650  1.0000  7824.2  185.11  54.696  188.83  172.20 
  7830.000 -26.865  2.0650  2.5670  2.0660 -14.865  2.0650  2.5670  2.0660  1.0000  7824.7  185.10  54.688  188.83  172.19 
  7830.500 -26.861  2.0840  2.5680  2.0660 -14.861  2.0840  2.5680  2.0660  1.0000  7825.2  185.08  54.679  188.83  172.19 
  7831.000 -26.767  2.1020  2.5680  2.0660 -14.767  2.1020  2.5680  2.0660  1.0000  7825.7  185.07  54.670  188.83  172.18 
  7831.500 -26.673  2.1020  2.5690  2.0670 -14.673  2.1020  2.5690  2.0670  1.0000  7826.2  185.05  54.661  188.83  172.17 
  7832.000 -26.758  2.1030  2.5690  2.0850 -14.758  2.1030  2.5690  2.0850  1.0000  7826.7  185.04  54.653  188.83  172.17 
  7832.500 -26.843  2.1210  2.5690  2.1030 -14.843  2.1210  2.5690  2.1030  1.0000  7827.2  185.02  54.644  188.83  172.16 
  7833.000 -27.017  2.1390  2.5700  2.1040 -15.017  2.1390  2.5700  2.1040  1.0000  7827.7  185.01  54.635  188.83  172.15 
  7833.500 -27.729  2.2830  2.5700  2.1040 -15.729  2.2830  2.5700  2.1040  1.0000  7828.2  184.99  54.627  188.83  172.15 
  7834.000 -28.441  2.3190  2.5700  2.1040 -16.441  2.3190  2.5700  2.1040  1.0000  7828.7  184.98  54.618  188.83  172.14 
  7834.500 -29.153  2.3920  2.5530  2.1050 -17.153  2.3920  2.5530  2.1050  1.0000  7829.2  184.96  54.609  188.83  172.13 
  7835.000 -29.328  2.4280  2.5350  2.1230 -17.328  2.4280  2.5350  2.1230  1.0000  7829.7  184.95  54.601  188.83  172.13 
  7835.500 -29.502  2.4640  2.5360  2.1410 -17.502  2.4640  2.5360  2.1410  1.0000  7830.2  184.93  54.592  188.82  172.12 
  7836.000 -29.498  2.4820  2.5360  2.1420 -17.498  2.4820  2.5360  2.1420  1.0000  7830.7  184.92  54.583  188.82  172.11 
  7836.500 -29.315  2.5000  2.5360  2.1780 -17.315  2.5000  2.5360  2.1780  1.0000  7831.2  184.90  54.575  188.82  172.11 
  7837.000 -29.132  2.5010  2.5370  2.1780 -17.132  2.5010  2.5370  2.1780  1.0000  7831.7  184.89  54.566  188.82  172.10 
  7837.500 -28.231  2.4830  2.5370  2.1780 -16.231  2.4830  2.5370  2.1780  1.0000  7832.2  184.87  54.557  188.82  172.09 
  7838.000 -27.868  2.4660  2.5370  2.1790 -15.868  2.4660  2.5370  2.1790  1.0000  7832.7  184.86  54.548  188.82  172.09 
  7838.500 -27.416  2.4300  2.5380  2.1430 -15.416  2.4300  2.5380  2.1430  1.0000  7833.2  184.84  54.540  188.82  172.08 
  7839.000 -26.964  2.3950  2.5380  2.1080 -14.964  2.3950  2.5380  2.1080  1.0000  7833.7  184.83  54.531  188.82  172.07 
  7839.500 -26.602  2.3950  2.5390  2.0720 -14.602  2.3950  2.5390  2.0720  1.0000  7834.2  184.81  54.522  188.82  172.07 
  7840.000 -26.239  2.2880  2.5570  2.0370 -14.239  2.2880  2.5570  2.0370  1.0000  7834.7  184.80  54.514  188.82  172.06 
  7840.500 -25.517  2.2170  2.5750  2.0010 -13.517  2.2170  2.5750  2.0010  1.0000  7835.2  184.78  54.505  188.82  172.05 
  7841.000 -25.155  2.1630  2.5750  2.0020 -13.155  2.1630  2.5750  2.0020  1.0000  7835.7  184.77  54.496  188.82  172.05 
  7841.500 -24.792  2.1100  2.5760  1.9660 -12.792  2.1100  2.5760  1.9660  1.0000  7836.2  184.75  54.488  188.82  172.04 
  7842.000 -24.609  2.0380  2.5940  1.9670 -12.609  2.0380  2.5940  1.9670  1.0000  7836.7  184.74  54.479  188.81  172.03 
  7842.500 -24.425  2.0390  2.6120  1.9670 -12.425  2.0390  2.6120  1.9670  1.0000  7837.2  184.72  54.470  188.81  172.03 
  7843.000 -24.421  2.0390  2.6130  1.9670 -12.421  2.0390  2.6130  1.9670  1.0000  7837.7  184.71  54.461  188.81  172.02 
  7843.500 -24.417  2.0570  2.6130  1.9850 -12.417  2.0570  2.6130  1.9850  1.0000  7838.2  184.69  54.453  188.81  172.01 
  7844.000 -24.412  2.0750  2.6490  2.0040 -12.412  2.0750  2.6490  2.0040  1.0000  7838.7  184.68  54.444  188.81  172.01 
  7844.500 -24.407  2.1300  2.5780  2.0400 -12.407  2.1300  2.5780  2.0400  1.0000  7839.2  184.66  54.435  188.81  172.00 
  7845.000 -24.493  2.1840  2.5600  2.0400 -12.493  2.1840  2.5600  2.0400  1.0000  7839.7  184.65  54.427  188.81  171.99 
  7845.500 -24.578  2.2380  2.5430  2.0410 -12.578  2.2380  2.5430  2.0410  1.0000  7840.2  184.63  54.418  188.81  171.99 
  7846.000 -24.753  2.2920  2.5070  2.1130 -12.753  2.2920  2.5070  2.1130  1.0000  7840.7  184.62  54.409  188.81  171.98 
  7846.500 -24.927  2.4000  2.4720  2.1490 -12.927  2.4000  2.4720  2.1490  1.0000  7841.2  184.60  54.401  188.81  171.97 
  7847.000 -25.012  2.4180  2.4720  2.1850 -13.012  2.4180  2.4720  2.1850  1.0000  7841.7  184.59  54.392  188.81  171.97 
  7847.500 -25.097  2.4370  2.4370  2.2210 -13.097  2.4370  2.4370  2.2210  1.0000  7842.2  184.57  54.383  188.81  171.96 
  7848.000 -25.450  2.4550  2.4550  2.2400 -13.450  2.4550  2.4550  2.2400  1.0000  7842.7  184.56  54.374  188.81  171.95 
  7848.500 -25.625  2.4730  2.4730  2.2580 -13.625  2.4730  2.4730  2.2580  1.0000  7843.2  184.54  54.366  188.81  171.95 
  7849.000 -25.441  2.4380  2.4910  2.2940 -13.441  2.4380  2.4910  2.2940  1.0000  7843.7  184.53  54.357  188.81  171.94 
  7849.500 -25.258  2.4020  2.5100  2.2590 -13.258  2.4020  2.5100  2.2590  1.0000  7844.2  184.51  54.348  188.80  171.94 
  7850.000 -24.895  2.3310  2.5460  2.2230 -12.895  2.3310  2.5460  2.2230  1.0000  7844.7  184.50  54.340  188.80  171.93 
  7850.500 -24.533  2.2600  2.5820  2.2060 -12.533  2.2600  2.5820  2.2060  1.0000  7845.2  184.48  54.331  188.80  171.92 
  7851.000 -24.170  2.2240  2.6180  2.1880 -12.170  2.2240  2.6180  2.1880  1.0000  7845.7  184.47  54.322  188.80  171.92 
  7851.500 -23.807  2.1880  2.6190  2.1170 -11.807  2.1880  2.6190  2.1170  1.0000  7846.2  184.45  54.314  188.80  171.91 
  7852.000 -23.803  2.1530  2.6190  2.0810 -11.803  2.1530  2.6190  2.0810  1.0000  7846.7  184.44  54.305  188.80  171.90 
  7852.500 -23.799  2.1180  2.6370  2.0460 -11.799  2.1180  2.6370  2.0460  1.0000  7847.2  184.42  54.296  188.80  171.90 
  7853.000 -23.795  2.1180  2.6560  1.9740 -11.795  2.1180  2.6560  1.9740  1.0000  7847.7  184.41  54.288  188.80  171.89 
  7853.500 -23.880  2.1180  2.6560  1.9570 -11.880  2.1180  2.6560  1.9570  1.0000  7848.2  184.39  54.279  188.80  171.88 
  7854.000 -23.965  2.1360  2.6210  1.9390 -11.965  2.1360  2.6210  1.9390  1.0000  7848.7  184.38  54.270  188.80  171.88 
  7854.500 -23.959  2.1550  2.6210  1.9400 -11.959  2.1550  2.6210  1.9400  1.0000  7849.2  184.36  54.261  188.80  171.87 
  7855.000 -23.955  2.1910  2.6210  1.9400 -11.955  2.1910  2.6210  1.9400  1.0000  7849.7  184.35  54.253  188.80  171.86 
  7855.500 -24.040  2.2270  2.6040  1.9400 -12.040  2.2270  2.6040  1.9400  1.0000  7850.2  184.33  54.244  188.80  171.86 
  7856.000 -24.126  2.2280  2.5860  1.9410 -12.126  2.2280  2.5860  1.9410  1.0000  7850.7  184.32  54.235  188.80  171.85 
  7856.500 -24.121  2.2280  2.5870  1.9410 -12.121  2.2280  2.5870  1.9410  1.0000  7851.2  184.30  54.227  188.80  171.84 
  7857.000 -24.116  2.1920  2.5870  1.9410 -12.116  2.1920  2.5870  1.9410  1.0000  7851.7  184.29  54.218  188.79  171.84 
  7857.500 -23.754  2.1930  2.5870  1.9420 -11.754  2.1930  2.5870  1.9420  1.0000  7852.2  184.27  54.209  188.79  171.83 
  7858.000 -23.391  2.1750  2.5880  1.9420 -11.391  2.1750  2.5880  1.9420  1.0000  7852.7  184.26  54.200  188.79  171.82 
  7858.500 -23.386  2.1580  2.5880  1.9420 -11.386  2.1580  2.5880  1.9420  1.0000  7853.2  184.24  54.192  188.79  171.82 
  7859.000 -23.024  2.1400  2.5700  1.9250 -11.024  2.1400  2.5700  1.9250  1.0000  7853.7  184.23  54.183  188.79  171.81 
  7859.500 -22.840  2.1230  2.5530  1.9070 -10.840  2.1230  2.5530  1.9070  1.0000  7854.2  184.21  54.174  188.79  171.80 
