~Version Information
VERS.                     2.0: CWLS log ASCII Standard Version 2.00
WRAP.                      NO: One line per depth step
~Well Information Block
#MNEM.UNIT                               Data Type  Information
#---------                               ---------  -----------
STRT.FT                                   350.0000:
STOP.FT                                  6900.0000:
STEP.FT                                     0.5000:
NULL.                 -999.25                     :
COMP.                                             :COMPANY            
WELL.     LLU 57-20 OR CCMO 57-20                 :WELL               
FLD .                                             :FIELD              
CTRY.                                             :COUNTRY            
STAT.                                             :STATE              
LOC .                                             :LOCATION           
UWI .                                             :UNIQUE WELL ID     
SRVC.                                             :Service company    
DATE.                                             :LOG DATE           
~Curve Information
#MNEM.UNIT           API CODE  Curve Description
#---------           --------  -----------------
DEPT.FT                      :   1 DEPTH
SP  .MV                      :   2
AM10.OHMM                    :   3
AO10.OHMM                    :   4
AO19.OHMM                    :   5
SBL .MV                      :   6
RS  .OHMM                    :   7
RM  .OHMM                    :   8
RD  .OHMM                    :   9
~A
# ...
  6392.000 -7.5310  1.6300  1.6300  1.8060 -7.5310  1.6300  1.6300  1.8060 
  6392.500 -7.7480  1.6370  1.6370  1.8060 -7.7480  1.6370  1.6370  1.8060 
  6393.000 -7.8580  1.6440  1.6410  1.8020 -7.8580  1.6440  1.6410  1.8020 
  6393.500 -7.9670  1.6510  1.6440  1.7980 -7.9670  1.6510  1.6440  1.7980 
  6394.000 -8.0760  1.6580  1.6510  1.7910 -8.0760  1.6580  1.6510  1.7910 
  6394.500 -8.2400  1.6650  1.6510  1.7900 -8.2400  1.6650  1.6510  1.7900 
  6395.000 -8.4030  1.6750  1.6540  1.7870 -8.4030  1.6750  1.6540  1.7870 
  6395.500 -8.7290  1.6860  1.6570  1.7830 -8.7290  1.6860  1.6570  1.7830 
  6396.000 -8.9470  1.7070  1.6570  1.7820 -8.9470  1.7070  1.6570  1.7820 
  6396.500 -9.3080  1.7140  1.6710  1.7820 -9.3080  1.7140  1.6710  1.7820 
  6397.000 -9.4540  1.7210  1.6710  1.7750 -9.4540  1.7210  1.6710  1.7750 
  6397.500 -9.6350  1.7210  1.6770  1.7740 -9.6350  1.7210  1.6770  1.7740 
  6398.000 -9.8170  1.7200  1.6050  1.7740 -9.8170  1.7200  1.6050  1.7740 
  6398.500 -9.8180  1.7270  1.5980  1.7740 -9.8180  1.7270  1.5980  1.7740 
  6399.000 -9.5310  1.7270  1.6050  1.7740 -9.5310  1.7270  1.6050  1.7740 
  6399.500 -9.1360  1.7270  1.6330  1.7800 -9.1360  1.7270  1.6330  1.7800 
  6400.000 -8.7040  1.7260  1.6470  1.7870 -8.7040  1.7260  1.6470  1.7870 
  6400.500 -8.2000  1.7260  1.6620  1.7910 -8.2000  1.7260  1.6620  1.7910 
  6401.000 -7.7310  1.7330  1.6760  1.7940 -7.7310  1.7330  1.6760  1.7940 
  6401.500 -7.1550  1.7400  1.7050  1.8010 -7.1550  1.7400  1.7050  1.8010 
  6402.000 -8.9220  1.7910  1.7550  1.8010 -8.9220  1.7910  1.7550  1.8010 
  6402.500 -10.544  1.8690  1.7910  1.8160 -10.544  1.8690  1.7910  1.8160 
  6403.000 -11.554  1.9270  1.8260  1.8300 -11.554  1.9270  1.8260  1.8300 
  6403.500 -13.176  1.9840  1.8550  1.8370 -13.176  1.9840  1.8550  1.8370 
  6404.000 -15.844  2.0490  1.8690  1.8440 -15.844  2.0490  1.8690  1.8440 
  6404.500 -14.547  2.0850  1.8690  1.8580 -14.547  2.0850  1.8690  1.8580 
  6405.000 -12.889  2.0410  1.8400  1.8940 -12.889  2.0410  1.8400  1.8940 
  6405.500 -11.772  1.9700  1.8040  1.9160 -11.772  1.9700  1.8040  1.9160 
  6406.000 -10.690  1.9480  1.7470  1.9730 -10.690  1.9480  1.7470  1.9730 
  6406.500 -10.042  1.9260  1.7830  2.0230 -10.042  1.9260  1.7830  2.0230 
  6407.000 -9.2850  1.9260  1.8400  2.1240 -9.2850  1.9260  1.8400  2.1240 
  6407.500 -8.7080  1.9260  1.8830  2.2100 -8.7080  1.9260  1.8830  2.2100 
  6408.000 -8.0240  1.9760  1.9840  2.3250 -8.0240  1.9760  1.9840  2.3250 
  6408.500 -7.8800  2.0620  2.0840  2.3600 -7.8800  2.0620  2.0840  2.3600 
  6409.000 -8.6370  2.1560  2.1840  2.3960 -8.6370  2.1560  2.1840  2.3960 
  6409.500 -9.5030  2.3140  2.2850  2.4890 -9.5030  2.3140  2.2850  2.4890 
  6410.000 -10.044  2.4500  2.3490  2.5320 -10.044  2.4500  2.3490  2.5320 
  6410.500 -10.296  2.5500  2.3780  2.5540 -10.296  2.5500  2.3780  2.5540 
  6411.000 -10.441  2.5360  2.3490  2.4250 -10.441  2.5360  2.3490  2.4250 
  6411.500 -10.261  2.3850  2.2410  2.3310 -10.261  2.3850  2.2410  2.3310 
  6412.000 -10.117  2.2850  2.1270  2.1730 -10.117  2.2850  2.1270  2.1730 
  6412.500 -9.9730  2.1910  1.9610  2.0220 -9.9730  2.1910  1.9610  2.0220 
  6413.000 -9.8290  2.0330  1.8180  1.9360 -9.8290  2.0330  1.8180  1.9360 
  6413.500 -9.7210  1.9250  1.6530  1.8140 -9.7210  1.9250  1.6530  1.8140 
  6414.000 -9.7930  1.8460  1.5450  1.7490 -9.7930  1.8460  1.5450  1.7490 
  6414.500 -9.8660  1.7670  1.5270  1.7130 -9.8660  1.7670  1.5270  1.7130 
  6415.000 -10.010  1.6670  1.5090  1.6990 -10.010  1.6670  1.5090  1.6990 
  6415.500 -10.083  1.6240  1.4870  1.7060 -10.083  1.6240  1.4870  1.7060 
  6416.000 -10.155  1.5950  1.4940  1.7200 -10.155  1.5950  1.4940  1.7200 
  6416.500 -10.227  1.5800  1.5090  1.7350 -10.227  1.5800  1.5090  1.7350 
  6417.000 -10.444  1.5800  1.5300  1.7560 -10.444  1.5800  1.5300  1.7560 
  6417.500 -10.552  1.5950  1.5800  1.7630 -10.552  1.5950  1.5800  1.7630 
  6418.000 -10.300  1.6090  1.6160  1.7700 -10.300  1.6090  1.6160  1.7700 
  6418.500 -9.8680  1.6230  1.6660  1.7780 -9.8680  1.6230  1.6660  1.7780 
  6419.000 -9.6520  1.6450  1.7240  1.7810 -9.6520  1.6450  1.7240  1.7810 
  6419.500 -9.4000  1.6660  1.7740  1.7850 -9.4000  1.6660  1.7740  1.7850 
  6420.000 -9.1480  1.6880  1.8310  1.7770 -9.1480  1.6880  1.8310  1.7770 
  6420.500 -9.1840  1.7230  1.8960  1.7700 -9.1840  1.7230  1.8960  1.7700 
  6421.000 -9.6530  1.7660  1.9310  1.7630 -9.6530  1.7660  1.9310  1.7630 
  6421.500 -10.158  1.8090  1.9310  1.7520 -10.158  1.8090  1.9310  1.7520 
  6422.000 -10.555  1.8520  1.8600  1.7410 -10.555  1.8520  1.8600  1.7410 
  6422.500 -10.843  1.8810  1.8380  1.7270 -10.843  1.8810  1.8380  1.7270 
  6423.000 -11.096  1.8520  1.7800  1.7120 -11.096  1.8520  1.7800  1.7120 
  6423.500 -11.241  1.8230  1.7520  1.6910 -11.241  1.8230  1.7520  1.6910 
  6424.000 -10.772  1.7730  1.7260  1.6830 -10.772  1.7730  1.7260  1.6830 
  6424.500 -10.664  1.7370  1.7010  1.6830 -10.664  1.7370  1.7010  1.6830 
  6425.000 -10.376  1.7080  1.6580  1.7050 -10.376  1.7080  1.6580  1.7050 
  6425.500 -10.304  1.6940  1.6370  1.7120 -10.304  1.6940  1.6370  1.7120 
  6426.000 -10.269  1.6720  1.6150  1.7260 -10.269  1.6720  1.6150  1.7260 
  6426.500 -10.053  1.6690  1.6000  1.7410 -10.053  1.6690  1.6000  1.7410 
  6427.000 -9.9090  1.6650  1.5860  1.7830 -9.9090  1.6650  1.5860  1.7830 
  6427.500 -9.9450  1.6510  1.5820  1.8050 -9.9450  1.6510  1.5820  1.8050 
  6428.000 -9.9810  1.6510  1.5790  1.8410 -9.9810  1.6510  1.5790  1.8410 
  6428.500 -10.198  1.6540  1.5710  1.8690 -10.198  1.6540  1.5710  1.8690 
  6429.000 -10.234  1.6580  1.5710  1.8980 -10.234  1.6580  1.5710  1.8980 
  6429.500 -10.198  1.6610  1.5710  1.9270 -10.198  1.6610  1.5710  1.9270 
  6430.000 -10.036  1.6650  1.5860  1.9410 -10.036  1.6650  1.5860  1.9410 
  6430.500 -9.8740  1.6790  1.5890  1.9620 -9.8740  1.6790  1.5890  1.9620 
  6431.000 -9.5870  1.6900  1.5930  1.9620 -9.5870  1.6900  1.5930  1.9620 
  6431.500 -9.4430  1.7000  1.6000  1.9620 -9.4430  1.7000  1.6000  1.9620 
  6432.000 -9.2990  1.7110  1.6070  1.9620 -9.2990  1.7110  1.6070  1.9620 
  6432.500 -9.1190  1.7220  1.6140  1.9690 -9.1190  1.7220  1.6140  1.9690 
  6433.000 -8.9930  1.7360  1.6170  1.9690 -8.9930  1.7360  1.6170  1.9690 
  6433.500 -8.8670  1.7500  1.6210  1.9760 -8.8670  1.7500  1.6210  1.9760 
  6434.000 -8.6870  1.7540  1.6350  1.9760 -8.6870  1.7540  1.6350  1.9760 
  6434.500 -8.5430  1.7570  1.6420  1.9760 -8.5430  1.7570  1.6420  1.9760 
  6435.000 -8.4350  1.7500  1.6500  1.9760 -8.4350  1.7500  1.6500  1.9760 
  6435.500 -8.3270  1.7430  1.6570  1.9800 -8.3270  1.7430  1.6570  1.9800 
  6436.000 -8.2190  1.7360  1.6640  1.9830 -8.2190  1.7360  1.6640  1.9830 
  6436.500 -8.2560  1.7280  1.6710  1.9830 -8.2560  1.7280  1.6710  1.9830 
  6437.000 -8.4000  1.7210  1.6780  1.9830 -8.4000  1.7210  1.6780  1.9830 
  6437.500 -8.7610  1.7170  1.6850  1.9830 -8.7610  1.7170  1.6850  1.9830 
  6438.000 -9.0490  1.7140  1.6920  1.9830 -9.0490  1.7140  1.6920  1.9830 
  6438.500 -9.3380  1.6990  1.6990  1.9900 -9.3380  1.6990  1.6990  1.9900 
  6439.000 -9.5910  1.6990  1.7060  1.9940 -9.5910  1.6990  1.7060  1.9940 
  6439.500 -9.9520  1.6990  1.7130  1.9970 -9.9520  1.6990  1.7130  1.9970 
  6440.000 -10.168  1.6990  1.7210  2.0110 -10.168  1.6990  1.7210  2.0110 
  6440.500 -10.421  1.7060  1.7280  2.0260 -10.421  1.7060  1.7280  2.0260 
  6441.000 -10.601  1.7130  1.7350  2.0360 -10.601  1.7130  1.7350  2.0360 
  6441.500 -10.782  1.7200  1.7350  2.0470 -10.782  1.7200  1.7350  2.0470 
  6442.000 -11.034  1.7380  1.7350  2.0610 -11.034  1.7380  1.7350  2.0610 
  6442.500 -11.431  1.7560  1.7270  2.0760 -11.431  1.7560  1.7270  2.0760 
  6443.000 -11.936  1.7990  1.7200  2.1040 -11.936  1.7990  1.7200  2.1040 
  6443.500 -12.117  1.8060  1.7270  2.1180 -12.117  1.8060  1.7270  2.1180 
  6444.000 -11.829  1.8210  1.7420  2.1260 -11.829  1.8210  1.7420  2.1260 
  6444.500 -11.649  1.8640  1.7450  2.1330 -11.649  1.8640  1.7450  2.1330 
