~Version Information
VERS.                     2.0: CWLS log ASCII Standard Version 2.00
WRAP.                      NO: One line per depth step
~Well Information Block
#MNEM.UNIT                               Data Type  Information
#---------                               ---------  -----------
STRT.FT                                   350.0000:
STOP.FT                                  6900.0000:
STEP.FT                                     0.5000:
NULL.                 -999.25                     :
COMP.                                             :COMPANY            
WELL.     LLU 57-20 OR CCMO 57-20                 :WELL               
FLD .                                             :FIELD              
CTRY.                                             :COUNTRY            
STAT.                                             :STATE              
LOC .                                             :LOCATION           
UWI .                                             :UNIQUE WELL ID     
SRVC.                                             :Service company    
DATE.                                             :LOG DATE           
~Curve Information
#MNEM.UNIT           API CODE  Curve Description
#---------           --------  -----------------
DEPT.FT                      :   1 DEPTH
SP  .MV                      :   2
AM10.OHMM                    :   3
AO10.OHMM                    :   4
AO19.OHMM                    :   5
SBL .MV                      :   6
RS  .OHMM                    :   7
RM  .OHMM                    :   8
RD  .OHMM                    :   9
~A
# ...
  4219.000 -41.528  7.4130  8.7030  7.6420 -38.570  7.4130  8.7030  7.6420 
  4219.500 -41.849  7.4850  8.8400  7.7930 -38.894  7.4850  8.8400  7.7930 
  4220.000 -42.241  7.5720  8.9910  7.9940 -39.289  7.5720  8.9910  7.9940 
  4220.500 -42.598  7.7230  9.2780  8.2030 -39.648  7.7230  9.2780  8.2030 
  4221.000 -43.171  7.8090  9.4720  8.4900 -40.224  7.8090  9.4720  8.4900 
  4221.500 -43.780  7.9460  9.8960  8.7420 -40.836  7.9460  9.8960  8.7420 
  4222.000 -44.532  8.0320  10.205  9.0930 -41.590  8.0320  10.205  9.0930 
  4222.500 -45.034  8.2840  10.535  9.4950 -42.095  8.2840  10.535  9.4950 
  4223.000 -45.643  8.4420  10.908  9.9050 -42.707  8.4420  10.908  9.9050 
  4223.500 -46.179  8.6510  11.260  10.213 -43.245  8.6510  11.260  10.213 
  4224.000 -46.788  8.9020  11.497  10.479 -43.857  8.9020  11.497  10.479 
  4224.500 -47.073  9.2040  11.706  10.738 -44.145  9.2040  11.706  10.738 
  4225.000 -47.466  9.3840  11.914  10.896 -44.540  9.3840  11.914  10.896 
  4225.500 -47.607  9.6640  12.087  11.011 -44.684  9.6640  12.087  11.011 
  4226.000 -47.029  9.8220  12.130  11.034 -44.109  9.8220  12.130  11.034 
  4226.500 -46.198  9.9010  12.159  10.977 -43.280  9.9010  12.159  10.977 
  4227.000 -44.863  9.9020  12.045  10.769 -41.948  9.9020  12.045  10.769 
  4227.500 -43.493  9.6090  11.659  10.369 -40.581  9.6090  11.659  10.369 
  4228.000 -42.015  8.8780  11.107  9.4800 -39.105  8.8780  11.107  9.4800 
  4228.500 -40.357  8.1830  10.233  8.6280 -37.450  8.1830  10.233  8.6280 
  4229.000 -39.202  7.4450  8.8080  8.1910 -36.297  7.4450  8.8080  8.1910 
  4229.500 -38.696  6.8080  8.2700  7.9260 -35.794  6.8080  8.2700  7.9260 
  4230.000 -39.520  6.6220  7.9130  8.0060 -36.621  6.6220  7.9130  8.0060 
  4230.500 -41.856  7.2750  7.9920  8.7880 -38.959  7.2750  7.9920  8.7880 
  4231.000 -44.265  7.9280  8.2650  9.3550 -41.371  7.9280  8.2650  9.3550 
  4231.500 -44.946  8.3160  8.6960  9.7420 -42.055  8.3160  8.6960  9.7420 
  4232.000 -45.338  8.5890  9.1980  10.022 -42.449  8.5890  9.1980  10.022 
  4232.500 -45.587  8.9410  9.6500  10.209 -42.701  8.9410  9.6500  10.209 
  4233.000 -45.801  9.1850  10.024  10.490 -42.918  9.1850  10.024  10.490 
  4233.500 -46.589  9.4150  10.289  10.562 -43.708  9.4150  10.289  10.562 
  4234.000 -47.485  9.8100  10.584  10.670 -44.607  9.8100  10.584  10.670 
  4234.500 -48.058  10.054  10.857  10.771 -45.183  10.054  10.857  10.771 
  4235.000 -48.704  10.255  11.087  10.994 -45.831  10.255  11.087  10.994 
  4235.500 -49.421  10.435  11.317  11.152 -46.551  10.435  11.317  11.152 
  4236.000 -50.317  10.543  11.482  11.289 -47.450  10.543  11.482  11.289 
  4236.500 -50.854  10.608  11.691  11.483 -47.989  10.608  11.691  11.483 
  4237.000 -51.499  10.652  11.813  11.591 -48.637  10.652  11.813  11.591 
  4237.500 -51.891  10.674  12.014  11.649 -49.032  10.674  12.014  11.649 
  4238.000 -52.141  10.696  12.130  11.707 -49.284  10.696  12.130  11.707 
  4238.500 -52.389  10.768  12.159  11.765 -49.535  10.768  12.159  11.765 
  4239.000 -52.531  10.805  11.923  11.787 -49.680  10.805  11.923  11.787 
  4239.500 -52.671  10.856  11.880  11.809 -49.822  10.856  11.880  11.809 
  4240.000 -52.705  10.885  11.975  11.813 -49.859  10.885  11.975  11.813 
  4240.500 -52.701  10.907  12.061  11.817 -49.857  10.907  12.061  11.817 
  4241.000 -52.626  10.900  12.169  11.811 -49.785  10.900  12.169  11.811 
  4241.500 -52.553  10.886  12.320  11.797 -49.715  10.886  12.320  11.797 
  4242.000 -52.010  10.851  12.478  11.761 -49.174  10.851  12.478  11.761 
  4242.500 -51.179  10.759  12.579  11.712 -48.346  10.759  12.579  11.712 
  4243.000 -50.132  10.609  12.695  11.583 -47.302  10.609  12.695  11.583 
  4243.500 -48.834  10.351  12.774  11.426 -46.006  10.351  12.774  11.426 
  4244.000 -47.860  10.008  12.810  11.183 -45.035  10.008  12.810  11.183 
  4244.500 -46.381  9.8070  12.639  10.811 -43.559  9.8070  12.639  10.811 
  4245.000 -44.903  9.3060  12.087  10.482 -42.083  9.3060  12.087  10.482 
  4245.500 -43.389  8.9410  11.450  10.059 -40.572  8.9410  11.450  10.059 
  4246.000 -41.046  8.4040  10.820  9.5650 -38.232  8.4040  10.820  9.5650 
  4246.500 -39.893  7.7520  10.290  9.1290 -37.081  7.7520  10.290  9.1290 
  4247.000 -37.551  6.8710  9.7390  8.6350 -34.742  6.8710  9.7390  8.6350 
  4247.500 -35.713  5.8970  9.3740  8.4200 -32.907  5.8970  9.3740  8.4200 
  4248.000 -35.278  5.3670  9.0440  8.2560 -32.474  5.3670  9.0440  8.2560 
  4248.500 -36.317  5.2960  8.8080  8.0990 -33.516  5.2960  8.8080  8.0990 
  4249.000 -36.531  5.4400  8.6440  7.9420 -33.733  5.4400  8.6440  7.9420 
  4249.500 -36.601  5.6840  8.4730  7.8630 -33.805  5.6840  8.4730  7.8630 
  4250.000 -36.706  5.9070  8.3660  8.3010 -33.913  5.9070  8.3660  8.3010 
  4250.500 -37.675  6.3450  8.4160  8.7320 -34.885  6.3450  8.4160  8.7320 
  4251.000 -40.911  6.7470  8.5670  9.2910 -38.123  6.7470  8.5670  9.2910 
  4251.500 -45.407  7.5430  9.0620  10.045 -42.622  7.5430  9.0620  10.045 
  4252.000 -48.247  8.8550  9.8730  10.475 -45.465  8.8550  9.8730  10.475 
  4252.500 -50.403  9.6870  10.397  10.741 -47.623  9.6870  10.397  10.741 
  4253.000 -51.192  10.318  10.698  10.863 -48.415  10.318  10.698  10.863 
  4253.500 -50.830  10.620  10.814  10.914 -48.055  10.620  10.814  10.914 
  4254.000 -50.072  10.807  10.886  10.922 -47.300  10.807  10.886  10.922 
  4254.500 -48.629  10.485  10.786  10.822 -45.860  10.485  10.786  10.822 
  4255.000 -47.260  9.9980  10.184  10.478 -44.493  9.9980  10.184  10.478 
  4255.500 -45.206  9.3680  9.7190  10.264 -42.442  9.3680  9.7190  10.264 
  4256.000 -43.044  8.6010  9.4110  10.150 -40.283  8.6010  9.4110  10.150 
  4256.500 -40.811  8.1210  9.1390  10.064 -38.052  8.1210  9.1390  10.064 
  4257.000 -39.189  7.7270  8.9100  9.8710 -36.433  7.7270  8.9100  9.8710 
  4257.500 -37.387  7.2190  8.7170  9.6060 -34.634  7.2190  8.7170  9.6060 
  4258.000 -35.549  6.7180  8.4170  9.1770 -32.798  6.7180  8.4170  9.1770 
  4258.500 -32.236  6.0660  8.0370  8.6110 -29.488  6.0660  8.0370  8.6110 
  4259.000 -28.815  5.2990  7.6000  8.0230 -26.070  5.2990  7.6000  8.0230 
  4259.500 -26.689  4.8910  7.0700  7.4150 -23.946  4.8910  7.0700  7.4150 
  4260.000 -25.103  4.5760  6.4830  7.2430 -22.363  4.5760  6.4830  7.2430 
  4260.500 -23.805  4.3690  6.1610  7.2010 -21.068  4.3690  6.1610  7.2010 
  4261.000 -28.265  4.3550  6.9070  7.7100 -25.530  4.3550  6.9070  7.7100 
  4261.500 -31.933  4.6070  7.5670  8.0470 -29.201  4.6070  7.5670  8.0470 
  4262.000 -35.421  4.9080  8.0690  8.4490 -32.692  4.9080  8.0690  8.4490 
  4262.500 -38.333  5.3460  8.5140  8.7940 -35.606  5.3460  8.5140  8.7940 
  4263.000 -40.705  6.8230  8.9020  9.0310 -37.981  6.8230  8.9020  9.0310 
  4263.500 -43.042  7.4190  9.2180  9.2180 -40.321  7.4190  9.2180  9.2180 
  4264.000 -44.838  7.8130  9.5120  9.3190 -42.119  7.8130  9.5120  9.3190 
  4264.500 -46.203  8.3590  9.7060  9.3260 -43.487  8.3590  9.7060  9.3260 
  4265.000 -46.453  8.6820  9.8360  9.3020 -43.739  8.6820  9.8360  9.3020 
  4265.500 -45.587  8.8040  9.9080  9.2770 -42.876  8.8040  9.9080  9.2770 
  4266.000 -43.856  8.5970  9.9160  9.2340 -41.148  8.5970  9.9160  9.2340 
  4266.500 -42.019  8.2320  9.8880  9.1920 -39.313  8.2320  9.8880  9.1920 
  4267.000 -38.885  7.8810  9.7730  9.0060 -36.182  7.8810  9.7730  9.0060 
  4267.500 -36.868  7.4800  9.5880  8.8350 -34.168  7.4800  9.5880  8.8350 
  4268.000 -34.814  7.0360  9.2800  8.5990 -32.116  7.0360  9.2800  8.5990 
  4268.500 -32.940  6.6210  8.8640  8.3270 -30.245  6.6210  8.8640  8.3270 
  4269.000 -30.310  6.0980  8.1550  8.0050 -27.618  6.0980  8.1550  8.0050 
  4269.500 -28.544  5.6470  7.3030  7.6470 -25.854  5.6470  7.3030  7.6470 
  4270.000 -26.383  5.1100  6.6650  7.3110 -23.696  5.1100  6.6650  7.3110 
  4270.500 -24.401  4.5150  6.0420  7.0390 -21.717  4.5150  6.0420  7.0390 
  4271.000 -21.411  4.1430  5.6910  6.8380 -18.729  4.1430  5.6910  6.8380 
  4271.500 -19.250  3.8930  5.5630  6.6600 -16.571  3.8930  5.5630  6.6600 
