~Version Information
VERS.                     2.0: CWLS log ASCII Standard Version 2.00
WRAP.                      NO: One line per depth step
~Well Information Block
#MNEM.UNIT                               Data Type  Information
#---------                               ---------  -----------
STRT.FT                                   450.0000:
STOP.FT                                  8370.0000:
STEP.FT                                     0.5000:
NULL.                 -999.25                     :
COMP.                                             :COMPANY            
WELL.     LLU56-20 OR CCMO 56-20                  :WELL               
FLD .                                             :FIELD              
CTRY.                                             :COUNTRY            
STAT.                                             :STATE              
LOC .                                             :LOCATION           
UWI .                                             :UNIQUE WELL ID     
SRVC.                                             :Service company    
DATE.                                             :LOG DATE           
~Curve Information
#MNEM.UNIT           API CODE  Curve Description
#---------           --------  -----------------
DEPT.FT                      :   1 DEPTH
SP  .MV                      :   2
SN16.OHMM                    :   3
LN64.OHMM                    :   4
LAT .OHMM                    :   5
SBL .MV                      :   6
RS  .OHMM                    :   7
RM  .OHMM                    :   8
RD  .OHMM                    :   9
DEVI.DEG                     :  10
TVD .FT                      :  11
AZIM.DEG                     :  12
NORT.FT                      :  13
EAST.FT                      :  14
OFFS.FT                      :  15
~A
# ...
  3602.500 -10.805  3.6240  5.6150  5.0600 -10.634  3.6240  5.6150  5.0600  2.7500  3600.9  42.137  79.318  56.909  96.327 
  3603.000 -11.161  3.6960  5.5970  5.0960 -10.989  3.6960  5.5970  5.0960  2.7500  3601.4  42.164  79.335  56.925  96.351 
  3603.500 -11.159  3.8040  5.6340  5.0970 -10.987  3.8040  5.6340  5.0970  2.7500  3601.9  42.192  79.353  56.941  96.375 
  3604.000 -11.068  3.8400  5.7060  5.0970 -10.896  3.8400  5.7060  5.0970  2.7500  3602.4  42.219  79.371  56.958  96.399 
  3604.500 -10.977  3.8760  5.7420  5.0790 -10.805  3.8760  5.7420  5.0790  2.7500  3602.9  42.247  79.389  56.974  96.423 
  3605.000 -10.617  3.9120  5.8490  5.0620 -10.444  3.9120  5.8490  5.0620  2.7500  3603.4  42.274  79.406  56.990  96.447 
  3605.500 -10.616  3.9840  5.8850  4.9910 -10.443  3.9840  5.8850  4.9910  2.7500  3603.9  42.302  79.424  57.006  96.471 
  3606.000 -10.615  4.0200  5.9930  4.9910 -10.442  4.0200  5.9930  4.9910  2.7500  3604.4  42.329  79.442  57.022  96.495 
  3606.500 -10.612  4.0920  6.1010  4.9550 -10.439  4.0920  6.1010  4.9550  2.7500  3604.9  42.357  79.460  57.038  96.519 
  3607.000 -10.610  4.1640  6.1730  4.9200 -10.436  4.1640  6.1730  4.9200  2.7500  3605.4  42.384  79.477  57.054  96.543 
  3607.500 -10.966  4.2720  6.2090  4.8840 -10.792  4.2720  6.2090  4.8840  2.7500  3605.9  42.412  79.495  57.071  96.566 
  3608.000 -11.054  4.3440  6.2810  4.8850 -10.880  4.3440  6.2810  4.8850  2.7500  3606.4  42.439  79.513  57.087  96.590 
  3608.500 -11.142  4.4160  6.3530  4.8850 -10.967  4.4160  6.3530  4.8850  2.7500  3606.9  42.467  79.530  57.103  96.614 
  3609.000 -11.676  4.5950  6.3890  4.8850 -11.501  4.5950  6.3890  4.8850  2.7500  3607.4  42.494  79.548  57.119  96.638 
  3609.500 -12.389  4.6670  6.4250  4.8860 -12.214  4.6670  6.4250  4.8860  2.7500  3607.9  42.522  79.566  57.135  96.662 
  3610.000 -13.281  4.8470  6.4970  4.9220 -13.106  4.8470  6.4970  4.9220  2.7500  3608.4  42.549  79.583  57.152  96.686 
  3610.500 -14.888  4.9900  6.5330  5.0660 -14.712  4.9900  6.5330  5.0660  2.7500  3608.9  42.577  79.601  57.168  96.710 
  3611.000 -16.852  5.1340  6.5690  5.2100 -16.676  5.1340  6.5690  5.2100  2.7500  3609.4  42.604  79.619  57.184  96.734 
  3611.500 -19.710  5.3850  6.6050  5.4970 -19.534  5.3850  6.6050  5.4970  2.7500  3609.9  42.632  79.636  57.200  96.758 
  3612.000 -20.960  5.7800  6.6410  5.6770 -20.784  5.7800  6.6410  5.6770  2.7500  3610.4  42.659  79.654  57.217  96.782 
  3612.500 -22.031  6.1750  6.7850  5.7850 -21.854  6.1750  6.7850  5.7850  2.7500  3610.9  42.687  79.672  57.233  96.806 
  3613.000 -23.995  6.7490  6.8570  5.8930 -23.818  6.7490  6.8570  5.8930  2.7500  3611.4  42.714  79.689  57.249  96.830 
  3613.500 -24.887  7.0720  6.9290  5.9830 -24.710  7.0720  6.9290  5.9830  2.7500  3611.9  42.742  79.707  57.265  96.854 
  3614.000 -26.315  7.3230  7.0010  6.0730 -26.138  7.3230  7.0010  6.0730  2.7500  3612.4  42.769  79.725  57.282  96.878 
  3614.500 -27.922  7.5030  7.1800  6.2170 -27.744  7.5030  7.1800  6.2170  2.7500  3612.9  42.797  79.742  57.298  96.902 
  3615.000 -29.172  7.6110  7.2520  6.2530 -28.994  7.6110  7.2520  6.2530  2.7500  3613.4  42.824  79.760  57.314  96.926 
  3615.500 -30.064  7.7550  7.3240  6.2890 -29.886  7.7550  7.3240  6.2890  2.7500  3613.9  42.852  79.777  57.331  96.950 
  3616.000 -30.956  7.8260  7.3600  6.3610 -30.778  7.8260  7.3600  6.3610  2.7500  3614.4  42.879  79.795  57.347  96.974 
  3616.500 -31.490  7.8980  7.3960  6.3620 -31.311  7.8980  7.3960  6.3620  2.7500  3614.9  42.907  79.812  57.363  96.998 
  3617.000 -31.846  7.9700  7.3600  6.3620 -31.667  7.9700  7.3600  6.3620  2.7500  3615.4  42.934  79.830  57.380  97.022 
  3617.500 -31.844  7.9700  7.3610  6.3620 -31.665  7.9700  7.3610  6.3620  2.7500  3615.9  42.962  79.848  57.396  97.046 
  3618.000 -31.842  7.9530  7.3070  6.2910 -31.663  7.9530  7.3070  6.2910  2.7500  3616.4  42.989  79.865  57.412  97.070 
  3618.500 -31.841  7.9350  7.2530  6.2560 -31.661  7.9350  7.2530  6.2560  2.7500  3616.9  43.017  79.883  57.429  97.094 
  3619.000 -31.839  7.8630  7.1820  6.1480 -31.659  7.8630  7.1820  6.1480  2.7500  3617.4  43.044  79.900  57.445  97.118 
  3619.500 -31.659  7.7920  7.0030  6.1490 -31.479  7.7920  7.0030  6.1490  2.7500  3617.9  43.072  79.918  57.461  97.142 
  3620.000 -31.478  7.6480  6.6800  6.0590 -31.298  7.6480  6.6800  6.0590  2.7500  3618.4  43.099  79.935  57.478  97.166 
  3620.500 -30.940  7.4690  6.4650  5.9700 -30.759  7.4690  6.4650  5.9700  2.7500  3618.9  43.127  79.953  57.494  97.190 
  3621.000 -29.150  6.8950  6.1060  5.8630 -28.969  6.8950  6.1060  5.8630  2.7500  3619.4  43.154  79.970  57.511  97.214 
  3621.500 -27.182  6.5730  6.0350  5.7550 -27.001  6.5730  6.0350  5.7550  2.7500  3619.9  43.182  79.988  57.527  97.238 
  3622.000 -24.320  6.2860  5.9990  5.4330 -24.139  6.2860  5.9990  5.4330  2.7500  3620.4  43.209  80.005  57.544  97.262 
  3622.500 -23.246  5.7840  6.0350  5.2180 -23.064  5.7840  6.0350  5.2180  2.7500  3620.9  43.237  80.023  57.560  97.286 
  3623.000 -20.920  4.8870  6.0710  5.0030 -20.738  4.8870  6.0710  5.0030  2.7500  3621.4  43.264  80.040  57.576  97.310 
  3623.500 -18.416  4.3130  6.1430  4.6450 -18.234  4.3130  6.1430  4.6450  2.7500  3621.9  43.292  80.058  57.593  97.334 
  3624.000 -16.627  3.9550  6.3230  4.3220 -16.445  3.9550  6.3230  4.3220  2.7500  3622.4  43.319  80.075  57.609  97.358 
  3624.500 -13.586  3.7400  6.5020  3.9280 -13.403  3.7400  6.5020  3.9280  2.7500  3622.9  43.347  80.093  57.626  97.382 
  3625.000 -10.188  3.6320  6.5380  3.7130 -10.005  3.6320  6.5380  3.7130  2.7500  3623.4  43.374  80.110  57.642  97.406 
  3625.500 -9.6500  3.5970  6.5020  3.4980 -9.4669  3.5970  6.5020  3.4980  2.7500  3623.9  43.402  80.127  57.659  97.430 
  3626.000 -9.6490  3.5970  6.4670  3.3910 -9.4656  3.5970  6.4670  3.3910  2.7500  3624.4  43.429  80.145  57.675  97.453 
  3626.500 -9.6470  3.5970  6.3230  3.3910 -9.4634  3.5970  6.3230  3.3910  2.7500  3624.9  43.457  80.162  57.692  97.477 
  3627.000 -10.003  3.7050  6.2520  3.4990 -9.8191  3.7050  6.2520  3.4990  2.7500  3625.3  43.484  80.180  57.708  97.501 
  3627.500 -10.358  3.8130  6.1800  3.5710 -10.174  3.8130  6.1800  3.5710  2.7500  3625.8  43.512  80.197  57.725  97.525 
  3628.000 -11.071  3.9560  6.1090  3.6790 -10.887  3.9560  6.1090  3.6790  2.7500  3626.3  43.539  80.214  57.741  97.549 
  3628.500 -11.606  4.1000  6.0370  3.7870 -11.421  4.1000  6.0370  3.7870  2.7500  3626.8  43.567  80.232  57.758  97.573 
  3629.000 -12.319  4.1540  5.9300  4.0030 -12.134  4.1540  5.9300  4.0030  2.7500  3627.3  43.594  80.249  57.774  97.597 
  3629.500 -13.211  4.2080  5.8940  4.1470 -13.026  4.2080  5.8940  4.1470  2.7500  3627.8  43.622  80.267  57.791  97.621 
  3630.000 -14.461  4.2440  5.8940  4.2550 -14.276  4.2440  5.8940  4.2550  2.7500  3628.3  43.649  80.284  57.807  97.645 
  3630.500 -13.923  4.2440  5.8940  4.2910 -13.737  4.2440  5.8940  4.2910  2.7500  3628.8  43.677  80.301  57.824  97.669 
  3631.000 -13.385  4.2440  5.9300  4.2560 -13.199  4.2440  5.9300  4.2560  2.7500  3629.3  43.704  80.319  57.841  97.693 
  3631.500 -12.757  4.2260  6.0380  4.1840 -12.571  4.2260  6.0380  4.1840  2.7500  3629.8  43.732  80.336  57.857  97.717 
  3632.000 -12.130  4.2090  6.0740  4.2200 -11.944  4.2090  6.0740  4.2200  2.7500  3630.3  43.759  80.353  57.874  97.741 
  3632.500 -10.877  4.2090  6.1100  4.2570 -10.690  4.2090  6.1100  4.2570  2.7500  3630.8  43.787  80.371  57.890  97.765 
  3633.000 -10.339  4.2090  6.1280  4.3290 -10.152  4.2090  6.1280  4.3290  2.7500  3631.3  43.814  80.388  57.907  97.789 
  3633.500 -10.337  4.2090  6.1470  4.4010 -10.150  4.2090  6.1470  4.4010  2.7500  3631.8  43.842  80.405  57.924  97.813 
  3634.000 -10.335  4.2090  6.1470  4.5090 -10.148  4.2090  6.1470  4.5090  2.7500  3632.3  43.869  80.422  57.940  97.837 
  3634.500 -10.333  4.2100  6.1470  4.5810 -10.145  4.2100  6.1470  4.5810  2.7500  3632.8  43.897  80.440  57.957  97.861 
