~Version Information
VERS.                     2.0: CWLS log ASCII Standard Version 2.00
WRAP.                      NO: One line per depth step
~Well Information Block
#MNEM.UNIT                               Data Type  Information
#---------                               ---------  -----------
STRT.FT                                   450.0000:
STOP.FT                                  8370.0000:
STEP.FT                                     0.5000:
NULL.                 -999.25                     :
COMP.                                             :COMPANY            
WELL.     LLU56-20 OR CCMO 56-20                  :WELL               
FLD .                                             :FIELD              
CTRY.                                             :COUNTRY            
STAT.                                             :STATE              
LOC .                                             :LOCATION           
UWI .                                             :UNIQUE WELL ID     
SRVC.                                             :Service company    
DATE.                                             :LOG DATE           
~Curve Information
#MNEM.UNIT           API CODE  Curve Description
#---------           --------  -----------------
DEPT.FT                      :   1 DEPTH
SP  .MV                      :   2
SN16.OHMM                    :   3
LN64.OHMM                    :   4
LAT .OHMM                    :   5
SBL .MV                      :   6
RS  .OHMM                    :   7
RM  .OHMM                    :   8
RD  .OHMM                    :   9
DEVI.DEG                     :  10
TVD .FT                      :  11
AZIM.DEG                     :  12
NORT.FT                      :  13
EAST.FT                      :  14
OFFS.FT                      :  15
~A
# ...
  5715.000 -26.865  5.8390  4.5130  4.3820 -25.622  5.8390  4.5130  4.3820  2.9625  5711.6  116.00  106.16  130.36  167.25 
  5715.500 -26.949  5.9120  4.6570  4.2570 -25.706  5.9120  4.6570  4.2570  2.9613  5712.1  116.05  106.15  130.39  167.26 
  5716.000 -27.033  5.8770  4.8020  4.1320 -25.789  5.8770  4.8020  4.1320  2.9600  5712.6  116.10  106.14  130.41  167.26 
  5716.500 -27.118  5.8060  4.9100  4.0080 -25.874  5.8060  4.9100  4.0080  2.9588  5713.1  116.15  106.13  130.43  167.27 
  5717.000 -27.203  5.7360  5.1260  3.8830 -25.959  5.7360  5.1260  3.8830  2.9575  5713.6  116.20  106.12  130.46  167.28 
  5717.500 -27.019  5.7010  5.2350  3.7590 -25.775  5.7010  5.2350  3.7590  2.9563  5714.1  116.25  106.10  130.48  167.29 
  5718.000 -26.836  5.6660  5.3430  3.6340 -25.591  5.6660  5.3430  3.6340  2.9550  5714.6  116.30  106.09  130.50  167.30 
  5718.500 -26.650  5.8460  5.5240  3.5090 -25.405  5.8460  5.5240  3.5090  2.9538  5715.1  116.35  106.08  130.52  167.31 
  5719.000 -26.466  6.0620  5.6680  3.4030 -25.221  6.0620  5.6680  3.4030  2.9525  5715.6  116.40  106.07  130.55  167.31 
  5719.500 -27.174  6.4580  5.7950  3.2970 -25.929  6.4580  5.7950  3.2970  2.9513  5716.1  116.45  106.06  130.57  167.32 
  5720.000 -27.883  6.9610  5.9210  3.3690 -26.637  6.9610  5.9210  3.3690  2.9500  5716.6  116.50  106.05  130.59  167.33 
  5720.500 -28.593  8.7540  6.3170  3.8010 -27.347  8.7540  6.3170  3.8010  2.9488  5717.1  116.55  106.03  130.62  167.34 
  5721.000 -34.293  10.010  6.4430  4.0520 -33.047  10.010  6.4430  4.0520  2.9475  5717.6  116.60  106.02  130.64  167.35 
  5721.500 -35.893  11.158  6.5690  4.4830 -34.647  11.158  6.5690  4.4830  2.9463  5718.1  116.65  106.01  130.66  167.35 
  5722.000 -36.603  11.947  6.6960  4.6630 -35.356  11.947  6.6960  4.6630  2.9450  5718.6  116.70  106.00  130.69  167.36 
  5722.500 -37.313  13.095  6.8230  4.6640 -36.066  13.095  6.8230  4.6640  2.9438  5719.1  116.75  105.99  130.71  167.37 
  5723.000 -39.268  12.989  7.1110  4.6650 -38.021  12.989  7.1110  4.6650  2.9425  5719.6  116.80  105.98  130.73  167.38 
  5723.500 -41.938  12.811  7.3630  4.6300 -40.691  12.811  7.3630  4.6300  2.9413  5720.1  116.85  105.97  130.75  167.39 
  5724.000 -43.895  12.489  7.7940  4.5230 -42.647  12.489  7.7940  4.5230  2.9400  5720.6  116.90  105.95  130.78  167.39 
  5724.500 -45.495  11.809  8.2610  4.4170 -44.247  11.809  8.2610  4.4170  2.9388  5721.1  116.95  105.94  130.80  167.40 
  5725.000 -47.273  11.129  8.4770  4.2740 -46.025  11.129  8.4770  4.2740  2.9375  5721.6  117.00  105.93  130.82  167.41 
  5725.500 -48.159  10.055  8.5140  4.0240 -46.911  10.055  8.5140  4.0240  2.9363  5722.1  117.05  105.92  130.85  167.42 
  5726.000 -48.511  9.9480  8.4070  3.8100 -47.262  9.9480  8.4070  3.8100  2.9350  5722.6  117.10  105.91  130.87  167.43 
  5726.500 -48.327  9.8420  8.3720  3.6320 -47.078  9.8420  8.3720  3.6320  2.9338  5723.1  117.15  105.90  130.89  167.43 
  5727.000 -48.145  9.5920  8.1590  3.5250 -46.896  9.5920  8.1590  3.5250  2.9325  5723.6  117.20  105.88  130.91  167.44 
  5727.500 -47.962  9.4140  7.9800  3.4180 -46.713  9.4140  7.9800  3.4180  2.9313  5724.1  117.25  105.87  130.94  167.45 
  5728.000 -46.884  9.2000  7.8740  3.3840 -45.634  9.2000  7.8740  3.3840  2.9300  5724.6  117.30  105.86  130.96  167.46 
  5728.500 -46.165  8.9510  7.7670  3.4210 -44.915  8.9510  7.7670  3.4210  2.9288  5725.1  117.35  105.85  130.98  167.46 
  5729.000 -45.625  8.8260  7.4460  3.5290 -44.375  8.8260  7.4460  3.5290  2.9275  5725.5  117.40  105.84  131.00  167.47 
  5729.500 -44.728  8.7010  7.3040  3.5660 -43.478  8.7010  7.3040  3.5660  2.9263  5726.0  117.45  105.83  131.03  167.48 
  5730.000 -44.366  8.3440  7.0900  3.5310 -43.115  8.3440  7.0900  3.5310  2.9250  5726.5  117.50  105.81  131.05  167.49 
  5730.500 -43.469  8.1840  6.9480  3.4240 -42.218  8.1840  6.9480  3.4240  2.9238  5727.0  117.55  105.80  131.07  167.50 
  5731.000 -42.928  8.0230  6.8410  3.2820 -41.677  8.0230  6.8410  3.2820  2.9225  5727.5  117.60  105.79  131.10  167.50 
  5731.500 -42.031  7.7020  6.8060  3.2830 -40.780  7.7020  6.8060  3.2830  2.9213  5728.0  117.65  105.78  131.12  167.51 
  5732.000 -41.491  7.6320  6.7000  3.2830 -40.239  7.6320  6.7000  3.2830  2.9200  5728.5  117.70  105.77  131.14  167.52 
  5732.500 -41.130  7.5610  6.6650  3.2840 -39.878  7.5610  6.6650  3.2840  2.9188  5729.0  117.75  105.75  131.16  167.53 
  5733.000 -40.769  7.4900  6.5950  3.3210 -39.517  7.4900  6.5950  3.3210  2.9175  5729.5  117.80  105.74  131.19  167.53 
  5733.500 -40.226  7.4560  6.5240  3.3580 -38.973  7.4560  6.5240  3.3580  2.9163  5730.0  117.85  105.73  131.21  167.54 
  5734.000 -40.042  7.4210  6.4530  3.3940 -38.789  7.4210  6.4530  3.3940  2.9150  5730.5  117.90  105.72  131.23  167.55 
  5734.500 -39.859  7.4040  6.4190  3.4670 -38.606  7.4040  6.4190  3.4670  2.9138  5731.0  117.95  105.71  131.25  167.56 
  5735.000 -39.765  7.3870  6.3480  3.4680 -38.512  7.3870  6.3480  3.4680  2.9125  5731.5  118.00  105.69  131.28  167.56 
  5735.500 -39.672  7.3880  6.3490  3.5050 -38.418  7.3880  6.3490  3.5050  2.9113  5732.0  118.05  105.68  131.30  167.57 
  5736.000 -39.666  7.3890  6.3500  3.5060 -38.412  7.3890  6.3500  3.5060  2.9100  5732.5  118.10  105.67  131.32  167.58 
  5736.500 -39.661  7.4260  6.3690  3.5060 -38.407  7.4260  6.3690  3.5060  2.9088  5733.0  118.15  105.66  131.34  167.59 
  5737.000 -40.012  7.6070  6.3880  3.5070 -38.758  7.6070  6.3880  3.5070  2.9075  5733.5  118.20  105.65  131.36  167.59 
  5737.500 -40.364  7.7150  6.4250  3.5080 -39.109  7.7150  6.4250  3.5080  2.9063  5734.0  118.25  105.64  131.39  167.60 
  5738.000 -41.070  7.8950  6.4440  3.4910 -39.815  7.8950  6.4440  3.4910  2.9050  5734.5  118.30  105.62  131.41  167.61 
  5738.500 -41.421  8.3630  6.4630  3.4740 -40.166  8.3630  6.4630  3.4740  2.9038  5735.0  118.35  105.61  131.43  167.61 
  5739.000 -42.308  8.5790  6.5360  3.4750 -41.053  8.5790  6.5360  3.4750  2.9025  5735.5  118.40  105.60  131.45  167.62 
  5739.500 -42.481  8.6870  6.5730  3.5120 -41.225  8.6870  6.5730  3.5120  2.9013  5736.0  118.45  105.59  131.48  167.63 
  5740.000 -43.010  8.8320  6.5740  3.5840 -41.754  8.8320  6.5740  3.5840  2.9000  5736.5  118.50  105.57  131.50  167.64 
  5740.500 -43.183  8.8690  6.5390  3.6210 -41.927  8.8690  6.5390  3.6210  2.8988  5737.0  118.55  105.56  131.52  167.64 
  5741.000 -43.356  8.8700  6.5400  3.7110 -42.100  8.8700  6.5400  3.7110  2.8975  5737.5  118.60  105.55  131.54  167.65 
  5741.500 -42.994  8.8700  6.4340  3.8010 -41.737  8.8700  6.4340  3.8010  2.8963  5738.0  118.65  105.54  131.57  167.66 
  5742.000 -42.811  8.8360  6.2910  3.9460 -41.554  8.8360  6.2910  3.9460  2.8950  5738.5  118.70  105.53  131.59  167.66 
  5742.500 -42.092  8.6940  6.1850  4.0900 -40.835  8.6940  6.1850  4.0900  2.8938  5739.0  118.75  105.51  131.61  167.67 
  5743.000 -40.303  8.6230  5.9710  4.2350 -39.046  8.6230  5.9710  4.2350  2.8925  5739.5  118.80  105.50  131.63  167.68 
  5743.500 -37.085  8.2300  5.6490  4.3440 -35.827  8.2300  5.6490  4.3440  2.8913  5740.0  118.85  105.49  131.65  167.69 
  5744.000 -35.117  7.7290  5.2920  4.3440 -33.859  7.7290  5.2920  4.3440  2.8900  5740.5  118.90  105.48  131.68  167.69 
  5744.500 -31.188  7.4430  5.2220  4.3090 -29.930  7.4430  5.2220  4.3090  2.8888  5741.0  118.95  105.47  131.70  167.70 
  5745.000 -28.864  6.9430  5.1870  4.2740 -27.606  6.9430  5.1870  4.2740  2.8875  5741.5  119.00  105.45  131.72  167.71 
  5745.500 -26.540  6.5140  5.2240  4.2040 -25.281  6.5140  5.2240  4.2040  2.8863  5742.0  119.05  105.44  131.74  167.71 
  5746.000 -23.500  6.0130  5.2610  4.1690 -22.241  6.0130  5.2610  4.1690  2.8850  5742.5  119.10  105.43  131.76  167.72 
  5746.500 -21.533  5.3330  5.3690  3.9550 -20.274  5.3330  5.3690  3.9550  2.8838  5743.0  119.15  105.42  131.79  167.73 
  5747.000 -17.068  4.6890  5.4420  3.5610 -15.809  4.6890  5.4420  3.5610  2.8825  5743.5  119.20  105.40  131.81  167.73 
