~Version Information
VERS.                     2.0: CWLS log ASCII Standard Version 2.00
WRAP.                     YES: Multiple lines per depth step
~Well Information Block
#MNEM.UNIT                               Data Type  Information
#---------                               ---------  -----------
STRT.FT                                   700.0000:
STOP.FT                                  4020.0000:
STEP.FT                                     0.5000:
NULL.                 -999.25                     :
COMP.                                             :COMPANY            
WELL.     MUDDY CREEK A #65-30                    :WELL               
FLD .                                             :FIELD              
CTRY.                                             :COUNTRY            
STAT.                                             :STATE              
LOC .                                             :LOCATION           
UWI .                                             :UNIQUE WELL ID     
SRVC.                                             :Service company    
DATE.                                             :LOG DATE           
~Curve Information
#MNEM.UNIT           API CODE  Curve Description
#---------           --------  -----------------
DEPT.FT                      :   1 DEPTH
CALI.IN                      :   2
GR  .GAPI                    :   3
DPHI.DEC                     :   4
NPHI.DEC                     :   5
DRHO.G/CC                    :   6
KSCI.MD                      :   7
PSCI.POR                     :   8
OSCI.POR                     :   9
WSCI.POR                     :  10
DT  .US/F                    :  11
MSFL.OHMM                    :  12
RHOB.G/C3                    :  13
SFL .OHMM                    :  14
SP  .MV                      :  15
ILD .OHMM                    :  16
ILM .OHMM                    :  17
NPHS.DEC                     :  18
DROS.G/CC                    :  19
CALS.IN                      :  20
ROBS.G/C3                    :  21
GRS .GAPI                    :  22
DTS .US/F                    :  23
RS  .OHMM                    :  24
RM  .OHMM                    :  25
RD  .OHMM                    :  26
SBL .MV                      :  27
SFLC.OHMM                    :  28
ILMC.OHMM                    :  29
ILDC.OHMM                    :  30
ROBC.G/C3                    :  31
GRC .GAPI                    :  32
NPHC.DEC                     :  33
~A
# ...
  3774.000 
  12.516  106.49  0.2190  0.2980  0.0060 -999.25 -999.25 -999.25 -999.25 
  107.52  7.2380  2.2887  3.5380 -45.393  2.4020  2.4640  0.2982  0.0404 
  12.524  2.3535  106.05  103.31  3.5380  2.4640  2.4020 -28.907  2.5791 
  2.4813  2.4034  2.3765  118.39  0.2626 
  3774.500 
  12.520  107.64  0.2090  0.2920  0.0250 -999.25 -999.25 -999.25 -999.25 
  103.94  8.2740  2.3052  3.3740 -44.380  2.3900  2.4480  0.3292  0.0349 
  12.521  2.3306  106.90  100.82  3.3740  2.4480  2.3900 -27.923  2.4526 
  2.4651  2.3914  2.3535  119.32  0.2958 
  3775.000 
  12.524  109.19  0.1890  0.2920  0.0350 -999.25 -999.25 -999.25 -999.25 
  101.07  8.9740  2.3382  3.1840 -41.899  2.3810  2.4330  0.3579  0.0193 
  12.516  2.2994  108.20  99.986  3.1840  2.4330  2.3810 -25.470  2.3065 
  2.4499  2.3823  2.3223  120.76  0.3305 
  3775.500 
  12.524  110.70  0.1770  0.3000  0.0420 -999.25 -999.25 -999.25 -999.25 
  99.873  8.7320  2.3580  2.9330 -39.169  2.3790  2.4400  0.3638  0.0144 
  12.508  2.2814  109.74  100.88  2.9330  2.4400  2.3790 -22.769  2.1142 
  2.4569  2.3803  2.3043  122.46  0.3371 
  3776.000 
  12.520  111.18  0.1980  0.3370  0.0330 -999.25 -999.25 -999.25 -999.25 
  100.46  4.3020  2.3233  2.5060 -36.844  2.3830  2.4510  0.3523  0.0257 
  12.485  2.2966  110.88  103.02  2.5060  2.4510  2.3830 -20.473  1.7893 
  2.4680  2.3842  2.3194  123.65  0.3243 
  3776.500 
  12.515  111.38  0.2160  0.3630  0.0160 -999.25 -999.25 -999.25 -999.25 
  102.84  3.3440  2.2936  2.0560 -35.835  2.3880  2.4920  0.3280  0.0568 
  12.429  2.3240  111.25  103.87  2.0560  2.4920  2.3880 -19.492  1.4503 
  2.5093  2.3891  2.3464  123.89  0.2944 
  3777.000 
  12.507  111.62  0.2250  0.3640  0.0140 -999.25 -999.25 -999.25 -999.25 
  103.93  4.5070  2.2788  2.0610 -36.351  2.4480  2.5310  0.3197  0.1137 
  12.323  2.3382  111.47  103.56  2.0610  2.5310  2.4480 -20.037  1.4541 
  2.5484  2.4489  2.3601  123.78  0.2854 
  3777.500 
  12.480  112.29  0.2120  0.3500  0.0280 -999.25 -999.25 -999.25 -999.25 
  103.53  7.3200  2.3002  2.3060 -37.012  2.5080  2.5710  0.3313  0.1150 
  11.953  2.3051  111.88  103.96  2.3060  2.5710  2.5080 -20.726  1.6382 
  2.5873  2.5080  2.3249  123.01  0.2978 
  3778.000 
  12.420  115.07  0.1950  0.3240  0.0620 -999.25 -999.25 -999.25 -999.25 
  103.72  10.998  2.3283  2.6050 -37.640  2.6080  2.6530  0.3455  0.0926 
  11.400  2.2502  113.39  105.92  2.6050  2.6530  2.6080 -21.383  1.8644 
  2.6676  2.6078  2.2668  122.75  0.3162 
  3778.500 
  12.308  113.48  0.1880  0.3190  0.1220 -999.25 -999.25 -999.25 -999.25 
  105.71  8.3060  2.3398  2.8250 -38.308  2.7030  2.7830  0.3008  0.0384 
  11.115  2.2038  114.43  107.52  2.8250  2.7830  2.7030 -22.079  2.0318 
  2.7975  2.7026  2.2186  122.85  0.2649 
  3779.000 
  11.903  110.74  0.2120  0.3330  0.1140 -999.25 -999.25 -999.25 -999.25 
  107.79  8.0230  2.3002  3.0920 -38.506  3.0410  2.9370  0.2611 -0.0001 
  10.938  2.2314  112.36  104.39  3.0920  2.9370  3.0410 -22.306  2.2359 
  2.9521  3.0404  2.2451  120.00  0.2234 
  3779.500 
  11.338  107.24  0.2460  0.3470  0.0900 -999.25 -999.25 -999.25 -999.25 
  104.91  7.8630  2.2441  3.6020 -38.091  3.1490  3.2630  0.2291 -0.0002 
  10.843  2.3852  109.29  97.279  3.6020  3.2630  3.1490 -21.920  2.6286 
  3.2810  3.1483  2.3982  116.38  0.1911 
  3780.000 
  11.092  106.32  0.2730  0.2960  0.0330 -999.25 -999.25 -999.25 -999.25 
  98.061  8.2410  2.1996  4.3540 -37.238  3.2610  3.7530  0.2261  0.0218 
  10.829  2.4287  106.85  85.127  4.3540  3.7530  3.2610 -21.095  3.2132 
  3.7767  3.2602  2.4417  113.74  0.1881 
  3780.500 
  10.925  111.69  0.2520  0.2580 -0.0030 -999.25 -999.25 -999.25 -999.25 
  85.366  13.167  2.2342  5.9630 -35.032  3.6050  4.0550  0.2770  0.0249 
  10.825  2.4242  108.62  80.088  5.9630  4.0550  3.6050 -18.918  4.4821 
  4.0826  3.6041  2.4371  115.61  0.2398 
  3781.000 
  10.837  120.24  0.1540  0.2270  0.0000 -999.25 -999.25 -999.25 -999.25 
  80.306  6.7380  2.3959  6.0200 -29.832  3.7150  4.0340  0.3063  0.0289 
  10.833  2.3949  115.40  73.677  6.0200  4.0340  3.7150 -13.746  4.5274 
  4.0614  3.7140  2.4079  122.86  0.2706 
  3781.500 
  10.829  125.36  0.1330  0.2260  0.0230 -999.25 -999.25 -999.25 -999.25 
  73.659  5.2290  2.4306  5.1330 -26.545  3.7450  4.0000  0.3268  0.0439 
  10.845  2.3893  122.50  74.681  5.1330  4.0000  3.7450 -10.488  3.8248 
  4.0271  3.7440  2.4024  130.46  0.2926 
  3782.000 
  10.825  130.01  0.1370  0.2790  0.0250 -999.25 -999.25 -999.25 -999.25 
  74.648  5.5900  2.4240  4.5170 -22.783  3.7120  3.9370  0.3491  0.0402 
  10.868  2.3830  127.44  83.243  4.5170  3.9370  3.7120 -6.7544  3.3407 
  3.9635  3.7111  2.3962  135.82  0.3200 
  3782.500 
  10.833  137.61  0.1550  0.3070  0.0290 -999.25 -999.25 -999.25 -999.25 
  83.173  5.5880  2.3943  3.9390 -20.419  3.5590  3.7750  0.3858  0.0262 
  10.912  2.3615  133.46  90.720  3.9390  3.7750  3.5590 -4.4190  2.8898 
  3.7998  3.5582  2.3750  142.42  0.3609 
  3783.000 
  10.845  139.79  0.1580  0.3270  0.0440 -999.25 -999.25 -999.25 -999.25 
  90.607  5.3210  2.3893  3.2500 -19.249  3.4020  3.4970  0.4083  0.0136 
  10.962  2.3118  138.61  96.797  3.2500  3.4970  3.4020 -3.2724  2.3572 
  3.5187  3.4013  2.3256  148.14  0.3859 
  3783.500 
  10.869  138.76  0.1620  0.3500  0.0400 -999.25 -999.25 -999.25 -999.25 
  96.652  3.5020  2.3827  2.7460 -18.600  3.0880  3.2810  0.4051  0.0220 
  10.991  2.2900  139.31  101.97  2.7460  3.2810  3.0880 -2.6468  1.9716 
  3.3003  3.0874  2.3040  149.01  0.3824 
  3784.000 
  10.916  136.73  0.1760  0.3890  0.0250 -999.25 -999.25 -999.25 -999.25 
  101.81  2.5000  2.3596  2.2910 -18.271  2.9240  2.8550  0.3913  0.0558 
  11.078  2.3067  137.80  106.13  2.2910  2.8550  2.9240 -2.3411  1.6269 
  2.8701  2.9235  2.3213  147.78  0.3670 
  3784.500 
  10.968  134.90  0.2090  0.4110  0.0120 -999.25 -999.25 -999.25 -999.25 
  106.07  3.3340  2.3052  2.2260 -18.261  2.7840  2.6890  0.3759  0.0980 
  11.162  2.3242  135.85  107.44  2.2260  2.6890  2.7840 -2.3545  1.5779 
  2.7028  2.7836  2.3393  146.05  0.3500 
  3785.000 
  10.996  132.59  0.2200  0.4040  0.0240 -999.25 -999.25 -999.25 -999.25 
  107.45  4.0160  2.2870  2.5370 -18.732  2.6260  2.5930  0.3784  0.1104 
  11.267  2.3188  133.78  107.10  2.5370  2.5930  2.6260 -2.8489  1.8128 
  2.6063  2.6257  2.3345  144.27  0.3528 
  3785.500 
  11.099  129.65  0.2050  0.3880  0.0640 -999.25 -999.25 -999.25 -999.25 
  107.25  3.7760  2.3118  2.6660 -20.120  2.4590  2.4960  0.3992  0.1056 
  11.438  2.2806  131.15  104.87  2.6660  2.4960  2.4590 -4.2603  1.9107 
  2.5091  2.4588  2.2973  142.12  0.3760 
  3786.000 
  11.182  124.48  0.1950  0.3720  0.1090 -999.25 -999.25 -999.25 -999.25 
  104.97  3.6410  2.3283  2.5960 -21.867  2.3810  2.3900  0.4112  0.0903 
  11.612  2.2336  127.08  104.13  2.5960  2.3900  2.3810 -6.0306  1.8575 
  2.4027  2.3809  2.2514  138.40  0.3893 
  3786.500 
  11.301  119.59  0.2030  0.3810  0.1110 -999.25 -999.25 -999.25 -999.25 
  103.68  3.2010  2.3151  2.3690 -23.328  2.2380  2.2880  0.4154  0.0700 
  11.837  2.2063  122.01  109.43  2.3690  2.2880  2.2380 -7.5150  1.6857 
  2.3004  2.2380  2.2254  133.72  0.3941 
  3787.000 
  11.504  118.08  0.2340  0.4080  0.1030 -999.25 -999.25 -999.25 -999.25 
  109.03  6.5420  2.2639  2.1750 -24.554  2.1340  2.1500  0.4181  0.0505 
  12.098  2.2032  118.82  113.57  2.1750  2.1500  2.1340 -8.7644  1.5396 
  2.1618  2.1342  2.2238  131.15  0.3973 
  3787.500 
  11.675  121.94  0.2630  0.4130  0.0830 -999.25 -999.25 -999.25 -999.25 
  113.39  4.9490  2.2161  1.9130 -26.541  2.0480  2.0700  0.4205  0.0410 
  12.300  2.2070  120.08  115.13  1.9130  2.0700  2.0480 -10.775  1.3435 
  2.0816  2.0486  2.2287  133.26  0.4001 
  3788.000 
  11.949  124.28  0.2730  0.4170  0.0610 -999.25 -999.25 -999.25 -999.25 
  115.17  2.9440  2.1996  1.7850 -29.728  1.9600  1.9890  0.4206  0.0367 
  12.438  2.2094  123.16  114.70  1.7850  1.9890  1.9600 -13.985  1.3031 
  2.0000  1.9608  2.2318  137.18  0.4002 
