~Version Information
VERS.                     2.0: CWLS log ASCII Standard Version 2.00
WRAP.                     YES: Multiple lines per depth step
~Well Information Block
#MNEM.UNIT                               Data Type  Information
#---------                               ---------  -----------
STRT.FT                                   700.0000:
STOP.FT                                  4020.0000:
STEP.FT                                     0.5000:
NULL.                 -999.25                     :
COMP.                                             :COMPANY            
WELL.     MUDDY CREEK A #65-30                    :WELL               
FLD .                                             :FIELD              
CTRY.                                             :COUNTRY            
STAT.                                             :STATE              
LOC .                                             :LOCATION           
UWI .                                             :UNIQUE WELL ID     
SRVC.                                             :Service company    
DATE.                                             :LOG DATE           
~Curve Information
#MNEM.UNIT           API CODE  Curve Description
#---------           --------  -----------------
DEPT.FT                      :   1 DEPTH
CALI.IN                      :   2
GR  .GAPI                    :   3
DPHI.DEC                     :   4
NPHI.DEC                     :   5
DRHO.G/CC                    :   6
KSCI.MD                      :   7
PSCI.POR                     :   8
OSCI.POR                     :   9
WSCI.POR                     :  10
DT  .US/F                    :  11
MSFL.OHMM                    :  12
RHOB.G/C3                    :  13
SFL .OHMM                    :  14
SP  .MV                      :  15
ILD .OHMM                    :  16
ILM .OHMM                    :  17
NPHS.DEC                     :  18
DROS.G/CC                    :  19
CALS.IN                      :  20
ROBS.G/C3                    :  21
GRS .GAPI                    :  22
DTS .US/F                    :  23
RS  .OHMM                    :  24
RM  .OHMM                    :  25
RD  .OHMM                    :  26
SBL .MV                      :  27
SFLC.OHMM                    :  28
ILMC.OHMM                    :  29
ILDC.OHMM                    :  30
ROBC.G/C3                    :  31
GRC .GAPI                    :  32
NPHC.DEC                     :  33
~A
# ...
  2686.500 
  11.503  100.94  0.2960  0.4060  0.0380 -999.25 -999.25 -999.25 -999.25 
  111.18  2.3000  2.1616  1.9150 -44.031  1.4150  1.5110  0.3400  0.0600 
  11.508  2.2491  100.52  114.36  1.9150  1.5110  1.4150 -16.134  1.3449 
  1.5159  1.4149  2.2662  109.15  0.3071 
  2687.000 
  11.508  100.31  0.2430  0.3400  0.0600 -999.25 -999.25 -999.25 -999.25 
  103.46  2.5320  2.2491  1.6700 -45.130  1.4380  1.5320  0.3530  0.0450 
  11.509  2.2062  98.975  119.66  1.6700  1.5320  1.4380 -17.240  1.2191 
  1.5370  1.4379  2.2234  107.48  0.3246 
  2687.500 
  11.509  98.288  0.2690  0.3530  0.0450 -999.25 -999.25 -999.25 -999.25 
  119.31  2.6140  2.2062  1.4020 -46.150  1.4940  1.5470  0.3540  0.0300 
  11.510  2.1748  97.485  117.74  1.4020  1.5470  1.4940 -18.266  1.0235 
  1.5521  1.4939  2.1920  105.86  0.3258 
  2688.000 
  11.510  97.062  0.2880  0.3540  0.0300 -999.25 -999.25 -999.25 -999.25 
  119.81  2.7560  2.1748  1.3690 -46.129  1.5540  1.5950  0.3450  0.0190 
  11.499  2.1748  97.507  105.70  1.3690  1.5950  1.5540 -18.252  0.9994 
  1.6004  1.5539  2.1919  105.85  0.3157 
  2688.500 
  11.499  97.746  0.2880  0.3450  0.0190 -999.25 -999.25 -999.25 -999.25 
  116.94  2.3900  2.1748  1.4640 -45.911  1.5990  1.6770  0.3470  0.0190 
  11.491  2.1765  98.342  96.849  1.4640  1.6770  1.5990 -18.040  1.0687 
  1.6830  1.5989  2.1935  106.74  0.3180 
  2689.000 
  11.491  98.669  0.2870  0.3470  0.0190 -999.25 -999.25 -999.25 -999.25 
  101.69  2.8820  2.1765  2.3820 -45.816  1.6510  1.7730  0.3520  0.0120 
  11.484  2.1732  98.675  92.066  2.3820  1.7730  1.6510 -17.951  1.6955 
  1.7797  1.6509  2.1902  107.08  0.3235 
  2689.500 
  11.484  98.678  0.2890  0.3520  0.0120 -999.25 -999.25 -999.25 -999.25 
  95.263  6.8820  2.1732  2.6180 -46.199  1.6550  1.9060  0.3370  0.0010 
  11.469  2.1567  97.849  90.801  2.6180  1.9060  1.6550 -18.341  1.8742 
  1.9137  1.6549  2.1736  106.13  0.3039 
  2690.000 
  11.469  97.373  0.2990  0.3370  0.0010 -999.25 -999.25 -999.25 -999.25 
  91.109  8.9680  2.1567  3.4430 -46.618  1.6260  1.9650  0.3190  0.0070 
  11.470  2.1467  97.001  91.594  3.4430  1.9650  1.6260 -18.766  2.5058 
  1.9732  1.6259  2.1637  105.22  0.2843 
  2690.500 
  11.470  96.783  0.3050  0.3190  0.0070 -999.25 -999.25 -999.25 -999.25 
  90.717  7.4480  2.1467  3.9180 -47.518  1.5830  1.9270  0.3150  0.0140 
  11.491  2.1336  97.286  95.380  3.9180  1.9270  1.5830 -19.673  2.8735 
  1.9349  1.5829  2.1506  105.59  0.2801 
  2691.000 
  11.491  97.586  0.3130  0.3150  0.0140 -999.25 -999.25 -999.25 -999.25 
  91.810  11.216  2.1336  3.7380 -48.136  1.5420  1.8290  0.3340  0.0170 
  11.527  2.1072  98.159  100.23  3.7380  1.8290  1.5420 -20.297  2.7339 
  1.8362  1.5419  2.1245  106.65  0.3006 
  2691.500 
  11.527  98.509  0.3290  0.3340  0.0170 -999.25 -999.25 -999.25 -999.25 
  96.170  11.201  2.1072  3.1600 -48.955  1.4900  1.6700  0.3820  0.0120 
  11.540  2.0346  98.514  106.09  3.1600  1.6700  1.4900 -21.123  2.2881 
  1.6760  1.4899  2.0519  107.07  0.3569 
  2692.000 
  11.540  98.517  0.3730  0.3820  0.0120 -999.25 -999.25 -999.25 -999.25 
  101.03  11.372  2.0346  2.1090 -50.129  1.4090  1.5050  0.4130  0.0040 
  11.576  1.9834  98.206  114.54  2.1090  1.5050  1.4090 -22.303  1.4900 
  1.5100  1.4089  2.0010  106.85  0.3914 
  2692.500 
  11.576  98.008  0.4040  0.4130  0.0040 -999.25 -999.25 -999.25 -999.25 
  106.97  4.9250  1.9834  0.9740 -52.183  1.3350  1.3980  0.4340  0.0010 
  11.585  1.9372  98.615  122.08  0.9740  1.3980  1.3350 -24.364  0.7110 
  1.4023  1.3350  1.9549  107.32  0.4147 
  2693.000 
  11.585  99.009  0.4320  0.4340  0.0010 -999.25 -999.25 -999.25 -999.25 
  115.69  2.3860  1.9372  0.9690 -52.845  1.2210  1.2880  0.4510  0.0010 
  11.606  1.9075  100.76  128.09  0.9690  1.2880  1.2210 -25.032  0.7074 
  1.2917  1.2210  1.9253  109.72  0.4336 
  2693.500 
  11.606  101.92  0.4500  0.4510  0.0010 -999.25 -999.25 -999.25 -999.25 
  122.92  2.1930  1.9075  1.0420 -52.588  1.1500  1.1980  0.4520  0.0100 
  11.622  1.9207  103.80  129.30  1.0420  1.1980  1.1500 -24.782  0.7607 
  1.2012  1.1500  1.9386  113.08  0.4347 
  2694.000 
  11.622  105.07  0.4420  0.4520  0.0100 -999.25 -999.25 -999.25 -999.25 
  128.66  2.2820  1.9207  1.1160 -51.892  1.0560  1.1160  0.4500  0.0170 
  11.671  1.9405  104.89  129.92  1.1160  1.1160  1.0560 -24.092  0.8147 
  1.1188  1.0560  1.9587  114.42  0.4325 
  2694.500 
  11.671  104.76  0.4300  0.4500  0.0170 -999.25 -999.25 -999.25 -999.25 
  129.36  2.3850  1.9405  1.1050 -51.836  1.0280  1.0400  0.4480  0.0180 
  11.684  1.9240  103.60  130.43  1.1050  1.0400  1.0280 -24.042  0.8067 
  1.0424  1.0280  1.9422  113.05  0.4303 
  2695.000 
  11.684  102.78  0.4400  0.4480  0.0180 -999.25 -999.25 -999.25 -999.25 
  129.96  2.2080  1.9240  1.0240 -53.051  1.0250  1.0160  0.4450  0.0170 
  11.672  1.8910  101.26  131.32  1.0240  1.0160  1.0250 -25.264  0.7475 
  1.0183  1.0250  1.9092  110.46  0.4270 
  2695.500 
  11.672  100.16  0.4600  0.4450  0.0170 -999.25 -999.25 -999.25 -999.25 
  130.46  1.9540  1.8910  0.9330 -55.423  1.0370  1.0150  0.4420  0.0120 
  11.666  1.8630  100.49  132.23  0.9330  1.0150  1.0370 -27.642  0.6811 
  1.0173  1.0370  1.8811  109.60  0.4236 
  2696.000 
  11.666  100.73  0.4770  0.4420  0.0120 -999.25 -999.25 -999.25 -999.25 
  131.35  1.9230  1.8630  0.9070 -56.001  1.0670  1.0270  0.4420  0.0040 
  11.662  1.8531  105.33  132.06  0.9070  1.0270  1.0670 -28.227  0.6621 
  1.0294  1.0670  1.8712  114.87  0.4236 
  2696.500 
  11.662  108.77  0.4830  0.4420  0.0040 -999.25 -999.25 -999.25 -999.25 
  132.25  2.0500  1.8531  0.9450 -54.752  1.0980  1.0530  0.4560 -0.0030 
  11.651  1.8828  113.65  131.06  0.9450  1.0530  1.0980 -26.984  0.6899 
  1.0555  1.0980  1.9008  123.91  0.4392 
  2697.000 
  11.651  117.37  0.4650  0.4560 -0.0030 -999.25 -999.25 -999.25 -999.25 
  132.05  2.2010  1.8828  0.9990 -50.674  1.1360  1.1010  0.4820 -0.0010 
  11.636  1.9356  121.51  130.20  0.9990  1.1010  1.1360 -22.913  0.7293 
  1.1037  1.1360  1.9535  132.43  0.4681 
  2697.500 
  11.636  124.74  0.4330  0.4820 -0.0010 -999.25 -999.25 -999.25 -999.25 
  131.07  2.3550  1.9356  1.1120 -46.914  1.1810  1.1720  0.4870  0.0070 
  11.601  1.9933  129.27  128.75  1.1120  1.1720  1.1810 -19.159  0.8118 
  1.1750  1.1810  2.0111  140.74  0.4737 
  2698.000 
  11.601  132.86  0.3980  0.4870  0.0070 -999.25 -999.25 -999.25 -999.25 
  130.18  2.7430  1.9933  1.2980 -43.830  1.2400  1.2420  0.4780  0.0130 
  11.566  2.0214  135.48  127.49  1.2980  1.2420  1.2400 -16.082  0.9475 
  1.2454  1.2400  2.0389  147.36  0.4636 
  2698.500 
  11.566  137.60  0.3810  0.4780  0.0130 -999.25 -999.25 -999.25 -999.25 
  128.70  2.7690  2.0214  1.4580 -41.663  1.2870  1.4370  0.4810  0.0150 
  11.555  2.0148  137.17  125.59  1.4580  1.4370  1.2870 -13.921  1.0643 
  1.4415  1.2870  2.0322  149.14  0.4670 
  2699.000 
  11.555  136.81  0.3850  0.4810  0.0150 -999.25 -999.25 -999.25 -999.25 
  127.42  2.8890  2.0148  1.5280 -41.609  1.3460  1.5340  0.4900  0.0080 
  11.528  1.9950  135.56  120.41  1.5280  1.5340  1.3460 -13.874  1.1154 
  1.5391  1.3459  2.0123  147.29  0.4770 
  2699.500 
  11.528  134.51  0.3970  0.4900  0.0080 -999.25 -999.25 -999.25 -999.25 
  125.44  3.4450  1.9950  1.6510 -42.265  1.3650  1.5870  0.4980 -0.0010 
  11.512  1.9834  133.68  109.38  1.6510  1.5870  1.3650 -14.536  1.2052 
  1.5924  1.3649  2.0006  145.18  0.4858 
  2700.000 
  11.512  132.97  0.4040  0.4980 -0.0010 -999.25 -999.25 -999.25 -999.25 
  119.90  7.9160  1.9834  1.8150 -43.367  1.3690  1.5790  0.4830 -0.0100 
  11.478  2.0197  131.59  100.82  1.8150  1.5790  1.3690 -15.644  1.3250 
  1.5843  1.3689  2.0367  142.77  0.4691 
  2700.500 
  11.478  130.39  0.3820  0.4830 -0.0100 -999.25 -999.25 -999.25 -999.25 
  108.09  8.3840  2.0197  2.0770 -43.947  1.3730  1.5730  0.4580 -0.0100 
  11.451  2.0560  128.59  100.52  2.0770  1.5730  1.3730 -16.231  1.4660 
  1.5782  1.3729  2.0729  139.40  0.4413 
