~Version Information
VERS.                     2.0: CWLS log ASCII Standard Version 2.00
WRAP.                     YES: Multiple lines per depth step
~Well Information Block
#MNEM.UNIT                               Data Type  Information
#---------                               ---------  -----------
STRT.FT                                   700.0000:
STOP.FT                                  4020.0000:
STEP.FT                                     0.5000:
NULL.                 -999.25                     :
COMP.                                             :COMPANY            
WELL.     MUDDY CREEK A #65-30                    :WELL               
FLD .                                             :FIELD              
CTRY.                                             :COUNTRY            
STAT.                                             :STATE              
LOC .                                             :LOCATION           
UWI .                                             :UNIQUE WELL ID     
SRVC.                                             :Service company    
DATE.                                             :LOG DATE           
~Curve Information
#MNEM.UNIT           API CODE  Curve Description
#---------           --------  -----------------
DEPT.FT                      :   1 DEPTH
CALI.IN                      :   2
GR  .GAPI                    :   3
DPHI.DEC                     :   4
NPHI.DEC                     :   5
DRHO.G/CC                    :   6
KSCI.MD                      :   7
PSCI.POR                     :   8
OSCI.POR                     :   9
WSCI.POR                     :  10
DT  .US/F                    :  11
MSFL.OHMM                    :  12
RHOB.G/C3                    :  13
SFL .OHMM                    :  14
SP  .MV                      :  15
ILD .OHMM                    :  16
ILM .OHMM                    :  17
NPHS.DEC                     :  18
DROS.G/CC                    :  19
CALS.IN                      :  20
ROBS.G/C3                    :  21
GRS .GAPI                    :  22
DTS .US/F                    :  23
RS  .OHMM                    :  24
RM  .OHMM                    :  25
RD  .OHMM                    :  26
SBL .MV                      :  27
SFLC.OHMM                    :  28
ILMC.OHMM                    :  29
ILDC.OHMM                    :  30
ROBC.G/C3                    :  31
GRC .GAPI                    :  32
NPHC.DEC                     :  33
~A
# ...
  1367.000 
  12.626  91.967  0.4930  0.5220  0.0080 -999.25 -999.25 -999.25 -999.25 
  132.00  3.1770  1.8366  1.7410 -53.305  1.8100  1.7440  0.5220  0.0080 
  12.604  1.8184  93.634  132.84  1.7410  1.7440  1.8100 -3.1170  1.2709 
  1.7528  1.8109  1.8418  104.74  0.5131 
  1367.500 
  12.796  94.614  0.4700  0.5060  0.0120 -999.25 -999.25 -999.25 -999.25 
  133.68  2.9180  1.8745  1.7680 -52.330  1.8110  1.7290  0.5220  0.0080 
  12.626  1.8366  92.130  135.13  1.7680  1.7290  1.8110 -2.1431  1.2906 
  1.7377  1.8119  1.8600  103.12  0.5131 
  1368.000 
  12.894  100.95  0.4580  0.4730  0.0220 -999.25 -999.25 -999.25 -999.25 
  136.65  2.8220  1.8943  1.6860 -51.638  1.8080  1.6830  0.5060  0.0120 
  12.796  1.8745  95.201  138.10  1.6860  1.6830  1.8080 -1.4522  1.2308 
  1.6916  1.8092  1.8989  107.02  0.4954 
  1368.500 
  12.952  108.60  0.4510  0.4610  0.0240 -999.25 -999.25 -999.25 -999.25 
  139.71  2.8360  1.9059  1.5370 -51.025  1.7930  1.6450  0.4730  0.0220 
  12.894  1.8943  101.90  140.03  1.5370  1.6450  1.7930 -0.8403  1.1220 
  1.6534  1.7943  1.9192  114.84  0.4587 
  1369.000 
  12.986  113.47  0.4590  0.4660  0.0230 -999.25 -999.25 -999.25 -999.25 
  140.40  2.9230  1.8927  1.5070 -50.652  1.7710  1.6130  0.4610  0.0240 
  12.952  1.9059  109.36  140.49  1.5070  1.6130  1.7710 -0.4684  1.1001 
  1.6212  1.7724  1.9310  123.42  0.4454 
  1369.500 
  12.997  114.02  0.4660  0.4910  0.0210 -999.25 -999.25 -999.25 -999.25 
  140.60  2.8260  1.8811  1.4860 -50.559  1.7300  1.5900  0.4660  0.0230 
  12.986  1.8927  113.58  140.65  1.4860  1.5900  1.7300 -0.3765  1.0848 
  1.5980  1.7313  1.9180  128.29  0.4510 
  1370.000 
  13.063  113.05  0.4670  0.5300  0.0200 -999.25 -999.25 -999.25 -999.25 
  140.70  2.7630  1.8795  1.4790 -50.746  1.7000  1.5620  0.4910  0.0210 
  12.997  1.8811  113.81  140.78  1.4790  1.5620  1.7000 -0.5646  1.0797 
  1.5698  1.7013  1.9065  128.59  0.4788 
  1370.500 
  13.134  110.34  0.4700  0.5250  0.0190 -999.25 -999.25 -999.25 -999.25 
  140.90  2.7160  1.8745  1.4880 -51.052  1.6670  1.5430  0.5300  0.0200 
  13.063  1.8795  112.38  140.98  1.4880  1.5430  1.6670 -0.8717  1.0862 
  1.5507  1.6683  1.9052  127.18  0.5222 
  1371.000 
  13.164  106.56  0.4790  0.5070  0.0180 -999.25 -999.25 -999.25 -999.25 
  141.10  2.7090  1.8597  1.4910 -51.279  1.6440  1.5160  0.5250  0.0190 
  13.134  1.8745  109.28  141.25  1.4910  1.5160  1.6440 -1.0998  1.0884 
  1.5235  1.6454  1.9006  123.89  0.5167 
  1371.500 
  13.177  111.35  0.4910  0.4970  0.0160 -999.25 -999.25 -999.25 -999.25 
  141.49  2.7520  1.8399  1.4730 -51.506  1.6240  1.4920  0.5070  0.0180 
  13.164  1.8597  108.05  141.64  1.4730  1.4920  1.6240 -1.3279  1.0753 
  1.4993  1.6254  1.8859  122.58  0.4967 
  1372.000 
  13.190  113.96  0.5030  0.5090  0.0140 -999.25 -999.25 -999.25 -999.25 
  141.89  2.7650  1.8201  1.4210 -52.093  1.5720  1.4520  0.4970  0.0160 
  13.177  1.8399  112.24  142.31  1.4210  1.4520  1.5720 -1.9160  1.0373 
  1.4590  1.5733  1.8661  127.38  0.4856 
  1372.500 
  13.291  112.51  0.5100  0.5710  0.0100 -999.25 -999.25 -999.25 -999.25 
  143.08  2.7080  1.8085  1.3480 -52.599  1.5380  1.4290  0.5090  0.0140 
  13.190  1.8201  113.42  143.75  1.3480  1.4290  1.5380 -2.4230  0.9840 
  1.4358  1.5393  1.8464  128.76  0.4989 
  1373.000 
  13.389  110.12  0.5210  0.6010  0.0040 -999.25 -999.25 -999.25 -999.25 
  145.05  2.5850  1.7904  1.2980 -53.146  1.5090  1.4120  0.5710  0.0100 
  13.291  1.8085  111.54  145.70  1.2980  1.4120  1.5090 -2.9711  0.9475 
  1.4187  1.5103  1.8353  126.94  0.5680 
  1373.500 
  13.579  107.25  0.5250  0.6080  0.0040 -999.25 -999.25 -999.25 -999.25 
  147.03  2.5980  1.7838  1.2310 -54.052  1.4740  1.4030  0.6010  0.0040 
  13.389  1.7904  108.87  147.28  1.2310  1.4030  1.4740 -3.8782  0.8986 
  1.4098  1.4754  1.8177  124.19  0.6015 
  1374.000 
  13.601  103.15  0.5270  0.5920  0.0090 -999.25 -999.25 -999.25 -999.25 
  147.82  2.6630  1.7805  1.2160 -54.758  1.4530  1.4030  0.6080  0.0040 
  13.579  1.7838  105.33  147.77  1.2160  1.4030  1.4530 -4.5853  0.8877 
  1.4100  1.4545  1.8119  120.71  0.6094 
  1374.500 
  13.465  98.173  0.5270  0.5710  0.0130 -999.25 -999.25 -999.25 -999.25 
  147.63  2.5010  1.7805  1.2330 -55.265  1.4410  1.4070  0.5920  0.0090 
  13.601  1.7805  100.67  147.43  1.2330  1.4070  1.4410 -5.0934  0.9001 
  1.4141  1.4425  1.8087  115.42  0.5916 
  1375.000 
  13.289  95.898  0.5260  0.5550  0.0200 -999.25 -999.25 -999.25 -999.25 
  146.93  2.3480  1.7821  1.3350 -55.890  1.4280  1.4210  0.5710  0.0130 
  13.465  1.7805  96.968  146.46  1.3350  1.4210  1.4280 -5.7195  0.9746 
  1.4281  1.4294  1.8081  110.82  0.5681 
  1375.500 
  13.264  92.788  0.5230  0.5390  0.0270 -999.25 -999.25 -999.25 -999.25 
  145.15  2.7560  1.7871  1.5080 -56.517  1.4270  1.4370  0.5550  0.0200 
  13.289  1.7821  94.154  144.40  1.5080  1.4370  1.4270 -6.3476  1.1008 
  1.4440  1.4282  1.8089  107.15  0.5502 
  1376.000 
  13.307  87.893  0.5210  0.4970  0.0300 -999.25 -999.25 -999.25 -999.25 
  142.19  2.6020  1.7904  1.7540 -56.865  1.4410  1.4700  0.5390  0.0270 
  13.264  1.7871  89.889  141.31  1.7540  1.4700  1.4410 -6.6967  1.2804 
  1.4773  1.4422  1.8138  102.23  0.5324 
  1376.500 
  13.349  83.554  0.5190  0.4760  0.0300 -999.25 -999.25 -999.25 -999.25 
  138.53  2.7120  1.7937  1.9840 -57.090  1.4580  1.4930  0.4970  0.0300 
  13.307  1.7904  85.188  137.46  1.9840  1.4930  1.4580 -6.9228  1.3965 
  1.5006  1.4593  1.8173  96.987  0.4856 
  1377.000 
  13.423  88.385  0.5210  0.4760  0.0250 -999.25 -999.25 -999.25 -999.25 
  133.78  3.0240  1.7904  2.0000 -57.117  1.4720  1.4800  0.4760  0.0300 
  13.349  1.7937  86.716  133.59  2.0000  1.4800  1.4720 -6.9509  1.4084 
  1.4875  1.4733  1.8208  98.827  0.4623 
  1377.500 
  13.489  94.684  0.5230  0.4870  0.0220 -999.25 -999.25 -999.25 -999.25 
  132.89  4.2830  1.7871  1.9360 -57.065  1.4840  1.4490  0.4760  0.0250 
  13.423  1.7904  92.705  133.37  1.9360  1.4490  1.4840 -6.9000  1.3606 
  1.4563  1.4854  1.8178  105.84  0.4623 
  1378.000 
  13.861  103.76  0.5190  0.4970  0.0200 -999.25 -999.25 -999.25 -999.25 
  135.36  4.8190  1.7937  1.6760 -56.730  1.4980  1.4280  0.4870  0.0220 
  13.489  1.7871  101.19  136.61  1.6760  1.4280  1.4980 -6.5661  1.2235 
  1.4352  1.4995  1.8148  115.71  0.4746 
  1378.500 
  14.055  104.15  0.5150  0.5070  0.0240 -999.25 -999.25 -999.25 -999.25 
  142.29  2.8670  1.8003  1.4670 -56.278  1.5160  1.4080  0.4970  0.0200 
  13.861  1.7937  104.05  143.14  1.4670  1.4080  1.5160 -6.1152  1.0709 
  1.4155  1.5179  1.8231  120.03  0.4859 
  1379.000 
  14.391  102.86  0.5050  0.5150  0.0240 -999.25 -999.25 -999.25 -999.25 
  147.43  2.4390  1.8168  1.3540 -55.785  1.5390  1.4150  0.5070  0.0240 
  14.055  1.8003  103.15  147.62  1.3540  1.4150  1.5390 -5.6233  0.9884 
  1.4228  1.5412  1.8306  119.52  0.4971 
  1379.500 
  14.497  98.724  0.5030  0.5240  0.0190 -999.25 -999.25 -999.25 -999.25 
  148.71  2.5420  1.8201  1.3100 -54.852  1.6130  1.4420  0.5150  0.0240 
  14.391  1.8168  99.508  148.89  1.3100  1.4420  1.6130 -4.6913  0.9563 
  1.4506  1.6158  1.8485  116.17  0.5061 
  1380.000 
  14.249  93.828  0.5030  0.5160  0.0170 -999.25 -999.25 -999.25 -999.25 
  150.00  2.4540  1.8201  1.3230 -54.359  1.6740  1.4910  0.5240  0.0190 
  14.497  1.8201  94.602  149.47  1.3230  1.4910  1.6740 -4.1994  0.9658 
  1.5004  1.6772  1.8522  110.70  0.5162 
  1380.500 
  13.601  90.322  0.5010  0.4760  0.0180 -999.25 -999.25 -999.25 -999.25 
  145.65  2.2790  1.8234  1.3510 -54.226  1.7800  1.6410  0.5160  0.0170 
  14.249  1.8201  90.767  144.85  1.3510  1.6410  1.7800 -4.0675  0.9862 
  1.6519  1.7832  1.8512  105.63  0.5072 
  1381.000 
  13.409  86.658  0.4970  0.4500  0.0230 -999.25 -999.25 -999.25 -999.25 
  138.23  2.4320  1.8300  1.6420 -54.292  1.8540  1.8470  0.4760  0.0180 
  13.601  1.8234  87.009  136.55  1.6420  1.8470  1.8540 -4.1346  1.1987 
  1.8593  1.8565  1.8516  99.760  0.4624 
