~Version Information
VERS.                     2.0: CWLS log ASCII Standard Version 2.00
WRAP.                     YES: Multiple lines per depth step
~Well Information Block
#MNEM.UNIT                               Data Type  Information
#---------                               ---------  -----------
STRT.FT                                   700.0000:
STOP.FT                                  4020.0000:
STEP.FT                                     0.5000:
NULL.                 -999.25                     :
COMP.                                             :COMPANY            
WELL.     MUDDY CREEK A #65-30                    :WELL               
FLD .                                             :FIELD              
CTRY.                                             :COUNTRY            
STAT.                                             :STATE              
LOC .                                             :LOCATION           
UWI .                                             :UNIQUE WELL ID     
SRVC.                                             :Service company    
DATE.                                             :LOG DATE           
~Curve Information
#MNEM.UNIT           API CODE  Curve Description
#---------           --------  -----------------
DEPT.FT                      :   1 DEPTH
CALI.IN                      :   2
GR  .GAPI                    :   3
DPHI.DEC                     :   4
NPHI.DEC                     :   5
DRHO.G/CC                    :   6
KSCI.MD                      :   7
PSCI.POR                     :   8
OSCI.POR                     :   9
WSCI.POR                     :  10
DT  .US/F                    :  11
MSFL.OHMM                    :  12
RHOB.G/C3                    :  13
SFL .OHMM                    :  14
SP  .MV                      :  15
ILD .OHMM                    :  16
ILM .OHMM                    :  17
NPHS.DEC                     :  18
DROS.G/CC                    :  19
CALS.IN                      :  20
ROBS.G/C3                    :  21
GRS .GAPI                    :  22
DTS .US/F                    :  23
RS  .OHMM                    :  24
RM  .OHMM                    :  25
RD  .OHMM                    :  26
SBL .MV                      :  27
SFLC.OHMM                    :  28
ILMC.OHMM                    :  29
ILDC.OHMM                    :  30
ROBC.G/C3                    :  31
GRC .GAPI                    :  32
NPHC.DEC                     :  33
~A
# ...
  2237.000 
  11.259  97.388  0.4200  0.4090 -0.0240 -999.25 -999.25 -999.25 -999.25 
  124.01  5.6250  1.9570  1.8040 -50.529  1.5580  1.6250  0.3979 -0.0163 
  11.358  2.0385  96.082  134.60  1.8040  1.6250  1.5580 -12.689  1.3169 
  1.6304  1.5579  2.0548  103.89  0.3745 
  2237.500 
  11.375  99.215  0.3620  0.3960 -0.0150 -999.25 -999.25 -999.25 -999.25 
  134.60  4.7310  2.0527  1.8850 -50.574  1.5430  1.6040  0.3787  0.0023 
  11.473  2.1234  97.240  133.12  1.8850  1.6040  1.5430 -12.744  1.3226 
  1.6095  1.5429  2.1404  105.49  0.3532 
  2238.000 
  11.494  100.33  0.3100  0.3750  0.0060 -999.25 -999.25 -999.25 -999.25 
  133.12  3.5500  2.1385  2.0130 -50.899  1.5200  1.5830  0.3662  0.0506 
  11.563  2.1871  98.936  131.43  2.0130  1.5830  1.5200 -13.080  1.4181 
  1.5885  1.5199  2.2046  107.60  0.3394 
  2238.500 
  11.581  100.01  0.2730  0.3640  0.0620 -999.25 -999.25 -999.25 -999.25 
  131.43  3.3710  2.1996  2.0390 -51.822  1.4980  1.5600  0.3778  0.0758 
  11.658  2.1767  100.13  132.82  2.0390  1.5600  1.4980 -14.013  1.4376 
  1.5655  1.4980  2.1948  109.19  0.3523 
  2239.000 
  11.681  98.061  0.2910  0.3820  0.0800 -999.25 -999.25 -999.25 -999.25 
  132.82  3.4400  2.1699  2.0160 -52.266  1.4490  1.5560  0.4020  0.0541 
  11.748  2.1503  100.08  133.31  2.0160  1.5560  1.4490 -14.468  1.4204 
  1.5616  1.4490  2.1689  109.41  0.3792 
  2239.500 
  11.772  97.344  0.3070  0.4090  0.0450 -999.25 -999.25 -999.25 -999.25 
  133.31  3.0540  2.1435  1.9540 -52.152  1.4350  1.5500  0.4197  0.0251 
  11.367  2.1070  98.527  132.42  1.9540  1.5500  1.4350 -14.364  1.3740 
  1.5549  1.4349  2.1234  106.56  0.3987 
  2240.000 
  11.203  98.098  0.3380  0.4240  0.0170 -999.25 -999.25 -999.25 -999.25 
  132.42  2.7270  2.0923  1.8050 -51.639  1.4300  1.5330  0.4343  0.0040 
  11.018  2.0663  97.536  130.34  1.8050  1.5330  1.4300 -13.862  1.3176 
  1.5372  1.4299  2.0805  104.41  0.4147 
  2240.500 
  10.933  98.734  0.3610  0.4390 -0.0020 -999.25 -999.25 -999.25 -999.25 
  130.34  2.2930  2.0544  1.6490 -51.046  1.4400  1.5320  0.4416 -0.0013 
  10.724  2.0619  97.874  128.65  1.6490  1.5320  1.4400 -13.279  1.2038 
  1.5358  1.4398  2.0742  103.85  0.4228 
  2241.000 
  10.615  98.534  0.3540  0.4430 -0.0010 -999.25 -999.25 -999.25 -999.25 
  128.65  2.9400  2.0659  1.6340 -50.414  1.4420  1.5320  0.4367  0.0009 
  10.577  2.0814  98.527  127.46  1.6340  1.5320  1.4420 -12.657  1.1928 
  1.5355  1.4418  2.0928  104.07  0.4173 
  2241.500 
  10.555  96.864  0.3390  0.4330  0.0020 -999.25 -999.25 -999.25 -999.25 
  127.46  3.4610  2.0907  1.8000 -50.339  1.4440  1.5510  0.4252  0.0086 
  10.536  2.1055  98.605  127.26  1.8000  1.5510  1.4440 -12.593  1.3140 
  1.5545  1.4438  2.1165  104.02  0.4045 
  2242.000 
  10.523  95.551  0.3240  0.4200  0.0130 -999.25 -999.25 -999.25 -999.25 
  127.26  4.2710  2.1154  1.9260 -50.464  1.4570  1.5630  0.4171  0.0210 
  10.544  2.1211  97.505  127.06  1.9260  1.5630  1.4570 -12.728  1.3531 
  1.5666  1.4568  2.1322  102.89  0.3955 
  2242.500 
  10.559  94.239  0.3180  0.4150  0.0270 -999.25 -999.25 -999.25 -999.25 
  127.06  3.6910  2.1253  1.9540 -50.470  1.4700  1.5740  0.4139  0.0308 
  10.583  2.1163  96.093  127.45  1.9540  1.5740  1.4700 -12.745  1.3740 
  1.5777  1.4698  2.1277  101.52  0.3919 
  2243.000 
  10.603  94.715  0.3280  0.4130  0.0340 -999.25 -999.25 -999.25 -999.25 
  127.45  3.5940  2.1088  1.9830 -50.476  1.4890  1.5820  0.4078  0.0299 
  10.625  2.0986  94.819  129.13  1.9830  1.5820  1.4890 -12.761  1.3957 
  1.5858  1.4888  2.1102  100.31  0.3852 
  2243.500 
  10.646  97.696  0.3400  0.4030  0.0260 -999.25 -999.25 -999.25 -999.25 
  129.13  4.5250  2.0890  2.0300 -50.362  1.5080  1.5930  0.3981  0.0245 
  10.675  2.0914  94.491  128.44  2.0300  1.5930  1.5080 -12.658  1.4309 
  1.5970  1.5078  2.1034  100.11  0.3744 
  2244.000 
  10.706  102.27  0.3370  0.3930  0.0230 -999.25 -999.25 -999.25 -999.25 
  128.44  4.3110  2.0940  2.1400 -50.128  1.5130  1.5990  0.3820  0.0239 
  10.740  2.0871  96.206  128.34  2.1400  1.5990  1.5130 -12.434  1.5133 
  1.6031  1.5128  2.0995  102.13  0.3565 
  2244.500 
  10.781  103.62  0.3460  0.3690  0.0250 -999.25 -999.25 -999.25 -999.25 
  128.34  4.4480  2.0791  2.1240 -49.694  1.5210  1.6010  0.3729  0.0246 
  10.816  2.0648  99.850  128.93  2.1240  1.6010  1.5210 -12.011  1.5013 
  1.6053  1.5208  2.0777  106.24  0.3465 
  2245.000 
  10.861  102.26  0.3660  0.3780  0.0240 -999.25 -999.25 -999.25 -999.25 
  128.93  4.1460  2.0461  1.9370 -49.321  1.5210  1.5740  0.3897  0.0192 
  10.872  2.0234  102.86  132.00  1.9370  1.5740  1.5210 -11.648  1.3614 
  1.5782  1.5208  2.0367  109.64  0.3652 
  2245.500 
  10.889  99.363  0.4000  0.4070  0.0120 -999.25 -999.25 -999.25 -999.25 
  132.00  3.8870  1.9900  1.6480 -48.947  1.5340  1.5630  0.4190  0.0064 
  10.892  1.9739  103.06  131.40  1.6480  1.5630  1.5340 -11.284  1.2030 
  1.5672  1.5338  1.9872  109.91  0.3978 
  2246.000 
  10.896  97.653  0.4260  0.4390 -0.0030 -999.25 -999.25 -999.25 -999.25 
  131.40  3.5730  1.9471  1.4040 -47.796  1.5540  1.5680  0.4487 -0.0068 
  10.892  1.9540  101.15  130.31  1.4040  1.5680  1.5540 -10.144  1.0249 
  1.5722  1.5538  1.9674  107.87  0.4308 
  2246.500 
  10.884  98.487  0.4140  0.4670 -0.0140 -999.25 -999.25 -999.25 -999.25 
  130.31  3.3190  1.9669  1.2720 -47.003  1.5760  1.6320  0.4520 -0.0178 
  10.879  1.9812  98.755  126.55  1.2720  1.6320  1.5760 -9.3613  0.9286 
  1.6366  1.5758  1.9944  105.28  0.4344 
  2247.000 
  10.868  99.002  0.3870  0.4200 -0.0260 -999.25 -999.25 -999.25 -999.25 
  126.55  3.0120  2.0115  1.3040 -45.653  1.5900  1.6930  0.4063 -0.0283 
  10.868  2.0370  97.925  118.62  1.3040  1.6930  1.5900 -8.0217  0.9519 
  1.6979  1.5898  2.0502  104.36  0.3836 
  2247.500 
  10.868  99.359  0.3340  0.3730 -0.0340 -999.25 -999.25 -999.25 -999.25 
  118.62  2.7880  2.0989  1.7170 -44.740  1.6220  1.7460  0.3603 -0.0311 
  10.867  2.1220  98.640  104.56  1.7170  1.7460  1.6220 -7.1191  1.2534 
  1.7512  1.6218  2.1352  105.12  0.3325 
  2248.000 
  10.866  99.558  0.2810  0.3250 -0.0230 -999.25 -999.25 -999.25 -999.25 
  104.56  3.3000  2.1864  4.1050 -43.190  1.6640  1.8410  0.3139 -0.0154 
  10.866  2.2070  99.098  93.867  4.1050  1.8410  1.6640 -5.5796  3.0190 
  1.8468  1.6638  2.2202  105.60  0.2787 
  2248.500 
  10.864  99.676  0.2280  0.2780  0.0090 -999.25 -999.25 -999.25 -999.25 
  93.867  18.309  2.2738  4.7350 -41.999  1.7770  1.9370  0.2928  0.0111 
  10.854  2.2669  99.407  97.034  4.7350  1.9370  1.7770 -4.3990  3.5116 
  1.9434  1.7768  2.2801  105.89  0.2563 
  2249.000 
  10.816  98.562  0.2480  0.3490  0.0190 -999.25 -999.25 -999.25 -999.25 
  97.034  37.629  2.2408  4.0500 -40.329  1.9480  2.0840  0.3620  0.0186 
  10.805  2.2352  99.583  102.97  4.0500  2.0840  1.9480 -2.7394  2.9761 
  2.0912  1.9477  2.2480  105.93  0.3343 
  2249.500 
  10.757  85.920  0.2670  0.4210  0.0170 -999.25 -999.25 -999.25 -999.25 
  102.97  10.498  2.2095  2.9210 -39.297  2.0800  2.2470  0.4318  0.0121 
  10.750  2.2044  99.473  104.56  2.9210  2.2470  2.0800 -1.7179  2.1050 
  2.2552  2.0797  2.2169  105.63  0.4119 
  2250.000 
  10.713  69.978  0.2870  0.4920 -0.0150 -999.25 -999.25 -999.25 -999.25 
  104.56  2.9290  2.1765  2.2710 -39.701  2.3130  2.4310  0.4822 -0.0188 
  10.709  2.1918  96.626  100.89  2.2710  2.4310  2.3130 -2.1323  1.6118 
  2.4404  2.3126  2.2040  102.48  0.4679 
  2250.500 
  10.677  59.440  0.2120  0.4130 -0.0460 -999.25 -999.25 -999.25 -999.25 
  100.89  2.5690  2.3002  3.1940 -40.507  2.5110  2.7780  0.4054 -0.0463 
  10.675  2.3119  83.940  79.307  3.1940  2.7780  2.5110 -2.9487  2.3142 
  2.7901  2.5105  2.3239  88.933  0.3826 
  2251.000 
  10.657  55.779  0.1380  0.3340 -0.0490 -999.25 -999.25 -999.25 -999.25 
  79.307  2.6950  2.4223  6.8250 -41.351  2.6620  3.3920  0.3287 -0.0467 
  10.656  2.4307  68.974  70.693  6.8250  3.3920  2.6620 -3.8032  5.1700 
  3.4100  2.6614  2.4425  73.034  0.2945 
