~Version Information
VERS.                     2.0: CWLS log ASCII Standard Version 2.00
WRAP.                     YES: Multiple lines per depth step
~Well Information Block
#MNEM.UNIT                               Data Type  Information
#---------                               ---------  -----------
STRT.FT                                   700.0000:
STOP.FT                                  4020.0000:
STEP.FT                                     0.5000:
NULL.                 -999.25                     :
COMP.                                             :COMPANY            
WELL.     MUDDY CREEK A #65-30                    :WELL               
FLD .                                             :FIELD              
CTRY.                                             :COUNTRY            
STAT.                                             :STATE              
LOC .                                             :LOCATION           
UWI .                                             :UNIQUE WELL ID     
SRVC.                                             :Service company    
DATE.                                             :LOG DATE           
~Curve Information
#MNEM.UNIT           API CODE  Curve Description
#---------           --------  -----------------
DEPT.FT                      :   1 DEPTH
CALI.IN                      :   2
GR  .GAPI                    :   3
DPHI.DEC                     :   4
NPHI.DEC                     :   5
DRHO.G/CC                    :   6
KSCI.MD                      :   7
PSCI.POR                     :   8
OSCI.POR                     :   9
WSCI.POR                     :  10
DT  .US/F                    :  11
MSFL.OHMM                    :  12
RHOB.G/C3                    :  13
SFL .OHMM                    :  14
SP  .MV                      :  15
ILD .OHMM                    :  16
ILM .OHMM                    :  17
NPHS.DEC                     :  18
DROS.G/CC                    :  19
CALS.IN                      :  20
ROBS.G/C3                    :  21
GRS .GAPI                    :  22
DTS .US/F                    :  23
RS  .OHMM                    :  24
RM  .OHMM                    :  25
RD  .OHMM                    :  26
SBL .MV                      :  27
SFLC.OHMM                    :  28
ILMC.OHMM                    :  29
ILDC.OHMM                    :  30
ROBC.G/C3                    :  31
GRC .GAPI                    :  32
NPHC.DEC                     :  33
~A
# ...
  1149.500 
  13.275  77.915  0.3820  0.5090  0.0730 -999.25 -999.25 -999.25 -999.25 
  141.16  2.5030  2.0197  1.6650 -33.836  1.8080  1.7430  0.5060  0.0670 
  13.249  2.0197  76.903  140.88  1.6650  1.7430  1.8080 -1.0360  1.2155 
  1.7532  1.8099  2.0463  87.431  0.4956 
  1150.000 
  13.249  76.903  0.3820  0.5060  0.0670 -999.25 -999.25 -999.25 -999.25 
  140.66  2.5390  2.0197  1.6590 -33.792  1.8020  1.7400  0.4770  0.0600 
  13.200  2.0247  75.530  140.38  1.6590  1.7400  1.8020 -0.9920  1.2111 
  1.7500  1.8038  2.0510  85.767  0.4633 
  1150.500 
  13.200  75.530  0.3790  0.4770  0.0600 -999.25 -999.25 -999.25 -999.25 
  140.16  2.5220  2.0247  1.6780 -34.300  1.8000  1.7350  0.4580  0.0500 
  13.182  2.0263  77.068  139.98  1.6780  1.7350  1.8000 -1.5000  1.2249 
  1.7450  1.8017  2.0526  87.475  0.4421 
  1151.000 
  13.182  77.068  0.3780  0.4580  0.0500 -999.25 -999.25 -999.25 -999.25 
  139.85  2.4840  2.0263  1.6880 -34.366  1.8010  1.7320  0.4570  0.0410 
  13.169  2.0164  78.998  140.08  1.6880  1.7320  1.8010 -1.5660  1.2322 
  1.7419  1.8027  2.0426  89.637  0.4410 
  1151.500 
  13.169  78.998  0.3840  0.4570  0.0410 -999.25 -999.25 -999.25 -999.25 
  140.24  2.4500  2.0164  1.6960 -34.475  1.8110  1.7400  0.4660  0.0310 
  13.123  2.0164  80.729  140.76  1.6960  1.7400  1.8110 -1.6750  1.2381 
  1.7499  1.8127  2.0424  91.497  0.4510 
  1152.000 
  13.123  80.729  0.3840  0.4660  0.0310 -999.25 -999.25 -999.25 -999.25 
  141.13  2.4480  2.0164  1.6780 -34.625  1.8260  1.7420  0.4930  0.0330 
  13.125  2.0214  81.106  141.18  1.6780  1.7420  1.8260 -1.8250  1.2249 
  1.7519  1.8277  2.0474  91.929  0.4811 
  1152.500 
  13.125  81.106  0.3810  0.4930  0.0330 -999.25 -999.25 -999.25 -999.25 
  141.22  2.4510  2.0214  1.6540 -34.852  1.8400  1.7440  0.5040  0.0350 
  13.283  2.0329  81.092  140.91  1.6540  1.7440  1.8400 -2.0520  1.2074 
  1.7543  1.8420  2.0597  92.270  0.4934 
  1153.000 
  13.283  81.092  0.3740  0.5040  0.0350 -999.25 -999.25 -999.25 -999.25 
  140.71  2.4530  2.0329  1.6670 -35.002  1.8550  1.7650  0.4990  0.0270 
  13.483  2.0445  82.664  140.34  1.6670  1.7650  1.8550 -2.2020  1.2169 
  1.7760  1.8573  2.0722  94.513  0.4879 
  1153.500 
  13.483  82.664  0.3670  0.4990  0.0270 -999.25 -999.25 -999.25 -999.25 
  140.11  2.5100  2.0445  1.7020 -35.191  1.8690  1.8050  0.4930  0.0200 
  13.609  2.0494  84.236  139.43  1.7020  1.8050  1.8690 -2.3910  1.2425 
  1.8167  1.8716  2.0777  96.600  0.4813 
  1154.000 
  13.609  84.236  0.3640  0.4930  0.0200 -999.25 -999.25 -999.25 -999.25 
  139.02  2.6640  2.0494  1.7410 -35.540  1.9080  1.8190  0.4880  0.0170 
  13.742  2.0544  85.490  138.20  1.7410  1.8190  1.9080 -2.7400  1.2709 
  1.8312  1.9109  2.0833  98.345  0.4758 
  1154.500 
  13.742  85.490  0.3610  0.4880  0.0170 -999.25 -999.25 -999.25 -999.25 
  137.72  2.5710  2.0544  1.7900 -35.770  1.9480  1.8540  0.4870  0.0180 
  13.709  2.0626  83.686  136.78  1.7900  1.8540  1.9480 -2.9700  1.3067 
  1.8666  1.9509  2.0914  96.195  0.4747 
  1155.000 
  13.709  83.686  0.3560  0.4870  0.0180 -999.25 -999.25 -999.25 -999.25 
  136.23  2.5740  2.0626  1.8250 -36.119  1.9670  1.8860  0.4820  0.0210 
  13.659  2.0692  81.321  135.72  1.8250  1.8860  1.9670 -3.3190  1.2779 
  1.8989  1.9699  2.0978  93.367  0.4691 
  1155.500 
  13.659  81.321  0.3520  0.4820  0.0210 -999.25 -999.25 -999.25 -999.25 
  135.43  2.9220  2.0692  1.8520 -36.467  2.0080  1.9180  0.4670  0.0260 
  13.602  2.0807  77.808  135.04  1.8520  1.9180  2.0080 -3.6670  1.2980 
  1.9312  2.0109  2.1091  89.213  0.4524 
  1156.000 
  13.602  77.808  0.3450  0.4670  0.0260 -999.25 -999.25 -999.25 -999.25 
  134.83  2.9190  2.0807  1.8570 -36.856  2.0430  1.9470  0.4530  0.0280 
  13.564  2.0956  79.418  134.89  1.8570  1.9470  2.0430 -4.0560  1.3017 
  1.9606  2.0460  2.1237  90.977  0.4368 
  1156.500 
  13.564  79.418  0.3360  0.4530  0.0280 -999.25 -999.25 -999.25 -999.25 
  134.92  2.7920  2.0956  1.8580 -37.206  2.0670  1.9740  0.4350  0.0310 
  13.606  2.1088  81.585  134.79  1.8580  1.9740  2.0670 -4.4060  1.3025 
  1.9880  2.0701  2.1371  93.553  0.4167 
  1157.000 
  13.606  81.585  0.3280  0.4350  0.0310 -999.25 -999.25 -999.25 -999.25 
  134.72  2.7100  2.1088  1.8960 -37.595  2.0900  2.0080  0.4250  0.0320 
  13.668  2.1237  82.921  133.72  1.8960  2.0080  2.0900 -4.7950  1.3308 
  2.0227  2.0933  2.1523  95.224  0.4056 
  1157.500 
  13.668  82.921  0.3190  0.4250  0.0320 -999.25 -999.25 -999.25 -999.25 
  133.22  2.9550  2.1237  1.9540 -37.904  2.1220  2.0460  0.4000  0.0320 
  13.766  2.1369  83.780  132.68  1.9540  2.0460  2.1220 -5.1040  1.3740 
  2.0616  2.1256  2.1659  96.431  0.3778 
  1158.000 
  13.766  83.780  0.3110  0.4000  0.0320 -999.25 -999.25 -999.25 -999.25 
  132.42  3.0240  2.1369  2.0130 -38.332  2.1510  2.0810  0.3920  0.0290 
  13.760  2.1484  84.238  132.35  2.0130  2.0810  2.1510 -5.5320  1.4181 
  2.0971  2.1547  2.1774  96.945  0.3689 
  1158.500 
  13.760  84.238  0.3040  0.3920  0.0290 -999.25 -999.25 -999.25 -999.25 
  132.32  3.0600  2.1484  2.0290 -38.442  2.1720  2.1010  0.4000  0.0240 
  13.695  2.1501  84.421  132.31  2.0290  2.1010  2.1720 -5.6420  1.4301 
  2.1172  2.1756  2.1788  97.008  0.3778 
  1159.000 
  13.695  84.421  0.3030  0.4000  0.0240 -999.25 -999.25 -999.25 -999.25 
  132.31  3.0690  2.1501  2.0380 -38.551  2.1850  2.1290  0.4090  0.0230 
  13.625  2.1467  84.245  132.37  2.0380  2.1290  2.1850 -5.7510  1.4368 
  2.1454  2.1885  2.1752  96.646  0.3878 
  1159.500 
  13.625  84.245  0.3050  0.4090  0.0230 -999.25 -999.25 -999.25 -999.25 
  132.40  3.0390  2.1467  2.0270 -38.538  2.1940  2.1380  0.4080  0.0260 
  13.648  2.1435  83.668  132.47  2.0270  2.1380  2.1940 -5.7380  1.4286 
  2.1546  2.1976  2.1720  96.037  0.3867 
  1160.000 
  13.648  83.668  0.3070  0.4080  0.0260 -999.25 -999.25 -999.25 -999.25 
  132.49  3.0360  2.1435  2.0250 -38.489  2.1990  2.1470  0.4020  0.0310 
  13.773  2.1435  83.770  132.56  2.0250  2.1470  2.1990 -5.6890  1.4271 
  2.1642  2.2029  2.1725  96.436  0.3801 
  1160.500 
  13.773  83.770  0.3070  0.4020  0.0310 -999.25 -999.25 -999.25 -999.25 
  132.58  3.0120  2.1435  2.0220 -38.358  2.2040  2.1440  0.3990  0.0290 
  13.875  2.1467  85.583  132.29  2.0220  2.1440  2.2040 -5.5580  1.4249 
  2.1614  2.2081  2.1763  98.756  0.3768 
  1161.000 
  13.875  85.583  0.3050  0.3990  0.0290 -999.25 -999.25 -999.25 -999.25 
  132.17  3.1100  2.1467  2.0230 -38.227  2.2050  2.1340  0.3980  0.0260 
  13.770  2.1467  87.871  132.17  2.0230  2.1340  2.2050 -5.4270  1.4256 
  2.1509  2.2089  2.1758  101.15  0.3756 
  1161.500 
  13.770  87.871  0.3050  0.3980  0.0260 -999.25 -999.25 -999.25 -999.25 
  132.16  3.1590  2.1467  2.0500 -38.136  2.1940  2.1310  0.3980  0.0240 
  13.649  2.1451  88.247  132.23  2.0500  2.1310  2.1940 -5.3360  1.4458 
  2.1475  2.1976  2.1736  101.29  0.3756 
  1162.000 
  13.649  88.247  0.3060  0.3980  0.0240 -999.25 -999.25 -999.25 -999.25 
  132.25  3.0160  2.1451  2.0740 -38.046  2.1790  2.1280  0.4040  0.0270 
  13.615  2.1451  87.236  132.39  2.0740  2.1280  2.1790 -5.2460  1.4638 
  2.1444  2.1825  2.1735  100.05  0.3822 
  1162.500 
  13.615  87.236  0.3060  0.4040  0.0270 -999.25 -999.25 -999.25 -999.25 
  132.44  3.0680  2.1451  2.0750 -37.873  2.1450  2.1020  0.4340  0.0300 
  13.621  2.1435  84.956  132.95  2.0750  2.1020  2.1450 -5.0730  1.4645 
  2.1180  2.1484  2.1718  97.453  0.4156 
  1163.000 
  13.621  84.956  0.3070  0.4340  0.0300 -999.25 -999.25 -999.25 -999.25 
  133.12  3.1510  2.1435  2.0380 -37.743  2.1340  2.0680  0.4140  0.0260 
  13.639  2.1352  83.309  133.48  2.0380  2.0680  2.1340 -4.9430  1.4368 
  2.0835  2.1374  2.1637  95.604  0.3934 
  1163.500 
  13.639  83.309  0.3120  0.4140  0.0260 -999.25 -999.25 -999.25 -999.25 
  133.60  3.1080  2.1352  1.9690 -37.493  2.1250  2.0540  0.4050  0.0230 
  13.657  2.1220  82.975  134.05  1.9690  2.0540  2.1250 -4.6930  1.3852 
  2.0694  2.1284  2.1506  95.261  0.3834 
