~Version Information
VERS.                     2.0: CWLS log ASCII Standard Version 2.00
WRAP.                     YES: Multiple lines per depth step
~Well Information Block
#MNEM.UNIT                               Data Type  Information
#---------                               ---------  -----------
STRT.FT                                   700.0000:
STOP.FT                                  4020.0000:
STEP.FT                                     0.5000:
NULL.                 -999.25                     :
COMP.                                             :COMPANY            
WELL.     MUDDY CREEK A #65-30                    :WELL               
FLD .                                             :FIELD              
CTRY.                                             :COUNTRY            
STAT.                                             :STATE              
LOC .                                             :LOCATION           
UWI .                                             :UNIQUE WELL ID     
SRVC.                                             :Service company    
DATE.                                             :LOG DATE           
~Curve Information
#MNEM.UNIT           API CODE  Curve Description
#---------           --------  -----------------
DEPT.FT                      :   1 DEPTH
CALI.IN                      :   2
GR  .GAPI                    :   3
DPHI.DEC                     :   4
NPHI.DEC                     :   5
DRHO.G/CC                    :   6
KSCI.MD                      :   7
PSCI.POR                     :   8
OSCI.POR                     :   9
WSCI.POR                     :  10
DT  .US/F                    :  11
MSFL.OHMM                    :  12
RHOB.G/C3                    :  13
SFL .OHMM                    :  14
SP  .MV                      :  15
ILD .OHMM                    :  16
ILM .OHMM                    :  17
NPHS.DEC                     :  18
DROS.G/CC                    :  19
CALS.IN                      :  20
ROBS.G/C3                    :  21
GRS .GAPI                    :  22
DTS .US/F                    :  23
RS  .OHMM                    :  24
RM  .OHMM                    :  25
RD  .OHMM                    :  26
SBL .MV                      :  27
SFLC.OHMM                    :  28
ILMC.OHMM                    :  29
ILDC.OHMM                    :  30
ROBC.G/C3                    :  31
GRC .GAPI                    :  32
NPHC.DEC                     :  33
~A
# ...
  2904.000 
  11.585  114.92  0.3120  0.3960  0.0130 -999.25 -999.25 -999.25 -999.25 
  121.83  4.0570  2.1352  2.6560 -30.912  2.4850  2.5310  0.3977  0.0017 
  11.600  2.1404  115.10  119.81  2.6560  2.5310  2.4850 -6.0052  1.9031 
  2.5452  2.4849  2.1581  125.31  0.3743 
  2904.500 
  11.594  115.96  0.3160  0.3970  0.0030 -999.25 -999.25 -999.25 -999.25 
  120.83  4.8090  2.1286  2.5380 -29.578  2.5240  2.5850  0.4006  0.0029 
  11.606  2.1615  115.82  118.32  2.5380  2.5850  2.5240 -4.6788  1.8135 
  2.5998  2.5238  2.1793  126.12  0.3775 
  2905.000 
  11.603  115.22  0.3050  0.3980  0.0010 -999.25 -999.25 -999.25 -999.25 
  119.24  5.0480  2.1467  2.6110 -26.974  2.5360  2.6070  0.4058  0.0065 
  11.614  2.1812  114.74  117.64  2.6110  2.6070  2.5360 -2.0823  1.8689 
  2.6221  2.5358  2.1990  124.97  0.3833 
  2905.500 
  11.608  112.89  0.2910  0.4020  0.0040 -999.25 -999.25 -999.25 -999.25 
  117.85  5.0910  2.1699  2.7010 -26.407  2.5320  2.5900  0.4148  0.0111 
  11.626  2.1880  112.64  117.54  2.7010  2.5900  2.5320 -1.5228  1.9373 
  2.6050  2.5319  2.2059  122.73  0.3933 
  2906.000 
  11.618  111.79  0.2800  0.4080  0.0080 -999.25 -999.25 -999.25 -999.25 
  117.55  4.7250  2.1880  2.6200 -26.342  2.5270  2.5630  0.4232  0.0148 
  11.639  2.1870  112.66  117.47  2.6200  2.5630  2.5270 -1.4653  1.8757 
  2.5777  2.5269  2.2050  122.79  0.4027 
  2906.500 
  11.631  115.46  0.2800  0.4190  0.0130 -999.25 -999.25 -999.25 -999.25 
  117.54  4.1750  2.1880  2.5980 -26.523  2.5320  2.5560  0.4219  0.0184 
  11.652  2.1873  116.00  117.21  2.5980  2.5560  2.5320 -1.6538  1.8590 
  2.5707  2.5319  2.2054  126.47  0.4013 
  2907.000 
  11.644  117.58  0.2810  0.4260  0.0160 -999.25 -999.25 -999.25 -999.25 
  117.44  4.0540  2.1864  2.6250 -26.668  2.5330  2.5710  0.4155  0.0240 
  11.661  2.1918  118.05  116.75  2.6250  2.5710  2.5330 -1.8063  1.8795 
  2.5859  2.5329  2.2099  128.75  0.3942 
  2907.500 
  11.658  119.34  0.2800  0.4190  0.0200 -999.25 -999.25 -999.25 -999.25 
  117.14  4.2480  2.1880  2.7350 -26.814  2.5330  2.5930  0.4124  0.0293 
  11.670  2.1946  119.99  116.95  2.7350  2.5930  2.5330 -1.9599  1.9632 
  2.6082  2.5329  2.2128  130.90  0.3908 
  2908.000 
  11.663  121.62  0.2760  0.4130  0.0270 -999.25 -999.25 -999.25 -999.25 
  116.64  4.4600  2.1946  2.6470 -26.990  2.5430  2.6370  0.4137  0.0293 
  11.677  2.1909  122.24  119.37  2.6470  2.6370  2.5430 -2.1434  1.8963 
  2.6528  2.5429  2.2091  133.37  0.3921 
  2908.500 
  11.676  123.66  0.2760  0.4120  0.0310 -999.25 -999.25 -999.25 -999.25 
  117.03  4.0640  2.1946  2.5500 -27.173  2.5540  2.6810  0.4199  0.0253 
  11.676  2.1817  124.49  121.55  2.5500  2.6810  2.5540 -2.3339  1.8226 
  2.6973  2.5539  2.1999  135.82  0.3990 
  2909.000 
  11.677  126.26  0.2800  0.4150  0.0280 -999.25 -999.25 -999.25 -999.25 
  119.90  4.2050  2.1880  2.4380 -27.520  2.5660  2.7560  0.4362  0.0193 
  11.676  2.1695  126.50  121.87  2.4380  2.7560  2.5660 -2.6884  1.7378 
  2.7732  2.5659  2.1877  138.02  0.4172 
  2909.500 
  11.676  126.99  0.2870  0.4240  0.0230 -999.25 -999.25 -999.25 -999.25 
  121.87  4.3110  2.1765  2.3520 -27.653  2.5780  2.7900  0.4636  0.0134 
  11.681  2.1573  126.62  120.47  2.3520  2.7900  2.5780 -2.8289  1.6729 
  2.8077  2.5779  2.1755  138.17  0.4476 
  2910.000 
  11.676  125.93  0.2950  0.4470  0.0160 -999.25 -999.25 -999.25 -999.25 
  121.87  3.8370  2.1633  2.3370 -27.803  2.6070  2.8240  0.4724  0.0065 
  11.692  2.1617  125.14  114.83  2.3370  2.8240  2.6070 -2.9865  1.6615 
  2.8422  2.6069  2.1800  136.59  0.4575 
  2910.500 
  11.685  123.75  0.3020  0.4790  0.0110 -999.25 -999.25 -999.25 -999.25 
  120.28  3.6330  2.1517  2.5870 -27.897  2.6250  2.8930  0.4438  0.0035 
  11.705  2.1813  122.84  106.46  2.5870  2.8930  2.6250 -3.0880  1.8507 
  2.9121  2.6249  2.1996  134.13  0.4257 
  2911.000 
  11.698  121.34  0.2900  0.4660  0.0020 -999.25 -999.25 -999.25 -999.25 
  114.23  3.9980  2.1715  3.2920 -27.845  2.6450  2.9220  0.4061  0.0093 
  11.718  2.2127  120.19  104.21  3.2920  2.9220  2.6450 -3.0435  2.3895 
  2.9416  2.6449  2.2312  131.29  0.3837 
  2911.500 
  11.712  118.45  0.2780  0.4210  0.0050 -999.25 -999.25 -999.25 -999.25 
  105.80  5.8690  2.1913  3.5320 -27.799  2.6650  2.9190  0.3787  0.0173 
  11.731  2.2614  116.32  104.11  3.5320  2.9190  2.6650 -3.0050  2.5745 
  2.9386  2.6649  2.2799  127.11  0.3533 
  2912.000 
  11.725  113.29  0.2510  0.3900  0.0140 -999.25 -999.25 -999.25 -999.25 
  104.11  7.5070  2.2359  3.4450 -27.753  2.6990  2.8890  0.3633  0.0192 
  11.746  2.2880  113.35  105.67  3.4450  2.8890  2.6990 -2.9665  2.5073 
  2.9083  2.6989  2.3066  123.91  0.3361 
  2912.500 
  11.738  113.43  0.2180  0.3660  0.0210 -999.25 -999.25 -999.25 -999.25 
  104.11  5.9500  2.2903  3.1690 -27.510  2.7110  2.8330  0.3564  0.0157 
  11.764  2.2817  114.09  109.36  3.1690  2.8330  2.7110 -2.7311  2.2950 
  2.8517  2.7109  2.3004  124.78  0.3286 
  2913.000 
  11.755  114.91  0.2210  0.3600  0.0170 -999.25 -999.25 -999.25 -999.25 
  105.69  4.2140  2.2854  2.9910 -27.535  2.7090  2.8150  0.3485  0.0144 
  11.780  2.2757  116.80  111.19  2.9910  2.8150  2.7090 -2.7636  2.1586 
  2.8335  2.7089  2.2945  127.81  0.3198 
  2913.500 
  11.776  119.02  0.2260  0.3520  0.0140 -999.25 -999.25 -999.25 -999.25 
  109.35  5.2750  2.2771  3.1050 -27.558  2.6660  2.7710  0.3474  0.0163 
  11.794  2.2648  121.75  113.33  3.1050  2.7710  2.6660 -2.7941  2.2459 
  2.7890  2.6659  2.2837  133.28  0.3185 
  2914.000 
  11.785  124.76  0.2280  0.3440  0.0150 -999.25 -999.25 -999.25 -999.25 
  111.13  4.8510  2.2738  2.8990 -27.697  2.6150  2.7040  0.3770  0.0159 
  11.807  2.2368  130.15  118.08  2.8990  2.7040  2.6150 -2.9406  2.0882 
  2.7212  2.6149  2.2558  142.52  0.3514 
  2914.500 
  11.807  135.71  0.2410  0.3520  0.0180 -999.25 -999.25 -999.25 -999.25 
  113.11  4.3490  2.2524  2.6520 -29.391  2.5640  2.6090  0.4332  0.0102 
  11.808  2.1961  139.23  126.19  2.6520  2.6090  2.5640 -4.6421  1.9001 
  2.6251  2.5639  2.2150  152.47  0.4140 
  2915.000 
  11.808  142.65  0.2640  0.4130  0.0130 -999.25 -999.25 -999.25 -999.25 
  117.46  3.9130  2.2144  2.4440 -30.495  2.5130  2.5170  0.4713  0.0029 
  11.810  2.1523  142.57  127.46  2.4440  2.5170  2.5130 -5.7537  1.7424 
  2.5319  2.5129  2.1713  156.13  0.4563 
  2915.500 
  11.809  142.50  0.2920  0.4640  0.0060 -999.25 -999.25 -999.25 -999.25 
  126.07  3.7930  2.1682  2.3570 -30.915  2.3830  2.3830  0.4837 -0.0009 
  11.810  2.1239  141.63  128.35  2.3570  2.3830  2.3830 -6.1812  1.6766 
  2.3964  2.3829  2.1429  155.10  0.4701 
  2916.000 
  11.811  140.88  0.3170  0.4830 -0.0020 -999.25 -999.25 -999.25 -999.25 
  127.36  3.8470  2.1270  2.3170 -30.930  2.2950  2.3110  0.4818  0.0032 
  11.805  2.1318  139.05  129.06  2.3170  2.3110  2.2950 -6.2037  1.6465 
  2.3236  2.2949  2.1508  152.26  0.4679 
  2916.500 
  11.808  137.59  0.3220  0.4850  0.0010 -999.25 -999.25 -999.25 -999.25 
  128.24  3.5440  2.1187  2.1700 -30.202  2.1900  2.2400  0.4715  0.0077 
  11.795  2.1625  138.03  128.97  2.1700  2.2400  2.1900 -5.4832  1.5358 
  2.2518  2.1899  2.1814  151.10  0.4565 
  2917.000 
  11.801  138.36  0.3000  0.4760  0.0070 -999.25 -999.25 -999.25 -999.25 
  129.03  3.5880  2.1550  2.1130 -29.820  2.1560  2.1290  0.4603  0.0080 
  11.775  2.1787  138.60  127.61  2.1130  2.1290  2.1560 -5.1087  1.4930 
  2.1396  2.1559  2.1974  151.64  0.4441 
  2917.500 
  11.783  138.77  0.2870  0.4630  0.0090 -999.25 -999.25 -999.25 -999.25 
  129.22  3.3240  2.1765  2.0770 -29.168  2.1070  2.0840  0.4501  0.0073 
  11.749  2.1831  138.47  126.67  2.0770  2.0840  2.1070 -4.4642  1.4660 
  2.0941  2.1069  2.2017  151.38  0.4327 
  2918.000 
  11.760  138.27  0.2830  0.4550  0.0060 -999.25 -999.25 -999.25 -999.25 
  127.83  2.4590  2.1831  2.0590 -28.951  2.0740  2.0820  0.4400  0.0106 
  11.720  2.1805  139.21  126.55  2.0590  2.0820  2.0740 -4.2548  1.4526 
  2.0919  2.0739  2.1989  152.07  0.4214 
