~Version Information
VERS.                     2.0: CWLS log ASCII Standard Version 2.00
WRAP.                     YES: Multiple lines per depth step
~Well Information Block
#MNEM.UNIT                               Data Type  Information
#---------                               ---------  -----------
STRT.FT                                   700.0000:
STOP.FT                                  4020.0000:
STEP.FT                                     0.5000:
NULL.                 -999.25                     :
COMP.                                             :COMPANY            
WELL.     MUDDY CREEK A #65-30                    :WELL               
FLD .                                             :FIELD              
CTRY.                                             :COUNTRY            
STAT.                                             :STATE              
LOC .                                             :LOCATION           
UWI .                                             :UNIQUE WELL ID     
SRVC.                                             :Service company    
DATE.                                             :LOG DATE           
~Curve Information
#MNEM.UNIT           API CODE  Curve Description
#---------           --------  -----------------
DEPT.FT                      :   1 DEPTH
CALI.IN                      :   2
GR  .GAPI                    :   3
DPHI.DEC                     :   4
NPHI.DEC                     :   5
DRHO.G/CC                    :   6
KSCI.MD                      :   7
PSCI.POR                     :   8
OSCI.POR                     :   9
WSCI.POR                     :  10
DT  .US/F                    :  11
MSFL.OHMM                    :  12
RHOB.G/C3                    :  13
SFL .OHMM                    :  14
SP  .MV                      :  15
ILD .OHMM                    :  16
ILM .OHMM                    :  17
NPHS.DEC                     :  18
DROS.G/CC                    :  19
CALS.IN                      :  20
ROBS.G/C3                    :  21
GRS .GAPI                    :  22
DTS .US/F                    :  23
RS  .OHMM                    :  24
RM  .OHMM                    :  25
RD  .OHMM                    :  26
SBL .MV                      :  27
SFLC.OHMM                    :  28
ILMC.OHMM                    :  29
ILDC.OHMM                    :  30
ROBC.G/C3                    :  31
GRC .GAPI                    :  32
NPHC.DEC                     :  33
~A
# ...
  3556.500 
  11.224  129.67  0.2230  0.4470  0.0270 -999.25 -999.25 -999.25 -999.25 
  121.40  3.7260  2.2821  2.4740 -18.505  2.2740  2.2200  0.4214  0.0451 
  11.239  2.3276  129.48  115.64  2.4740  2.2200  2.2740 -3.3717  1.7651 
  2.2297  2.2738  2.3432  139.51  0.4005 
  3557.000 
  11.228  127.80  0.2010  0.4290  0.0410 -999.25 -999.25 -999.25 -999.25 
  116.14  3.9250  2.3184  2.5720 -18.100  2.2960  2.2490  0.4156  0.0490 
  11.257  2.3374  128.04  118.01  2.5720  2.2490  2.2960 -2.9564  1.8393 
  2.2590  2.2958  2.3530  138.04  0.3941 
  3557.500 
  11.249  130.51  0.1900  0.4140  0.0490 -999.25 -999.25 -999.25 -999.25 
  115.64  3.7220  2.3365  2.5300 -17.658  2.3370  2.2570  0.4143  0.0479 
  11.284  2.3373  130.66  115.73  2.5300  2.2570  2.3370 -2.5042  1.8075 
  2.2671  2.3368  2.3531  140.97  0.3927 
  3558.000 
  11.265  132.54  0.1890  0.4170  0.0490 -999.25 -999.25 -999.25 -999.25 
  118.01  3.5820  2.3382  2.4170 -17.414  2.3390  2.2590  0.4115  0.0443 
  11.306  2.3356  132.59  113.65  2.4170  2.2590  2.3390 -2.2499  1.7219 
  2.2692  2.3388  2.3516  143.14  0.3895 
  3558.500 
  11.301  133.34  0.1900  0.4120  0.0470 -999.25 -999.25 -999.25 -999.25 
  115.73  3.4280  2.3365  2.3050 -17.250  2.3410  2.2600  0.4116  0.0392 
  11.317  2.3321  133.27  113.15  2.3050  2.2600  2.3410 -2.0756  1.6374 
  2.2703  2.3408  2.3482  143.92  0.3896 
  3559.000 
  11.310  131.76  0.1910  0.4110  0.0420 -999.25 -999.25 -999.25 -999.25 
  113.65  3.3590  2.3349  2.2260 -17.130  2.3310  2.2840  0.4210  0.0325 
  11.317  2.3280  131.73  113.24  2.2260  2.2840  2.3310 -1.9454  1.5779 
  2.2945  2.3308  2.3441  142.26  0.4002 
  3559.500 
  11.322  130.73  0.1940  0.4120  0.0370 -999.25 -999.25 -999.25 -999.25 
  113.15  3.2270  2.3299  2.2470 -17.006  2.2930  2.2980  0.4383  0.0227 
  11.308  2.3209  130.74  113.44  2.2470  2.2980  2.2930 -1.8111  1.5937 
  2.3086  2.2928  2.3369  141.15  0.4194 
  3560.000 
  11.314  131.17  0.1960  0.4280  0.0290 -999.25 -999.25 -999.25 -999.25 
  113.24  3.0060  2.3266  2.2640 -16.841  2.2440  2.2940  0.4501  0.0174 
  11.303  2.3167  131.18  116.51  2.2640  2.2940  2.2440 -1.6359  1.6065 
  2.3046  2.2438  2.3327  141.61  0.4325 
  3560.500 
  11.303  133.32  0.2020  0.4460  0.0180 -999.25 -999.25 -999.25 -999.25 
  113.44  2.9990  2.3167  2.2570 -16.794  2.1990  2.2650  0.4470  0.0170 
  11.304  2.3157  133.30  119.58  2.2570  2.2650  2.1990 -1.5786  1.6012 
  2.2753  2.1988  2.3317  143.90  0.4291 
  3561.000 
  11.303  136.94  0.2020  0.4530  0.0170 -999.25 -999.25 -999.25 -999.25 
  116.51  3.0910  2.3167  2.2290 -16.788  2.1640  2.1790  0.4509  0.0152 
  11.304  2.3110  136.85  119.97  2.2290  2.1790  2.1640 -1.5624  1.5802 
  2.1885  2.1638  2.3270  147.74  0.4334 
  3561.500 
  11.304  139.01  0.2030  0.4430  0.0170 -999.25 -999.25 -999.25 -999.25 
  119.58  3.0510  2.3151  2.1890 -16.742  2.1300  2.1490  0.4677  0.0115 
  11.305  2.3013  138.94  117.09  2.1890  2.1490  2.1300 -1.5061  1.5501 
  2.1583  2.1298  2.3173  149.99  0.4521 
  3562.000 
  11.304  139.18  0.2070  0.4560  0.0140 -999.25 -999.25 -999.25 -999.25 
  119.97  2.8680  2.3084  2.1220 -16.536  2.0860  2.1180  0.4863  0.0081 
  11.305  2.2896  139.17  117.29  2.1220  2.1180  2.0860 -1.2898  1.4998 
  2.1270  2.0858  2.3056  150.24  0.4728 
  3562.500 
  11.305  138.19  0.2140  0.4750  0.0100 -999.25 -999.25 -999.25 -999.25 
  117.09  2.8100  2.2969  2.0640 -16.449  2.0340  2.0760  0.4930  0.0076 
  11.306  2.2801  138.25  118.08  2.0640  2.0760  2.0340 -1.1926  1.4563 
  2.0846  2.0338  2.2960  149.26  0.4802 
  3563.000 
  11.305  136.05  0.2210  0.4930  0.0070 -999.25 -999.25 -999.25 -999.25 
  117.29  2.9650  2.2854  2.0240 -16.966  1.9970  2.0530  0.4904  0.0113 
  11.298  2.2717  136.22  119.36  2.0240  2.0530  1.9970 -1.6993  1.4264 
  2.0614  1.9968  2.2877  147.03  0.4773 
  3563.500 
  11.306  132.95  0.2260  0.4930  0.0080 -999.25 -999.25 -999.25 -999.25 
  118.08  2.9540  2.2771  1.9870 -17.722  1.9870  2.0280  0.4963  0.0150 
  11.295  2.2634  133.24  120.55  1.9870  2.0280  1.9870 -2.4451  1.3987 
  2.0362  1.9868  2.2793  143.80  0.4838 
  3564.000 
  11.294  129.46  0.2310  0.4890  0.0130 -999.25 -999.25 -999.25 -999.25 
  119.36  2.8580  2.2689  1.9910 -18.275  1.9800  2.0130  0.5121  0.0173 
  11.287  2.2584  129.83  121.83  1.9910  2.0130  1.9800 -2.9878  1.4017 
  2.0211  1.9798  2.2742  140.09  0.5014 
  3564.500 
  11.295  125.64  0.2360  0.5000  0.0160 -999.25 -999.25 -999.25 -999.25 
  120.55  2.7950  2.2606  1.9950 -18.871  1.9770  2.0070  0.5269  0.0146 
  11.283  2.2573  126.11  122.62  1.9950  2.0070  1.9770 -3.5736  1.4047 
  2.0150  1.9768  2.2731  136.06  0.5178 
  3565.000 
  11.283  125.05  0.2380  0.5180  0.0180 -999.25 -999.25 -999.25 -999.25 
  121.83  2.7430  2.2573  2.0180 -19.183  1.9740  2.0030  0.5157  0.0095 
  11.286  2.2619  125.13  122.32  2.0180  2.0030  1.9740 -3.8753  1.4219 
  2.0110  1.9738  2.2777  135.02  0.5054 
  3565.500 
  11.283  125.89  0.2380  0.5310  0.0130 -999.25 -999.25 -999.25 -999.25 
  122.62  2.7130  2.2573  2.0780 -18.666  1.9880  2.0100  0.4900  0.0066 
  11.296  2.2686  125.77  119.25  2.0780  2.0100  1.9880 -3.3481  1.4668 
  2.0181  1.9878  2.2845  135.74  0.4768 
  3566.000 
  11.288  127.33  0.2340  0.5090  0.0080 -999.25 -999.25 -999.25 -999.25 
  122.32  2.7460  2.2639  2.1610 -18.056  2.0290  2.0170  0.4584  0.0046 
  11.304  2.2788  127.09  117.56  2.1610  2.0170  2.0290 -2.7278  1.5291 
  2.0252  2.0288  2.2947  137.20  0.4417 
  3566.500 
  11.300  129.52  0.2300  0.4820  0.0060 -999.25 -999.25 -999.25 -999.25 
  119.25  2.9300  2.2705  2.2790 -17.730  2.0530  2.0790  0.4410  0.0047 
  11.317  2.2892  129.13  116.07  2.2790  2.0790  2.0530 -2.3915  1.6178 
  2.0877  2.0528  2.3053  139.45  0.4224 
  3567.000 
  11.305  131.99  0.2230  0.4490  0.0040 -999.25 -999.25 -999.25 -999.25 
  117.56  3.3120  2.2821  2.3350 -17.404  2.0950  2.1300  0.4402  0.0087 
  11.333  2.2980  131.51  115.96  2.3350  2.1300  2.0950 -2.0553  1.6600 
  2.1392  2.0948  2.3142  142.09  0.4215 
  3567.500 
  11.321  133.14  0.2170  0.4380  0.0050 -999.25 -999.25 -999.25 -999.25 
  116.07  3.4890  2.2920  2.3650 -18.040  2.1380  2.1780  0.4343  0.0137 
  11.341  2.3076  132.91  115.46  2.3650  2.1780  2.1380 -2.6810  1.6827 
  2.1876  2.1378  2.3238  143.63  0.4149 
  3568.000 
  11.337  133.35  0.2120  0.4410  0.0100 -999.25 -999.25 -999.25 -999.25 
  115.96  3.4620  2.3002  2.3570 -18.683  2.1580  2.2140  0.4229  0.0165 
  11.345  2.3164  133.30  114.47  2.3570  2.2140  2.1580 -3.3138  1.6766 
  2.2240  2.1578  2.3326  144.08  0.4023 
  3568.500 
  11.342  133.63  0.2060  0.4320  0.0150 -999.25 -999.25 -999.25 -999.25 
  115.46  3.3990  2.3101  2.3540 -18.720  2.1820  2.2220  0.4146  0.0155 
  11.353  2.3260  133.56  113.97  2.3540  2.2220  2.1820 -3.3405  1.6744 
  2.2321  2.1818  2.3422  144.39  0.3931 
  3569.000 
  11.346  134.11  0.2010  0.4200  0.0170 -999.25 -999.25 -999.25 -999.25 
  114.47  3.3730  2.3184  2.3920 -18.507  2.1910  2.2290  0.4146  0.0134 
  11.361  2.3308  133.99  113.67  2.3920  2.2290  2.1910 -3.1173  1.7031 
  2.2392  2.1908  2.3471  144.89  0.3930 
  3569.500 
  11.355  135.15  0.1950  0.4130  0.0150 -999.25 -999.25 -999.25 -999.25 
  113.97  3.4580  2.3283  2.3940 -17.979  2.2080  2.2400  0.4150  0.0114 
  11.376  2.3302  134.88  113.57  2.3940  2.2400  2.2080 -2.5790  1.7046 
  2.2503  2.2078  2.3466  145.91  0.3935 
  3570.000 
  11.363  136.90  0.1930  0.4150  0.0130 -999.25 -999.25 -999.25 -999.25 
  113.67  3.3460  2.3316  2.3380 -18.053  2.2040  2.2370  0.4118  0.0198 
  11.386  2.3339  136.42  114.06  2.3380  2.2370  2.2040 -2.6274  1.6623 
  2.2473  2.2038  2.3503  147.62  0.3899 
  3570.500 
  11.379  140.33  0.1940  0.4150  0.0110 -999.25 -999.25 -999.25 -999.25 
  113.57  3.2080  2.3299  2.3050 -18.328  2.2040  2.2160  0.4094  0.0358 
  11.391  2.3442  139.33  115.34  2.3050  2.2160  2.2040 -2.8767  1.6374 
  2.2261  2.2038  2.3607  150.80  0.3873 
