~Version Information
VERS.                     2.0: CWLS log ASCII Standard Version 2.00
WRAP.                     YES: Multiple lines per depth step
~Well Information Block
#MNEM.UNIT                               Data Type  Information
#---------                               ---------  -----------
STRT.FT                                   700.0000:
STOP.FT                                  4020.0000:
STEP.FT                                     0.5000:
NULL.                 -999.25                     :
COMP.                                             :COMPANY            
WELL.     MUDDY CREEK A #65-30                    :WELL               
FLD .                                             :FIELD              
CTRY.                                             :COUNTRY            
STAT.                                             :STATE              
LOC .                                             :LOCATION           
UWI .                                             :UNIQUE WELL ID     
SRVC.                                             :Service company    
DATE.                                             :LOG DATE           
~Curve Information
#MNEM.UNIT           API CODE  Curve Description
#---------           --------  -----------------
DEPT.FT                      :   1 DEPTH
CALI.IN                      :   2
GR  .GAPI                    :   3
DPHI.DEC                     :   4
NPHI.DEC                     :   5
DRHO.G/CC                    :   6
KSCI.MD                      :   7
PSCI.POR                     :   8
OSCI.POR                     :   9
WSCI.POR                     :  10
DT  .US/F                    :  11
MSFL.OHMM                    :  12
RHOB.G/C3                    :  13
SFL .OHMM                    :  14
SP  .MV                      :  15
ILD .OHMM                    :  16
ILM .OHMM                    :  17
NPHS.DEC                     :  18
DROS.G/CC                    :  19
CALS.IN                      :  20
ROBS.G/C3                    :  21
GRS .GAPI                    :  22
DTS .US/F                    :  23
RS  .OHMM                    :  24
RM  .OHMM                    :  25
RD  .OHMM                    :  26
SBL .MV                      :  27
SFLC.OHMM                    :  28
ILMC.OHMM                    :  29
ILDC.OHMM                    :  30
ROBC.G/C3                    :  31
GRC .GAPI                    :  32
NPHC.DEC                     :  33
~A
# ...
  1584.500 
  12.781  66.198  0.5180  0.4570  0.0200 -999.25 -999.25 -999.25 -999.25 
  133.25  2.8570  1.7953  1.7260 -64.072  1.6910  1.7710  0.4552  0.0198 
  12.815  1.7917  64.210  133.53  1.7260  1.7710  1.6910 -14.359  1.2600 
  1.7806  1.6921  1.8162  72.218  0.4389 
  1585.000 
  12.955  69.449  0.5290  0.4480  0.0190 -999.25 -999.25 -999.25 -999.25 
  132.35  2.3880  1.7772  1.6480 -63.712  1.6100  1.6580  0.4483  0.0183 
  12.970  1.7754  67.255  132.50  1.6480  1.6580  1.6100 -14.001  1.2030 
  1.6667  1.6111  1.8007  75.937  0.4313 
  1585.500 
  13.042  74.407  0.5350  0.4500  0.0150 -999.25 -999.25 -999.25 -999.25 
  132.45  3.5720  1.7673  1.5690 -62.914  1.5600  1.5770  0.4527  0.0144 
  13.044  1.7665  71.029  132.43  1.5690  1.5770  1.5600 -13.204  1.1454 
  1.5850  1.5612  1.7921  80.347  0.4362 
  1586.000 
  13.057  74.998  0.5380  0.4680  0.0110 -999.25 -999.25 -999.25 -999.25 
  135.12  4.8330  1.7623  1.4990 -61.596  1.5320  1.5150  0.4705  0.0105 
  13.052  1.7623  74.592  134.58  1.4990  1.5150  1.5320 -11.887  1.0943 
  1.5224  1.5331  1.7880  84.393  0.4560 
  1586.500 
  13.017  73.247  0.5380  0.4880  0.0070 -999.25 -999.25 -999.25 -999.25 
  142.83  3.7330  1.7623  1.4740 -60.279  1.5150  1.4990  0.4894  0.0071 
  13.012  1.7626  74.462  141.15  1.4740  1.4990  1.5150 -10.571  1.0760 
  1.5062  1.5161  1.7881  84.162  0.4770 
  1587.000 
  12.965  70.582  0.5360  0.5020  0.0080 -999.25 -999.25 -999.25 -999.25 
  143.72  2.6850  1.7656  1.5070 -59.081  1.5010  1.4960  0.5023  0.0083 
  12.966  1.7662  72.448  143.51  1.5070  1.4960  1.5010 -9.3739  1.1001 
  1.5031  1.5020  1.7915  81.793  0.4914 
  1587.500 
  12.984  69.268  0.5310  0.5060  0.0120 -999.25 -999.25 -999.25 -999.25 
  139.17  2.7780  1.7739  1.7040 -58.242  1.5040  1.5070  0.5040  0.0123 
  12.989  1.7751  70.196  140.33  1.7040  1.5070  1.5040 -8.5360  1.2439 
  1.5142  1.5050  1.8005  79.295  0.4932 
  1588.000 
  13.071  69.739  0.5160  0.4670  0.0170 -999.25 -999.25 -999.25 -999.25 
  138.87  2.6570  1.7986  1.9380 -57.483  1.5240  1.5410  0.4665  0.0172 
  13.073  1.7989  69.403  138.95  1.9380  1.5410  1.5240 -7.7781  1.3621 
  1.5487  1.5251  1.8247  78.563  0.4515 
  1588.500 
  13.126  70.847  0.5090  0.4480  0.0250 -999.25 -999.25 -999.25 -999.25 
  133.92  2.5050  1.8102  2.0660 -57.084  1.5430  1.5690  0.4480  0.0250 
  13.126  1.8102  70.050  135.36  2.0660  1.5690  1.5430 -7.3802  1.4578 
  1.5770  1.5442  1.8362  79.401  0.4309 
  1589.000 
  13.221  71.756  0.5030  0.4350  0.0330 -999.25 -999.25 -999.25 -999.25 
  131.94  2.1470  1.8201  2.1360 -56.564  1.5810  1.5950  0.4353  0.0328 
  13.219  1.8198  71.097  132.56  2.1360  1.5950  1.5810 -6.8613  1.5103 
  1.6035  1.5824  1.8463  80.771  0.4169 
  1589.500 
  13.245  70.679  0.5020  0.4370  0.0400 -999.25 -999.25 -999.25 -999.25 
  132.53  2.4470  1.8217  2.1130 -57.082  1.5840  1.6130  0.4369  0.0397 
  13.244  1.8216  71.467  132.34  2.1130  1.6130  1.5840 -7.3804  1.4930 
  1.6217  1.5854  1.8482  81.241  0.4187 
  1590.000 
  13.185  72.024  0.5080  0.4510  0.0340 -999.25 -999.25 -999.25 -999.25 
  135.90  2.9940  1.8118  2.0360 -57.480  1.5870  1.6100  0.4500  0.0344 
  13.189  1.8125  71.031  134.73  2.0360  1.6100  1.5870 -7.7795  1.4353 
  1.6186  1.5884  1.8388  80.637  0.4333 
  1590.500 
  12.966  73.290  0.5160  0.4630  0.0160 -999.25 -999.25 -999.25 -999.25 
  135.20  3.0690  1.7986  1.8650 -57.878  1.5870  1.5840  0.4619  0.0177 
  12.986  1.7998  72.348  135.45  1.8650  1.5840  1.5870 -8.1785  1.3077 
  1.5920  1.5881  1.8252  81.721  0.4464 
  1591.000 
  12.838  80.987  0.5240  0.4760  0.0040 -999.25 -999.25 -999.25 -999.25 
  133.91  4.0480  1.7854  1.7010 -57.997  1.5780  1.5640  0.4745  0.0054 
  12.853  1.7870  75.210  134.41  1.7010  1.5640  1.5780 -8.2986  1.2417 
  1.5715  1.5790  1.8116  84.669  0.4603 
  1591.500 
  12.679  86.858  0.5320  0.4830  0.0210 -999.25 -999.25 -999.25 -999.25 
  134.70  3.1850  1.7722  1.6190 -57.837  1.5520  1.5520  0.4820  0.0186 
  12.702  1.7741  82.414  134.39  1.6190  1.5520  1.5520 -8.1397  1.1819 
  1.5592  1.5528  1.7980  92.423  0.4686 
  1592.000 
  12.649  91.181  0.5400  0.4710  0.0310 -999.25 -999.25 -999.25 -999.25 
  136.88  2.5050  1.7590  1.5670 -57.437  1.5410  1.5470  0.4730  0.0293 
  12.654  1.7612  87.882  135.97  1.5670  1.5470  1.5410 -7.7408  1.1439 
  1.5540  1.5417  1.7848  98.434  0.4586 
  1592.500 
  12.619  94.114  0.5250  0.4600  0.0290 -999.25 -999.25 -999.25 -999.25 
  138.26  4.0240  1.7838  1.6920 -56.359  1.5410  1.5410  0.4621  0.0294 
  12.625  1.7790  91.857  137.65  1.6920  1.5410  1.5410 -6.6639  1.2352 
  1.5479  1.5417  1.8025  102.81  0.4464 
  1593.000 
  12.626  97.444  0.5100  0.4470  0.0180 -999.25 -999.25 -999.25 -999.25 
  140.14  3.2860  1.8085  1.7430 -55.281  1.5520  1.5360  0.4498  0.0204 
  12.624  1.8032  94.860  139.28  1.7430  1.5360  1.5520 -5.5870  1.2724 
  1.5429  1.5527  1.8267  106.17  0.4328 
  1593.500 
  12.646  100.69  0.4990  0.4410  0.0120 -999.25 -999.25 -999.25 -999.25 
  140.13  2.6840  1.8267  1.7720 -55.001  1.5750  1.5670  0.4424  0.0134 
  12.641  1.8223  98.152  140.13  1.7720  1.5670  1.5750 -5.3081  1.2936 
  1.5742  1.5757  1.8459  109.90  0.4246 
  1594.000 
  12.717  103.91  0.4990  0.4380  0.0110 -999.25 -999.25 -999.25 -999.25 
  137.66  3.8830  1.8267  1.8650 -54.920  1.6050  1.6170  0.4388  0.0113 
  12.698  1.8267  101.37  138.88  1.8650  1.6170  1.6050 -5.2282  1.3077 
  1.6248  1.6058  1.8505  113.68  0.4205 
  1594.500 
  12.772  107.36  0.4970  0.4370  0.0150 -999.25 -999.25 -999.25 -999.25 
  134.99  5.6180  1.8300  2.0260 -55.079  1.6110  1.6350  0.4373  0.0138 
  12.756  1.8290  104.61  136.35  2.0260  1.6350  1.6110 -5.3883  1.4279 
  1.6430  1.6119  1.8532  117.48  0.4189 
  1595.000 
  12.799  110.33  0.4910  0.4420  0.0210 -999.25 -999.25 -999.25 -999.25 
  134.49  4.0410  1.8399  2.1290 -54.839  1.5760  1.6110  0.4404  0.0191 
  12.791  1.8368  107.95  134.75  2.1290  1.6110  1.5760 -5.1494  1.5050 
  1.6189  1.5769  1.8611  121.33  0.4224 
  1595.500 
  12.802  110.60  0.4880  0.4540  0.0270 -999.25 -999.25 -999.25 -999.25 
  136.47  2.9070  1.8448  2.0920 -54.239  1.5360  1.5820  0.4500  0.0250 
  12.801  1.8431  110.38  135.39  2.0920  1.5820  1.5360 -4.5505  1.4773 
  1.5896  1.5369  1.8675  124.10  0.4330 
  1596.000 
  12.778  110.16  0.4870  0.4770  0.0290 -999.25 -999.25 -999.25 -999.25 
  138.54  9.3940  1.8465  2.0560 -53.959  1.5130  1.5560  0.4687  0.0283 
  12.787  1.8459  110.52  137.37  2.0560  1.5560  1.5130 -4.2716  1.4503 
  1.5633  1.5138  1.8702  124.21  0.4539 
  1596.500 
  12.742  109.16  0.4920  0.4970  0.0250 -999.25 -999.25 -999.25 -999.25 
  141.11  3.7260  1.8382  1.9570 -54.716  1.4970  1.5250  0.4893  0.0265 
  12.756  1.8414  109.98  139.61  1.9570  1.5250  1.4970 -5.0297  1.3763 
  1.5320  1.4978  1.8655  123.51  0.4768 
  1597.000 
  12.714  107.89  0.5020  0.5200  0.0190 -999.25 -999.25 -999.25 -999.25 
  143.29  4.3800  1.8217  1.7850 -55.354  1.4890  1.4910  0.5106  0.0215 
  12.725  1.8285  108.94  141.98  1.7850  1.4910  1.4890 -5.6688  1.3031 
  1.4976  1.4897  1.8525  122.25  0.5005 
  1597.500 
  12.694  107.45  0.5030  0.5290  0.0150 -999.25 -999.25 -999.25 -999.25 
  144.07  3.6740  1.8201  1.5440 -55.952  1.4940  1.4780  0.5251  0.0167 
  12.703  1.8208  107.81  143.59  1.5440  1.4780  1.4940 -6.2678  1.1271 
  1.4845  1.4947  1.8447  120.91  0.5166 
  1598.000 
  12.669  106.25  0.4990  0.4860  0.0180 -999.25 -999.25 -999.25 -999.25 
  142.19  2.9490  1.8267  1.4670 -56.230  1.5450  1.4940  0.5057  0.0166 
  12.680  1.8236  107.25  143.39  1.4670  1.4940  1.5450 -6.5469  1.0709 
  1.5006  1.5457  1.8474  120.22  0.4950 
  1598.500 
  12.655  103.63  0.4910  0.4470  0.0210 -999.25 -999.25 -999.25 -999.25 
  139.42  2.9570  1.8399  1.6260 -56.429  1.6020  1.5820  0.4658  0.0195 
  12.662  1.8335  105.85  141.24  1.6260  1.5820  1.6020 -6.7470  1.1870 
  1.5894  1.6028  1.8572  118.58  0.4506 
