~Version Information
VERS.                     2.0: CWLS log ASCII Standard Version 2.00
WRAP.                     YES: Multiple lines per depth step
~Well Information Block
#MNEM.UNIT                               Data Type  Information
#---------                               ---------  -----------
STRT.FT                                   700.0000:
STOP.FT                                  4020.0000:
STEP.FT                                     0.5000:
NULL.                 -999.25                     :
COMP.                                             :COMPANY            
WELL.     MUDDY CREEK A #65-30                    :WELL               
FLD .                                             :FIELD              
CTRY.                                             :COUNTRY            
STAT.                                             :STATE              
LOC .                                             :LOCATION           
UWI .                                             :UNIQUE WELL ID     
SRVC.                                             :Service company    
DATE.                                             :LOG DATE           
~Curve Information
#MNEM.UNIT           API CODE  Curve Description
#---------           --------  -----------------
DEPT.FT                      :   1 DEPTH
CALI.IN                      :   2
GR  .GAPI                    :   3
DPHI.DEC                     :   4
NPHI.DEC                     :   5
DRHO.G/CC                    :   6
KSCI.MD                      :   7
PSCI.POR                     :   8
OSCI.POR                     :   9
WSCI.POR                     :  10
DT  .US/F                    :  11
MSFL.OHMM                    :  12
RHOB.G/C3                    :  13
SFL .OHMM                    :  14
SP  .MV                      :  15
ILD .OHMM                    :  16
ILM .OHMM                    :  17
NPHS.DEC                     :  18
DROS.G/CC                    :  19
CALS.IN                      :  20
ROBS.G/C3                    :  21
GRS .GAPI                    :  22
DTS .US/F                    :  23
RS  .OHMM                    :  24
RM  .OHMM                    :  25
RD  .OHMM                    :  26
SBL .MV                      :  27
SFLC.OHMM                    :  28
ILMC.OHMM                    :  29
ILDC.OHMM                    :  30
ROBC.G/C3                    :  31
GRC .GAPI                    :  32
NPHC.DEC                     :  33
~A
# ...
  3121.500 
  15.952  84.288  0.2560  0.4070  0.0270 -999.25 -999.25 -999.25 -999.25 
  127.25  3.8420  2.2276  2.0070 -40.402  2.1090  2.2030  0.4074  0.0246 
  15.917  2.2216  86.104  146.14  2.0070  2.2030  2.1090 -18.414  1.4136 
  2.2247  2.1169  2.2587  103.74  0.3866 
  3122.000 
  15.865  81.942  0.2650  0.4080  0.0210 -999.25 -999.25 -999.25 -999.25 
  138.68  4.0840  2.2128  2.3470 -41.672  2.1140  2.2120  0.4022  0.0156 
  15.837  2.2108  83.945  181.37  2.3470  2.2120  2.1140 -19.689  1.6691 
  2.2339  2.1218  2.2478  100.99  0.3808 
  3122.500 
  15.793  81.065  0.2680  0.3930  0.0070 -999.25 -999.25 -999.25 -999.25 
  150.10  4.4050  2.2078  2.7890 -42.941  2.1380  2.2630  0.3849  0.0037 
  15.767  2.2157  81.821  196.48  2.7890  2.2630  2.1380 -20.964  2.0043 
  2.2860  2.1458  2.2524  98.296  0.3615 
  3123.000 
  15.721  81.223  0.2550  0.3710 -0.0020 -999.25 -999.25 -999.25 -999.25 
  201.37  4.5990  2.2293  2.9700 -44.330  2.1640  2.3050  0.3584 -0.0013 
  15.692  2.2333  81.085  185.01  2.9700  2.3050  2.1640 -22.359  2.1425 
  2.3289  2.1719  2.2698  97.269  0.3320 
  3123.500 
  15.638  82.256  0.2480  0.3350  0.0000 -999.25 -999.25 -999.25 -999.25 
  192.74  5.1720  2.2408  3.0040 -45.245  2.2520  2.3490  0.3324  0.0020 
  15.626  2.2435  81.347  159.87  3.0040  2.3490  2.2520 -23.280  2.1685 
  2.3739  2.2604  2.2798  97.456  0.3000 
  3124.000 
  15.602  83.130  0.2430  0.3270  0.0060 -999.25 -999.25 -999.25 -999.25 
  177.96  5.9440  2.2491  2.9560 -45.955  2.3110  2.3670  0.3267  0.0066 
  15.601  2.2480  82.353  142.43  2.9560  2.3670  2.3110 -23.996  2.1318 
  2.3923  2.3198  2.2842  98.612  0.2939 
  3124.500 
  15.598  82.532  0.2450  0.3260  0.0080 -999.25 -999.25 -999.25 -999.25 
  140.23  6.5520  2.2458  2.8770 -46.622  2.3460  2.4430  0.3257  0.0068 
  15.603  2.2477  83.069  147.24  2.8770  2.4430  2.3460 -24.669  2.0714 
  2.4699  2.3550  2.2839  99.472  0.2928 
  3125.000 
  15.614  78.474  0.2410  0.3250  0.0040 -999.25 -999.25 -999.25 -999.25 
  145.26  6.1020  2.2524  2.8460 -46.825  2.3810  2.6010  0.3231  0.0029 
  15.617  2.2555  82.151  153.93  2.8460  2.6010  2.3810 -24.877  2.0478 
  2.6315  2.3903  2.2917  98.401  0.2900 
  3125.500 
  15.625  74.814  0.2340  0.3180  0.0000 -999.25 -999.25 -999.25 -999.25 
  150.30  5.1540  2.2639  2.9320 -46.696  2.4270  2.7300  0.3112 -0.0010 
  15.618  2.2781  78.162  158.61  2.9320  2.7300  2.4270 -24.754  2.1134 
  2.7637  2.4367  2.3143  93.625  0.2771 
  3126.000 
  15.597  76.843  0.2000  0.2910 -0.0040 -999.25 -999.25 -999.25 -999.25 
  160.71  4.8520  2.3200  3.1160 -46.484  2.4860  2.8850  0.2814 -0.0038 
  15.590  2.3331  74.969  149.32  3.1160  2.8850  2.4860 -24.548  2.2543 
  2.9227  2.4961  2.3693  89.752  0.2457 
  3126.500 
  15.569  80.460  0.1660  0.2500 -0.0030 -999.25 -999.25 -999.25 -999.25 
  153.86  5.0560  2.3761  3.4750 -44.923  2.5010  3.0050  0.2421 -0.0009 
  15.558  2.3885  77.088  130.00  3.4750  3.0050  2.5010 -22.993  2.5305 
  3.0459  2.5111  2.4245  92.229  0.2053 
  3127.000 
  15.518  79.226  0.1310  0.2130  0.0070 -999.25 -999.25 -999.25 -999.25 
  136.56  5.2790  2.4339  4.4440 -42.272  2.4980  3.0620  0.2058  0.0095 
  15.466  2.4448  80.387  100.48  4.4440  3.0620  2.4980 -20.348  3.2836 
  3.1046  2.5079  2.4805  95.998  0.1691 
  3127.500 
  15.251  77.713  0.0970  0.1760  0.0200 -999.25 -999.25 -999.25 -999.25 
  106.61  5.6120  2.4900  4.6800 -38.748  2.5110  3.0180  0.1758  0.0235 
  15.182  2.4833  79.150  71.670  4.6800  3.0180  2.5110 -16.830  3.4685 
  3.0597  2.5201  2.5180  93.975  0.1400 
  3128.000 
  14.857  78.230  0.1200  0.1750  0.0400 -999.25 -999.25 -999.25 -999.25 
  71.709  5.3320  2.4520  4.4390 -38.622  2.5080  2.9270  0.1800  0.0398 
  14.808  2.4463  77.735  72.740  4.4390  2.9270  2.5080 -16.709  3.2797 
  2.9652  2.5160  2.4797  91.576  0.1440 
  3128.500 
  14.547  80.814  0.1420  0.2070  0.0390 -999.25 -999.25 -999.25 -999.25 
  71.411  4.2950  2.4157  4.1730 -40.773  2.4640  2.7710  0.2100  0.0379 
  14.525  2.4105  78.315  86.868  4.1730  2.7710  2.4640 -18.866  3.0719 
  2.8037  2.4710  2.4427  91.697  0.1732 
  3129.000 
  14.384  85.904  0.1650  0.2290  0.0310 -999.25 -999.25 -999.25 -999.25 
  86.383  4.0660  2.3778  3.5060 -40.848  2.4020  2.5950  0.2317  0.0305 
  14.365  2.3734  80.937  97.113  3.5060  2.5950  2.4020 -18.947  2.5544 
  2.6229  2.4082  2.4051  94.437  0.1947 
  3129.500 
  14.228  89.165  0.1870  0.2520  0.0270 -999.25 -999.25 -999.25 -999.25 
  97.090  5.9470  2.3414  3.1420 -40.519  2.3200  2.4210  0.2550  0.0265 
  14.218  2.3377  85.955  109.00  3.1420  2.4210  2.3200 -18.624  2.2743 
  2.4447  2.3254  2.3687  99.961  0.2182 
  3130.000 
  14.125  90.596  0.2100  0.2820  0.0220 -999.25 -999.25 -999.25 -999.25 
  109.19  5.9870  2.3035  2.8720 -40.029  2.2620  2.3010  0.2846  0.0223 
  14.118  2.2999  89.175  122.64  2.8720  2.3010  2.2620 -18.140  2.0676 
  2.3220  2.2669  2.3305  103.47  0.2488 
  3130.500 
  14.041  91.112  0.2370  0.3140  0.0260 -999.25 -999.25 -999.25 -999.25 
  123.07  4.5350  2.2589  2.6270 -38.300  2.1980  2.2100  0.3143  0.0267 
  14.036  2.2594  90.593  129.78  2.6270  2.2100  2.1980 -16.417  1.8811 
  2.2291  2.2025  2.2896  104.92  0.2802 
  3131.000 
  13.962  93.498  0.2330  0.3190  0.0380 -999.25 -999.25 -999.25 -999.25 
  130.11  5.0630  2.2656  2.3670 -34.858  2.1230  2.1830  0.3190  0.0386 
  13.960  2.2657  91.107  139.67  2.3670  2.1830  2.1230 -12.980  1.6842 
  2.2014  2.1270  2.2956  105.34  0.2852 
  3131.500 
  13.914  99.185  0.2310  0.3190  0.0520 -999.25 -999.25 -999.25 -999.25 
  140.29  5.5110  2.2689  2.0930 -33.098  2.1600  2.2040  0.3195  0.0520 
  13.914  2.2688  93.452  149.70  2.0930  2.2040  2.1600 -11.226  1.4780 
  2.2226  2.1641  2.2985  107.93  0.2858 
  3132.000 
  13.922  99.303  0.2320  0.3400  0.0520 -999.25 -999.25 -999.25 -999.25 
  150.48  4.3840  2.2672  1.8790 -32.207  2.2610  2.2700  0.3401  0.0519 
  13.922  2.2672  99.186  179.55  1.8790  2.2700  2.2610 -10.341  1.3181 
  2.2897  2.2655  2.2969  114.58  0.3082 
  3132.500 
  13.898  94.728  0.2310  0.3700  0.0250 -999.25 -999.25 -999.25 -999.25 
  182.51  2.8720  2.2689  1.8460 -31.960  2.3240  2.4040  0.3700  0.0250 
  13.898  2.2689  99.195  177.82  1.8460  2.4040  2.3240 -10.100  1.2935 
  2.4260  2.3287  2.2985  114.52  0.3445 
  3133.000 
  13.862  88.044  0.2250  0.3640  0.0020 -999.25 -999.25 -999.25 -999.25 
  177.25  3.0260  2.2788  2.0200 -32.957  2.3890  2.5790  0.3640  0.0020 
  13.862  2.2788  94.490  171.86  2.0200  2.5790  2.3890 -11.103  1.4234 
  2.6042  2.3938  2.3082  109.00  0.3378 
  3133.500 
  13.786  81.361  0.1860  0.2790 -0.0110 -999.25 -999.25 -999.25 -999.25 
  171.10  6.3830  2.3431  3.4540 -34.339  2.5510  2.7960  0.2790 -0.0110 
  13.786  2.3431  87.727  164.52  3.4540  2.7960  2.5510 -12.490  2.5143 
  2.8253  2.5563  2.3722  101.02  0.2429 
  3134.000 
  13.647  75.154  0.1460  0.2000 -0.0050 -999.25 -999.25 -999.25 -999.25 
  163.47  12.775  2.4091  4.0840 -37.489  2.6140  2.9240  0.2000 -0.0050 
  13.647  2.4091  80.993  132.46  4.0840  2.9240  2.6140 -15.646  3.0026 
  2.9552  2.6191  2.4376  92.964  0.1632 
  3134.500 
  13.543  74.040  0.1060  0.1890  0.0150 -999.25 -999.25 -999.25 -999.25 
  126.83  11.085  2.4751  4.3880 -39.355  2.6930  2.9790  0.1890  0.0150 
  13.543  2.4751  75.075  128.89  4.3880  2.9790  2.6930 -17.518  3.2398 
  3.0107  2.6981  2.5031  85.959  0.1524 
  3135.000 
  13.547  75.351  0.1270  0.1990  0.0430 -999.25 -999.25 -999.25 -999.25 
  129.31  7.3160  2.4405  4.3820 -41.624  2.7190  2.9910  0.1990  0.0430 
  13.547  2.4405  74.149  148.59  4.3820  2.9910  2.7190 -19.793  3.2351 
  3.0230  2.7242  2.4685  84.907  0.1622 
  3135.500 
  13.563  79.169  0.1820  0.2200  0.0680 -999.25 -999.25 -999.25 -999.25 
  152.95  7.6100  2.3497  4.1330 -43.370  2.7190  3.0020  0.2200  0.0680 
  13.563  2.3497  75.713  168.50  4.1330  3.0020  2.7190 -21.545  3.0408 
  3.0343  2.7243  2.3778  86.731  0.1828 
