~Version Information
VERS.                     2.0: CWLS log ASCII Standard Version 2.00
WRAP.                     YES: Multiple lines per depth step
~Well Information Block
#MNEM.UNIT                               Data Type  Information
#---------                               ---------  -----------
STRT.FT                                   700.0000:
STOP.FT                                  4020.0000:
STEP.FT                                     0.5000:
NULL.                 -999.25                     :
COMP.                                             :COMPANY            
WELL.     MUDDY CREEK A #65-30                    :WELL               
FLD .                                             :FIELD              
CTRY.                                             :COUNTRY            
STAT.                                             :STATE              
LOC .                                             :LOCATION           
UWI .                                             :UNIQUE WELL ID     
SRVC.                                             :Service company    
DATE.                                             :LOG DATE           
~Curve Information
#MNEM.UNIT           API CODE  Curve Description
#---------           --------  -----------------
DEPT.FT                      :   1 DEPTH
CALI.IN                      :   2
GR  .GAPI                    :   3
DPHI.DEC                     :   4
NPHI.DEC                     :   5
DRHO.G/CC                    :   6
KSCI.MD                      :   7
PSCI.POR                     :   8
OSCI.POR                     :   9
WSCI.POR                     :  10
DT  .US/F                    :  11
MSFL.OHMM                    :  12
RHOB.G/C3                    :  13
SFL .OHMM                    :  14
SP  .MV                      :  15
ILD .OHMM                    :  16
ILM .OHMM                    :  17
NPHS.DEC                     :  18
DROS.G/CC                    :  19
CALS.IN                      :  20
ROBS.G/C3                    :  21
GRS .GAPI                    :  22
DTS .US/F                    :  23
RS  .OHMM                    :  24
RM  .OHMM                    :  25
RD  .OHMM                    :  26
SBL .MV                      :  27
SFLC.OHMM                    :  28
ILMC.OHMM                    :  29
ILDC.OHMM                    :  30
ROBC.G/C3                    :  31
GRC .GAPI                    :  32
NPHC.DEC                     :  33
~A
# ...
  2469.000 
  10.750  90.618  0.5000  0.4430 -0.0110 -999.25 -999.25 -999.25 -999.25 
  139.18  2.0620  1.8250  0.8810 -51.803  0.8760  0.8990  0.4415 -0.0110 
  10.751  1.8244  91.400  140.96  0.8810  0.8990  0.8760 -21.100  0.6431 
  0.9003  0.8759  1.8369  97.062  0.4227 
  2469.500 
  10.753  89.934  0.5010  0.4390 -0.0110 -999.25 -999.25 -999.25 -999.25 
  136.91  2.1160  1.8234  0.8840 -52.789  0.8780  0.8970  0.4419 -0.0099 
  10.756  1.8245  90.653  139.18  0.8840  0.8970  0.8780 -22.092  0.6453 
  0.8983  0.8779  1.8370  96.281  0.4231 
  2470.000 
  10.760  85.353  0.4990  0.4470 -0.0080 -999.25 -999.25 -999.25 -999.25 
  135.23  2.2530  1.8267  0.9030 -52.844  0.8800  0.8960  0.4502 -0.0059 
  10.765  1.8284  89.987  136.91  0.9030  0.8960  0.8800 -22.154  0.6592 
  0.8973  0.8799  1.8410  95.602  0.4323 
  2470.500 
  10.775  83.198  0.4960  0.4560 -0.0020 -999.25 -999.25 -999.25 -999.25 
  134.74  2.2540  1.8316  0.9440 -52.871  0.9100  0.8980  0.4546 -0.0003 
  10.770  1.8339  85.776  135.23  0.9440  0.8980  0.9100 -22.187  0.6891 
  0.8993  0.9099  1.8465  91.143  0.4372 
  2471.000 
  10.762  84.819  0.4920  0.4520  0.0030 -999.25 -999.25 -999.25 -999.25 
  135.03  2.3010  1.8382  0.9800 -52.491  0.9410  0.9070  0.4527  0.0033 
  10.771  1.8410  83.430  134.74  0.9800  0.9070  0.9410 -21.814  0.7154 
  0.9083  0.9409  1.8536  88.653  0.4351 
  2471.500 
  10.789  88.507  0.4870  0.4540  0.0040 -999.25 -999.25 -999.25 -999.25 
  136.03  2.1930  1.8465  1.0400 -51.477  0.9750  0.9300  0.4563  0.0030 
  10.791  1.8498  84.619  135.03  1.0400  0.9300  0.9750 -20.806  0.7592 
  0.9314  0.9749  1.8625  89.971  0.4392 
  2472.000 
  10.796  89.970  0.4810  0.4610  0.0010 -999.25 -999.25 -999.25 -999.25 
  138.11  2.2180  1.8564  1.0860 -49.472  1.0220  0.9620  0.4643 -0.0013 
  10.796  1.8623  87.996  136.03  1.0860  0.9620  1.0220 -18.807  0.7928 
  0.9635  1.0219  1.8751  93.574  0.4480 
  2472.500 
  10.795  87.774  0.4700  0.4710 -0.0060 -999.25 -999.25 -999.25 -999.25 
  141.67  2.3110  1.8745  1.1190 -46.902  1.0270  0.9920  0.4761 -0.0041 
  10.801  1.8819  89.745  138.11  1.1190  0.9920  1.0270 -16.244  0.8169 
  0.9936  1.0269  1.8947  95.449  0.4612 
  2473.000 
  10.814  84.824  0.4560  0.4870  0.0000 -999.25 -999.25 -999.25 -999.25 
  145.04  2.1670  1.8976  1.0890 -44.656  1.0120  0.9940  0.4927  0.0028 
  10.845  1.8986  88.146  141.67  1.0890  0.9940  1.0120 -14.004  0.7950 
  0.9957  1.0119  1.9117  93.873  0.4796 
  2473.500 
  10.913  81.516  0.4540  0.5050  0.0090 -999.25 -999.25 -999.25 -999.25 
  143.85  1.6590  1.9009  1.0730 -44.080  0.9910  0.9850  0.5065  0.0093 
  10.911  1.8968  85.369  145.04  1.0730  0.9850  0.9910 -13.435  0.7833 
  0.9867  0.9909  1.9103  91.097  0.4950 
  2474.000 
  10.908  80.513  0.4620  0.5100  0.0100 -999.25 -999.25 -999.25 -999.25 
  141.09  2.1470  1.8877  1.0500 -45.224  0.9530  0.9760  0.5082  0.0079 
  10.906  1.8758  82.178  143.85  1.0500  0.9760  0.9530 -14.585  0.7665 
  0.9776  0.9529  1.8893  87.679  0.4969 
  2474.500 
  10.903  81.816  0.4860  0.5040  0.0030 -999.25 -999.25 -999.25 -999.25 
  138.51  2.4470  1.8481  1.0190 -48.145  0.9120  0.9430  0.5011 -0.0002 
  10.897  1.8379  80.729  141.09  1.0190  0.9430  0.9120 -17.513  0.7439 
  0.9445  0.9119  1.8513  86.109  0.4889 
  2475.000 
  10.882  83.994  0.5070  0.4940 -0.0080 -999.25 -999.25 -999.25 -999.25 
  138.51  2.6230  1.8135  0.9510 -51.393  0.8740  0.9200  0.4914 -0.0100 
  10.882  1.8120  81.515  138.51  0.9510  0.9200  0.8740 -20.767  0.6942 
  0.9214  0.8739  1.8253  86.908  0.4782 
  2475.500 
  10.881  89.034  0.5100  0.4850 -0.0150 -999.25 -999.25 -999.25 -999.25 
  139.41  2.5640  1.8085  0.8700 -52.887  0.8480  0.8940  0.4822 -0.0139 
  10.881  1.8173  83.458  138.51  0.8700  0.8940  0.8480 -22.268  0.6351 
  0.8954  0.8480  1.8306  88.976  0.4680 
  2476.000 
  10.880  93.955  0.4910  0.4750 -0.0110 -999.25 -999.25 -999.25 -999.25 
  141.79  2.1770  1.8399  0.8560 -52.873  0.8240  0.8840  0.4728 -0.0088 
  10.882  1.8484  87.716  139.41  0.8560  0.8840  0.8240 -22.260  0.6249 
  0.8853  0.8240  1.8617  93.520  0.4575 
  2476.500 
  10.888  96.570  0.4720  0.4670 -0.0030 -999.25 -999.25 -999.25 -999.25 
  141.49  2.2750  1.8712  0.8700 -51.976  0.8040  0.8640  0.4667 -0.0019 
  10.889  1.8730  92.592  141.79  0.8700  0.8640  0.8040 -21.370  0.6351 
  0.8653  0.8040  1.8863  98.739  0.4508 
  2477.000 
  10.891  95.885  0.4680  0.4660  0.0010 -999.25 -999.25 -999.25 -999.25 
  140.90  2.4170  1.8778  0.9370 -50.763  0.7950  0.8450  0.4665  0.0013 
  10.888  1.8761  95.806  141.49  0.9370  0.8450  0.7950 -20.163  0.6840 
  0.8462  0.7950  1.8894  102.16  0.4505 
  2477.500 
  10.878  93.452  0.4720  0.4680  0.0020 -999.25 -999.25 -999.25 -999.25 
  140.60  2.5820  1.8712  0.9710 -51.028  0.7890  0.8300  0.4670  0.0010 
  10.874  1.8683  96.096  140.90  0.9710  0.8300  0.7890 -20.434  0.7088 
  0.8312  0.7890  1.8815  102.43  0.4511 
  2478.000 
  10.861  89.826  0.4790  0.4640 -0.0020 -999.25 -999.25 -999.25 -999.25 
  140.80  2.5280  1.8597  0.9430 -51.330  0.7830  0.8220  0.4615 -0.0030 
  10.857  1.8523  94.238  140.60  0.9430  0.8220  0.7830 -20.743  0.6884 
  0.8231  0.7830  1.8655  100.40  0.4450 
  2478.500 
  10.844  85.683  0.4970  0.4540 -0.0060 -999.25 -999.25 -999.25 -999.25 
  142.88  2.6320  1.8300  0.9170 -52.064  0.7770  0.8140  0.4538 -0.0072 
  10.837  1.8256  91.053  140.80  0.9170  0.8140  0.7770 -21.483  0.6694 
  0.8151  0.7770  1.8386  96.947  0.4363 
  2479.000 
  10.816  82.971  0.5080  0.4530 -0.0110 -999.25 -999.25 -999.25 -999.25 
  143.78  2.6530  1.8118  0.8990 -53.200  0.7710  0.8130  0.4544 -0.0115 
  10.813  1.8091  87.149  142.88  0.8990  0.8130  0.7710 -22.626  0.6563 
  0.8141  0.7710  1.8220  92.722  0.4370 
  2479.500 
  10.803  81.411  0.5150  0.4590 -0.0130 -999.25 -999.25 -999.25 -999.25 
  143.98  2.5340  1.8003  0.8970 -53.938  0.7700  0.8160  0.4613 -0.0130 
  10.801  1.8003  83.972  143.78  0.8970  0.8160  0.7700 -23.370  0.6548 
  0.8171  0.7700  1.8130  89.309  0.4447 
  2480.000 
  10.794  82.874  0.5150  0.4690 -0.0130 -999.25 -999.25 -999.25 -999.25 
  143.19  2.5080  1.8003  0.8830 -54.606  0.7680  0.8200  0.4710 -0.0126 
  10.796  1.8010  82.011  143.98  0.8830  0.8200  0.7680 -24.045  0.6446 
  0.8211  0.7680  1.8137  87.211  0.4554 
  2480.500 
  10.805  84.972  0.5130  0.4780 -0.0110 -999.25 -999.25 -999.25 -999.25 
  142.40  2.6540  1.8036  0.8790 -54.659  0.7810  0.8360  0.4784 -0.0104 
  10.807  1.8078  82.289  143.19  0.8790  0.8360  0.7810 -24.104  0.6417 
  0.8372  0.7810  1.8206  87.536  0.4637 
  2481.000 
  10.816  88.223  0.5010  0.4800 -0.0080 -999.25 -999.25 -999.25 -999.25 
  140.72  2.6380  1.8234  0.9060 -54.572  0.7980  0.8510  0.4821 -0.0078 
  10.819  1.8267  84.101  142.40  0.9060  0.8510  0.7980 -24.024  0.6614 
  0.8522  0.7980  1.8396  89.495  0.4678 
  2481.500 
  10.831  88.970  0.4910  0.4900 -0.0070 -999.25 -999.25 -999.25 -999.25 
  138.94  2.6400  1.8399  0.9670 -54.516  0.8240  0.8580  0.4890 -0.0076 
  10.828  1.8412  86.823  140.72  0.9670  0.8580  0.8240 -23.974  0.7059 
  0.8592  0.8240  1.8541  92.418  0.4755 
  2482.000 
  10.818  87.610  0.4870  0.4850 -0.0100 -999.25 -999.25 -999.25 -999.25 
  137.45  2.4570  1.8465  0.9730 -54.486  0.8370  0.8680  0.4835 -0.0104 
  10.816  1.8458  88.637  138.94  0.9730  0.8680  0.8370 -23.951  0.7103 
  0.8693  0.8369  1.8587  94.312  0.4693 
  2482.500 
  10.806  85.295  0.4890  0.4770 -0.0120 -999.25 -999.25 -999.25 -999.25 
  136.96  2.5360  1.8432  0.9370 -54.435  0.8470  0.8800  0.4779 -0.0122 
  10.804  1.8422  88.238  137.45  0.9370  0.8800  0.8470 -23.906  0.6840 
  0.8813  0.8469  1.8550  93.853  0.4632 
  2483.000 
  10.793  84.571  0.4920  0.4820 -0.0130 -999.25 -999.25 -999.25 -999.25 
  137.46  2.4340  1.8382  0.9120 -54.215  0.8520  0.8870  0.4847 -0.0128 
  10.787  1.8385  86.399  136.96  0.9120  0.8870  0.8520 -23.692  0.6658 
  0.8883  0.8519  1.8512  91.852  0.4707 
