~Version Information
VERS.                     2.0: CWLS log ASCII Standard Version 2.00
WRAP.                     YES: Multiple lines per depth step
~Well Information Block
#MNEM.UNIT                               Data Type  Information
#---------                               ---------  -----------
STRT.FT                                   700.0000:
STOP.FT                                  4020.0000:
STEP.FT                                     0.5000:
NULL.                 -999.25                     :
COMP.                                             :COMPANY            
WELL.     MUDDY CREEK A #65-30                    :WELL               
FLD .                                             :FIELD              
CTRY.                                             :COUNTRY            
STAT.                                             :STATE              
LOC .                                             :LOCATION           
UWI .                                             :UNIQUE WELL ID     
SRVC.                                             :Service company    
DATE.                                             :LOG DATE           
~Curve Information
#MNEM.UNIT           API CODE  Curve Description
#---------           --------  -----------------
DEPT.FT                      :   1 DEPTH
CALI.IN                      :   2
GR  .GAPI                    :   3
DPHI.DEC                     :   4
NPHI.DEC                     :   5
DRHO.G/CC                    :   6
KSCI.MD                      :   7
PSCI.POR                     :   8
OSCI.POR                     :   9
WSCI.POR                     :  10
DT  .US/F                    :  11
MSFL.OHMM                    :  12
RHOB.G/C3                    :  13
SFL .OHMM                    :  14
SP  .MV                      :  15
ILD .OHMM                    :  16
ILM .OHMM                    :  17
NPHS.DEC                     :  18
DROS.G/CC                    :  19
CALS.IN                      :  20
ROBS.G/C3                    :  21
GRS .GAPI                    :  22
DTS .US/F                    :  23
RS  .OHMM                    :  24
RM  .OHMM                    :  25
RD  .OHMM                    :  26
SBL .MV                      :  27
SFLC.OHMM                    :  28
ILMC.OHMM                    :  29
ILDC.OHMM                    :  30
ROBC.G/C3                    :  31
GRC .GAPI                    :  32
NPHC.DEC                     :  33
~A
# ...
   714.500 
  10.580  98.029  0.2370  0.4930  0.0290 -999.25 -999.25 -999.25 -999.25 
  116.48 -999.25  2.2589  4.6410 -33.459  124.33 -999.25  0.4100  0.0160 
  10.590  2.1732  98.029  161.09  4.6410 -999.25  124.33 -0.0590  3.4379 
 -999.25  123.03  2.1846  103.59  0.3876 
   715.000 
  10.589  98.838  0.2680  0.4570  0.0220 -999.25 -999.25 -999.25 -999.25 
  119.25 -999.25  2.2078  5.8270 -36.542  15.077 -999.25  0.3660  0.0160 
  10.595  2.1715  98.838  160.40  5.8270 -999.25  15.077 -3.1420  4.3740 
 -999.25  15.058  2.1829  104.46  0.3387 
   715.500 
  10.590  96.544  0.2890  0.4100  0.0160 -999.25 -999.25 -999.25 -999.25 
  161.09 -999.25  2.1732  6.6370 -39.785  1.8280 -999.25  0.3560  0.0200 
  10.592  2.1682  96.544  155.25  6.6370 -999.25  1.8280 -6.3850  5.0196 
 -999.25  1.8277  2.1796  102.03  0.3276 
   716.000 
  10.595  92.142  0.2900  0.3660  0.0160 -999.25 -999.25 -999.25 -999.25 
  160.40  3.6950  2.1715  6.6600 -40.948  53.310 -999.25  0.3610  0.0240 
  10.586  2.1781  92.142  153.40  6.6600 -999.25  53.310 -7.5480  5.0380 
 -999.25  53.068  2.1895  97.356  0.3332 
   716.500 
  10.592  88.971  0.2920  0.3560  0.0200 -999.25 -999.25 -999.25 -999.25 
  155.25  6.5220  2.1682  6.8830 -41.631  1554.4 -999.25  0.3710  0.0320 
  10.571  2.1996  88.971  151.55  6.8830 -999.25  1554.4 -8.2310  5.2165 
 -999.25  1370.2  2.2108  93.962  0.3443 
   717.000 
  10.586  88.509  0.2860  0.3610  0.0240 -999.25 -999.25 -999.25 -999.25 
  153.40  4.8940  2.1781  8.5310 -42.076  541.96 -999.25  0.3650  0.0410 
  10.565  2.2128  88.509  149.69  8.5310 -999.25  541.96 -8.6760  6.5450 
 -999.25  517.61  2.2240  93.456  0.3376 
   717.500 
  10.571  89.595  0.2730  0.3710  0.0320 -999.25 -999.25 -999.25 -999.25 
  151.55  3.6730  2.1996  9.8440 -41.960  188.97  7.0460  0.3520  0.0330 
  10.559  2.2012  89.595  147.84  9.8440  7.0460  188.97 -8.5600  7.6136 
  7.1205  185.90  2.2124  94.586  0.3232 
   718.000 
  10.565  91.434  0.2650  0.3650  0.0410 -999.25 -999.25 -999.25 -999.25 
  149.69  5.6680  2.2128  9.6630 -41.443  65.888  20.631  0.3490  0.0260 
  10.566  2.1847  91.434  145.47  9.6630  20.631  65.888 -8.0430  7.4658 
  21.285  65.514  2.1959  96.548  0.3198 
   718.500 
  10.559  92.003  0.2720  0.3520  0.0330 -999.25 -999.25 -999.25 -999.25 
  147.84  8.7470  2.2012  8.8300 -41.048  22.973  14.312  0.3580  0.0210 
  10.562  2.1732  92.003  145.76  8.8300  14.312  22.973 -7.6480  6.7876 
  14.623  22.927  2.1844  97.137  0.3298 
   719.000 
  10.566  92.367  0.2820  0.3490  0.0260 -999.25 -999.25 -999.25 -999.25 
  145.47  6.0010  2.1847  7.1740 -39.890  8.0100  6.3310  0.3720  0.0270 
  10.558  2.1765  92.367  146.46  7.1740  6.3310  8.0100 -6.4900  5.4499 
  6.3911  8.0044  2.1876  97.509  0.3454 
   719.500 
  10.562  93.656  0.2890  0.3580  0.0210 -999.25 -999.25 -999.25 -999.25 
  145.76  4.1170  2.1732  6.4240 -38.937  6.5430  5.5360  0.3880  0.0390 
  10.606  2.2012  93.656  145.77  6.4240  5.5360  6.5430 -5.5370  4.8494 
  5.5829  6.5394  2.2127  99.017  0.3632 
   720.000 
  10.558  97.085  0.2870  0.3720  0.0270 -999.25 -999.25 -999.25 -999.25 
  146.46  6.3290  2.1765  5.1430 -36.501  5.5650  5.5760  0.3950  0.0600 
  10.623  2.2227  97.085  145.67  5.1430  5.5760  5.5650 -3.1010  3.8327 
  5.6240  5.5624  2.2343  102.70  0.3710 
   720.500 
  10.606  100.59  0.2720  0.3880  0.0390 -999.25 -999.25 -999.25 -999.25 
  145.77  5.8060  2.2012  4.2400 -34.745  5.5540  6.0000  0.4070  0.0850 
  10.569  2.2408  100.59  147.25  4.2400  6.0000  5.5540 -1.3450  3.1242 
  6.0542  5.5513  2.2521  106.23  0.3843 
   721.000 
  10.623  102.08  0.2590  0.3950  0.0600 -999.25 -999.25 -999.25 -999.25 
  145.67  5.0230  2.2227  3.8530 -34.189  5.8680  6.9220  0.4380  0.0740 
  10.427  2.2227  102.08  149.82  3.8530  6.9220  5.8680 -0.7890  2.8230 
  6.9895  5.8647  2.2330  107.32  0.4186 
   721.500 
  10.569  101.21  0.2480  0.4070  0.0850 -999.25 -999.25 -999.25 -999.25 
  147.25  4.2980  2.2408  3.9030 -34.873  6.3370  6.9980  0.4510  0.0650 
  10.313  2.2062  101.21  149.83  3.9030  6.9980  6.3370 -1.4730  2.8619 
  7.0631  6.3329  2.2157  106.03  0.4330 
   722.000 
  10.427  97.528  0.2590  0.4380  0.0740 -999.25 -999.25 -999.25 -999.25 
  149.82  4.6970  2.2227  4.7750 -36.516  6.4890  6.5490  0.4580  0.0510 
  10.286  2.1798  97.528  149.73  4.7750  6.5490  6.4890 -3.1160  3.5431 
  6.6051  6.4846  2.1891  102.08  0.4408 
   722.500 
  10.313  94.201  0.2690  0.4510  0.0650 -999.25 -999.25 -999.25 -999.25 
  149.83  5.9080  2.2062  7.9700 -38.599  6.2770  6.3230  0.4060  0.0370 
  10.283  2.1682  94.201  143.20  7.9700  6.3230  6.2770 -5.1990  6.0911 
  6.3752  6.2729  2.1775  98.591  0.3830 
   723.000 
  10.286  87.972  0.2850  0.4580  0.0510 -999.25 -999.25 -999.25 -999.25 
  149.73  9.0510  2.1798  8.9450 -39.843  6.0160  5.8960  0.3610  0.0440 
  10.281  2.1781  87.972  140.43  8.9450  5.8960  6.0160 -6.4430  6.8810 
  5.9413  6.0122  2.1874  92.066  0.3330 
   723.500 
  10.283  84.686  0.2920  0.4060  0.0370 -999.25 -999.25 -999.25 -999.25 
  143.20  11.937  2.1682  9.1600 -39.927  5.8620  5.5890  0.3460  0.0450 
  10.305  2.1930  84.686  147.56  9.1600  5.5890  5.8620 -6.5270  7.0559 
  5.6302  5.8585  2.2024  88.695  0.3164 
   724.000 
  10.281  83.065  0.2860  0.3610  0.0440 -999.25 -999.25 -999.25 -999.25 
  140.43  11.110  2.1781  8.3550 -39.051  5.8080  5.3770  0.3540  0.0450 
  10.354  2.2062  83.065  182.37  8.3550  5.3770  5.8080 -5.6510  6.4024 
  5.4162  5.8046  2.2160  87.132  0.3253 
   724.500 
  10.305  83.596  0.2770  0.3460  0.0450 -999.25 -999.25 -999.25 -999.25 
  147.56  8.4280  2.1930  5.9580 -37.456  5.9140  5.2010  0.3880  0.0470 
  10.407  2.2392  83.596  160.51  5.9580  5.2010  5.9140 -4.0545  4.4781 
  5.2386  5.9106  2.2493  87.835  0.3631 
   725.000 
  10.354  84.045  0.2690  0.3540  0.0450 -999.25 -999.25 -999.25 -999.25 
  182.37  6.7040  2.2062  4.6830 -35.180  6.1120  5.0770  0.4150  0.0480 
  10.543  2.2689  84.045  155.67  4.6830  5.0770  6.1120 -1.7769  3.4708 
  5.1153  6.1087  2.2799  88.682  0.3931 
   725.500 
  10.407  83.856  0.2490  0.3880  0.0470 -999.25 -999.25 -999.25 -999.25 
  160.51  7.3260  2.2392  4.2560 -34.345  6.4100  5.1050  0.4220  0.0580 
  10.576  2.2903  83.856  155.27  4.2560  5.1050  6.4100 -0.9404  3.1367 
  5.1443  6.4065  2.3016  88.574  0.4009 
   726.000 
  10.543  82.794  0.2310  0.4150  0.0480 -999.25 -999.25 -999.25 -999.25 
  155.67  4.3040  2.2689  4.2240 -33.748  6.7970  5.5530  0.4140  0.0750 
  10.578  2.3118  82.794  158.74  4.2240  5.5530  6.7970 -0.3418  3.1117 
  5.5996  6.7930  2.3231  87.457  0.3920 
   726.500 
  10.576  82.332  0.2180  0.4220  0.0580 -999.25 -999.25 -999.25 -999.25 
  155.27  5.1710  2.2903  4.6380 -33.712  7.3540  6.3490  0.4030  0.0910 
  10.583  2.3283  82.332  161.51  4.6380  6.3490  7.3540 -0.3043  3.4355 
  6.4101  7.3494  2.3396  86.983  0.3798 
   727.000 
  10.578  84.807  0.2050  0.4140  0.0750 -999.25 -999.25 -999.25 -999.25 
  158.74  6.2120  2.3118  6.7570 -33.955  8.0010  7.3250  0.3910  0.0750 
  10.579  2.3283  84.807  158.34  6.7570  7.3250  8.0010 -0.5457  5.1156 
  7.4063  7.9955  2.3396  89.586  0.3665 
   727.500 
  10.583  86.409  0.1950  0.4030  0.0910 -999.25 -999.25 -999.25 -999.25 
  161.51  7.4630  2.3283  13.304 -34.101  8.9150  8.1470  0.3540  0.0530 
  10.577  2.3349  86.409  152.31  13.304  8.1470  8.9150 -0.6902  10.464 
  8.2476  8.9082  2.3462  91.273  0.3254 
   728.000 
  10.579  86.301  0.1950  0.3910  0.0750 -999.25 -999.25 -999.25 -999.25 
  158.34  8.9660  2.3283  17.201 -34.248  9.7520  9.0280  0.2790  0.0330 
  10.550  2.3712  86.301  152.01  17.201  9.0280  9.7520 -0.8356  13.721 
  9.1502  9.7437  2.3823  91.083  0.2418 
   728.500 
  10.577  84.998  0.1910  0.3540  0.0530 -999.25 -999.25 -999.25 -999.25 
  152.31  10.771  2.3349  20.551 -34.728  10.767  9.5200  0.2540  0.0260 
  10.603  2.3943  84.998  153.60  20.551  9.5200  10.767 -1.3140  16.552 
  9.6594  10.757  2.4057  89.855  0.2161 
