~Version Information
VERS.                     2.0: CWLS log ASCII Standard Version 2.00
WRAP.                     YES: Multiple lines per depth step
~Well Information Block
#MNEM.UNIT                               Data Type  Information
#---------                               ---------  -----------
STRT.FT                                   700.0000:
STOP.FT                                  4020.0000:
STEP.FT                                     0.5000:
NULL.                 -999.25                     :
COMP.                                             :COMPANY            
WELL.     MUDDY CREEK A #65-30                    :WELL               
FLD .                                             :FIELD              
CTRY.                                             :COUNTRY            
STAT.                                             :STATE              
LOC .                                             :LOCATION           
UWI .                                             :UNIQUE WELL ID     
SRVC.                                             :Service company    
DATE.                                             :LOG DATE           
~Curve Information
#MNEM.UNIT           API CODE  Curve Description
#---------           --------  -----------------
DEPT.FT                      :   1 DEPTH
CALI.IN                      :   2
GR  .GAPI                    :   3
DPHI.DEC                     :   4
NPHI.DEC                     :   5
DRHO.G/CC                    :   6
KSCI.MD                      :   7
PSCI.POR                     :   8
OSCI.POR                     :   9
WSCI.POR                     :  10
DT  .US/F                    :  11
MSFL.OHMM                    :  12
RHOB.G/C3                    :  13
SFL .OHMM                    :  14
SP  .MV                      :  15
ILD .OHMM                    :  16
ILM .OHMM                    :  17
NPHS.DEC                     :  18
DROS.G/CC                    :  19
CALS.IN                      :  20
ROBS.G/C3                    :  21
GRS .GAPI                    :  22
DTS .US/F                    :  23
RS  .OHMM                    :  24
RM  .OHMM                    :  25
RD  .OHMM                    :  26
SBL .MV                      :  27
SFLC.OHMM                    :  28
ILMC.OHMM                    :  29
ILDC.OHMM                    :  30
ROBC.G/C3                    :  31
GRC .GAPI                    :  32
NPHC.DEC                     :  33
~A
# ...
  2019.500 
  11.428  85.877  0.5380  0.4830  0.0090 -999.25 -999.25 -999.25 -999.25 
  136.10  3.1720  1.7623  1.2610 -51.791  1.2610  1.2680  0.4897  0.0108 
  11.421  1.7673  90.796  135.71  1.2610  1.2680  1.2610 -8.8431  0.9205 
  1.2713  1.2609  1.7840  98.348  0.4765 
  2020.000 
  11.412  86.233  0.5360  0.4870  0.0090 -999.25 -999.25 -999.25 -999.25 
  135.60  2.5840  1.7656  1.1870 -51.353  1.2220  1.2540  0.4846  0.0090 
  11.422  1.7636  87.553  139.99  1.1870  1.2540  1.2220 -8.4172  0.8665 
  1.2573  1.2219  1.7803  94.837  0.4709 
  2020.500 
  11.404  88.736  0.5240  0.5010  0.0100 -999.25 -999.25 -999.25 -999.25 
  141.04  2.3140  1.7854  1.1360 -49.320  1.1850  1.2270  0.4927  0.0094 
  11.409  1.7737  86.022  143.32  1.1360  1.2270  1.1850 -6.3963  0.8293 
  1.2301  1.1849  1.7903  93.144  0.4799 
  2021.000 
  11.464  90.285  0.5100  0.5150  0.0140 -999.25 -999.25 -999.25 -999.25 
  143.81  2.2860  1.8085  1.1110 -46.968  1.1630  1.1820  0.5069  0.0117 
  11.429  1.7951  87.270  147.62  1.1110  1.1820  1.1630 -4.0564  0.8110 
  1.1849  1.1630  1.8118  94.551  0.4957 
  2021.500 
  11.495  89.011  0.4990  0.5300  0.0180 -999.25 -999.25 -999.25 -999.25 
  148.36  2.3470  1.8267  1.1480 -44.975  1.1480  1.1670  0.5214  0.0157 
  11.477  1.8162  89.390  148.73  1.1480  1.1670  1.1480 -2.0755  0.8380 
  1.1699  1.1480  1.8333  96.982  0.5118 
  2022.000 
  11.439  87.340  0.4840  0.5390  0.0220 -999.25 -999.25 -999.25 -999.25 
  148.80  2.3610  1.8514  1.2310 -44.737  1.1350  1.1560  0.5339  0.0197 
  11.471  1.8374  89.737  149.18  1.2310  1.1560  1.1350 -1.8496  0.8986 
  1.1588  1.1350  1.8544  97.339  0.5258 
  2022.500 
  11.630  85.669  0.4840  0.5410  0.0240 -999.25 -999.25 -999.25 -999.25 
  149.24  2.5130  1.8514  1.2560 -45.457  1.1370  1.1480  0.5399  0.0229 
  11.524  1.8514  88.278  149.63  1.2560  1.1480  1.1370 -2.5817  0.9169 
  1.1508  1.1370  1.8687  95.902  0.5324 
  2023.000 
  11.773  83.004  0.4870  0.5530  0.0250 -999.25 -999.25 -999.25 -999.25 
  149.68  2.3170  1.8465  1.2130 -46.615  1.1500  1.1440  0.5464  0.0245 
  11.695  1.8492  86.594  150.07  1.2130  1.1440  1.1500 -3.7517  0.8855 
  1.1470  1.1500  1.8675  94.526  0.5398 
  2023.500 
  11.884  79.662  0.5340  0.5460  0.0130 -999.25 -999.25 -999.25 -999.25 
  150.12  2.1400  1.7689  1.1670 -49.489  1.1670  1.1480  0.5498  0.0195 
  11.824  1.8107  84.457  153.34  1.1670  1.1480  1.1670 -6.6378  0.8519 
  1.1511  1.1670  1.8298  92.527  0.5436 
  2024.000 
  11.928  78.230  0.5410  0.5390  0.0030 -999.25 -999.25 -999.25 -999.25 
  153.63  2.1530  1.7574  1.1080 -51.565  1.2020  1.1580  0.5427  0.0083 
  11.905  1.7635  81.457  156.91  1.1080  1.1580  1.2020 -8.7259  0.8088 
  1.1612  1.2020  1.7830  89.438  0.5358 
  2024.500 
  11.951  76.241  0.5620  0.4960 -0.0060 -999.25 -999.25 -999.25 -999.25 
  157.13  2.2220  1.7227  1.0840 -52.086  1.2350  1.1690  0.5185 -0.0013 
  11.939  1.7408  78.987  146.30  1.0840  1.1690  1.2350 -9.2590  0.7913 
  1.1723  1.2350  1.7605  86.809  0.5088 
  2025.000 
  11.923  74.212  0.5610  0.4870 -0.0110 -999.25 -999.25 -999.25 -999.25 
  145.74  2.2350  1.7244  1.0960 -51.608  1.2930  1.2280  0.4916 -0.0084 
  11.937  1.7235  77.277  141.33  1.0960  1.2280  1.2930 -8.7931  0.8001 
  1.2317  1.2930  1.7432  84.925  0.4790 
  2025.500 
  11.884  73.416  0.5510  0.4900 -0.0160 -999.25 -999.25 -999.25 -999.25 
  141.18  2.0270  1.7409  1.2860 -50.852  1.3390  1.3510  0.4885 -0.0135 
  11.904  1.7325  75.252  135.24  1.2860  1.3510  1.3390 -8.0492  0.9388 
  1.3554  1.3390  1.7520  82.624  0.4754 
  2026.000 
  11.740  74.845  0.5300  0.4710 -0.0160 -999.25 -999.25 -999.25 -999.25 
  135.14  2.1190  1.7755  1.7150 -50.175  1.4670  1.5450  0.4805 -0.0160 
  11.812  1.7583  73.818  127.61  1.7150  1.5450  1.4670 -7.3843  1.2520 
  1.5506  1.4670  1.7772  80.843  0.4665 
  2026.500 
  11.605  78.222  0.4480  0.4350 -0.0050 -999.25 -999.25 -999.25 -999.25 
  127.61  3.7740  1.9108  2.0150 -49.539  1.5640  1.5790  0.4526 -0.0104 
  11.671  1.8446  74.136  125.52  2.0150  1.5790  1.5640 -6.7604  1.4196 
  1.5846  1.5640  1.8627  80.874  0.4355 
  2027.000 
  11.486  80.328  0.4210  0.4220  0.0130 -999.25 -999.25 -999.25 -999.25 
  125.52  3.1020  1.9554  2.0830 -49.081  1.5080  1.5670  0.4283  0.0043 
  11.543  1.9339  76.573  125.69  2.0830  1.5670  1.5080 -6.3145  1.4705 
  1.5723  1.5079  1.9513  83.232  0.4083 
  2027.500 
  11.438  80.923  0.4200  0.4280  0.0250 -999.25 -999.25 -999.25 -999.25 
  125.22  2.5410  1.9570  1.9390 -48.624  1.4560  1.5080  0.4252  0.0193 
  11.461  1.9562  79.317  139.28  1.9390  1.5080  1.4560 -5.8696  1.3628 
  1.5128  1.4559  1.9731  86.012  0.4048 
  2028.000 
  11.465  80.325  0.4480  0.4440  0.0170 -999.25 -999.25 -999.25 -999.25 
  139.07  2.5110  1.9108  1.4990 -47.309  1.3730  1.4430  0.4366  0.0207 
  11.452  1.9323  80.642  143.23  1.4990  1.4430  1.3730 -4.5667  1.0943 
  1.4474  1.3729  1.9491  87.429  0.4175 
  2028.500 
  11.565  80.204  0.4760  0.4740  0.0070 -999.25 -999.25 -999.25 -999.25 
  143.13  2.4000  1.8646  1.3210 -46.313  1.2900  1.2990  0.4603  0.0116 
  11.519  1.8857  80.602  144.81  1.3210  1.2990  1.2900 -3.5828  0.9643 
  1.3026  1.2900  1.9029  87.553  0.4439 
  2029.000 
  11.700  83.263  0.4840  0.4970  0.0120 -999.25 -999.25 -999.25 -999.25 
  144.71  2.2740  1.8514  1.2210 -45.597  1.2140  1.2210  0.4867  0.0098 
  11.640  1.8573  80.259  146.17  1.2210  1.2210  1.2140 -2.8789  0.8913 
  1.2243  1.2140  1.8753  87.477  0.4733 
  2029.500 
  11.807  85.329  0.4710  0.5170  0.0240 -999.25 -999.25 -999.25 -999.25 
  145.99  2.3430  1.8729  1.1530 -45.518  1.1590  1.1850  0.5082  0.0187 
  11.760  1.8634  81.893  147.98  1.1530  1.1850  1.1590 -2.8120  0.8417 
  1.1883  1.1590  1.8821  89.559  0.4973 
  2030.000 
  12.037  86.640  0.4640  0.5150  0.0300 -999.25 -999.25 -999.25 -999.25 
  147.76  2.5170  1.8844  1.1220 -45.959  1.1360  1.1660  0.5159  0.0274 
  11.938  1.8794  84.421  149.78  1.1220  1.1660  1.1360 -3.2650  0.8191 
  1.1693  1.1360  1.8991  92.778  0.5059 
  2030.500 
  12.319  85.843  0.4740  0.5050  0.0200 -999.25 -999.25 -999.25 -999.25 
  149.64  2.3370  1.8679  1.1070 -46.718  1.1170  1.1470  0.5092  0.0242 
  12.200  1.8749  86.074  150.81  1.1070  1.1470  1.1170 -4.0361  0.8081 
  1.1504  1.1171  1.8961  95.268  0.4987 
  2031.000 
  12.407  85.086  0.4920  0.5040  0.0110 -999.25 -999.25 -999.25 -999.25 
  150.65  2.2960  1.8382  1.0970 -48.316  1.0990  1.0970  0.5044  0.0147 
  12.371  1.8505  86.180  151.84  1.0970  1.0970  1.0990 -5.6462  0.8008 
  1.1003  1.0992  1.8726  95.819  0.4934 
  2031.500 
  12.442  85.681  0.5100  0.5100  0.0110 -999.25 -999.25 -999.25 -999.25 
  151.67  2.2520  1.8085  1.0910 -49.634  1.0850  1.0790  0.5076  0.0110 
  12.428  1.8205  85.400  152.88  1.0910  1.0790  1.0850 -6.9763  0.7964 
  1.0822  1.0852  1.8430  95.095  0.4969 
  2032.000 
  12.450  86.792  0.5240  0.5110  0.0260 -999.25 -999.25 -999.25 -999.25 
  152.69  2.1840  1.7854  1.0890 -51.111  1.0810  1.0710  0.5106  0.0200 
  12.447  1.7946  85.439  153.91  1.0890  1.0710  1.0810 -8.4654  0.7950 
  1.0742  1.0812  1.8171  95.185  0.5003 
  2032.500 
  12.199  86.155  0.5320  0.5140  0.0320 -999.25 -999.25 -999.25 -999.25 
  153.71  2.1350  1.7722  1.0950 -52.390  1.0770  1.0710  0.5128  0.0297 
  12.297  1.7773  86.349  154.95  1.0950  1.0710  1.0770 -9.7565  0.7994 
  1.0741  1.0772  1.7991  95.819  0.5027 
  2033.000 
  11.981  84.245  0.5410  0.5220  0.0240 -999.25 -999.25 -999.25 -999.25 
  154.72  2.0780  1.7574  1.1170 -53.468  1.0850  1.0770  0.5190  0.0270 
  12.064  1.7630  86.404  155.74  1.1170  1.0770  1.0850 -10.847  0.8154 
  1.0799  1.0850  1.7834  95.284  0.5094 
  2033.500 
  11.635  82.613  0.5490  0.5120  0.0160 -999.25 -999.25 -999.25 -999.25 
  155.74  2.0840  1.7442  1.1570 -54.388  1.0970  1.0810  0.5157  0.0190 
  11.764  1.7491  84.976  154.40  1.1570  1.0810  1.0970 -11.779  0.8446 
  1.0837  1.0970  1.7678  92.940  0.5057 
