~Version Information
VERS.                     2.0: CWLS log ASCII Standard Version 2.00
WRAP.                     YES: Multiple lines per depth step
~Well Information Block
#MNEM.UNIT                               Data Type  Information
#---------                               ---------  -----------
STRT.FT                                   700.0000:
STOP.FT                                  4020.0000:
STEP.FT                                     0.5000:
NULL.                 -999.25                     :
COMP.                                             :COMPANY            
WELL.     MUDDY CREEK A #65-30                    :WELL               
FLD .                                             :FIELD              
CTRY.                                             :COUNTRY            
STAT.                                             :STATE              
LOC .                                             :LOCATION           
UWI .                                             :UNIQUE WELL ID     
SRVC.                                             :Service company    
DATE.                                             :LOG DATE           
~Curve Information
#MNEM.UNIT           API CODE  Curve Description
#---------           --------  -----------------
DEPT.FT                      :   1 DEPTH
CALI.IN                      :   2
GR  .GAPI                    :   3
DPHI.DEC                     :   4
NPHI.DEC                     :   5
DRHO.G/CC                    :   6
KSCI.MD                      :   7
PSCI.POR                     :   8
OSCI.POR                     :   9
WSCI.POR                     :  10
DT  .US/F                    :  11
MSFL.OHMM                    :  12
RHOB.G/C3                    :  13
SFL .OHMM                    :  14
SP  .MV                      :  15
ILD .OHMM                    :  16
ILM .OHMM                    :  17
NPHS.DEC                     :  18
DROS.G/CC                    :  19
CALS.IN                      :  20
ROBS.G/C3                    :  21
GRS .GAPI                    :  22
DTS .US/F                    :  23
RS  .OHMM                    :  24
RM  .OHMM                    :  25
RD  .OHMM                    :  26
SBL .MV                      :  27
SFLC.OHMM                    :  28
ILMC.OHMM                    :  29
ILDC.OHMM                    :  30
ROBC.G/C3                    :  31
GRC .GAPI                    :  32
NPHC.DEC                     :  33
~A
# ...
  1802.000 
  13.862  102.97  0.4870  0.5420  0.0200 -999.25 -999.25 -999.25 -999.25 
  140.29  2.3380  1.8465  1.0860 -61.436  1.0700  1.0980  0.5717  0.0240 
  13.858  1.8277  92.575  139.42  1.0860  1.0980  1.0700 -13.978  0.7928 
  1.1025  1.0710  1.8571  106.78  0.5691 
  1802.500 
  13.874  102.65  0.4800  0.5440  0.0190 -999.25 -999.25 -999.25 -999.25 
  140.18  2.1920  1.8580  1.1000 -61.594  1.0880  1.1230  0.5509  0.0210 
  13.861  1.8414  97.457  138.50  1.1000  1.1230  1.0880 -14.142  0.8030 
  1.1278  1.0890  1.8708  112.42  0.5460 
  1803.000 
  13.879  99.676  0.4760  0.5560  0.0210 -999.25 -999.25 -999.25 -999.25 
  139.39  2.3040  1.8646  1.1210 -61.873  1.1190  1.1560  0.5433  0.0193 
  13.870  1.8540  102.97  137.48  1.1210  1.1560  1.1190 -14.428  0.8183 
  1.1610  1.1201  1.8835  118.81  0.5375 
  1803.500 
  13.885  97.293  0.4750  0.5900  0.0220 -999.25 -999.25 -999.25 -999.25 
  138.49  2.3780  1.8663  1.1520 -62.311  1.1330  1.1660  0.5518  0.0203 
  13.877  1.8623  102.65  136.74  1.1520  1.1660  1.1330 -14.872  0.8410 
  1.1711  1.1341  1.8918  118.46  0.5469 
  1804.000 
  13.897  97.172  0.4760  0.6070  0.0230 -999.25 -999.25 -999.25 -999.25 
  137.50  2.5180  1.8646  1.1760 -62.709  1.1440  1.1760  0.5779  0.0216 
  13.883  1.8657  99.676  135.84  1.1760  1.1760  1.1440 -15.277  0.8585 
  1.1812  1.1451  1.8952  115.04  0.5761 
  1804.500 
  13.905  97.250  0.4850  0.5340  0.0160 -999.25 -999.25 -999.25 -999.25 
  136.80  2.6090  1.8498  1.1890 -63.147  1.1540  1.1860  0.6009  0.0226 
  13.893  1.8652  97.293  135.20  1.1890  1.1860  1.1540 -15.721  0.8680 
  1.1913  1.1551  1.8948  112.31  0.6017 
  1805.000 
  13.905  96.455  0.4990  0.4870  0.0090 -999.25 -999.25 -999.25 -999.25 
  135.90  2.5230  1.8267  1.1930 -63.465  1.1560  1.1930  0.5606  0.0185 
  13.902  1.8552  97.172  134.46  1.1930  1.1930  1.1560 -16.046  0.8709 
  1.1984  1.1572  1.8848  112.20  0.5567 
  1805.500 
  13.905  95.223  0.5120  0.4760  0.0050 -999.25 -999.25 -999.25 -999.25 
  135.31  2.5110  1.8052  1.1950 -63.584  1.1610  1.1950  0.5043  0.0116 
  13.905  1.8351  97.250  134.29  1.1950  1.1950  1.1610 -16.171  0.8724 
  1.2004  1.1622  1.8648  112.30  0.4940 
  1806.000 
  13.907  90.538  0.5180  0.4920  0.0160 -999.25 -999.25 -999.25 -999.25 
  134.51  2.7870  1.7953  1.1950 -63.503  1.1610  1.1890  0.4801  0.0065 
  13.905  1.8132  96.455  134.77  1.1950  1.1890  1.1610 -16.097  0.8724 
  1.1944  1.1622  1.8428  111.38  0.4671 
  1806.500 
  13.909  85.852  0.5140  0.5220  0.0200 -999.25 -999.25 -999.25 -999.25 
  134.21  2.9250  1.8019  1.1800 -63.064  1.1560  1.1760  0.4860  0.0119 
  13.906  1.7990  95.223  135.67  1.1800  1.1760  1.1560 -15.664  0.8614 
  1.1813  1.1572  1.8287  109.96  0.4736 
  1807.000 
  13.896  85.255  0.5090  0.5410  0.0230 -999.25 -999.25 -999.25 -999.25 
  134.60  2.6580  1.8102  1.1590 -62.823  1.1520  1.1610  0.5106  0.0185 
  13.908  1.7994  90.538  137.16  1.1590  1.1610  1.1520 -15.429  0.8461 
  1.1661  1.1532  1.8291  104.55  0.5011 
  1807.500 
  13.900  86.286  0.5060  0.5690  0.0260 -999.25 -999.25 -999.25 -999.25 
  135.29  2.5240  1.8151  1.1380 -62.823  1.1440  1.1570  0.5337  0.0218 
  13.901  1.8070  85.852  139.53  1.1380  1.1570  1.1440 -15.436  0.8307 
  1.1621  1.1451  1.8366  99.126  0.5268 
  1808.000 
  13.904  89.897  0.5070  0.6110  0.0270 -999.25 -999.25 -999.25 -999.25 
  136.67  2.3440  1.8135  1.1290 -62.702  1.1420  1.1520  0.5581  0.0248 
  13.898  1.8132  85.255  143.24  1.1290  1.1520  1.1420 -15.321  0.8242 
  1.1570  1.1431  1.8428  98.431  0.5540 
  1808.500 
  13.908  95.691  0.5080  0.6240  0.0260 -999.25 -999.25 -999.25 -999.25 
  138.24  2.2910  1.8118  1.1400 -62.342  1.1420  1.1500  0.5945  0.0266 
  13.902  1.8141  86.286  147.32  1.1400  1.1500  1.1420 -14.968  0.8322 
  1.1550  1.1431  1.8438  99.630  0.5946 
  1809.000 
  13.912  98.708  0.5110  0.5820  0.0220 -999.25 -999.25 -999.25 -999.25 
  141.90  2.1360  1.8069  1.1440 -61.863  1.1420  1.1570  0.6188  0.0264 
  13.906  1.8125  89.897  150.13  1.1440  1.1570  1.1420 -14.495  0.8351 
  1.1621  1.1431  1.8421  103.81  0.6217 
  1809.500 
  13.916  102.88  0.5140  0.5430  0.0170 -999.25 -999.25 -999.25 -999.25 
  145.36  2.0310  1.8019  1.1530 -61.303  1.1460  1.1650  0.5988  0.0236 
  13.910  1.8088  95.691  150.44  1.1530  1.1650  1.1460 -13.942  0.8417 
  1.1702  1.1471  1.8385  110.51  0.5994 
  1810.000 
  13.927  104.02  0.5170  0.5430  0.0120 -999.25 -999.25 -999.25 -999.25 
  150.00  2.1050  1.7970  1.1670 -60.784  1.1550  1.1830  0.5588  0.0190 
  13.914  1.8039  98.708  151.47  1.1670  1.1830  1.1550 -13.429  0.8519 
  1.1883  1.1562  1.8336  114.00  0.5548 
  1810.500 
  13.939  105.06  0.5180  0.5560  0.0110 -999.25 -999.25 -999.25 -999.25 
  150.29  2.2570  1.7953  1.1910 -60.185  1.1740  1.1980  0.5430  0.0141 
  13.922  1.7990  102.88  153.21  1.1910  1.1980  1.1740 -12.837  0.8694 
  1.2035  1.1752  1.8287  118.84  0.5372 
  1811.000 
  13.959  104.89  0.5180  0.5700  0.0150 -999.25 -999.25 -999.25 -999.25 
  150.58  2.1190  1.7953  1.2270 -59.625  1.1870  1.2110  0.5506  0.0114 
  13.934  1.7960  104.02  152.69  1.2270  1.2110  1.1870 -12.283  0.8957 
  1.2166  1.1882  1.8258  120.20  0.5457 
  1811.500 
  13.970  103.23  0.5170  0.5870  0.0250 -999.25 -999.25 -999.25 -999.25 
  152.26  1.9980  1.7970  1.2680 -59.225  1.1910  1.2200  0.5642  0.0133 
  13.951  1.7953  105.06  151.98  1.2680  1.2200  1.1910 -11.890  0.9256 
  1.2257  1.1923  1.8252  121.44  0.5608 
  1812.000 
  13.998  100.76  0.5140  0.5750  0.0330 -999.25 -999.25 -999.25 -999.25 
  153.94  2.1740  1.8019  1.2990 -58.825  1.1980  1.2220  0.5798  0.0208 
  13.965  1.7963  104.89  152.44  1.2990  1.2220  1.1980 -11.496  0.9483 
  1.2277  1.1993  1.8262  121.29  0.5782 
  1812.500 
  14.012  100.40  0.5130  0.5450  0.0320 -999.25 -999.25 -999.25 -999.25 
  151.85  1.9870  1.8036  1.2810 -58.665  1.2090  1.2140  0.5801  0.0296 
  13.986  1.7998  103.23  151.44  1.2810  1.2140  1.2090 -11.342  0.9351 
  1.2197  1.2103  1.8298  119.42  0.5786 
  1813.000 
  14.026  99.848  0.5180  0.5410  0.0260 -999.25 -999.25 -999.25 -999.25 
  152.05  2.0360  1.7953  1.2640 -58.465  1.2140  1.2050  0.5579  0.0324 
  14.006  1.8028  100.76  146.46  1.2640  1.2050  1.2140 -11.149  0.9227 
  1.2106  1.2153  1.8329  116.62  0.5538 
  1813.500 
  14.057  97.981  0.5250  0.5420  0.0150 -999.25 -999.25 -999.25 -999.25 
  152.64  2.0410  1.7838  1.1940 -58.424  1.2090  1.1960  0.5427  0.0286 
  14.020  1.7989  100.40  142.21  1.1940  1.1960  1.2090 -11.114  0.8716 
  1.2016  1.2103  1.8290  116.24  0.5369 
  1814.000 
  14.069  96.472  0.5270  0.5510  0.0130 -999.25 -999.25 -999.25 -999.25 
  150.95  2.2250  1.7805  1.1680 -58.463  1.2070  1.1890  0.5416  0.0198 
  14.043  1.7888  99.848  140.31  1.1680  1.1890  1.2070 -11.160  0.8526 
  1.1945  1.2084  1.8191  115.66  0.5356 
  1814.500 
  14.073  90.873  0.5010  0.5740  0.0190 -999.25 -999.25 -999.25 -999.25 
  144.91  2.4080  1.8234  1.1440 -58.542  1.2110  1.1850  0.5470  0.0139 
  14.064  1.7819  97.981  138.28  1.1440  1.1850  1.2110 -11.245  0.8351 
  1.1905  1.2124  1.8123  113.55  0.5417 
  1815.000 
  14.081  88.212  0.4750  0.5400  0.0270 -999.25 -999.25 -999.25 -999.25 
  141.44  2.2620  1.8663  1.1490 -58.621  1.2270  1.1850  0.5637  0.0163 
  14.071  1.8042  96.472  135.16  1.1490  1.1850  1.2270 -11.331  0.8388 
  1.1905  1.2284  1.8346  111.82  0.5603 
  1815.500 
  14.081  88.210  0.4500  0.4970  0.0430 -999.25 -999.25 -999.25 -999.25 
  140.05  2.3180  1.9075  1.1570 -58.341  1.2500  1.2010  0.5553  0.0234 
  14.077  1.8469  90.873  132.06  1.1570  1.2010  1.2500 -11.057  0.8446 
  1.2067  1.2515  1.8773  105.35  0.5510 
  1816.000 
  14.037  89.321  0.4320  0.4930  0.0510 -999.25 -999.25 -999.25 -999.25 
  137.97  2.3440  1.9372  1.1790 -57.702  1.2870  1.2230  0.5166  0.0357 
  14.081  1.8887  88.212  123.21  1.1790  1.2230  1.2870 -10.425  0.8607 
  1.2289  1.2886  1.9192  102.27  0.5078 
