~Version Information
VERS.                     2.0: CWLS log ASCII Standard Version 2.00
WRAP.                     YES: Multiple lines per depth step
~Well Information Block
#MNEM.UNIT                               Data Type  Information
#---------                               ---------  -----------
STRT.FT                                   700.0000:
STOP.FT                                  4020.0000:
STEP.FT                                     0.5000:
NULL.                 -999.25                     :
COMP.                                             :COMPANY            
WELL.     MUDDY CREEK A #65-30                    :WELL               
FLD .                                             :FIELD              
CTRY.                                             :COUNTRY            
STAT.                                             :STATE              
LOC .                                             :LOCATION           
UWI .                                             :UNIQUE WELL ID     
SRVC.                                             :Service company    
DATE.                                             :LOG DATE           
~Curve Information
#MNEM.UNIT           API CODE  Curve Description
#---------           --------  -----------------
DEPT.FT                      :   1 DEPTH
CALI.IN                      :   2
GR  .GAPI                    :   3
DPHI.DEC                     :   4
NPHI.DEC                     :   5
DRHO.G/CC                    :   6
KSCI.MD                      :   7
PSCI.POR                     :   8
OSCI.POR                     :   9
WSCI.POR                     :  10
DT  .US/F                    :  11
MSFL.OHMM                    :  12
RHOB.G/C3                    :  13
SFL .OHMM                    :  14
SP  .MV                      :  15
ILD .OHMM                    :  16
ILM .OHMM                    :  17
NPHS.DEC                     :  18
DROS.G/CC                    :  19
CALS.IN                      :  20
ROBS.G/C3                    :  21
GRS .GAPI                    :  22
DTS .US/F                    :  23
RS  .OHMM                    :  24
RM  .OHMM                    :  25
RD  .OHMM                    :  26
SBL .MV                      :  27
SFLC.OHMM                    :  28
ILMC.OHMM                    :  29
ILDC.OHMM                    :  30
ROBC.G/C3                    :  31
GRC .GAPI                    :  32
NPHC.DEC                     :  33
~A
# ...
   932.000 
  15.686  58.264  0.1630  0.2660  0.0600 -999.25 -999.25 -999.25 -999.25 
  129.44  3.5340  2.3811  1.5920 -49.470  2.4250  2.1520  0.5067  0.1134 
  15.929  2.0451  75.055  129.44  1.5920  2.1520  2.4250 -15.546  1.1622 
  2.1727  2.4355  2.0823  90.453  0.4973 
   932.500 
  15.846  68.615  0.3340  0.2980  0.0920 -999.25 -999.25 -999.25 -999.25 
  143.24  2.2580  2.0989  1.5840 -49.468  2.2660  2.0260  0.5311  0.1168 
  15.972  2.0381  76.176  143.24  1.5840  2.0260  2.2660 -15.546  1.1563 
  2.0443  2.2753  2.0755  91.879  0.5245 
   933.000 
  15.935  75.148  0.3690  0.5220  0.1150 -999.25 -999.25 -999.25 -999.25 
  157.03  2.2450  2.0412  1.6580 -48.829  2.1600  1.9420  0.5203  0.0784 
  16.011  2.0527  76.987  157.03  1.6580  1.9420  2.1600 -14.910  1.2103 
  1.9588  2.1685  2.0901  92.927  0.5125 
   933.500 
  15.975  76.196  0.3710  0.5320  0.1170 -999.25 -999.25 -999.25 -999.25 
  162.37  2.3050  2.0379  1.7490 -47.510  2.0150  1.8930  0.5093  0.0370 
  16.330  2.0558  77.638  162.37  1.7490  1.8930  2.0150 -13.594  1.2768 
  1.9088  2.0230  2.0942  94.282  0.5003 
   934.000 
  16.015  77.006  0.3610  0.5190  0.0740 -999.25 -999.25 -999.25 -999.25 
  156.93  2.4070  2.0544  1.8790 -45.351  1.9350  1.8960  0.5071  0.0156 
  16.378  2.0560  78.057  156.93  1.8790  1.8960  1.9350 -11.437  1.3181 
  1.9118  1.9425  2.0945  94.875  0.4979 
   934.500 
  16.373  77.657  0.3600  0.5080  0.0320 -999.25 -999.25 -999.25 -999.25 
  133.19  2.4140  2.0560  1.9170 -46.389  1.9140  1.9030  0.5062  0.0130 
  16.084  2.0560  75.982  133.19  1.9170  1.9030  1.9140 -12.478  1.3464 
  1.9191  1.9208  2.0937  91.844  0.4967 
   935.000 
  16.379  78.071  0.3600  0.5070  0.0130 -999.25 -999.25 -999.25 -999.25 
  145.05  2.3990  2.0560  1.9380 -47.868  1.9140  1.9140  0.4994  0.0171 
  16.144  2.0615  74.280  145.05  1.9380  1.9140  1.9140 -13.960  1.3621 
  1.9303  1.9209  2.0993  89.888  0.4891 
   935.500 
  16.031  75.900  0.3600  0.5060  0.0130 -999.25 -999.25 -999.25 -999.25 
  156.92  2.3760  2.0560  1.9310 -47.907  1.9220  1.9170  0.4988  0.0188 
  16.282  2.0706  73.274  156.92  1.9310  1.9170  1.9220 -14.001  1.3569 
  1.9332  1.9292  2.1089  88.901  0.4886 
   936.000 
  16.167  74.208  0.3560  0.4980  0.0180 -999.25 -999.25 -999.25 -999.25 
  165.92  2.3650  2.0626  1.9000 -46.268  1.9310  1.9140  0.5030  0.0182 
  16.174  2.0751  73.769  165.92  1.9000  1.9140  1.9310 -12.365  1.3338 
  1.9302  1.9381  2.1131  89.320  0.4932 
   936.500 
  16.308  73.228  0.3500  0.4990  0.0190 -999.25 -999.25 -999.25 -999.25 
  166.71  2.3860  2.0725  1.8690 -42.308  1.9380  1.9070  0.5024  0.0188 
  16.066  2.0642  74.454  166.71  1.8690  1.9070  1.9380 -8.4073  1.3107 
  1.9232  1.9450  2.1019  89.964  0.4925 
   937.000 
  16.139  73.799  0.3480  0.5040  0.0180 -999.25 -999.25 -999.25 -999.25 
  165.92  2.4680  2.0758  1.8410 -41.469  1.9460  1.9030  0.4883  0.0266 
  16.094  2.0471  74.283  165.92  1.8410  1.9030  1.9460 -7.5710  1.2898 
  1.9191  1.9531  2.0848  89.807  0.4768 
   937.500 
  16.045  74.493  0.3570  0.5020  0.0190 -999.25 -999.25 -999.25 -999.25 
  163.54  2.4800  2.0610  1.8080 -41.788  1.9620  1.8990  0.4788  0.0312 
  16.401  2.0342  74.135  163.54  1.8080  1.8990  1.9620 -7.8926  1.3198 
  1.9149  1.9697  2.0728  90.147  0.4663 
   938.000 
  16.110  74.269  0.3680  0.4840  0.0290 -999.25 -999.25 -999.25 -999.25 
  159.48  2.4420  2.0428  1.7850 -42.426  1.9780  1.8930  0.4835  0.0349 
  16.690  2.0301  74.511  159.48  1.7850  1.8930  1.9780 -8.5332  1.3031 
  1.9087  1.9864  2.0694  91.084  0.4716 
   938.500 
  16.501  74.126  0.3750  0.4770  0.0320 -999.25 -999.25 -999.25 -999.25 
  158.99  2.3750  2.0312  1.7690 -42.827  1.9830  1.8860  0.4952  0.0317 
  16.556  2.0284  74.774  158.99  1.7690  1.8860  1.9830 -8.9368  1.2914 
  1.9016  1.9912  2.0674  91.183  0.4846 
   939.000 
  16.761  74.540  0.3760  0.4860  0.0360 -999.25 -999.25 -999.25 -999.25 
  159.68  2.2180  2.0296  1.7620 -43.585  1.9890  1.8790  0.5198  0.0251 
  16.286  2.0291  73.712  159.68  1.7620  1.8790  1.9890 -9.6974  1.2863 
  1.8946  1.9967  2.0674  89.440  0.5120 
   939.500 
  16.472  74.793  0.3770  0.4990  0.0300 -999.25 -999.25 -999.25 -999.25 
  160.47  2.2450  2.0280  1.7650 -44.465  1.9930  1.8690  0.5249  0.0216 
  16.420  2.0307  73.341  160.47  1.7650  1.8690  1.9930 -10.580  1.2885 
  1.8844  2.0010  2.0694  89.211  0.5177 
   940.000 
  16.204  73.617  0.3760  0.5290  0.0230 -999.25 -999.25 -999.25 -999.25 
  161.16  2.2980  2.0296  1.7690 -45.663  1.9960  1.8690  0.5177  0.0210 
  17.074  2.0312  73.870  161.16  1.7690  1.8690  1.9960 -11.781  1.2914 
  1.8841  2.0052  2.0715  90.921  0.5098 
   940.500 
  16.523  73.315  0.3750  0.5230  0.0210 -999.25 -999.25 -999.25 -999.25 
  162.04  2.2790  2.0312  1.7700 -45.224  1.9950  1.8600  0.5111  0.0293 
  17.687  2.0344  74.803  162.04  1.7700  1.8600  1.9950 -11.344  1.2921 
  1.8747  2.0053  2.0760  93.038  0.5027 
   941.000 
  17.359  73.925  0.3750  0.5150  0.0210 -999.25 -999.25 -999.25 -999.25 
  163.03  2.2690  2.0312  1.7720 -43.464  1.9930  1.8520  0.5171  0.0365 
  16.692  2.0393  74.479  163.03  1.7720  1.8520  1.9930 -9.5869  1.2936 
  1.8670  2.0015  2.0787  91.049  0.5091 
   941.500 
  17.870  74.895  0.3720  0.5090  0.0340 -999.25 -999.25 -999.25 -999.25 
  163.72  2.2680  2.0362  1.7880 -43.584  1.9970  1.8520  0.5190  0.0398 
  15.738  2.0432  74.162  163.72  1.7880  1.8520  1.9970 -9.7095  1.3052 
  1.8674  2.0038  2.0798  89.046  0.5109 
   942.000 
  15.986  74.433  0.3690  0.5220  0.0380 -999.25 -999.25 -999.25 -999.25 
  164.61  2.2950  2.0412  1.7880 -43.983  2.0000  1.8550  0.5117  0.0375 
  15.557  2.0454  74.709  164.61  1.7880  1.8550  2.0000 -10.111  1.3052 
  1.8705  2.0065  2.0815  89.380  0.5027 
   942.500 
  15.579  74.131  0.3670  0.5170  0.0410 -999.25 -999.25 -999.25 -999.25 
  165.80  2.3450  2.0445  1.7820 -44.142  2.0000  1.8540  0.5011  0.0298 
  15.501  2.0452  74.937  165.80  1.7820  1.8540  2.0000 -10.273  1.3009 
  1.8695  2.0064  2.0810  89.552  0.4909 
   943.000 
  15.541  74.780  0.3660  0.5080  0.0350 -999.25 -999.25 -999.25 -999.25 
  167.38  2.3860  2.0461  1.7720 -43.782  2.0000  1.8520  0.4932  0.0249 
  15.291  2.0389  74.341  167.38  1.7720  1.8520  2.0000 -9.9153  1.2936 
  1.8676  2.0060  2.0741  88.463  0.4821 
   943.500 
  15.471  74.957  0.3670  0.4960  0.0260 -999.25 -999.25 -999.25 -999.25 
  169.15  2.2990  2.0445  1.7640 -43.142  2.0000  1.8420  0.4905  0.0251 
  15.620  2.0230  72.914  169.15  1.7640  1.8420  2.0000 -9.2780  1.2877 
  1.8573  2.0066  2.0592  87.342  0.4791 
   944.000 
  15.147  74.258  0.3730  0.4910  0.0240 -999.25 -999.25 -999.25 -999.25 
  170.24  2.0370  2.0346  1.7560 -41.822  2.0000  1.8320  0.4921  0.0270 
  16.417  2.0053  70.449  170.24  1.7560  1.8320  2.0000 -7.9606  1.2819 
  1.8468  2.0080  2.0440  85.689  0.4811 
   944.500 
  16.023  72.725  0.3860  0.4900  0.0260 -999.25 -999.25 -999.25 -999.25 
  171.23  2.0390  2.0131  1.7460 -41.061  2.0010  1.8090  0.4980  0.0275 
  17.302  1.9983  69.474  171.23  1.7460  1.8090  2.0010 -7.2022  1.2746 
  1.8230  2.0107  2.0390  85.848  0.4880 
   945.000 
  16.776  70.115  0.3950  0.4940  0.0280 -999.25 -999.25 -999.25 -999.25 
  171.52  2.2740  1.9983  1.7370 -40.581  1.9930  1.8070  0.5108  0.0241 
  17.917  2.0031  70.247  171.52  1.7370  1.8070  1.9930 -6.7248  1.2680 
  1.8208  2.0037  2.0451  87.703  0.5023 
   945.500 
  17.815  69.376  0.3950  0.5020  0.0270 -999.25 -999.25 -999.25 -999.25 
  171.32  2.5080  1.9983  1.7310 -40.021  1.9840  1.8050  0.5252  0.0182 
  17.840  2.0128  71.558  171.32  1.7310  1.8050  1.9840 -6.1674  1.2636 
  1.8188  1.9945  2.0547  89.227  0.5184 
   946.000 
  18.023  70.386  0.3890  0.5200  0.0210 -999.25 -999.25 -999.25 -999.25 
  170.63  2.5760  2.0082  1.7270 -39.021  1.9750  1.7950  0.5255  0.0127 
  17.500  2.0211  73.021  170.63  1.7270  1.7950  1.9750 -5.1700  1.2607 
  1.8087  1.9848  2.0622  90.536  0.5187 
