~Version Information
VERS.                     2.0: CWLS log ASCII Standard Version 2.00
WRAP.                     YES: Multiple lines per depth step
~Well Information Block
#MNEM.UNIT                               Data Type  Information
#---------                               ---------  -----------
STRT.FT                                   700.0000:
STOP.FT                                  4020.0000:
STEP.FT                                     0.5000:
NULL.                 -999.25                     :
COMP.                                             :COMPANY            
WELL.     MUDDY CREEK A #65-30                    :WELL               
FLD .                                             :FIELD              
CTRY.                                             :COUNTRY            
STAT.                                             :STATE              
LOC .                                             :LOCATION           
UWI .                                             :UNIQUE WELL ID     
SRVC.                                             :Service company    
DATE.                                             :LOG DATE           
~Curve Information
#MNEM.UNIT           API CODE  Curve Description
#---------           --------  -----------------
DEPT.FT                      :   1 DEPTH
CALI.IN                      :   2
GR  .GAPI                    :   3
DPHI.DEC                     :   4
NPHI.DEC                     :   5
DRHO.G/CC                    :   6
KSCI.MD                      :   7
PSCI.POR                     :   8
OSCI.POR                     :   9
WSCI.POR                     :  10
DT  .US/F                    :  11
MSFL.OHMM                    :  12
RHOB.G/C3                    :  13
SFL .OHMM                    :  14
SP  .MV                      :  15
ILD .OHMM                    :  16
ILM .OHMM                    :  17
NPHS.DEC                     :  18
DROS.G/CC                    :  19
CALS.IN                      :  20
ROBS.G/C3                    :  21
GRS .GAPI                    :  22
DTS .US/F                    :  23
RS  .OHMM                    :  24
RM  .OHMM                    :  25
RD  .OHMM                    :  26
SBL .MV                      :  27
SFLC.OHMM                    :  28
ILMC.OHMM                    :  29
ILDC.OHMM                    :  30
ROBC.G/C3                    :  31
GRC .GAPI                    :  32
NPHC.DEC                     :  33
~A
# ...
  3339.000 
  11.742  82.374  0.0380  0.1180  0.0090 -999.25 -999.25 -999.25 -999.25 
  62.289  56.779  2.5873  26.559 -24.395  4.2060  6.0610  0.1150  0.0105 
  11.747  2.5946  79.290  61.836  26.559  6.0610  4.2060 -6.4354  21.686 
  6.1467  4.2057  2.6132  86.680  0.0820 
  3339.500 
  11.752  83.210  0.0290  0.1120  0.0120 -999.25 -999.25 -999.25 -999.25 
  61.395  55.025  2.6022  27.302 -23.753  4.6890  6.9320  0.1101  0.0144 
  11.757  2.6053  78.077  61.394  27.302  6.9320  4.6890 -5.8044  22.325 
  7.0447  4.6887  2.6240  85.378  0.0775 
  3340.000 
  11.762  83.729  0.0250  0.1080  0.0170 -999.25 -999.25 -999.25 -999.25 
  61.393  55.492  2.6088  25.758 -23.186  4.9550  7.5320  0.1061  0.0189 
  11.786  2.6095  80.766  61.445  25.758  7.5320  4.9550 -5.2483  20.998 
  7.6665  4.9547  2.6284  88.390  0.0738 
  3340.500 
  11.814  84.168  0.0240  0.1040  0.0210 -999.25 -999.25 -999.25 -999.25 
  61.490  57.407  2.6104  23.988 -21.576  4.8850  7.5210  0.1022  0.0242 
  11.823  2.6089  82.404  60.896  23.988  7.5210  4.8850 -3.6492  19.481 
  7.6566  4.8847  2.6280  90.275  0.0702 
  3341.000 
  11.834  85.402  0.0260  0.1000  0.0280 -999.25 -999.25 -999.25 -999.25 
  60.397  61.355  2.6071  22.376 -19.771  4.7280  7.0410  0.1009  0.0302 
  11.836  2.6027  83.216  60.121  22.376  7.0410  4.7280 -1.8552  18.104 
  7.1601  4.7278  2.6219  91.197  0.0691 
  3341.500 
  11.838  88.146  0.0320  0.1020  0.0330 -999.25 -999.25 -999.25 -999.25 
  59.900  58.922  2.5972  20.759 -19.885  4.3950  6.3680  0.1071  0.0377 
  11.840  2.5909  83.740  60.237  20.759  6.3680  4.3950 -1.9801  16.728 
  6.4654  4.3948  2.6100  91.782  0.0748 
  3342.000 
  11.842  93.276  0.0410  0.1140  0.0440 -999.25 -999.25 -999.25 -999.25 
  60.492  60.731  2.5824  18.536 -21.070  3.9170  5.6240  0.1339  0.0461 
  11.847  2.5707  84.232  64.407  18.536  5.6240  3.9170 -3.1760  14.846 
  5.7000  3.9169  2.5899  92.339  0.0995 
  3342.500 
  11.854  94.391  0.0580  0.1620  0.0490 -999.25 -999.25 -999.25 -999.25 
  67.233  58.641  2.5543  13.751 -24.140  2.9490  4.0210  0.1773  0.0486 
  11.857  2.5265  85.616  72.467  13.751  4.0210  2.9490 -6.2569  10.835 
  4.0598  2.9489  2.5457  93.883  0.1406 
  3343.000 
  11.862  95.426  0.1000  0.2000  0.0480 -999.25 -999.25 -999.25 -999.25 
  76.056  50.791  2.4850  7.8010 -26.081  2.5800  3.1970  0.2132  0.0441 
  11.865  2.4440  88.681  82.420  7.8010  3.1970  2.5800 -8.2089  5.9547 
  3.2215  2.5799  2.4633  97.265  0.1756 
  3343.500 
  11.871  96.740  0.1640  0.2340  0.0380 -999.25 -999.25 -999.25 -999.25 
  86.565  20.469  2.3794  5.0240 -28.021  2.3540  2.6520  0.2475  0.0335 
  11.873  2.3645  93.421  99.369  5.0240  2.6520  2.3540 -10.160  3.7389 
  2.6689  2.3540  2.3839  102.48  0.2099 
  3344.000 
  11.875  97.894  0.1880  0.2700  0.0260 -999.25 -999.25 -999.25 -999.25 
  107.29  10.613  2.3398  3.6120 -36.775  2.1410  2.4160  0.2769  0.0216 
  11.876  2.3183  94.553  112.04  3.6120  2.4160  2.1410 -18.925  2.6363 
  2.4300  2.1410  2.3376  103.74  0.2400 
  3344.500 
  11.879  99.724  0.2240  0.2890  0.0140 -999.25 -999.25 -999.25 -999.25 
  114.82  6.6200  2.2804  3.0740 -38.163  1.7790  2.0080  0.2946  0.0147 
  11.880  2.2718  95.666  113.67  3.0740  2.0080  1.7790 -20.324  2.2221 
  2.0177  1.7790  2.2911  104.97  0.2585 
  3345.000 
  11.883  100.36  0.2390  0.3050  0.0160 -999.25 -999.25 -999.25 -999.25 
  113.03  6.0320  2.2557  2.7690 -38.434  1.6600  1.8430  0.3080  0.0167 
  11.884  2.2551  96.981  115.18  2.7690  1.8430  1.6600 -20.606  1.9891 
  1.8512  1.6600  2.2745  106.42  0.2728 
  3345.500 
  11.887  100.13  0.2400  0.3140  0.0180 -999.25 -999.25 -999.25 -999.25 
  116.30  6.1840  2.2540  2.5560 -37.556  1.5890  1.7570  0.3201  0.0190 
  11.888  2.2540  98.323  119.02  2.5560  1.7570  1.5890 -19.739  1.8272 
  1.7644  1.5890  2.2734  107.91  0.2857 
  3346.000 
  11.889  102.51  0.2400  0.3330  0.0210 -999.25 -999.25 -999.25 -999.25 
  120.37  5.7270  2.2540  2.2900 -34.667  1.5980  1.7320  0.3411  0.0204 
  11.890  2.2520  99.890  122.19  2.2900  1.7320  1.5980 -16.860  1.6261 
  1.7392  1.5980  2.2714  109.63  0.3085 
  3346.500 
  11.891  106.21  0.2440  0.3590  0.0190 -999.25 -999.25 -999.25 -999.25 
  123.04  4.7060  2.2474  2.0150 -32.904  1.6280  1.7260  0.3661  0.0163 
  11.893  2.2430  100.29  124.55  2.0150  1.7260  1.6280 -15.108  1.4196 
  1.7332  1.6280  2.2624  110.09  0.3394 
  3347.000 
  11.899  106.65  0.2530  0.3830  0.0100 -999.25 -999.25 -999.25 -999.25 
  125.22  5.3110  2.2326  2.0720 -31.540  1.6620  1.7300  0.3790  0.0077 
  11.898  2.2283  100.87  126.34  2.0720  1.7300  1.6620 -13.755  1.4623 
  1.7372  1.6620  2.2478  110.74  0.3537 
  3347.500 
  11.896  106.21  0.2620  0.3690  0.0020 -999.25 -999.25 -999.25 -999.25 
  126.81  6.5740  2.2177  2.2220 -30.900  1.7250  1.7790  0.3649  0.0017 
  11.892  2.2155  103.76  122.90  2.2220  1.7790  1.7250 -13.126  1.5749 
  1.7866  1.7250  2.2349  113.89  0.3381 
  3348.000 
  11.880  103.95  0.2670  0.3540  0.0010 -999.25 -999.25 -999.25 -999.25 
  121.35  6.2680  2.2095  2.4190 -30.682  1.7930  1.8810  0.3499  0.0018 
  11.877  2.2107  106.37  110.00  2.4190  1.8810  1.7930 -12.919  1.7235 
  1.8895  1.7930  2.2301  116.70  0.3213 
  3348.500 
  11.868  100.97  0.2640  0.3380  0.0040 -999.25 -999.25 -999.25 -999.25 
  105.78  5.0580  2.2144  2.5610 -30.006  1.8640  2.0250  0.3365  0.0052 
  11.868  2.2152  106.48  101.00  2.5610  2.0250  1.8640 -12.254  1.8310 
  2.0348  1.8640  2.2345  116.80  0.3035 
  3349.000 
  11.870  97.632  0.2620  0.3320  0.0090 -999.25 -999.25 -999.25 -999.25 
  99.335  5.5050  2.2177  2.7620 -29.630  1.9170  2.1360  0.3306  0.0116 
  11.870  2.2181  105.27  91.559  2.7620  2.1360  1.9170 -11.889  1.9837 
  2.1469  1.9170  2.2374  115.48  0.2970 
  3349.500 
  11.872  94.374  0.2610  0.3260  0.0200 -999.25 -999.25 -999.25 -999.25 
  89.020  7.2470  2.2194  3.3810 -29.386  1.9530  2.1960  0.3264  0.0235 
  11.863  2.2201  102.63  81.421  3.3810  2.1960  1.9530 -11.656  2.4580 
  2.2075  1.9530  2.2394  112.56  0.2925 
  3350.000 
  11.829  92.467  0.2590  0.3280  0.0360 -999.25 -999.25 -999.25 -999.25 
  79.102  12.432  2.2227  3.6660 -30.375  1.9570  2.1730  0.3303  0.0391 
  11.801  2.2237  99.405  76.474  3.6660  2.1730  1.9570 -12.656  2.6781 
  2.1841  1.9570  2.2426  108.83  0.2966 
  3350.500 
  11.694  92.986  0.2560  0.3390  0.0510 -999.25 -999.25 -999.25 -999.25 
  75.727  11.109  2.2276  3.5100 -32.485  1.9050  2.1310  0.3452  0.0500 
  11.672  2.2260  96.019  88.115  3.5100  2.1310  1.9050 -14.777  2.5575 
  2.1413  1.9049  2.2442  104.75  0.3160 
  3351.000 
  11.579  97.203  0.2610  0.3710  0.0460 -999.25 -999.25 -999.25 -999.25 
  91.390  9.0980  2.2194  3.3360 -34.026  1.8540  2.0580  0.3730  0.0438 
  11.565  2.2182  93.380  96.803  3.3360  2.0580  1.8540 -16.329  2.4234 
  2.0673  1.8539  2.2357  101.57  0.3469 
  3351.500 
  11.504  98.597  0.2650  0.3820  0.0340 -999.25 -999.25 -999.25 -999.25 
  98.129  7.3180  2.2128  3.1410 -35.974  1.7980  1.9880  0.3817  0.0318 
  11.499  2.2111  92.751  112.28  3.1410  1.9880  1.7980 -18.288  2.2735 
  1.9965  1.7979  2.2282  100.69  0.3565 
  3352.000 
  11.476  97.367  0.2710  0.3800  0.0210 -999.25 -999.25 -999.25 -999.25 
  115.48  7.1200  2.2029  2.9910 -39.079  1.7410  1.9250  0.3780  0.0195 
  11.466  2.2039  95.403  118.68  2.9910  1.9250  1.7410 -21.404  2.1586 
  1.9328  1.7409  2.2208  103.47  0.3524 
  3352.500 
  11.413  94.228  0.2670  0.3670  0.0110 -999.25 -999.25 -999.25 -999.25 
  119.34  6.5730  2.2095  2.8740 -39.834  1.6750  1.7870  0.3646  0.0109 
  11.403  2.2108  98.038  116.92  2.8740  1.7870  1.6750 -22.170  2.0691 
  1.7936  1.6749  2.2274  106.14  0.3375 
  3353.000 
  11.341  90.534  0.2610  0.3500  0.0100 -999.25 -999.25 -999.25 -999.25 
  116.46  6.3260  2.2194  2.7560 -40.579  1.6370  1.7100  0.3487  0.0101 
  11.341  2.2208  97.828  113.92  2.7560  1.7100  1.6370 -22.925  1.9792 
  1.7159  1.6369  2.2370  105.72  0.3198 
