~Version Information
VERS.                     2.0: CWLS log ASCII Standard Version 2.00
WRAP.                     YES: Multiple lines per depth step
~Well Information Block
#MNEM.UNIT                               Data Type  Information
#---------                               ---------  -----------
STRT.FT                                   700.0000:
STOP.FT                                  4020.0000:
STEP.FT                                     0.5000:
NULL.                 -999.25                     :
COMP.                                             :COMPANY            
WELL.     MUDDY CREEK A #65-30                    :WELL               
FLD .                                             :FIELD              
CTRY.                                             :COUNTRY            
STAT.                                             :STATE              
LOC .                                             :LOCATION           
UWI .                                             :UNIQUE WELL ID     
SRVC.                                             :Service company    
DATE.                                             :LOG DATE           
~Curve Information
#MNEM.UNIT           API CODE  Curve Description
#---------           --------  -----------------
DEPT.FT                      :   1 DEPTH
CALI.IN                      :   2
GR  .GAPI                    :   3
DPHI.DEC                     :   4
NPHI.DEC                     :   5
DRHO.G/CC                    :   6
KSCI.MD                      :   7
PSCI.POR                     :   8
OSCI.POR                     :   9
WSCI.POR                     :  10
DT  .US/F                    :  11
MSFL.OHMM                    :  12
RHOB.G/C3                    :  13
SFL .OHMM                    :  14
SP  .MV                      :  15
ILD .OHMM                    :  16
ILM .OHMM                    :  17
NPHS.DEC                     :  18
DROS.G/CC                    :  19
CALS.IN                      :  20
ROBS.G/C3                    :  21
GRS .GAPI                    :  22
DTS .US/F                    :  23
RS  .OHMM                    :  24
RM  .OHMM                    :  25
RD  .OHMM                    :  26
SBL .MV                      :  27
SFLC.OHMM                    :  28
ILMC.OHMM                    :  29
ILDC.OHMM                    :  30
ROBC.G/C3                    :  31
GRC .GAPI                    :  32
NPHC.DEC                     :  33
~A
# ...
  3991.500 
  9.3010  102.73  0.2570  0.3100  0.0560 -999.25 -999.25 -999.25 -999.25 
  100.36  2.4950  2.2260  3.3580 -31.642  3.0580  2.6520  0.3180  0.0890 
  8.8400  2.1467  102.73  100.66  3.3580  2.6520  3.0580 -21.042  2.4403 
  2.6541  3.0562  2.1467  102.39  0.2823 
  3992.000 
  9.3130  102.21  0.2950  0.3130  0.0660 -999.25 -999.25 -999.25 -999.25 
  100.66  2.5810  2.1633  3.3610 -31.551  3.0660  2.6570  0.3200  0.0900 
  8.4500  2.1286  102.21  101.06  3.3610  2.6570  3.0660 -20.951  2.4426 
  2.6573  3.0640  2.1286  100.42  0.2843 
  3992.500 
  9.3170  93.345  0.3020  0.3150  0.0780 -999.25 -999.25 -999.25 -999.25 
  101.06  2.3230  2.1517  3.3490 -31.582  3.0900  2.6640  0.3210  0.0930 
  8.4020  2.1121  93.345  101.16  3.3490  2.6640  3.0900 -20.982  2.4334 
  2.6640  3.0879  2.1121  91.539  0.2854 
  3993.000 
  8.8400  85.352  0.3050  0.3180  0.0890 -999.25 -999.25 -999.25 -999.25 
  101.16  2.0130  2.1467  3.3400 -31.493  3.0970  2.6710  0.3220  0.0970 
  8.3700  2.1204  85.352  101.06  3.3400  2.6710  3.0970 -20.893  2.4264 
  2.6711  3.0949  2.1204  83.600  0.2865 
  3993.500 
  8.4500  73.464  0.3160  0.3200  0.0900 -999.25 -999.25 -999.25 -999.25 
  101.06  1.8350  2.1286  3.3470 -31.434  3.0980  2.6850  0.3220  0.1030 
  8.3620  2.1319  73.464  100.96  3.3470  2.6850  3.0980 -20.834  2.4318 
  2.6851  3.0959  2.1319  71.934  0.2865 
  3994.000 
  8.4020 -999.25  0.3260  0.3210  0.0930 -999.25 -999.25 -999.25 -999.25 
  100.96  2.4320  2.1121  3.3500 -31.429  3.0830  2.6930  0.3200  0.1100 
  8.3730  2.1369 -999.25  100.96  3.3500  2.6930  3.0830 -20.829  2.4341 
  2.6931  3.0809  2.1369 -999.25  0.2843 
  3994.500 
  8.3700 -999.25  0.3210  0.3220  0.0970 -999.25 -999.25 -999.25 -999.25 
  100.96  12.993  2.1204  3.3540 -31.371  3.0800  2.7080  0.3160  0.1130 
  8.3890  2.1451 -999.25  101.16  3.3540  2.7080  3.0800 -20.771  3.3540 
  2.7080  3.0800  2.1451 -999.25  0.3160 
  3995.000 
  8.3620 -999.25  0.3140  0.3220  0.1030 -999.25 -999.25 -999.25 -999.25 
  101.16  11.630  2.1319  3.3530 -31.274  3.0810  2.7160  0.3110  0.1130 
  8.4010  2.1501 -999.25  101.46  3.3530  2.7160  3.0810 -20.674  3.3530 
  2.7160  3.0810  2.1501 -999.25  0.3110 
  3995.500 
  8.3730 -999.25  0.3110  0.3200  0.1100 -999.25 -999.25 -999.25 -999.25 
  101.46  10.004  2.1369  3.3510 -31.275  3.0780  2.7240  0.3080  0.1080 
  8.3960  2.1484 -999.25  101.46  3.3510  2.7240  3.0780 -20.675  3.3510 
  2.7240  3.0780  2.1484 -999.25  0.3080 
  3996.000 
  8.3890 -999.25  0.3060  0.3160  0.1130 -999.25 -999.25 -999.25 -999.25 
  101.46  9.9460  2.1451  3.3500 -31.277  3.0790  2.7410  0.3090  0.1030 
  8.4000  2.1369 -999.25  101.56  3.3500  2.7410  3.0790 -20.677  3.3500 
  2.7410  3.0790  2.1369 -999.25  0.3090 
  3996.500 
  8.4010 -999.25  0.3030  0.3110  0.1130 -999.25 -999.25 -999.25 -999.25 
  101.56  9.9690  2.1501  3.3490 -31.302  3.0690  2.7580  0.3100  0.1010 
  8.3960  2.1270 -999.25  101.56  3.3490  2.7580  3.0690 -20.702  3.3490 
  2.7580  3.0690  2.1270 -999.25  0.3100 
  3997.000 
  8.3960 -999.25  0.3040  0.3080  0.1080 -999.25 -999.25 -999.25 -999.25 
  101.56  9.9930  2.1484  3.3480 -31.328  3.0610  2.7720  0.3110  0.1080 
  8.4000  2.1253 -999.25  101.46  3.3480  2.7720  3.0610 -20.728  3.3480 
  2.7720  3.0610  2.1253 -999.25  0.3110 
  3997.500 
  8.4000 -999.25  0.3110  0.3090  0.1030 -999.25 -999.25 -999.25 -999.25 
  101.46  9.9620  2.1369  3.3510 -31.373  3.0510  2.7820  0.3110  0.1180 
  8.4070  2.1385 -999.25  101.46  3.3510  2.7820  3.0510 -20.773  3.3510 
  2.7820  3.0510  2.1385 -999.25  0.3110 
  3998.000 
  8.3960 -999.25  0.3170  0.3100  0.1010 -999.25 -999.25 -999.25 -999.25 
  101.46  9.9310  2.1270  3.3570 -31.394  3.0530  2.7920  0.3070  0.1330 
  8.4190  2.1550 -999.25  101.46  3.3570  2.7920  3.0530 -20.794  3.3570 
  2.7920  3.0530  2.1550 -999.25  0.3070 
  3998.500 
  8.4000 -999.25  0.3180  0.3110  0.1080 -999.25 -999.25 -999.25 -999.25 
  101.46  9.9530  2.1253  3.3630 -31.384  3.0610  2.8130  0.3000  0.1360 
  8.4230  2.1715 -999.25  101.46  3.3630  2.8130  3.0610 -20.784  3.3630 
  2.8130  3.0610  2.1715 -999.25  0.3000 
  3999.000 
  8.4070 -999.25  0.3100  0.3110  0.1180 -999.25 -999.25 -999.25 -999.25 
  101.46  9.9760  2.1385  3.3610 -31.252  3.0660  2.8250  0.2980  0.1310 
  8.4270  2.1748 -999.25  101.46  3.3610  2.8250  3.0660 -20.652  3.3610 
  2.8250  3.0660  2.1748 -999.25  0.2980 
  3999.500 
  8.4190 -999.25  0.3000  0.3070  0.1330 -999.25 -999.25 -999.25 -999.25 
  101.46  10.079  2.1550  3.3640 -31.369  3.0720  2.8310  0.2970  0.1260 
  8.4210  2.1616 -999.25  101.56  3.3640  2.8310  3.0720 -20.769  3.3640 
  2.8310  3.0720  2.1616 -999.25  0.2970 
  4000.000 
  8.4230 -999.25  0.2900  0.3000  0.1360 -999.25 -999.25 -999.25 -999.25 
  101.56  10.076  2.1715  3.3540 -31.392  3.0760  2.8180  0.2990  0.1200 
  8.4150  2.1600 -999.25 -999.25  3.3540  2.8180  3.0760 -20.792  3.3540 
  2.8180  3.0760  2.1600 -999.25  0.2990 
  4000.500 
  8.4270 -999.25  0.2880  0.2980  0.1310 -999.25 -999.25 -999.25 -999.25 
 -999.25 -999.25  2.1748 -999.25 -999.25 -999.25 -999.25  0.3000  0.1260 
  8.4040  2.1666 -999.25 -999.25 -999.25 -999.25 -999.25 -999.25 -999.25 
 -999.25 -999.25  2.1666 -999.25  0.3000 
  4001.000 
  8.4210 -999.25  0.2960  0.2970  0.1260 -999.25 -999.25 -999.25 -999.25 
 -999.25 -999.25  2.1616 -999.25 -999.25 -999.25 -999.25  0.3010  0.1300 
  8.3920  2.1699 -999.25 -999.25 -999.25 -999.25 -999.25 -999.25 -999.25 
 -999.25 -999.25  2.1699 -999.25  0.3010 
  4001.500 
  8.4150 -999.25  0.2970  0.2990  0.1200 -999.25 -999.25 -999.25 -999.25 
 -999.25 -999.25  2.1600 -999.25 -999.25 -999.25 -999.25  0.3020  0.1200 
  8.3920  2.1600 -999.25 -999.25 -999.25 -999.25 -999.25 -999.25 -999.25 
 -999.25 -999.25  2.1600 -999.25  0.3020 
  4002.000 
  8.4040 -999.25  0.2930  0.3000  0.1260 -999.25 -999.25 -999.25 -999.25 
 -999.25 -999.25  2.1666 -999.25 -999.25 -999.25 -999.25  0.3020  0.1060 
  8.3920  2.1467 -999.25 -999.25 -999.25 -999.25 -999.25 -999.25 -999.25 
 -999.25 -999.25  2.1467 -999.25  0.3020 
  4002.500 
  8.3920 -999.25  0.2910  0.3010  0.1300 -999.25 -999.25 -999.25 -999.25 
 -999.25 -999.25  2.1699 -999.25 -999.25 -999.25 -999.25  0.3030  0.1000 
  8.3930  2.1286 -999.25 -999.25 -999.25 -999.25 -999.25 -999.25 -999.25 
 -999.25 -999.25  2.1286 -999.25  0.3030 
  4003.000 
  8.3920 -999.25  0.2970  0.3020  0.1200 -999.25 -999.25 -999.25 -999.25 
 -999.25 -999.25  2.1600 -999.25 -999.25 -999.25 -999.25  0.3030  0.0980 
  8.3990  2.1220 -999.25 -999.25 -999.25 -999.25 -999.25 -999.25 -999.25 
 -999.25 -999.25  2.1220 -999.25  0.3030 
  4003.500 
  8.3920 -999.25  0.3050  0.3020  0.1060 -999.25 -999.25 -999.25 -999.25 
 -999.25 -999.25  2.1467 -999.25 -999.25 -999.25 -999.25  0.3030  0.1010 
  8.4050  2.1270 -999.25 -999.25 -999.25 -999.25 -999.25 -999.25 -999.25 
 -999.25 -999.25  2.1270 -999.25  0.3030 
  4004.000 
  8.3930 -999.25  0.3160  0.3030  0.1000 -999.25 -999.25 -999.25 -999.25 
 -999.25 -999.25  2.1286 -999.25 -999.25 -999.25 -999.25  0.3040  0.1050 
  8.4130  2.1303 -999.25 -999.25 -999.25 -999.25 -999.25 -999.25 -999.25 
 -999.25 -999.25  2.1303 -999.25  0.3040 
  4004.500 
  8.3990 -999.25  0.3200  0.3030  0.0980 -999.25 -999.25 -999.25 -999.25 
 -999.25 -999.25  2.1220 -999.25 -999.25 -999.25 -999.25  0.3030  0.1060 
  8.4170  2.1336 -999.25 -999.25 -999.25 -999.25 -999.25 -999.25 -999.25 
 -999.25 -999.25  2.1336 -999.25  0.3030 
  4005.000 
  8.4050 -999.25  0.3170  0.3030  0.1010 -999.25 -999.25 -999.25 -999.25 
 -999.25 -999.25  2.1270 -999.25 -999.25 -999.25 -999.25  0.3030  0.1020 
  8.4210  2.1336 -999.25 -999.25 -999.25 -999.25 -999.25 -999.25 -999.25 
 -999.25 -999.25  2.1336 -999.25  0.3030 
  4005.500 
  8.4130 -999.25  0.3150  0.3040  0.1050 -999.25 -999.25 -999.25 -999.25 
 -999.25 -999.25  2.1303 -999.25 -999.25 -999.25 -999.25  0.3030  0.0980 
  8.4300  2.1237 -999.25 -999.25 -999.25 -999.25 -999.25 -999.25 -999.25 
 -999.25 -999.25  2.1237 -999.25  0.3030 
