~Version Information
VERS.                     2.0: CWLS log ASCII Standard Version 2.00
WRAP.                      NO: One line per depth step
~Well Information Block
#MNEM.UNIT                               Data Type  Information
#---------                               ---------  -----------
STRT.FT                                    40.0000:
STOP.FT                                  2065.0000:
STEP.FT                                     0.5000:
NULL.                 -999.25                     :
COMP.                                             :COMPANY            
WELL.     MORRISON #1                             :WELL               
FLD .                                             :FIELD              
CTRY.                                             :COUNTRY            
STAT.                                             :STATE              
LOC .                                             :LOCATION           
UWI .                                             :UNIQUE WELL ID     
SRVC.                                             :Service company    
DATE.                                             :LOG DATE           
~Curve Information
#MNEM.UNIT           API CODE  Curve Description
#---------           --------  -----------------
DEPT.FT                      :   1 DEPTH
SN  .OHMM                    :   2
LN  .OHMM                    :   3
SP  .MV                      :   4
SBL .MV                      :   5
RS  .OHMM                    :   6
RD  .OHMM                    :   7
~A
# ...
   710.000  5.4970  12.496 -8.5650 -10.565  5.4970  12.496 
   710.500  5.8530  12.665 -8.7600 -10.760  5.8530  12.665 
   711.000  6.1140  12.796 -9.4700 -11.470  6.1140  12.796 
   711.500  6.2010  12.927 -10.084 -12.084  6.2010  12.927 
   712.000  6.2890  12.976 -10.601 -12.601  6.2890  12.976 
   712.500  6.2700  13.025 -10.813 -12.813  6.2700  13.025 
   713.000  6.0210  12.228 -11.024 -13.024  6.0210  12.228 
   713.500  5.8010  11.479 -11.250 -13.250  5.8010  11.479 
   714.000  5.5520  10.366 -11.477 -13.477  5.5520  10.366 
   714.500  5.2270  9.4730 -11.430 -13.430  5.2270  9.4730 
   715.000  4.9150  8.6960 -11.383 -13.383  4.9150  8.6960 
   715.500  4.6040  8.1590 -11.094 -13.094  4.6040  8.1590 
   716.000  4.3360  7.9770 -10.999 -12.999  4.3360  7.9770 
   716.500  4.0680  7.7960 -10.903 -12.903  4.0680  7.7960 
   717.000  3.6650  7.9500 -10.808 -12.808  3.6650  7.9500 
   717.500  3.5030  8.1290 -10.729 -12.729  3.5030  8.1290 
   718.000  3.3210  8.3080 -10.649 -12.649  3.3210  8.3080 
   718.500  3.2170  8.9240 -10.635 -12.635  3.2170  8.9240 
   719.000  3.2080  9.5680 -10.620 -12.620  3.2080  9.5680 
   719.500  3.2280  10.069 -10.669 -12.669  3.2280  10.069 
   720.000  3.2390  10.435 -10.719 -12.719  3.2390  10.435 
   720.500  3.2490  10.637 -10.753 -12.753  3.2490  10.637 
   721.000  3.2600  10.758 -10.786 -12.786  3.2600  10.758 
   721.500  3.2700  10.880 -10.788 -12.788  3.2700  10.880 
   722.000  3.2810  11.063 -10.789 -12.789  3.2810  11.063 
   722.500  3.2910  11.160 -10.833 -12.833  3.2910  11.160 
   723.000  3.2970  11.214 -10.877 -12.877  3.2970  11.214 
   723.500  3.3030  11.268 -10.922 -12.922  3.3030  11.268 
   724.000  3.3040  11.278 -10.944 -12.944  3.3040  11.278 
   724.500  3.3050  10.866 -10.967 -12.967  3.3050  10.866 
   725.000  3.3150  10.655 -10.990 -12.990  3.3150  10.655 
   725.500  3.3260  10.445 -11.040 -13.040  3.3260  10.445 
   726.000  3.3270  10.210 -11.089 -13.089  3.3270  10.210 
   726.500  3.3230  9.9760 -11.155 -13.155  3.3230  9.9760 
   727.000  3.3190  9.7850 -11.221 -13.221  3.3190  9.7850 
   727.500  3.2910  9.5940 -11.287 -13.287  3.2910  9.5940 
   728.000  3.2770  9.4410 -11.352 -13.352  3.2770  9.4410 
   728.500  3.2640  9.3980 -11.531 -13.531  3.2640  9.3980 
   729.000  3.2460  9.3560 -11.710 -13.710  3.2460  9.3560 
   729.500  3.2370  9.4240 -11.469 -13.469  3.2370  9.4240 
   730.000  3.2280  10.890 -11.229 -13.229  3.2280  10.890 
   730.500  3.2200  12.357 -11.004 -13.004  3.2200  12.357 
   731.000  3.5860  12.771 -10.780 -12.780  3.5860  12.771 
   731.500  3.8410  12.824 -11.168 -13.168  3.8410  12.824 
   732.000  4.0970  12.878 -11.556 -13.556  4.0970  12.878 
   732.500  4.3090  12.874 -11.944 -13.944  4.3090  12.874 
   733.000  4.5210  12.870 -12.623 -14.623  4.5210  12.870 
   733.500  4.6380  12.857 -13.075 -15.075  4.6380  12.857 
   734.000  4.6770  12.844 -13.141 -15.141  4.6770  12.844 
   734.500  4.7070  12.479 -13.207 -15.207  4.7070  12.479 
   735.000  4.1700  11.049 -13.095 -15.095  4.1700  11.049 
   735.500  3.9830  10.723 -12.984 -14.984  3.9830  10.723 
   736.000  3.7970  10.493 -12.872 -14.872  3.7970  10.493 
   736.500  3.5380  10.264 -12.761 -14.761  3.5380  10.264 
   737.000  3.4620  9.9470 -12.617 -14.617  3.4620  9.9470 
   737.500  3.3860  9.7180 -12.473 -14.473  3.3860  9.7180 
   738.000  3.3590  9.5070 -12.377 -14.377  3.3590  9.5070 
   738.500  3.3310  9.3930 -12.282 -14.282  3.3310  9.3930 
   739.000  3.3220  9.2790 -12.154 -14.154  3.3220  9.2790 
   739.500  3.3320  9.0870 -12.043 -14.043  3.3320  9.0870 
   740.000  3.3290  8.9630 -11.931 -13.931  3.3290  8.9630 
   740.500  3.3250  8.8400 -11.723 -13.723  3.3250  8.8400 
   741.000  3.3260  8.9130 -11.515 -13.515  3.3260  8.9130 
   741.500  3.3270  8.9850 -11.097 -13.097  3.3270  8.9850 
   742.000  3.3230  9.1690 -10.679 -12.679  3.3230  9.1690 
   742.500  3.3190  9.4480 -10.164 -12.164  3.3190  9.4480 
   743.000  3.3390  9.5840 -9.8270 -11.827  3.3390  9.5840 
   743.500  3.3690  9.7190 -9.4900 -11.490  3.3690  9.7190 
   744.000  3.3980  10.748 -9.0070 -11.007  3.3980  10.748 
   744.500  3.4380  11.023 -8.8150 -10.815  3.4380  11.023 
   745.000  3.4770  11.298 -8.6230 -10.623  3.4770  11.298 
   745.500  3.5930  11.453 -8.5280 -10.528  3.5930  11.453 
   746.000  3.7100  11.607 -8.4330 -10.433  3.7100  11.607 
   746.500  3.7830  11.743 -8.3370 -10.337  3.7830  11.743 
   747.000  3.8560  11.849 -8.4030 -10.403  3.8560  11.849 
   747.500  3.9620  11.946 -9.1620 -11.162  3.9620  11.946 
   748.000  4.0690  12.043 -9.9210 -11.921  4.0690  12.043 
   748.500  4.1850  12.073 -10.406 -12.406  4.1850  12.073 
   749.000  4.1960  11.795 -10.891 -12.891  4.1960  11.795 
   749.500  3.7830  11.201 -10.972 -12.972  3.7830  11.201 
   750.000  3.4960  10.821 -11.054 -13.054  3.4960  10.821 
   750.500  3.4140  10.442 -11.085 -13.085  3.4140  10.442 
   751.000  3.3310  10.201 -11.116 -13.116  3.3310  10.201 
   751.500  3.2630  9.9600 -11.146 -13.146  3.2630  9.9600 
   752.000  3.2290  9.5840 -11.177 -13.177  3.2290  9.5840 
   752.500  3.1940  9.4680 -11.207 -13.207  3.1940  9.4680 
   753.000  3.1550  9.4100 -11.190 -13.190  3.1550  9.4100 
   753.500  3.1450  9.3510 -11.172 -13.172  3.1450  9.3510 
   754.000  3.1340  9.3690 -11.203 -13.203  3.1340  9.3690 
   754.500  3.1240  9.4020 -11.233 -13.233  3.1240  9.4020 
   755.000  3.1320  9.4350 -11.377 -13.377  3.1320  9.4350 
   755.500  3.1410  9.5110 -11.520 -13.520  3.1410  9.5110 
   756.000  3.1640  9.5870 -11.712 -13.712  3.1640  9.5870 
   756.500  3.1880  9.6540 -11.904 -13.904  3.1880  9.6540 
   757.000  3.2190  9.6910 -12.080 -14.080  3.2190  9.6910 
   757.500  3.2500  9.6810 -12.256 -14.256  3.2500  9.6810 
   758.000  3.2810  9.6700 -12.866 -14.866  3.2810  9.6700 
   758.500  3.3280  9.6220 -13.219 -15.219  3.3280  9.6220 
   759.000  3.3420  9.5050 -13.315 -15.315  3.3420  9.5050 
   759.500  3.3560  9.3890 -13.410 -15.410  3.3560  9.3890 
   760.000  3.3840  9.2920 -13.198 -15.198  3.3840  9.2920 
   760.500  3.4120  9.3400 -12.987 -14.987  3.4120  9.3400 
   761.000  3.3920  9.4830 -12.905 -14.905  3.3920  9.4830 
   761.500  3.3000  9.5830 -12.823 -14.823  3.3000  9.5830 
   762.000  3.2080  9.6830 -12.757 -14.757  3.2080  9.6830 
   762.500  3.0720  9.7590 -12.803 -14.803  3.0720  9.7590 
   763.000  2.9370  9.8350 -12.850 -14.850  2.9370  9.8350 
   763.500  2.8590  9.9110 -12.945 -14.945  2.8590  9.9110 
   764.000  2.7820  9.9250 -12.928 -14.928  2.7820  9.9250 
   764.500  2.8380  9.9380 -12.910 -14.910  2.8380  9.9380 
   765.000  2.9380  9.8320 -12.747 -14.747  2.9380  9.8320 
   765.500  3.0380  9.7690 -10.101 -12.101  3.0380  9.7690 
   766.000  3.1150  9.7050 -8.4560 -10.456  3.1150  9.7050 
   766.500  3.1620  9.6130 -7.8410 -9.8410  3.1620  9.6130 
   767.000  3.1750  9.5210 -7.7110 -9.7110  3.1750  9.5210 
   767.500  3.1890  9.4820 -7.5800 -9.5800  3.1890  9.4820 
   768.000  3.1880  9.4760 -7.5140 -9.5140  3.1880  9.4760 
   768.500  3.1870  9.4710 -7.4480 -9.4480  3.1870  9.4710 
   769.000  3.1820  9.5180 -7.4790 -9.4790  3.1820  9.5180 
   769.500  3.1760  9.9590 -7.5740 -9.5740  3.1760  9.9590 
   770.000  3.1750  10.098 -7.7330 -9.7330  3.1750  10.098 
   770.500  3.1750  10.236 -7.9570 -9.9570  3.1750  10.236 
   771.000  3.2070  10.231 -8.2460 -10.246  3.2070  10.231 
   771.500  3.2400  10.225 -8.5670 -10.567  3.2400  10.225 
   772.000  3.3160  10.051 -9.4030 -11.403  3.3160  10.051 
   772.500  3.3920  9.8390 -10.095 -12.095  3.3920  9.8390 
   773.000  3.4590  9.5790 -10.787 -12.787  3.4590  9.5790 
   773.500  3.5250  9.3570 -11.285 -13.285  3.5250  9.3570 
   774.000  3.5680  9.1350 -11.783 -13.783  3.5680  9.1350 
   774.500  3.6100  9.1100 -12.023 -14.023  3.6100  9.1100 
   775.000  3.7050  9.0850 -12.263 -14.263  3.7050  9.0850 
   775.500  3.8000  9.1140 -12.342 -14.342  3.8000  9.1140 
   776.000  3.7040  9.1420 -12.422 -14.422  3.7040  9.1420 
   776.500  3.5780  9.1890 -12.323 -14.323  3.5780  9.1890 
