~Version Information
VERS.                     2.0: CWLS log ASCII Standard Version 2.00
WRAP.                      NO: One line per depth step
~Well Information Block
#MNEM.UNIT                               Data Type  Information
#---------                               ---------  -----------
STRT.FT                                    40.0000:
STOP.FT                                  2065.0000:
STEP.FT                                     0.5000:
NULL.                 -999.25                     :
COMP.                                             :COMPANY            
WELL.     MORRISON #1                             :WELL               
FLD .                                             :FIELD              
CTRY.                                             :COUNTRY            
STAT.                                             :STATE              
LOC .                                             :LOCATION           
UWI .                                             :UNIQUE WELL ID     
SRVC.                                             :Service company    
DATE.                                             :LOG DATE           
~Curve Information
#MNEM.UNIT           API CODE  Curve Description
#---------           --------  -----------------
DEPT.FT                      :   1 DEPTH
SN  .OHMM                    :   2
LN  .OHMM                    :   3
SP  .MV                      :   4
SBL .MV                      :   5
RS  .OHMM                    :   6
RD  .OHMM                    :   7
~A
# ...
   576.000  2.9830  9.4490 -4.1580 -6.1580  2.9830  9.4490 
   576.500  2.6670  9.2190 -4.0800 -6.0800  2.6670  9.2190 
   577.000  2.5050  8.9900 -4.0010 -6.0010  2.5050  8.9900 
   577.500  2.4100  8.7610 -3.2130 -5.2130  2.4100  8.7610 
   578.000  2.3440  8.8100 -2.4250 -4.4250  2.3440  8.8100 
   578.500  2.2970  8.9080 -2.1530 -4.1530  2.2970  8.9080 
   579.000  2.3560  9.0050 -1.8810 -3.8810  2.3560  9.0050 
   579.500  2.5790  9.2320 -1.6890 -3.6890  2.5790  9.2320 
   580.000  2.9830  9.4590 -1.4980 -3.4980  2.9830  9.4590 
   580.500  3.0230  9.8060 -1.2090 -3.2090  3.0230  9.8060 
   581.000  3.0630  10.153 -1.5340 -3.5340  3.0630  10.153 
   581.500  3.2900  10.462 -1.8580 -3.8580  3.2900  10.462 
   582.000  3.5170  10.809 -2.0210 -4.0210  3.5170  10.809 
   582.500  3.7200  11.065 -2.0880 -4.0880  3.7200  11.065 
   583.000  3.9230  11.321 -2.1540 -4.1540  3.9230  11.321 
   583.500  3.9050  11.851 -2.2210 -4.2210  3.9050  11.851 
   584.000  3.7820  11.958 -2.3510 -4.3510  3.7820  11.958 
   584.500  3.5720  12.065 -2.6110 -4.6110  3.5720  12.065 
   585.000  3.3430  12.287 -2.8710 -4.8710  3.3430  12.287 
   585.500  3.0940  12.471 -3.6310 -5.6310  3.0940  12.471 
   586.000  3.5850  12.520 -4.3910 -6.3910  3.5850  12.520 
   586.500  4.4030  12.469 -5.1020 -7.1020  4.4030  12.469 
   587.000  4.9330  12.417 -5.8130 -7.8130  4.9330  12.417 
   587.500  5.8570  12.342 -6.2990 -8.2990  5.8570  12.342 
   588.000  6.4730  12.266 -5.3010 -7.3010  6.4730  12.266 
   588.500  6.4650  12.196 -4.6100 -6.6100  6.4650  12.196 
   589.000  6.4560  12.125 -3.9190 -5.9190  6.4560  12.125 
   589.500  6.1410  11.977 -2.9370 -4.9370  6.1410  11.977 
   590.000  4.7010  11.830 -1.9560 -3.9560  4.7010  11.830 
   590.500  4.1540  10.044 -1.2160 -3.2160  4.1540  10.044 
   591.000  3.8390  9.7190 -1.4110 -3.4110  3.8390  9.7190 
   591.500  3.6380  9.4320 -1.6070 -3.6070  3.6380  9.4320 
   592.000  3.3220  9.1450 -1.8670 -3.8670  3.3220  9.1450 
   592.500  3.2080  8.9350 -2.1260 -4.1260  3.2080  8.9350 
   593.000  3.1570  8.7820 -1.7410 -3.7410  3.1570  8.7820 
   593.500  3.1050  8.6870 -1.6300 -3.6300  3.1050  8.6870 
   594.000  3.0830  8.5930 -1.5200 -3.5200  3.0830  8.5930 
   594.500  3.0600  8.8820 -1.2960 -3.2960  3.0600  8.8820 
   595.000  3.0710  9.1620 -1.4270 -3.4270  3.0710  9.1620 
   595.500  3.1110  9.4420 -3.8150 -5.8150  3.1110  9.4420 
   596.000  3.1310  9.6450 -6.0730 -8.0730  3.1310  9.6450 
   596.500  3.1520  9.8480 -8.6550 -10.655  3.1520  9.8480 
   597.000  3.1870  10.003 -9.9790 -11.979  3.1870  10.003 
   597.500  3.2220  10.158 -10.561 -12.561  3.2220  10.158 
   598.000  3.2610  10.275 -11.143 -13.143  3.2610  10.275 
   598.500  3.3010  10.324 -11.532 -13.532  3.3010  10.324 
   599.000  3.3020  10.345 -11.292 -13.292  3.3020  10.345 
   599.500  3.2270  10.317 -11.052 -13.052  3.2270  10.317 
   600.000  3.1560  10.232 -10.651 -12.651  3.1560  10.232 
   600.500  3.0850  10.108 -10.249 -12.249  3.0850  10.108 
   601.000  2.8740  9.9840 -10.041 -12.041  2.8740  9.9840 
   601.500  2.8660  9.7830 -9.8330 -11.833  2.8660  9.7830 
   602.000  2.9240  9.5830 -9.7910 -11.791  2.9240  9.5830 
   602.500  2.9830  9.5210 -9.7500 -11.750  2.9830  9.5210 
   603.000  3.0560  9.4600 -9.7080 -11.708  3.0560  9.4600 
   603.500  3.1290  9.4650 -9.7580 -11.758  3.1290  9.4650 
   604.000  3.1780  9.4710 -9.8070 -11.807  3.1780  9.4710 
   604.500  3.2270  9.4820 -9.9050 -11.905  3.2270  9.4820 
   605.000  3.2620  9.4920 -10.003 -12.003  3.2620  9.4920 
   605.500  3.2960  9.5030 -10.166 -12.166  3.2960  9.5030 
   606.000  3.2970  9.5130 -10.328 -12.328  3.2970  9.5130 
   606.500  3.2880  9.5520 -10.491 -12.491  3.2880  9.5520 
   607.000  3.2320  9.5920 -10.653 -12.653  3.2320  9.5920 
   607.500  3.1460  9.6310 -10.816 -12.816  3.1460  9.6310 
   608.000  3.0600  9.6900 -10.478 -12.478  3.0600  9.6900 
   608.500  2.9850  9.7480 -10.141 -12.141  2.9850  9.7480 
   609.000  2.9280  9.8310 -9.3850 -11.385  2.9280  9.8310 
   609.500  2.9100  9.9140 -8.6280 -10.628  2.9100  9.9140 
   610.000  2.9870  10.039 -8.2430 -10.243  2.9870  10.039 
   610.500  3.0650  10.093 -8.3300 -10.330  3.0650  10.093 
   611.000  3.1290  10.147 -8.4170 -10.417  3.1290  10.147 
   611.500  3.1920  10.157 -8.5050 -10.505  3.1920  10.157 
   612.000  3.2360  10.168 -8.5870 -10.587  3.2360  10.168 
   612.500  3.2800  10.130 -8.6680 -10.668  3.2800  10.130 
   613.000  3.2230  10.112 -8.6860 -10.686  3.2230  10.112 
   613.500  3.2000  10.094 -8.7030 -10.703  3.2000  10.094 
   614.000  3.1770  10.071 -8.6720 -10.672  3.1770  10.071 
   614.500  3.2940  10.048 -8.6410 -10.641  3.2940  10.048 
   615.000  3.4100  10.068 -8.6320 -10.632  3.4100  10.068 
   615.500  3.6030  10.088 -8.6220 -10.622  3.6030  10.088 
   616.000  3.7670  10.262 -8.6130 -10.613  3.7670  10.262 
   616.500  3.8830  10.455 -8.5500 -10.550  3.8830  10.455 
   617.000  3.9520  10.586 -8.5350 -10.535  3.9520  10.586 
   617.500  4.0200  10.716 -8.5200 -10.520  4.0200  10.716 
   618.000  4.0300  10.784 -8.5370 -10.537  4.0300  10.784 
   618.500  3.8680  10.814 -8.5550 -10.555  3.8680  10.814 
   619.000  3.7050  10.786 -8.2340 -10.234  3.7050  10.786 
   619.500  3.5140  10.720 -7.9130 -9.9130  3.5140  10.720 
   620.000  3.3230  10.154 -7.6080 -9.6080  3.3230  10.154 
   620.500  3.3050  9.7990 -7.3030 -9.3030  3.3050  9.7990 
   621.000  3.2860  9.1950 -7.2070 -9.2070  3.2860  9.1950 
   621.500  3.2810  8.9940 -7.2510 -9.2510  3.2810  8.9940 
   622.000  3.2750  8.7940 -7.2960 -9.2960  3.2750  8.7940 
   622.500  3.2700  8.5060 -7.3400 -9.3400  3.2700  8.5060 
   623.000  3.2710  8.3440 -7.3890 -9.3890  3.2710  8.3440 
   623.500  3.2720  8.2770 -7.4390 -9.4390  3.2720  8.2770 
   624.000  3.2820  8.3460 -7.4080 -9.4080  3.2820  8.3460 
   624.500  3.2930  8.5290 -7.3770 -9.3770  3.2930  8.5290 
   625.000  3.3030  9.3850 -7.3460 -9.3460  3.3030  9.3850 
   625.500  3.3140  9.6650 -7.3310 -9.3310  3.3140  9.6650 
   626.000  3.3100  9.7330 -7.3170 -9.3170  3.3100  9.7330 
   626.500  3.3060  9.7670 -7.3020 -9.3020  3.3060  9.7670 
   627.000  3.2910  9.8020 -7.2870 -9.2870  3.2910  9.8020 
   627.500  3.2760  9.8220 -7.3200 -9.3200  3.2760  9.8220 
   628.000  3.2610  9.8420 -7.3540 -9.3540  3.2610  9.8420 
   628.500  3.2140  9.8910 -7.3880 -9.3880  3.2140  9.8910 
   629.000  3.1760  9.9350 -7.3460 -9.3460  3.1760  9.9350 
   629.500  3.1870  9.9800 -7.3040 -9.3040  3.1870  9.9800 
   630.000  3.1970  10.153 -7.2630 -9.2630  3.1970  10.153 
   630.500  3.2130  10.452 -7.2800 -9.2800  3.2130  10.452 
   631.000  3.2280  10.616 -7.2970 -9.2970  3.2280  10.616 
   631.500  3.2440  10.790 -7.3100 -9.3100  3.2440  10.790 
   632.000  3.2590  10.964 -7.3220 -9.3220  3.2590  10.964 
   632.500  3.2690  11.205 -7.3340 -9.3340  3.2690  11.205 
   633.000  3.2800  11.197 -7.2540 -9.2540  3.2800  11.197 
   633.500  3.3150  11.140 -7.1750 -9.1750  3.3150  11.140 
   634.000  3.3490  11.083 -7.1120 -9.1120  3.3490  11.083 
   634.500  3.3690  10.738 -7.0490 -9.0490  3.3690  10.738 
   635.000  3.3750  10.124 -6.9210 -8.9210  3.3750  10.124 
   635.500  3.3810  9.9710 -6.9700 -8.9700  3.3810  9.9710 
   636.000  3.3430  9.8190 -7.0200 -9.0200  3.3430  9.8190 
   636.500  3.3060  9.6320 -7.1830 -9.1830  3.3060  9.6320 
   637.000  3.2200  9.4460 -7.3450 -9.3450  3.2200  9.4460 
   637.500  3.2210  9.3310 -7.6040 -9.6040  3.2210  9.3310 
   638.000  3.2840  9.2360 -7.8630 -9.8630  3.2840  9.2360 
   638.500  3.3480  9.1600 -7.9290 -9.9290  3.3480  9.1600 
   639.000  3.4210  9.1420 -8.0270 -10.027  3.4210  9.1420 
   639.500  3.4940  9.1430 -8.1260 -10.126  3.4940  9.1430 
   640.000  3.5380  9.2500 -8.4810 -10.481  3.5380  9.2500 
   640.500  3.5820  9.3560 -8.5470 -10.547  3.5820  9.3560 
   641.000  3.5540  9.4340 -8.2260 -10.226  3.5540  9.4340 
   641.500  3.5170  9.5120 -7.9050 -9.9050  3.5170  9.5120 
   642.000  3.4790  9.7430 -7.6000 -9.6000  3.4790  9.7430 
   642.500  3.4370  9.8400 -7.2950 -9.2950  3.4370  9.8400 
