~Version Information
VERS.                     2.0: CWLS log ASCII Standard Version 2.00
WRAP.                      NO: One line per depth step
~Well Information Block
#MNEM.UNIT                               Data Type  Information
#---------                               ---------  -----------
STRT.FT                                    40.0000:
STOP.FT                                  2065.0000:
STEP.FT                                     0.5000:
NULL.                 -999.25                     :
COMP.                                             :COMPANY            
WELL.     MORRISON #1                             :WELL               
FLD .                                             :FIELD              
CTRY.                                             :COUNTRY            
STAT.                                             :STATE              
LOC .                                             :LOCATION           
UWI .                                             :UNIQUE WELL ID     
SRVC.                                             :Service company    
DATE.                                             :LOG DATE           
~Curve Information
#MNEM.UNIT           API CODE  Curve Description
#---------           --------  -----------------
DEPT.FT                      :   1 DEPTH
SN  .OHMM                    :   2
LN  .OHMM                    :   3
SP  .MV                      :   4
SBL .MV                      :   5
RS  .OHMM                    :   6
RD  .OHMM                    :   7
~A
# ...
   308.000  6.0500  12.371 -9.6520 -11.652  6.0500  12.371 
   308.500  6.0210  12.074 -9.7970 -11.797  6.0210  12.074 
   309.000  5.7710  11.738 -8.5720 -10.572  5.7710  11.738 
   309.500  5.5220  11.594 -8.0880 -10.088  5.5220  11.594 
   310.000  5.1950  11.402 -7.6050 -9.6050  5.1950  11.402 
   310.500  4.8690  11.488 -6.9920 -8.9920  4.8690  11.488 
   311.000  4.2150  11.911 -7.1210 -9.1210  4.2150  11.911 
   311.500  3.9370  12.161 -7.2500 -9.2500  3.9370  12.161 
   312.000  3.5530  12.353 -7.3630 -9.3630  3.5530  12.353 
   312.500  3.9370  12.546 -7.4750 -9.4750  3.9370  12.546 
   313.000  4.1300  12.796 -7.5240 -9.5240  4.1300  12.796 
   313.500  4.5330  12.930 -7.5720 -9.5720  4.5330  12.930 
   314.000  4.8310  13.113 -7.4750 -9.4750  4.8310  13.113 
   314.500  4.4370  13.497 -7.1530 -9.1530  4.4370  13.497 
   315.000  4.1490  13.959 -4.4450 -6.4450  4.1490  13.959 
   315.500  3.8520  14.449 -2.7040 -4.7040  3.8520  14.449 
   316.000  3.4580  14.641 -2.4780 -4.4780  3.4580  14.641 
   316.500  3.3620  14.805 -2.5420 -4.5420  3.3620  14.805 
   317.000  3.6500  15.045 -2.9290 -4.9290  3.6500  15.045 
   317.500  4.1890  15.146 -3.3160 -5.3160  4.1890  15.146 
   318.000  5.9370  15.247 -9.0550 -11.055  5.9370  15.247 
   318.500  7.2060  15.324 -10.490 -12.490  7.2060  15.324 
   319.000  7.6480  15.401 -11.925 -13.925  7.6480  15.401 
   319.500  7.7060  15.324 -13.956 -15.956  7.7060  15.324 
   320.000  7.5570  14.873 -14.730 -16.730  7.5570  14.873 
   320.500  7.4080  14.383 -15.407 -17.407  7.4080  14.383 
   321.000  7.1390  14.134 -15.778 -17.778  7.1390  14.134 
   321.500  6.8800  13.884 -16.149 -18.149  6.8800  13.884 
   322.000  6.6490  13.644 -16.761 -18.761  6.6490  13.644 
   322.500  6.3610  13.404 -17.148 -19.148  6.3610  13.404 
   323.000  6.2080  13.068 -17.374 -19.374  6.2080  13.068 
   323.500  6.4670  12.914 -17.567 -19.567  6.4670  12.914 
   324.000  7.4090  12.674 -17.632 -19.632  7.4090  12.674 
   324.500  8.4950  12.559 -17.503 -19.503  8.4950  12.559 
   325.000  8.6970  12.458 -16.987 -18.987  8.6970  12.458 
   325.500  8.4420  12.357 -15.600 -17.600  8.4420  12.357 
   326.000  8.1880  12.271 -13.085 -15.085  8.1880  12.271 
   326.500  7.5060  12.233 -11.796 -13.796  7.5060  12.233 
   327.000  7.1410  12.252 -9.9580 -11.958  7.1410  12.252 
   327.500  6.7280  12.267 -9.2170 -11.217  6.7280  12.267 
   328.000  6.3630  12.281 -8.4750 -10.475  6.3630  12.281 
   328.500  5.9980  12.282 -8.0240 -10.024  5.9980  12.282 
   329.000  5.5470  12.282 -7.9270 -9.9270  5.5470  12.282 
   329.500  5.0950  12.272 -7.0880 -9.0880  5.0950  12.272 
   330.000  4.6100  12.263 -6.6050 -8.6050  4.6100  12.263 
   330.500  4.1250  12.239 -6.5080 -8.5080  4.1250  12.239 
   331.000  3.5970  12.215 -6.4120 -8.4120  3.5970  12.215 
   331.500  3.2800  12.071 -6.9760 -8.9760  3.2800  12.071 
   332.000  2.9630  11.793 -7.5400 -9.5400  2.9630  11.793 
   332.500  2.5410  11.663 -7.5560 -9.5560  2.5410  11.663 
   333.000  2.1180  11.534 -7.5720 -9.5720  2.1180  11.534 
   333.500  1.7670  11.447 -5.6700 -7.6700  1.7670  11.447 
   334.000  1.4170  11.361 -3.3480 -5.3480  1.4170  11.361 
   334.500  1.4600  11.294 -2.5420 -4.5420  1.4600  11.294 
   335.000  1.5040  11.268 -2.4780 -4.4780  1.5040  11.268 
   335.500  1.5710  11.243 -2.4130 -4.4130  1.5710  11.243 
   336.000  1.5230  11.217 -2.6710 -4.6710  1.5230  11.217 
   336.500  1.4270  11.193 -2.9290 -4.9290  1.4270  11.193 
   337.000  1.3410  11.170 -3.1390 -5.1390  1.3410  11.170 
   337.500  1.2070  11.146 -3.3480 -5.3480  1.2070  11.146 
   338.000  1.1540  11.122 -3.4930 -5.4930  1.1540  11.122 
   338.500  1.1010  11.074 -3.6380 -5.6380  1.1010  11.074 
   339.000  1.1970  11.026 -3.6810 -5.6810  1.1970  11.026 
   339.500  1.6590  10.863 -3.7250 -5.7250  1.6590  10.863 
   340.000  1.7840  10.546 -3.7680 -5.7680  1.7840  10.546 
   340.500  1.7740  10.344 -3.7680 -5.7680  1.7740  10.344 
   341.000  1.7650  10.104 -3.7680 -5.7680  1.7650  10.104 
   341.500  1.3810  9.8640 -3.8160 -5.8160  1.3810  9.8640 
   342.000  1.2320  9.6340 -3.8640 -5.8640  1.2320  9.6340 
   342.500  1.0830  9.4030 -3.9290 -5.9290  1.0830  9.4030 
   343.000  1.0160  9.2110 -3.9930 -5.9930  1.0160  9.2110 
   343.500  1.0350  9.1830 -4.0580 -6.0580  1.0350  9.1830 
   344.000  1.0840  9.3850 -4.5410 -6.5410  1.0840  9.3850 
   344.500  1.2570  9.6730 -5.0250 -7.0250  1.2570  9.6730 
   345.000  1.4300  9.8560 -5.8950 -7.8950  1.4300  9.8560 
   345.500  1.6700  9.9230 -6.3310 -8.3310  1.6700  9.9230 
   346.000  1.7090  9.9810 -6.7660 -8.7660  1.7090  9.9810 
   346.500  1.7280  10.063 -7.1850 -9.1850  1.7280  10.063 
   347.000  1.6660  10.145 -7.3950 -9.3950  1.6660  10.145 
   347.500  1.6040  10.260 -7.6050 -9.6050  1.6040  10.260 
   348.000  1.3830  10.222 -7.9590 -9.9590  1.3830  10.222 
   348.500  1.2580  10.184 -8.0880 -10.088  1.2580  10.184 
   349.000  1.3060  9.9820 -8.1200 -10.120  1.3060  9.9820 
   349.500  1.3540  9.7990 -7.8950 -9.8950  1.3540  9.7990 
   350.000  2.0850  9.6070 -7.5410 -9.5410  2.0850  9.6070 
   350.500  2.4410  9.4070 -7.1870 -9.1870  2.4410  9.4070 
   351.000  2.8840  9.2160 -6.8010 -8.8010  2.8840  9.2160 
   351.500  3.0200  9.0630 -6.4650 -8.4650  3.0200  9.0630 
   352.000  3.1560  9.0070 -6.1280 -8.1280  3.1560  9.0070 
   352.500  3.4160  8.9980 -5.4840 -7.4840  3.4160  8.9980 
   353.000  3.4460  9.0540 -5.2440 -7.2440  3.4460  9.0540 
   353.500  3.3800  9.1090 -5.0040 -7.0040  3.3800  9.1090 
   354.000  3.1890  9.1650 -4.4570 -6.4570  3.1890  9.1650 
   354.500  2.8340  9.4830 -4.2980 -6.2980  2.8340  9.4830 
   355.000  2.3170  9.6670 -4.1380 -6.1380  2.3170  9.6670 
   355.500  1.9530  10.148 -3.8820 -5.8820  1.9530  10.148 
   356.000  1.7910  10.380 -3.8510 -5.8510  1.7910  10.380 
   356.500  1.6760  10.631 -3.8210 -5.8210  1.6760  10.631 
   357.000  1.6010  10.766 -3.8540 -5.8540  1.6010  10.766 
   357.500  1.5780  10.945 -3.8880 -5.8880  1.5780  10.945 
   358.000  1.5550  11.124 -3.8740 -5.8740  1.5550  11.124 
   358.500  1.5610  11.260 -3.8590 -5.8590  1.5610  11.260 
   359.000  1.5670  11.251 -3.8450 -5.8450  1.5670  11.251 
   359.500  1.5630  11.185 -3.8310 -5.8310  1.5630  11.185 
   360.000  1.5590  10.917 -3.8960 -5.8960  1.5590  10.917 
   360.500  1.5600  9.9480 -4.1560 -6.1560  1.5600  9.9480 
   361.000  1.5620  9.8150 -4.3990 -6.3990  1.5620  9.8150 
   361.500  1.5530  9.6810 -4.6430 -6.6430  1.5530  9.6810 
   362.000  1.5450  9.5380 -5.0640 -7.0640  1.5450  9.5380 
   362.500  1.5360  9.4820 -5.0330 -7.0330  1.5360  9.4820 
   363.000  1.5280  9.4250 -4.9810 -6.9810  1.5280  9.4250 
   363.500  1.5340  9.5220 -4.9290 -6.9290  1.5340  9.5220 
   364.000  1.5390  9.6530 -4.8770 -6.8770  1.5390  9.6530 
   364.500  1.5410  9.7840 -4.9110 -6.9110  1.5410  9.7840 
   365.000  1.5420  9.9200 -4.9450 -6.9450  1.5420  9.9200 
   365.500  1.5240  10.195 -5.3010 -7.3010  1.5240  10.195 
   366.000  1.5150  10.470 -5.6570 -7.6570  1.5150  10.470 
   366.500  1.5070  10.509 -6.5610 -8.5610  1.5070  10.509 
   367.000  1.4930  10.510 -6.7240 -8.7240  1.4930  10.510 
   367.500  1.4800  10.377 -6.8870 -8.8870  1.4800  10.377 
   368.000  1.4720  10.215 -6.9530 -8.9530  1.4720  10.215 
   368.500  1.4630  10.076 -6.8900 -8.8900  1.4630  10.076 
   369.000  1.4550  9.9380 -6.8280 -8.8280  1.4550  9.9380 
   369.500  1.4460  9.8340 -5.7650 -7.7650  1.4460  9.8340 
   370.000  1.4420  9.7290 -5.3800 -7.3800  1.4420  9.7290 
   370.500  1.4390  9.8930 -5.3330 -7.3330  1.4390  9.8930 
   371.000  1.4350  10.039 -5.2860 -7.2860  1.4350  10.039 
   371.500  1.4310  10.184 -5.3680 -7.3680  1.4310  10.184 
   372.000  1.4320  10.723 -5.4510 -7.4510  1.4320  10.723 
   372.500  1.4820  11.051 -5.7420 -7.7420  1.4820  11.051 
   373.000  1.5690  11.191 -6.0340 -8.0340  1.5690  11.191 
   373.500  1.6380  11.332 -6.2780 -8.2780  1.6380  11.332 
   374.000  1.5860  11.487 -6.5210 -8.5210  1.5860  11.487 
   374.500  1.5340  11.574 -6.7160 -8.7160  1.5340  11.574 
