~Version Information
VERS.                     2.0: CWLS log ASCII Standard Version 2.00
WRAP.                      NO: One line per depth step
~Well Information Block
#MNEM.UNIT                               Data Type  Information
#---------                               ---------  -----------
STRT.FT                                    40.0000:
STOP.FT                                  2065.0000:
STEP.FT                                     0.5000:
NULL.                 -999.25                     :
COMP.                                             :COMPANY            
WELL.     MORRISON #1                             :WELL               
FLD .                                             :FIELD              
CTRY.                                             :COUNTRY            
STAT.                                             :STATE              
LOC .                                             :LOCATION           
UWI .                                             :UNIQUE WELL ID     
SRVC.                                             :Service company    
DATE.                                             :LOG DATE           
~Curve Information
#MNEM.UNIT           API CODE  Curve Description
#---------           --------  -----------------
DEPT.FT                      :   1 DEPTH
SN  .OHMM                    :   2
LN  .OHMM                    :   3
SP  .MV                      :   4
SBL .MV                      :   5
RS  .OHMM                    :   6
RD  .OHMM                    :   7
~A
# ...
  1447.000  5.5120  11.664 -12.000 -14.000  5.5120  11.664 
  1447.500  6.0550  11.630 -12.038 -14.038  6.0550  11.630 
  1448.000  6.7730  11.567 -12.077 -14.077  6.7730  11.567 
  1448.500  7.2680  11.350 -12.690 -14.690  7.2680  11.350 
  1449.000  7.7640  11.172 -13.818 -15.818  7.7640  11.172 
  1449.500  8.4810  11.129 -21.256 -23.256  8.4810  11.129 
  1450.000  9.5640  11.086 -24.144 -26.144  9.5640  11.086 
  1450.500  11.235  11.255 -23.655 -25.655  11.235  11.255 
  1451.000  12.569  13.513 -23.135 -25.135  12.569  13.513 
  1451.500  13.624  13.980 -22.741 -24.741  13.624  13.980 
  1452.000  14.429  14.294 -22.814 -24.814  14.429  14.294 
  1452.500  15.339  14.579 -22.886 -24.886  15.339  14.579 
  1453.000  15.710  15.374 -23.005 -25.005  15.710  15.374 
  1453.500  15.523  15.841 -23.045 -25.045  15.523  15.841 
  1454.000  15.274  16.270 -23.086 -25.086  15.274  16.270 
  1454.500  15.025  16.834 -22.564 -24.564  15.025  16.834 
  1455.000  14.365  17.629 -22.203 -24.203  14.365  17.629 
  1455.500  14.024  17.866 -22.313 -24.313  14.024  17.866 
  1456.000  13.712  18.314 -22.422 -24.422  13.712  18.314 
  1456.500  13.323  18.704 -22.532 -24.532  13.323  18.704 
  1457.000  12.924  19.037 -22.618 -24.618  12.924  19.037 
  1457.500  12.646  19.236 -22.563 -24.563  12.646  19.236 
  1458.000  12.367  19.434 -22.507 -24.507  12.367  19.434 
  1458.500  12.036  19.651 -21.632 -23.632  12.036  19.651 
  1459.000  11.704  19.762 -20.984 -22.984  11.704  19.762 
  1459.500  11.411  19.864 -20.336 -22.336  11.411  19.864 
  1460.000  11.118  19.927 -19.109 -21.109  11.118  19.927 
  1460.500  10.854  19.991 -18.235 -20.235  10.854  19.991 
  1461.000  10.590  19.948 -18.452 -20.452  10.590  19.948 
  1461.500  10.369  19.814 -19.693 -21.693  10.369  19.814 
  1462.000  10.149  19.680 -20.901 -22.901  10.149  19.680 
  1462.500  9.7300  19.377 -21.310 -23.310  9.7300  19.377 
  1463.000  10.014  19.392 -21.686 -23.686  10.014  19.392 
  1463.500  10.434  20.081 -21.758 -23.758  10.434  20.081 
  1464.000  10.998  20.337 -21.830 -23.830  10.998  20.337 
  1464.500  11.225  20.573 -21.532 -23.532  11.225  20.573 
  1465.000  11.452  20.675 -21.012 -23.012  11.452  20.675 
  1465.500  11.655  20.777 -19.593 -21.593  11.655  20.777 
  1466.000  11.858  20.879 -18.464 -20.464  11.858  20.879 
  1466.500  12.104  20.999 -17.207 -19.207  12.104  20.999 
  1467.000  12.186  21.091 -15.982 -17.982  12.186  21.091 
  1467.500  12.028  20.125 -14.757 -16.757  12.028  20.125 
  1468.000  11.870  19.610 -12.122 -14.122  11.870  19.610 
  1468.500  11.620  19.144 -9.4870 -11.487  11.620  19.144 
  1469.000  11.371  18.658 -6.9160 -8.9160  11.371  18.658 
  1469.500  10.807  18.645 -5.9790 -7.9790  10.807  18.645 
  1470.000  10.505  18.900 -5.0410 -7.0410  10.505  18.900 
  1470.500  10.231  19.349 -4.4240 -6.4240  10.231  19.349 
  1471.000  9.5340  19.768 -4.0800 -6.0800  9.5340  19.768 
  1471.500  9.2310  20.053 -3.7360 -5.7360  9.2310  20.053 
  1472.000  8.9000  20.078 -3.4390 -5.4390  8.9000  20.078 
  1472.500  8.5690  18.909 -3.1430 -5.1430  8.5690  18.909 
  1473.000  7.9860  18.240 -2.9210 -4.9210  7.9860  18.240 
  1473.500  7.7800  18.063 -2.7000 -4.7000  7.7800  18.063 
  1474.000  7.4100  18.145 -2.4780 -4.4780  7.4100  18.145 
  1474.500  7.8300  18.237 -2.3090 -4.3090  7.8300  18.237 
  1475.000  8.3450  18.936 -2.1410 -4.1410  8.3450  18.936 
  1475.500  8.3370  19.986 -1.9470 -3.9470  8.3370  19.986 
  1476.000  8.0590  20.613 -1.9330 -3.9330  8.0590  20.613 
  1476.500  7.8100  20.894 -1.9180 -3.9180  7.8100  20.894 
  1477.000  7.4160  21.155 -1.9180 -3.9180  7.4160  21.155 
  1477.500  7.0130  21.358 -1.9180 -3.9180  7.0130  21.358 
  1478.000  6.6680  21.341 -2.0960 -4.0960  6.6680  21.341 
  1478.500  6.3510  21.231 -2.2730 -4.2730  6.3510  21.231 
  1479.000  6.1120  21.122 -3.2650 -5.2650  6.1120  21.122 
  1479.500  6.0990  19.525 -4.0830 -6.0830  6.0990  19.525 
  1480.000  6.0850  19.232 -4.9020 -6.9020  6.0850  19.232 
  1480.500  6.7990  18.940 -5.5410 -7.5410  6.7990  18.940 
  1481.000  7.1280  18.536 -5.7980 -7.7980  7.1280  18.536 
  1481.500  7.2640  18.383 -5.7340 -7.7340  7.2640  18.383 
  1482.000  7.3420  18.298 -4.5180 -6.5180  7.3420  18.298 
  1482.500  7.3240  18.213 -3.5750 -5.5750  7.3240  18.213 
  1483.000  7.3060  17.839 -2.6310 -4.6310  7.3060  17.839 
  1483.500  5.9300  17.214 -1.5080 -3.5080  5.9300  17.214 
  1484.000  5.5180  16.493 -2.5670 -4.5670  5.5180  16.493 
  1484.500  5.2160  15.830 -3.1120 -5.1120  5.2160  15.830 
  1485.000  4.9140  15.408 -3.1300 -5.1300  4.9140  15.408 
  1485.500  4.4140  15.207 -3.1470 -5.1470  4.4140  15.207 
  1486.000  4.0880  15.083 -3.3720 -5.3720  4.0880  15.083 
  1486.500  3.9160  15.094 -3.5970 -5.5970  3.9160  15.094 
  1487.000  3.7440  15.114 -5.1020 -7.1020  3.7440  15.114 
  1487.500  3.6440  15.106 -6.0470 -8.0470  3.6440  15.106 
  1488.000  3.5440  14.895 -6.9930 -8.9930  3.5440  14.895 
  1488.500  3.6180  14.010 -7.7300 -9.7300  3.6180  14.010 
  1489.000  3.6910  13.627 -8.4680 -10.468  3.6910  13.627 
  1489.500  5.0110  13.358 -8.9480 -10.948  5.0110  13.358 
  1490.000  6.6010  13.331 -8.3240 -10.324  6.6010  13.331 
  1490.500  7.2950  13.448 -7.7010 -9.7010  7.2950  13.448 
  1491.000  7.7780  13.565 -6.3880 -8.3880  7.7780  13.565 
  1491.500  7.6250  13.667 -5.5880 -7.5880  7.6250  13.667 
  1492.000  7.3470  13.769 -5.7970 -7.7970  7.3470  13.769 
  1492.500  7.3630  13.799 -6.0070 -8.0070  7.3630  13.799 
  1493.000  7.3790  13.742 -6.7440 -8.7440  7.3790  13.742 
  1493.500  7.4760  13.426 -7.4800 -9.4800  7.4760  13.426 
  1494.000  7.5160  13.003 -7.9290 -9.9290  7.5160  13.003 
  1494.500  7.4970  12.822 -8.1850 -10.185  7.4970  12.822 
  1495.000  7.1420  12.495 -8.1220 -10.122  7.1420  12.495 
  1495.500  6.0750  12.266 -7.8980 -9.8980  6.0750  12.266 
  1496.000  4.3910  12.094 -7.4510 -9.4510  4.3910  12.094 
  1496.500  3.8630  11.777 -6.8750 -8.8750  3.8630  11.777 
  1497.000  3.8160  11.432 -6.1390 -8.1390  3.8160  11.432 
  1497.500  4.1450  11.231 -5.5480 -7.5480  4.1450  11.231 
  1498.000  4.8490  11.492 -4.9570 -6.9570  4.8490  11.492 
  1498.500  5.0620  11.734 -4.8620 -6.8620  5.0620  11.734 
  1499.000  5.3140  11.976 -4.7660 -6.7660  5.3140  11.976 
  1499.500  6.3740  12.641 -4.6700 -6.6700  6.3740  12.641 
  1500.000  7.4050  12.951 -4.6490 -6.6490  7.4050  12.951 
  1500.500  7.6700  13.263 -4.6270 -6.6270  7.6700  13.263 
  1501.000  7.7800  13.509 -4.5970 -6.5970  7.7800  13.509 
  1501.500  7.7230  13.744 -4.5660 -6.5660  7.7230  13.744 
  1502.000  7.6650  13.903 -4.5350 -6.5350  7.6650  13.903 
  1502.500  7.1400  13.927 -4.4450 -6.4450  7.1400  13.927 
  1503.000  6.2390  13.759 -4.3550 -6.3550  6.2390  13.759 
  1503.500  5.6560  13.590 -4.2820 -6.2820  5.6560  13.590 
  1504.000  5.2090  13.181 -4.2090 -6.2090  5.2090  13.181 
  1504.500  4.7230  12.772 -4.1360 -6.1360  4.7230  12.772 
  1505.000  4.4770  12.131 -4.0300 -6.0300  4.4770  12.131 
  1505.500  4.2320  11.953 -3.9250 -5.9250  4.2320  11.953 
  1506.000  3.7930  11.610 -3.6890 -5.6890  3.7930  11.610 
  1506.500  3.7640  11.490 -3.5520 -5.5520  3.7640  11.490 
  1507.000  3.7360  11.273 -3.4150 -5.4150  3.7360  11.273 
  1507.500  3.7450  11.240 -3.2140 -5.2140  3.7450  11.240 
  1508.000  3.7550  11.206 -3.0120 -5.0120  3.7550  11.206 
  1508.500  3.7880  11.162 -2.7140 -4.7140  3.7880  11.162 
  1509.000  3.8220  11.162 -2.4170 -4.4170  3.8220  11.162 
  1509.500  3.8500  11.162 -2.0220 -4.0220  3.8500  11.162 
  1510.000  3.8790  11.254 -1.6270 -3.6270  3.8790  11.254 
  1510.500  3.8640  11.345 -1.3290 -3.3290  3.8640  11.345 
  1511.000  3.8500  11.812 -1.1260 -3.1260  3.8500  11.812 
  1511.500  3.6900  12.423 -1.0380 -3.0380  3.6900  12.423 
  1512.000  3.5410  12.707 -0.9490 -2.9490  3.5410  12.707 
  1512.500  3.5170  12.923 -0.9380 -2.9380  3.5170  12.923 
  1513.000  3.5310  12.986 -1.1370 -3.1370  3.5310  12.986 
  1513.500  3.5460  13.049 -1.3350 -3.3350  3.5460  13.049 
