~Version Information
VERS.                     2.0: CWLS log ASCII Standard Version 2.00
WRAP.                      NO: One line per depth step
~Well Information Block
#MNEM.UNIT                               Data Type  Information
#---------                               ---------  -----------
STRT.FT                                    40.0000:
STOP.FT                                  2065.0000:
STEP.FT                                     0.5000:
NULL.                 -999.25                     :
COMP.                                             :COMPANY            
WELL.     MORRISON #1                             :WELL               
FLD .                                             :FIELD              
CTRY.                                             :COUNTRY            
STAT.                                             :STATE              
LOC .                                             :LOCATION           
UWI .                                             :UNIQUE WELL ID     
SRVC.                                             :Service company    
DATE.                                             :LOG DATE           
~Curve Information
#MNEM.UNIT           API CODE  Curve Description
#---------           --------  -----------------
DEPT.FT                      :   1 DEPTH
SN  .OHMM                    :   2
LN  .OHMM                    :   3
SP  .MV                      :   4
SBL .MV                      :   5
RS  .OHMM                    :   6
RD  .OHMM                    :   7
~A
# ...
  1045.000  2.4600  9.1990 -13.651 -15.651  2.4600  9.1990 
  1045.500  2.5220  10.368 -12.664 -14.664  2.5220  10.368 
  1046.000  2.5740  10.757 -11.323 -13.323  2.5740  10.757 
  1046.500  2.6260  10.934 -10.560 -12.560  2.6260  10.934 
  1047.000  2.6640  11.025 -9.7960 -11.796  2.6640  11.025 
  1047.500  2.7010  11.116 -8.5840 -10.584  2.7010  11.116 
  1048.000  2.6960  11.206 -8.1090 -10.109  2.6960  11.206 
  1048.500  2.6900  11.297 -8.4020 -10.402  2.6900  11.297 
  1049.000  2.5680  11.344 -11.385 -13.385  2.5680  11.344 
  1049.500  2.5240  11.392 -12.928 -14.928  2.5240  11.392 
  1050.000  2.4990  11.453 -13.991 -15.991  2.4990  11.453 
  1050.500  2.4750  11.380 -14.525 -16.525  2.4750  11.380 
  1051.000  2.5360  11.105 -14.675 -16.675  2.5360  11.105 
  1051.500  2.8100  10.272 -13.928 -15.928  2.8100  10.272 
  1052.000  3.0840  9.5060 -11.386 -13.386  3.0840  9.5060 
  1052.500  3.2130  8.4990 -10.640 -12.640  3.2130  8.4990 
  1053.000  3.3040  8.1570 -9.8940 -11.894  3.3040  8.1570 
  1053.500  3.2510  7.8240 -9.1480 -11.148  3.2510  7.8240 
  1054.000  2.7070  7.5780 -7.8230 -9.8230  2.7070  7.5780 
  1054.500  2.4950  7.4190 -7.2040 -9.2040  2.4950  7.4190 
  1055.000  2.2830  7.5770 -7.0330 -9.0330  2.2830  7.5770 
  1055.500  2.3630  7.8320 -6.9910 -8.9910  2.3630  7.8320 
  1056.000  2.7330  8.1250 -6.9650 -8.9650  2.7330  8.1250 
  1056.500  3.0170  8.4950 -6.9400 -8.9400  3.0170  8.4950 
  1057.000  2.8670  8.6780 -6.8980 -8.8980  2.8670  8.6780 
  1057.500  2.7750  8.8600 -6.8560 -8.8560  2.7750  8.8600 
  1058.000  2.6840  9.3160 -6.5870 -8.5870  2.6840  9.3160 
  1058.500  2.5340  9.4170 -6.0650 -8.0650  2.5340  9.4170 
  1059.000  2.4510  9.5860 -5.2210 -7.2210  2.4510  9.5860 
  1059.500  2.6670  9.7540 -6.6210 -8.6210  2.6670  9.7540 
  1060.000  3.1530  10.085 -7.6680 -9.6680  3.1530  10.085 
  1060.500  3.3020  10.282 -7.7380 -9.7380  3.3020  10.282 
  1061.000  3.3540  10.430 -7.8090 -9.8090  3.3540  10.430 
  1061.500  3.2430  10.493 -4.9460 -6.9460  3.2430  10.493 
  1062.000  2.9870  10.584 -3.9750 -5.9750  2.9870  10.584 
  1062.500  2.5300  10.549 -3.8380 -5.8380  2.5300  10.549 
  1063.000  1.8120  10.236 -3.7000 -5.7000  1.8120  10.236 
  1063.500  1.1810  9.7690 -3.8180 -5.8180  1.1810  9.7690 
  1064.000  0.7900  9.2820 -3.9360 -5.9360  0.7900  9.2820 
  1064.500  1.2370  8.8340 -4.5000 -6.5000  1.2370  8.8340 
  1065.000  1.6170  8.4330 -5.4190 -7.4190  1.6170  8.4330 
  1065.500  2.0020  8.2450 -8.6440 -10.644  2.0020  8.2450 
  1066.000  2.3870  8.1820 -10.267 -12.267  2.3870  8.1820 
  1066.500  3.1030  8.2590 -11.346 -13.346  3.1030  8.2590 
  1067.000  3.3580  8.3360 -11.336 -13.336  3.3580  8.3360 
  1067.500  3.6130  8.6190 -11.229 -13.229  3.6130  8.6190 
  1068.000  4.0880  8.9120 -10.995 -12.995  4.0880  8.9120 
  1068.500  4.1940  9.0370 -10.825 -12.825  4.1940  9.0370 
  1069.000  4.3000  9.1620 -11.103 -13.103  4.3000  9.1620 
  1069.500  4.4200  9.6850 -12.085 -14.085  4.4200  9.6850 
  1070.000  4.5390  11.432 -12.908 -14.908  4.5390  11.432 
  1070.500  4.0810  11.629 -13.955 -15.955  4.0810  11.629 
  1071.000  3.9650  11.778 -14.425 -16.425  3.9650  11.778 
  1071.500  3.8500  11.821 -13.742 -15.742  3.8500  11.821 
  1072.000  3.5550  11.873 -13.060 -15.060  3.5550  11.873 
  1072.500  3.2610  11.848 -11.799 -13.799  3.2610  11.848 
  1073.000  2.7930  11.757 -11.133 -13.133  2.7930  11.757 
  1073.500  2.4030  11.549 -10.467 -12.467  2.4030  11.549 
  1074.000  2.1470  11.380 -8.9500 -10.950  2.1470  11.380 
  1074.500  1.9980  10.961 -7.9140 -9.9140  1.9980  10.961 
  1075.000  2.0880  10.513 -6.8480 -8.8480  2.0880  10.513 
  1075.500  2.3050  10.170 -6.9180 -8.9180  2.3050  10.170 
  1076.000  2.5400  9.8570 -8.0760 -10.076  2.5400  9.8570 
  1076.500  2.7270  9.5630 -9.7160 -11.716  2.7270  9.5630 
  1077.000  2.4810  9.3650 -12.284 -14.284  2.4810  9.3650 
  1077.500  2.0420  9.5420 -13.155 -15.155  2.0420  9.5420 
  1078.000  1.7670  9.7680 -13.610 -15.610  1.7670  9.7680 
  1078.500  1.6370  10.234 -14.064 -16.064  1.6370  10.234 
  1079.000  1.6120  10.546 -13.748 -15.748  1.6120  10.546 
  1079.500  1.8280  10.676 -13.306 -15.306  1.8280  10.676 
  1080.000  2.1210  10.758 -12.319 -14.319  2.1210  10.758 
  1080.500  2.5390  10.839 -11.107 -13.107  2.5390  10.839 
  1081.000  2.6880  10.906 -9.9280 -11.928  2.6880  10.906 
  1081.500  2.8370  10.972 -8.9090 -10.909  2.8370  10.972 
  1082.000  3.2450  11.015 -7.7610 -9.7610  3.2450  11.015 
  1082.500  3.3940  11.043 -7.9120 -9.9120  3.3940  11.043 
  1083.000  3.4560  11.072 -8.0630 -10.063  3.4560  11.072 
  1083.500  3.3540  10.720 -11.623 -13.623  3.3540  10.720 
  1084.000  2.9740  10.146 -15.760 -17.760  2.9740  10.146 
  1084.500  2.4200  9.6690 -16.471 -18.471  2.4200  9.6690 
  1085.000  1.7110  9.1920 -16.700 -18.700  1.7110  9.1920 
  1085.500  1.5420  8.7820 -15.969 -17.969  1.5420  8.7820 
  1086.000  1.4410  8.1900 -14.534 -16.534  1.4410  8.1900 
  1086.500  1.6080  8.0400 -13.066 -15.066  1.6080  8.0400 
  1087.000  1.7760  8.2560 -9.9970 -11.997  1.7760  8.2560 
  1087.500  1.9730  8.7510 -5.0380 -7.0380  1.9730  8.7510 
  1088.000  2.1030  9.0540 -2.2570 -4.2570  2.1030  9.0540 
  1088.500  2.2320  9.2410 -0.1490 -2.1490  2.2320  9.2410 
  1089.000  2.4580  9.5150  0.0700 -1.9300  2.4580  9.5150 
  1089.500  2.5200  9.5860 -1.7620 -3.7620  2.5200  9.5860 
  1090.000  2.5340  9.3500 -3.1120 -5.1120  2.5340  9.3500 
  1090.500  2.5670  9.1620 -3.8080 -5.8080  2.5670  9.1620 
  1091.000  2.6090  9.5120 -4.5030 -6.5030  2.6090  9.5120 
  1091.500  2.6520  9.7000 -4.3150 -6.3150  2.6520  9.7000 
  1092.000  2.7620  9.4730 -3.6330 -5.6330  2.7620  9.4730 
  1092.500  2.9590  9.1790 -2.9510 -4.9510  2.9590  9.1790 
  1093.000  3.0880  8.7300 -1.5780 -3.5780  3.0880  8.7300 
  1093.500  3.0830  8.5900 -1.2320 -3.2320  3.0830  8.5900 
  1094.000  3.0580  8.9600 -1.5250 -3.5250  3.0580  8.9600 
  1094.500  3.0340  9.6190 -4.7660 -6.7660  3.0340  9.6190 
  1095.000  3.0190  10.519 -6.8540 -8.8540  3.0190  10.519 
  1095.500  2.9840  12.246 -7.6130 -9.6130  2.9840  12.246 
  1096.000  2.9790  12.742 -8.3720 -10.372  2.9790  12.742 
  1096.500  3.1380  13.179 -8.5370 -10.537  3.1380  13.179 
  1097.000  3.2380  13.607 -8.3200 -10.320  3.2380  13.607 
  1097.500  3.3000  13.823 -8.1020 -10.102  3.3000  13.823 
  1098.000  3.2660  13.943 -7.9580 -9.9580  3.2660  13.943 
  1098.500  3.2320  13.745 -7.8140 -9.8140  3.2320  13.745 
  1099.000  3.1780  13.066 -7.6710 -9.6710  3.1780  13.066 
  1099.500  3.1250  12.252 -7.9300 -9.9300  3.1250  12.252 
  1100.000  3.0040  11.283 -17.962 -19.962  3.0040  11.283 
  1100.500  3.2530  9.1930 -21.002 -23.002  3.2530  9.1930 
  1101.000  4.0880  8.6810 -21.703 -23.703  4.0880  8.6810 
  1101.500  4.5970  8.4200 -22.405 -24.405  4.5970  8.4200 
  1102.000  4.9330  8.2450 -22.721 -24.721  4.9330  8.2450 
  1102.500  4.4890  8.5800 -23.038 -25.038  4.4890  8.5800 
  1103.000  3.8610  8.7090 -22.232 -24.232  3.8610  8.7090 
  1103.500  3.3590  8.8380 -20.977 -22.977  3.3590  8.8380 
  1104.000  2.8660  8.9220 -20.398 -22.398  2.8660  8.9220 
  1104.500  2.4510  8.8340 -19.386 -21.386  2.4510  8.8340 
  1105.000  2.0840  8.6980 -18.374 -20.374  2.0840  8.6980 
  1105.500  1.9190  8.5710 -15.869 -17.869  1.9190  8.5710 
  1106.000  1.9030  8.3870 -14.778 -16.778  1.9030  8.3870 
  1106.500  1.8870  8.3660 -13.108 -15.108  1.8870  8.3660 
  1107.000  1.9050  8.4130 -13.103 -15.103  1.9050  8.4130 
  1107.500  2.5290  8.5460 -13.453 -15.453  2.5290  8.5460 
  1108.000  2.6620  9.2190 -15.498 -17.498  2.6620  9.2190 
  1108.500  2.5160  9.5350 -16.039 -18.039  2.5160  9.5350 
  1109.000  2.3220  9.8220 -16.228 -18.228  2.3220  9.8220 
  1109.500  2.0990  10.090 -16.418 -18.418  2.0990  10.090 
  1110.000  2.0980  10.464 -16.733 -18.733  2.0980  10.464 
  1110.500  2.8280  10.992 -17.049 -19.049  2.8280  10.992 
  1111.000  7.1010  11.337 -17.414 -19.414  7.1010  11.337 
  1111.500  7.0800  11.596 -17.779 -19.779  7.0800  11.596 
