~Version Information
VERS.                     2.0: CWLS log ASCII Standard Version 2.00
WRAP.                      NO: One line per depth step
~Well Information Block
#MNEM.UNIT                               Data Type  Information
#---------                               ---------  -----------
STRT.FT                                    40.0000:
STOP.FT                                  2065.0000:
STEP.FT                                     0.5000:
NULL.                 -999.25                     :
COMP.                                             :COMPANY            
WELL.     MORRISON #1                             :WELL               
FLD .                                             :FIELD              
CTRY.                                             :COUNTRY            
STAT.                                             :STATE              
LOC .                                             :LOCATION           
UWI .                                             :UNIQUE WELL ID     
SRVC.                                             :Service company    
DATE.                                             :LOG DATE           
~Curve Information
#MNEM.UNIT           API CODE  Curve Description
#---------           --------  -----------------
DEPT.FT                      :   1 DEPTH
SN  .OHMM                    :   2
LN  .OHMM                    :   3
SP  .MV                      :   4
SBL .MV                      :   5
RS  .OHMM                    :   6
RD  .OHMM                    :   7
~A
# ...
   174.000  10.300  24.846 -19.593 -21.593  10.300  24.846 
   174.500  9.5520  26.615 -19.274 -21.274  9.5520  26.615 
   175.000  8.9000  27.693 -18.954 -20.954  8.9000  27.693 
   175.500  8.5080  27.993 -18.634 -20.634  8.5080  27.993 
   176.000  8.1540  28.355 -18.153 -20.153  8.1540  28.355 
   176.500  8.2520  28.717 -18.107 -20.107  8.2520  28.717 
   177.000  10.089  29.083 -18.061 -20.061  10.089  29.083 
   177.500  12.003  29.157 -18.128 -20.128  12.003  29.157 
   178.000  12.984  29.231 -18.324 -20.324  12.984  29.231 
   178.500  14.475  29.607 -18.569 -20.569  14.475  29.607 
   179.000  14.996  29.945 -18.813 -20.813  14.996  29.945 
   179.500  15.824  30.014 -19.138 -21.138  15.824  30.014 
   180.000  16.306  29.939 -19.431 -21.431  16.306  29.939 
   180.500  17.239  29.777 -19.724 -21.724  17.239  29.777 
   181.000  18.308  29.616 -20.661 -22.661  18.308  29.616 
   181.500  18.444  29.411 -21.244 -23.244  18.444  29.411 
   182.000  18.474  29.206 -21.634 -23.634  18.474  29.206 
   182.500  18.322  28.612 -21.265 -23.265  18.322  28.612 
   183.000  18.170  27.999 -20.897 -22.897  18.170  27.999 
   183.500  17.269  27.059 -20.529 -22.529  17.269  27.059 
   184.000  16.012  26.052 -20.161 -22.161  16.012  26.052 
   184.500  15.014  24.920 -20.099 -22.099  15.014  24.920 
   185.000  14.223  23.087 -20.037 -22.037  14.223  23.087 
   185.500  13.433  22.031 -19.975 -21.975  13.433  22.031 
   186.000  12.810  21.245 -22.477 -24.477  12.810  21.245 
   186.500  12.187  20.872 -24.978 -26.978  12.187  20.872 
   187.000  10.930  20.576 -26.012 -28.012  10.930  20.576 
   187.500  10.552  20.559 -26.918 -28.918  10.552  20.559 
   188.000  10.174  20.613 -27.371 -29.371  10.174  20.613 
   188.500  9.2830  20.668 -27.825 -29.825  9.2830  20.668 
   189.000  8.6500  20.717 -28.054 -30.054  8.6500  20.717 
   189.500  7.7970  20.772 -28.282 -30.282  7.7970  20.772 
   190.000  7.9520  20.827 -28.607 -30.607  7.9520  20.827 
   190.500  8.3190  20.675 -28.835 -30.835  8.3190  20.675 
   191.000  8.5220  20.523 -28.741 -30.741  8.5220  20.523 
   191.500  8.7260  20.217 -28.131 -30.131  8.7260  20.217 
   192.000  9.0830  19.911 -26.102 -28.102  9.0830  19.911 
   192.500  9.0180  18.366 -21.688 -23.688  9.0180  18.366 
   193.000  8.6060  17.724 -19.820 -21.820  8.6060  17.724 
   193.500  8.0410  17.024 -18.614 -20.614  8.0410  17.024 
   194.000  7.7060  16.642 -17.407 -19.407  7.7060  16.642 
   194.500  7.5060  16.711 -15.733 -17.733  7.5060  16.711 
   195.000  7.4890  16.943 -14.736 -16.736  7.4890  16.943 
   195.500  7.9610  17.905 -15.094 -17.094  7.9610  17.905 
   196.000  8.9330  18.714 -15.773 -17.773  8.9330  18.714 
   196.500  9.4880  20.118 -16.372 -18.372  9.4880  20.118 
   197.000  10.042  21.052 -16.971 -18.971  10.042  21.052 
   197.500  10.370  22.015 -17.538 -19.538  10.370  22.015 
   198.000  10.698  22.449 -18.105 -20.105  10.698  22.449 
   198.500  11.411  22.883 -18.452 -20.452  11.411  22.883 
   199.000  11.715  23.432 -18.798 -20.798  11.715  23.432 
   199.500  12.020  24.058 -19.145 -21.145  12.020  24.058 
   200.000  13.876  24.588 -19.582 -21.582  13.876  24.588 
   200.500  14.299  25.213 -20.018 -22.018  14.299  25.213 
   201.000  14.477  25.511 -20.502 -22.502  14.477  25.511 
   201.500  14.655  25.646 -20.696 -22.696  14.655  25.646 
   202.000  14.838  25.791 -20.825 -22.825  14.838  25.791 
   202.500  14.857  25.926 -20.890 -22.890  14.857  25.926 
   203.000  14.829  26.060 -20.922 -22.922  14.829  26.060 
   203.500  14.647  26.248 -19.536 -21.536  14.647  26.248 
   204.000  14.263  26.436 -18.634 -20.634  14.263  26.436 
   204.500  13.980  26.744 -17.796 -19.796  13.980  26.744 
   205.000  13.697  26.955 -17.313 -19.313  13.697  26.955 
   205.500  13.044  27.119 -16.958 -18.958  13.044  27.119 
   206.000  12.765  27.288 -17.152 -19.152  12.765  27.288 
   206.500  12.881  27.456 -17.733 -19.733  12.881  27.456 
   207.000  13.468  27.701 -18.201 -20.201  13.468  27.701 
   207.500  14.650  27.947 -18.668 -20.668  14.650  27.947 
   208.000  14.996  28.120 -19.185 -21.185  14.996  28.120 
   208.500  15.558  28.293 -19.701 -21.701  15.558  28.293 
   209.000  16.121  28.409 -20.152 -22.152  16.121  28.409 
   209.500  16.794  28.505 -20.411 -22.411  16.794  28.505 
   210.000  16.996  28.554 -19.766 -21.766  16.996  28.554 
   210.500  17.188  28.592 -19.122 -21.122  17.188  28.592 
   211.000  17.236  28.612 -18.628 -20.628  17.236  28.612 
   211.500  17.227  28.632 -18.134 -20.134  17.227  28.632 
   212.000  17.088  28.632 -17.640 -19.640  17.088  28.632 
   212.500  16.949  28.517 -17.285 -19.285  16.949  28.517 
   213.000  16.527  28.171 -16.931 -18.931  16.527  28.171 
   213.500  16.105  25.616 -16.577 -18.577  16.105  25.616 
   214.000  15.413  25.309 -16.190 -18.190  15.413  25.309 
   214.500  15.048  24.925 -16.190 -18.190  15.048  24.925 
   215.000  14.636  24.378 -16.577 -18.577  14.636  24.378 
   215.500  14.261  23.831 -17.529 -19.529  14.261  23.831 
   216.000  14.060  23.466 -18.480 -20.480  14.060  23.466 
   216.500  13.858  23.312 -19.625 -21.625  13.858  23.312 
   217.000  13.561  23.274 -20.770 -22.770  13.561  23.274 
   217.500  13.264  23.428 -21.818 -23.818  13.264  23.428 
   218.000  12.966  23.578 -22.867 -24.867  12.966  23.578 
   218.500  12.640  23.727 -23.157 -25.157  12.640  23.727 
   219.000  12.313  23.891 -23.448 -25.448  12.313  23.891 
   219.500  12.001  24.054 -23.835 -25.835  12.001  24.054 
   220.000  11.690  24.564 -24.222 -26.222  11.690  24.564 
   220.500  11.315  25.756 -24.368 -26.368  11.315  25.756 
   221.000  11.171  25.986 -24.513 -26.513  11.171  25.986 
   221.500  10.970  26.035 -24.707 -26.707  10.970  26.035 
   222.000  10.999  26.083 -24.868 -26.868  10.999  26.083 
   222.500  12.085  26.132 -24.482 -26.482  12.085  26.132 
   223.000  12.797  26.180 -24.095 -26.095  12.797  26.180 
   223.500  12.922  26.171 -23.225 -25.225  12.922  26.171 
   224.000  12.922  26.162 -22.612 -24.612  12.922  26.162 
   224.500  12.927  26.013 -22.178 -24.178  12.927  26.013 
   225.000  12.932  25.864 -21.743 -23.743  12.932  25.864 
   225.500  12.942  25.668 -21.259 -23.259  12.942  25.668 
   226.000  13.663  25.471 -20.776 -22.776  13.663  25.471 
   226.500  14.096  24.914 -20.373 -22.373  14.096  24.914 
   227.000  14.250  24.588 -19.971 -21.971  14.250  24.588 
   227.500  14.356  24.214 -19.133 -21.133  14.356  24.214 
   228.000  14.385  23.734 -18.778 -20.778  14.385  23.734 
   228.500  14.174  23.398 -18.424 -20.424  14.174  23.398 
   229.000  13.685  23.191 -17.908 -19.908  13.685  23.191 
   229.500  12.984  22.985 -17.699 -19.699  12.984  22.985 
   230.000  12.580  22.044 -17.490 -19.490  12.580  22.044 
   230.500  12.139  20.680 -17.587 -19.587  12.139  20.680 
   231.000  11.697  20.066 -17.684 -19.684  11.697  20.066 
   231.500  11.015  19.403 -17.974 -19.974  11.015  19.403 
   232.000  10.334  19.057 -18.265 -20.265  10.334  19.057 
   232.500  9.8440  18.909 -18.555 -20.555  9.8440  18.909 
   233.000  9.3540  18.760 -18.846 -20.846  9.3540  18.760 
   233.500  8.4040  18.727 -19.120 -21.120  8.4040  18.727 
   234.000  7.7990  18.694 -19.395 -21.395  7.7990  18.694 
   234.500  7.4920  18.771 -19.718 -21.718  7.4920  18.771 
   235.000  7.0310  18.848 -20.040 -22.040  7.0310  18.848 
   235.500  6.7520  18.954 -18.525 -20.525  6.7520  18.954 
   236.000  6.7240  18.959 -17.429 -19.429  6.7240  18.959 
   236.500  6.7430  18.964 -17.397 -19.397  6.7430  18.964 
   237.000  6.7340  18.926 -17.365 -19.365  6.7340  18.926 
   237.500  6.7150  18.687 -17.382 -19.382  6.7150  18.687 
   238.000  6.6680  18.091 -17.398 -19.398  6.6680  18.091 
   238.500  6.5620  17.409 -17.334 -19.334  6.5620  17.409 
   239.000  6.4570  17.294 -17.141 -19.141  6.4570  17.294 
   239.500  6.1210  17.170 -16.787 -18.787  6.1210  17.170 
   240.000  5.8910  16.354 -16.078 -18.078  5.8910  16.354 
   240.500  5.6800  14.922 -15.401 -17.401  5.6800  14.922 
