~Version Information
VERS.                     2.0: CWLS log ASCII Standard Version 2.00
WRAP.                      NO: One line per depth step
~Well Information Block
#MNEM.UNIT                               Data Type  Information
#---------                               ---------  -----------
STRT.FT                                    40.0000:
STOP.FT                                  2065.0000:
STEP.FT                                     0.5000:
NULL.                 -999.25                     :
COMP.                                             :COMPANY            
WELL.     MORRISON #1                             :WELL               
FLD .                                             :FIELD              
CTRY.                                             :COUNTRY            
STAT.                                             :STATE              
LOC .                                             :LOCATION           
UWI .                                             :UNIQUE WELL ID     
SRVC.                                             :Service company    
DATE.                                             :LOG DATE           
~Curve Information
#MNEM.UNIT           API CODE  Curve Description
#---------           --------  -----------------
DEPT.FT                      :   1 DEPTH
SN  .OHMM                    :   2
LN  .OHMM                    :   3
SP  .MV                      :   4
SBL .MV                      :   5
RS  .OHMM                    :   6
RD  .OHMM                    :   7
~A
# ...
  1581.000  1.5140  11.459 -13.528 -15.528  1.5140  11.459 
  1581.500  1.4980  11.535 -12.564 -14.564  1.4980  11.535 
  1582.000  1.4820  11.177 -11.600 -13.600  1.4820  11.177 
  1582.500  1.7790  9.8470 -10.539 -12.539  1.7790  9.8470 
  1583.000  2.2780  9.2290 -9.4780 -11.478  2.2780  9.2290 
  1583.500  2.5850  8.8520 -7.5820 -9.5820  2.5850  8.8520 
  1584.000  2.8910  8.7730 -6.6500 -8.6500  2.8910  8.7730 
  1584.500  3.1400  8.9740 -6.0060 -8.0060  3.1400  8.9740 
  1585.000  3.3890  9.5600 -5.3300 -7.3300  3.3890  9.5600 
  1585.500  3.8010  10.078 -4.9100 -6.9100  3.8010  10.078 
  1586.000  3.9250  10.337 -4.4910 -6.4910  3.9250  10.337 
  1586.500  3.9520  9.6040 -4.0040 -6.0040  3.9520  9.6040 
  1587.000  3.9310  8.7930 -4.1610 -6.1610  3.9310  8.7930 
  1587.500  3.7860  8.7050 -5.4390 -7.4390  3.7860  8.7050 
  1588.000  3.6400  8.8100 -7.5480 -9.5480  3.6400  8.8100 
  1588.500  2.8870  8.9770 -7.8490 -9.8490  2.8870  8.9770 
  1589.000  2.7220  9.1440 -8.1510 -10.151  2.7220  9.1440 
  1589.500  2.6530  9.5860 -8.6590 -10.659  2.6530  9.5860 
  1590.000  2.6710  10.027 -9.1680 -11.168  2.6710  10.027 
  1590.500  2.8620  11.643 -9.9630 -11.963  2.8620  11.643 
  1591.000  3.6690  12.633 -10.728 -12.728  3.6690  12.633 
  1591.500  4.3900  12.833 -11.382 -13.382  4.3900  12.833 
  1592.000  4.6820  12.110 -12.035 -14.035  4.6820  12.110 
  1592.500  4.9750  10.799 -13.054 -15.054  4.9750  10.799 
  1593.000  5.6470  9.4690 -13.484 -15.484  5.6470  9.4690 
  1593.500  6.3190  8.8700 -13.914 -15.914  6.3190  8.8700 
  1594.000  6.9430  8.5900 -15.766 -17.766  6.9430  8.5900 
  1594.500  7.2550  8.3960 -16.483 -18.483  7.2550  8.3960 
  1595.000  7.5670  8.4420 -17.201 -19.201  7.5670  8.4420 
  1595.500  8.2000  8.5370 -17.614 -19.614  8.2000  8.5370 
  1596.000  8.2950  8.6600 -18.027 -20.027  8.2950  8.6600 
  1596.500  8.2830  9.0440 -18.246 -20.246  8.2830  9.0440 
  1597.000  7.7720  10.208 -18.466 -20.466  7.7720  10.208 
  1597.500  4.5260  11.689 -18.495 -20.495  4.5260  11.689 
  1598.000  4.0430  13.526 -18.524 -20.524  4.0430  13.526 
  1598.500  3.8830  14.382 -15.348 -17.348  3.8830  14.382 
  1599.000  3.7230  15.247 -14.222 -16.222  3.7230  15.247 
  1599.500  3.4120  16.063 -13.545 -15.545  3.4120  16.063 
  1600.000  3.2950  16.630 -12.837 -14.837  3.2950  16.630 
  1600.500  3.1780  16.772 -12.720 -14.720  3.1780  16.772 
  1601.000  3.0460  16.606 -12.604 -14.604  3.0460  16.606 
  1601.500  2.9130  16.248 -12.437 -14.437  2.9130  16.248 
  1602.000  2.9400  15.158 -12.369 -14.369  2.9400  15.158 
  1602.500  2.9660  13.085 -12.300 -14.300  2.9660  13.085 
  1603.000  2.9930  12.014 -12.231 -14.231  2.9930  12.014 
  1603.500  3.0200  11.136 -12.161 -14.161  3.0200  11.136 
  1604.000  3.0470  10.826 -12.155 -14.155  3.0470  10.826 
  1604.500  3.0730  10.496 -13.144 -15.144  3.0730  10.496 
  1605.000  3.0510  9.9450 -14.133 -16.133  3.0510  9.9450 
  1605.500  3.0210  9.5000 -15.201 -17.201  3.0210  9.5000 
  1606.000  2.9900  8.9100 -16.269 -18.269  2.9900  8.9100 
  1606.500  2.9150  8.2920 -17.318 -19.318  2.9150  8.2920 
  1607.000  2.8400  8.3820 -17.395 -19.395  2.8400  8.3820 
  1607.500  2.8090  8.4710 -17.471 -19.471  2.8090  8.4710 
  1608.000  2.7780  9.9890 -13.556 -15.556  2.7780  9.9890 
  1608.500  2.7850  10.372 -12.639 -14.639  2.7850  10.372 
  1609.000  2.7880  9.8880 -11.722 -13.722  2.7880  9.8880 
  1609.500  2.7910  9.4820 -9.9530 -11.953  2.7910  9.4820 
  1610.000  2.8080  8.9120 -9.0680 -11.068  2.8080  8.9120 
  1610.500  2.8250  9.0540 -8.1820 -10.182  2.8250  9.0540 
  1611.000  2.8990  9.2630 -7.2960 -9.2960  2.8990  9.2630 
  1611.500  3.0800  9.6650 -6.4090 -8.4090  3.0800  9.6650 
  1612.000  3.3090  10.501 -6.0370 -8.0370  3.3090  10.501 
  1612.500  3.5280  11.269 -5.6640 -7.6640  3.5280  11.269 
  1613.000  3.7760  11.267 -5.1940 -7.1940  3.7760  11.267 
  1613.500  3.4560  10.802 -4.7250 -6.7250  3.4560  10.802 
  1614.000  3.3770  10.463 -4.3660 -6.3660  3.3770  10.463 
  1614.500  3.2590  10.201 -4.6810 -6.6810  3.2590  10.201 
  1615.000  3.1700  10.083 -5.8930 -7.8930  3.1700  10.083 
  1615.500  3.2260  11.198 -7.2640 -9.2640  3.2260  11.198 
  1616.000  3.3870  11.753 -8.2520 -10.252  3.3870  11.753 
  1616.500  3.5100  11.934 -8.7930 -10.793  3.5100  11.934 
  1617.000  3.5940  12.269 -9.3330 -11.333  3.5940  12.269 
  1617.500  3.4770  12.623 -10.992 -12.992  3.4770  12.623 
  1618.000  3.3780  12.736 -11.852 -13.852  3.3780  12.736 
  1618.500  3.8280  12.638 -13.224 -15.224  3.8280  12.638 
  1619.000  4.2020  11.952 -15.173 -17.173  4.2020  11.952 
  1619.500  4.5840  10.765 -16.738 -18.738  4.5840  10.765 
  1620.000  4.7320  10.195 -17.500 -19.500  4.7320  10.195 
  1620.500  4.8790  9.7410 -17.719 -19.719  4.8790  9.7410 
  1621.000  5.0110  9.4300 -17.459 -19.459  5.0110  9.4300 
  1621.500  4.3160  9.4950 -17.199 -19.199  4.3160  9.4950 
  1622.000  3.5720  9.7530 -13.862 -15.862  3.5720  9.7530 
  1622.500  3.6080  10.271 -8.0580 -10.058  3.6080  10.271 
  1623.000  3.7890  11.087 -5.5550 -7.5550  3.7890  11.087 
  1623.500  4.0170  11.518 -10.418 -12.418  4.0170  11.518 
  1624.000  4.2080  11.708 -13.360 -15.360  4.2080  11.708 
  1624.500  4.3600  11.417 -15.565 -17.565  4.3600  11.417 
  1625.000  3.4330  10.895 -15.994 -17.994  3.4330  10.895 
  1625.500  3.2980  10.095 -16.424 -18.424  3.2980  10.095 
  1626.000  3.1910  9.8350 -15.074 -17.074  3.1910  9.8350 
  1626.500  3.0850  9.5740 -13.983 -15.983  3.0850  9.5740 
  1627.000  2.9780  9.0530 -8.5030 -10.503  2.9780  9.0530 
  1627.500  2.9290  8.7540 -6.1630 -8.1630  2.9290  8.7540 
  1628.000  2.8810  8.5220 -4.2380 -6.2380  2.8810  8.5220 
  1628.500  2.8410  8.6030 -4.5230 -6.5230  2.8410  8.6030 
  1629.000  2.8020  8.6840 -5.0340 -7.0340  2.8020  8.6840 
  1629.500  2.7920  10.368 -5.3680 -7.3680  2.7920  10.368 
  1630.000  2.9250  11.523 -5.7020 -7.7020  2.9250  11.523 
  1630.500  3.3000  11.951 -5.0750 -7.0750  3.3000  11.951 
  1631.000  3.8680  12.379 -4.4480 -6.4480  3.8680  12.379 
  1631.500  4.3480  12.686 -3.1630 -5.1630  4.3480  12.686 
  1632.000  4.4490  12.830 -2.6790 -4.6790  4.4490  12.830 
  1632.500  4.5500  12.251 -3.0610 -5.0610  4.5500  12.251 
  1633.000  4.1540  11.230 -3.4280 -5.4280  4.1540  11.230 
  1633.500  3.6910  10.314 -3.7940 -5.7940  3.6910  10.314 
  1634.000  3.2760  9.3900 -5.3920 -7.3920  3.2760  9.3900 
  1634.500  2.8520  8.8210 -6.3510 -8.3510  2.8520  8.8210 
  1635.000  3.0720  8.9650 -7.7250 -9.7250  3.0720  8.9650 
  1635.500  3.3410  9.3590 -8.2340 -10.234  3.3410  9.3590 
  1636.000  3.6680  10.735 -8.2000 -10.200  3.6680  10.735 
  1636.500  3.8590  11.167 -7.7340 -9.7340  3.8590  11.167 
  1637.000  3.9650  11.523 -7.2680 -9.2680  3.9650  11.523 
  1637.500  4.1470  11.753 -5.5670 -7.5670  4.1470  11.753 
  1638.000  4.2720  11.916 -7.4540 -9.4540  4.2720  11.916 
  1638.500  4.1260  11.934 -8.6370 -10.637  4.1260  11.934 
  1639.000  3.8560  11.683 -8.0740 -10.074  3.8560  11.683 
  1639.500  3.4700  11.115 -7.5120 -9.5120  3.4700  11.115 
  1640.000  3.2870  9.7850 -6.5160 -8.5160  3.2870  9.7850 
  1640.500  3.1030  9.5540 -5.5210 -7.5210  3.1030  9.5540 
  1641.000  2.9580  9.5720 -5.1010 -7.1010  2.9580  9.5720 
  1641.500  2.9190  9.5910 -4.6820 -6.6820  2.9190  9.5910 
  1642.000  2.9230  9.7110 -4.3890 -6.3890  2.9230  9.7110 
  1642.500  2.9270  9.8300 -4.6430 -6.6430  2.9270  9.8300 
  1643.000  2.9410  9.9600 -5.1850 -7.1850  2.9410  9.9600 
  1643.500  2.9550  10.089 -6.1120 -8.1120  2.9550  10.089 
  1644.000  2.9820  10.237 -6.5900 -8.5900  2.9820  10.237 
  1644.500  2.9960  10.386 -6.5230 -8.5230  2.9960  10.386 
  1645.000  3.0110  10.539 -6.4260 -8.4260  3.0110  10.539 
  1645.500  3.0130  10.654 -6.3280 -8.3280  3.0130  10.654 
  1646.000  3.0150  10.769 -6.1810 -8.1810  3.0150  10.769 
  1646.500  3.0180  10.855 -6.0340 -8.0340  3.0180  10.855 
  1647.000  3.0170  10.941 -5.9780 -7.9780  3.0170  10.941 
  1647.500  3.0160  10.535 -5.9220 -7.9220  3.0160  10.535 
