~Version Information
VERS.                     2.0: CWLS log ASCII Standard Version 2.00
WRAP.                      NO: One line per depth step
~Well Information Block
#MNEM.UNIT                               Data Type  Information
#---------                               ---------  -----------
STRT.FT                                    40.0000:
STOP.FT                                  2065.0000:
STEP.FT                                     0.5000:
NULL.                 -999.25                     :
COMP.                                             :COMPANY            
WELL.     MORRISON #1                             :WELL               
FLD .                                             :FIELD              
CTRY.                                             :COUNTRY            
STAT.                                             :STATE              
LOC .                                             :LOCATION           
UWI .                                             :UNIQUE WELL ID     
SRVC.                                             :Service company    
DATE.                                             :LOG DATE           
~Curve Information
#MNEM.UNIT           API CODE  Curve Description
#---------           --------  -----------------
DEPT.FT                      :   1 DEPTH
SN  .OHMM                    :   2
LN  .OHMM                    :   3
SP  .MV                      :   4
SBL .MV                      :   5
RS  .OHMM                    :   6
RD  .OHMM                    :   7
~A
# ...
   442.000  2.3610  9.5520 -8.8090 -10.809  2.3610  9.5520 
   442.500  1.9580  9.5580 -8.8100 -10.810  1.9580  9.5580 
   443.000  1.6520  9.5880 -8.8120 -10.812  1.6520  9.5880 
   443.500  1.6000  9.6170 -7.7810 -9.7810  1.6000  9.6170 
   444.000  1.5480  9.6470 -6.7510 -8.7510  1.5480  9.6470 
   444.500  1.7070  9.7250 -3.9790 -5.9790  1.7070  9.7250 
   445.000  1.8670  9.7740 -3.0130 -5.0130  1.8670  9.7740 
   445.500  2.2330  9.9330 -2.7890 -4.7890  2.2330  9.9330 
   446.000  2.4640  10.093 -3.2410 -5.2410  2.4640  10.093 
   446.500  2.5130  10.545 -3.6940 -5.6940  2.5130  10.545 
   447.000  2.5140  10.854 -9.7890 -11.789  2.5140  10.854 
   447.500  2.3420  11.076 -10.661 -12.661  2.3420  11.076 
   448.000  2.1800  11.221 -10.565 -12.565  2.1800  11.221 
   448.500  1.9930  11.265 -7.6330 -9.6330  1.9930  11.265 
   449.000  1.8070  11.309 -6.4570 -8.4570  1.8070  11.309 
   449.500  1.5680  11.315 -5.2820 -7.2820  1.5680  11.315 
   450.000  1.4530  11.320 -4.4280 -6.4280  1.4530  11.320 
   450.500  1.7610  10.514 -3.5740 -5.5740  1.7610  10.514 
   451.000  1.9340  9.9090 -2.8330 -4.8330  1.9340  9.9090 
   451.500  2.1080  10.053 -2.4470 -4.4470  2.1080  10.053 
   452.000  1.9450  10.217 -2.0600 -4.0600  1.9450  10.217 
   452.500  1.8300  10.400 -1.4480 -3.4480  1.8300  10.400 
   453.000  1.7440  10.525 -0.8350 -2.8350  1.7440  10.525 
   453.500  1.6960  10.612 -0.5940 -2.5940  1.6960  10.612 
   454.000  1.6480  10.636 -0.3520 -2.3520  1.6480  10.636 
   454.500  1.7250  10.661 -3.1900 -5.1900  1.7250  10.661 
   455.000  1.9950  10.493 -6.3180 -8.3180  1.9950  10.493 
   455.500  2.2640  10.325 -7.6080 -9.6080  2.2640  10.325 
   456.000  2.6580  9.6430 -8.2050 -10.205  2.6580  9.6430 
   456.500  2.9850  9.3550 -8.8020 -10.802  2.9850  9.3550 
   457.000  3.2360  9.1060 -9.2860 -11.286  3.2360  9.1060 
   457.500  3.4280  8.9040 -9.7700 -11.770  3.4280  8.9040 
   458.000  3.6210  8.8380 -10.092 -12.092  3.6210  8.8380 
   458.500  3.7940  8.7710 -10.415 -12.415  3.7940  8.7710 
   459.000  3.7080  8.7900 -10.351 -12.351  3.7080  8.7900 
   459.500  3.4490  8.8100 -9.6420 -11.642  3.4490  8.8100 
   460.000  2.7960  9.0460 -8.9330 -10.933  2.7960  9.0460 
   460.500  2.4210  9.2810 -7.9010 -9.9010  2.4210  9.2810 
   461.000  1.7200  9.7810 -6.9020 -8.9020  1.7200  9.7810 
   461.500  1.3080  9.9500 -6.0640 -8.0640  1.3080  9.9500 
   462.000  1.9520  10.118 -5.2580 -7.2580  1.9520  10.118 
   462.500  2.2550  10.512 -5.0010 -7.0010  2.2550  10.512 
   463.000  2.5580  11.080 -6.0330 -8.0330  2.5580  11.080 
   463.500  2.8130  11.253 -8.2580 -10.258  2.8130  11.253 
   464.000  3.0680  11.465 -12.708 -14.708  3.0680  11.465 
   464.500  3.6060  11.484 -16.803 -18.803  3.6060  11.484 
   465.000  3.8180  11.360 -17.867 -19.867  3.8180  11.360 
   465.500  4.0440  11.168 -18.480 -20.480  4.0440  11.168 
   466.000  4.2700  11.135 -18.706 -20.706  4.2700  11.135 
   466.500  4.4480  11.101 -18.642 -20.642  4.4480  11.101 
   467.000  4.6260  11.227 -18.320 -20.320  4.6260  11.227 
   467.500  4.5300  11.352 -17.514 -19.514  4.5300  11.352 
   468.000  4.3000  11.443 -16.612 -18.612  4.3000  11.443 
   468.500  4.0410  11.535 -15.000 -17.000  4.0410  11.535 
   469.000  3.7630  11.622 -14.500 -16.500  3.7630  11.622 
   469.500  3.4940  11.689 -14.001 -16.001  3.4940  11.689 
   470.000  3.2640  11.757 -12.518 -14.518  3.2640  11.757 
   470.500  3.0720  11.786 -11.906 -13.906  3.0720  11.786 
   471.000  2.9570  11.527 -11.068 -13.068  2.9570  11.527 
   471.500  2.8710  11.230 -10.165 -12.165  2.8710  11.230 
   472.000  2.9150  10.855 -8.5530 -10.553  2.9150  10.855 
   472.500  2.9580  10.644 -6.6840 -8.6840  2.9580  10.644 
   473.000  2.9970  10.606 -4.4920 -6.4920  2.9970  10.606 
   473.500  3.0360  11.058 -2.9120 -4.9120  3.0360  11.058 
   474.000  3.0550  11.135 -1.9130 -3.9130  3.0550  11.135 
   474.500  3.0750  11.155 -1.5910 -3.5910  3.0750  11.155 
   475.000  3.0940  11.175 -1.2690 -3.2690  3.0940  11.175 
   475.500  3.1190  11.088 -1.0760 -3.0760  3.1190  11.088 
   476.000  3.1430  10.983 -1.2530 -3.2530  3.1430  10.983 
   476.500  3.1630  10.676 -1.4310 -3.4310  3.1630  10.676 
   477.000  3.1820  10.547 -1.9310 -3.9310  3.1820  10.547 
   477.500  3.1990  10.417 -2.4310 -4.4310  3.1990  10.417 
   478.000  3.2150  10.384 -3.9140 -5.9140  3.2150  10.384 
   478.500  3.2310  10.351 -5.5910 -7.5910  3.2310  10.351 
   479.000  3.2360  10.457 -6.6080 -8.6080  3.2360  10.457 
   479.500  3.2420  10.563 -7.6240 -9.6240  3.2420  10.563 
   480.000  3.2320  10.794 -9.2360 -11.236  3.2320  10.794 
   480.500  3.2230  11.025 -9.6390 -11.639  3.2230  11.025 
   481.000  3.1950  11.774 -10.043 -12.043  3.1950  11.774 
   481.500  3.1850  11.948 -10.430 -12.430  3.1850  11.948 
   482.000  3.1760  12.044 -10.011 -12.011  3.1760  12.044 
   482.500  3.1760  12.102 -9.5600 -11.560  3.1760  12.102 
   483.000  3.1770  11.939 -9.2700 -11.270  3.1770  11.939 
   483.500  3.1870  11.843 -9.3030 -11.303  3.1870  11.843 
   484.000  3.1970  11.748 -9.3350 -11.335  3.1970  11.748 
   484.500  3.2160  11.815 -9.4970 -11.497  3.2160  11.815 
   485.000  3.2360  11.883 -9.8520 -11.852  3.2360  11.883 
   485.500  3.2460  11.950 -9.9650 -11.965  3.2460  11.950 
   486.000  3.2560  11.970 -10.078 -12.078  3.2560  11.970 
   486.500  3.2660  11.672 -10.143 -12.143  3.2660  11.672 
   487.000  3.2660  11.471 -10.165 -12.165  3.2660  11.471 
   487.500  3.2670  11.116 -10.187 -12.187  3.2670  11.116 
   488.000  3.2570  10.905 -10.208 -12.208  3.2570  10.905 
   488.500  3.2480  10.694 -10.337 -12.337  3.2480  10.694 
   489.000  3.2240  10.440 -10.451 -12.451  3.2240  10.440 
   489.500  3.2010  10.185 -10.564 -12.564  3.2010  10.185 
   490.000  3.1870  9.9650 -10.661 -12.661  3.1870  9.9650 
   490.500  3.1720  9.7440 -10.758 -12.758  3.1720  9.7440 
   491.000  3.1580  9.5430 -10.855 -12.855  3.1580  9.5430 
   491.500  3.1440  9.6970 -10.871 -12.871  3.1440  9.6970 
   492.000  3.1350  9.9470 -10.888 -12.888  3.1350  9.9470 
   492.500  3.1260  10.091 -10.824 -12.824  3.1260  10.091 
   493.000  3.1070  10.255 -10.760 -12.760  3.1070  10.255 
   493.500  3.0880  10.380 -10.341 -12.341  3.0880  10.380 
   494.000  3.0880  10.472 -9.9220 -11.922  3.0880  10.472 
   494.500  3.0940  10.564 -9.2290 -11.229  3.0940  10.564 
   495.000  3.0990  10.718 -8.5360 -10.536  3.0990  10.718 
   495.500  3.1420  10.872 -7.7950 -9.7950  3.1420  10.872 
   496.000  3.1860  10.983 -7.0540 -9.0540  3.1860  10.983 
   496.500  3.2180  11.093 -6.5380 -8.5380  3.2180  11.093 
   497.000  3.2510  11.161 -6.0230 -8.0230  3.2510  11.161 
   497.500  3.2830  11.229 -6.4740 -8.4740  3.2830  11.229 
   498.000  3.3270  11.191 -5.8300 -7.8300  3.3270  11.191 
   498.500  3.3700  10.855 -6.7650 -8.7650  3.3700  10.855 
   499.000  3.4090  10.384 -7.9260 -9.9260  3.4090  10.384 
   499.500  3.4480  10.183 -8.7650 -10.765  3.4480  10.183 
   500.000  3.5060  10.001 -9.1500 -11.150  3.5060  10.001 
   500.500  3.5520  9.8260 -9.5360 -11.536  3.5520  9.8260 
   501.000  3.5690  9.6890 -9.8380 -11.838  3.5690  9.6890 
   501.500  3.5860  9.5820 -10.141 -12.141  3.5860  9.5820 
   502.000  3.6230  9.5460 -10.331 -12.331  3.6230  9.5460 
   502.500  3.6160  9.5100 -10.327 -12.327  3.6160  9.5100 
   503.000  3.6090  9.4990 -10.324 -12.324  3.6090  9.4990 
   503.500  3.5400  9.4870 -10.256 -12.256  3.5400  9.4870 
   504.000  3.4710  9.5040 -10.268 -12.268  3.4710  9.5040 
   504.500  3.3820  9.5220 -10.281 -12.281  3.3820  9.5220 
   505.000  3.3280  9.6110 -10.213 -12.213  3.3280  9.6110 
   505.500  3.2730  9.7000 -10.112 -12.112  3.2730  9.7000 
   506.000  3.2660  9.8710 -10.012 -12.012  3.2660  9.8710 
   506.500  3.2590  10.013 -9.9760 -11.976  3.2590  10.013 
   507.000  3.1900  10.107 -9.7310 -11.731  3.1900  10.107 
   507.500  3.1490  10.221 -9.4860 -11.486  3.1490  10.221 
   508.000  3.1090  10.228 -8.9340 -10.934  3.1090  10.228 
   508.500  3.1740  10.236 -8.3820 -10.382  3.1740  10.236 
