~Version Information
VERS.                     2.0: CWLS log ASCII Standard Version 2.00
WRAP.                      NO: One line per depth step
~Well Information Block
#MNEM.UNIT                               Data Type  Information
#---------                               ---------  -----------
STRT.FT                                    40.0000:
STOP.FT                                  2065.0000:
STEP.FT                                     0.5000:
NULL.                 -999.25                     :
COMP.                                             :COMPANY            
WELL.     MORRISON #1                             :WELL               
FLD .                                             :FIELD              
CTRY.                                             :COUNTRY            
STAT.                                             :STATE              
LOC .                                             :LOCATION           
UWI .                                             :UNIQUE WELL ID     
SRVC.                                             :Service company    
DATE.                                             :LOG DATE           
~Curve Information
#MNEM.UNIT           API CODE  Curve Description
#---------           --------  -----------------
DEPT.FT                      :   1 DEPTH
SN  .OHMM                    :   2
LN  .OHMM                    :   3
SP  .MV                      :   4
SBL .MV                      :   5
RS  .OHMM                    :   6
RD  .OHMM                    :   7
~A
# ...
  1179.000  5.1770  11.820 -20.819 -22.819  5.1770  11.820 
  1179.500  5.2830  12.109 -20.802 -22.802  5.2830  12.109 
  1180.000  5.3460  12.297 -20.865 -22.865  5.3460  12.297 
  1180.500  5.4090  12.485 -20.927 -22.927  5.4090  12.485 
  1181.000  5.4180  12.754 -21.085 -23.085  5.4180  12.754 
  1181.500  5.1290  12.783 -21.245 -23.245  5.1290  12.783 
  1182.000  4.5610  12.706 -21.404 -23.404  4.5610  12.706 
  1182.500  4.3060  12.061 -21.498 -23.498  4.3060  12.061 
  1183.000  4.0510  9.2210 -21.386 -23.386  4.0510  9.2210 
  1183.500  3.9740  9.1250 -21.273 -23.273  3.9740  9.1250 
  1184.000  3.8980  9.1540 -21.144 -23.144  3.8980  9.1540 
  1184.500  3.8110  9.1920 -21.014 -23.014  3.8110  9.1920 
  1185.000  3.7240  9.1830 -20.885 -22.885  3.7240  9.1830 
  1185.500  3.6040  9.0820 -20.851 -22.851  3.6040  9.0820 
  1186.000  3.4840  8.9810 -20.850 -22.850  3.4840  8.9810 
  1186.500  3.2520  8.4610 -20.849 -22.849  3.2520  8.4610 
  1187.000  3.1750  8.1720 -21.152 -23.152  3.1750  8.1720 
  1187.500  3.0690  7.6620 -21.454 -23.454  3.0690  7.6620 
  1188.000  3.0020  7.2960 -21.854 -23.854  3.0020  7.2960 
  1188.500  2.9860  6.8530 -22.254 -24.254  2.9860  6.8530 
  1189.000  2.9700  6.6990 -22.379 -24.379  2.9700  6.6990 
  1189.500  2.9550  6.9310 -21.673 -23.673  2.9550  6.9310 
  1190.000  2.9690  7.7200 -20.230 -22.230  2.9690  7.7200 
  1190.500  2.9840  8.3940 -18.467 -20.467  2.9840  8.3940 
  1191.000  3.0700  9.4150 -18.226 -20.226  3.0700  9.4150 
  1191.500  3.1470  10.166 -17.986 -19.986  3.1470  10.166 
  1192.000  3.1810  10.464 -17.856 -19.856  3.1810  10.464 
  1192.500  3.2150  11.042 -17.727 -19.727  3.2150  11.042 
  1193.000  3.2720  11.542 -17.662 -19.662  3.2720  11.542 
  1193.500  3.2530  11.860 -17.596 -19.596  3.2530  11.860 
  1194.000  3.1860  12.024 -17.531 -19.531  3.1860  12.024 
  1194.500  3.1190  12.140 -17.417 -19.417  3.1190  12.140 
  1195.000  3.0320  12.188 -17.302 -19.302  3.0320  12.188 
  1195.500  2.9840  12.188 -17.141 -19.141  2.9840  12.188 
  1196.000  2.9410  11.909 -16.979 -18.979  2.9410  11.909 
  1196.500  2.8980  11.023 -16.850 -18.850  2.8980  11.023 
  1197.000  2.8680  10.811 -16.721 -18.721  2.8680  10.811 
  1197.500  2.9220  10.821 -16.592 -18.592  2.9220  10.821 
  1198.000  2.9750  10.811 -16.527 -18.527  2.9750  10.811 
  1198.500  3.0520  10.807 -16.463 -18.463  3.0520  10.807 
  1199.000  3.1290  10.802 -16.444 -18.444  3.1290  10.802 
  1199.500  3.2540  10.696 -16.426 -18.426  3.2540  10.696 
  1200.000  3.3120  10.513 -16.712 -18.712  3.3120  10.513 
  1200.500  3.3330  10.164 -16.900 -18.900  3.3330  10.164 
  1201.000  3.3550  9.8630 -17.086 -19.086  3.3550  9.8630 
  1201.500  3.3520  9.6770 -17.273 -19.273  3.3520  9.6770 
  1202.000  3.3500  9.6650 -17.138 -19.138  3.3500  9.6650 
  1202.500  3.2410  9.6770 -16.925 -18.925  3.2410  9.6770 
  1203.000  3.1900  9.6890 -16.712 -18.712  3.1900  9.6890 
  1203.500  3.1390  9.6280 -16.352 -18.352  3.1390  9.6280 
  1204.000  3.1460  9.6060 -16.315 -18.315  3.1460  9.6060 
  1204.500  3.1820  9.5940 -16.020 -18.020  3.1820  9.5940 
  1205.000  3.2180  9.5920 -15.871 -17.871  3.2180  9.5920 
  1205.500  3.2490  9.5980 -15.723 -17.723  3.2490  9.5980 
  1206.000  3.2810  9.6060 -15.172 -17.172  3.2810  9.6060 
  1206.500  3.2870  9.6130 -14.622 -16.622  3.2870  9.6130 
  1207.000  3.2940  9.6670 -13.654 -15.654  3.2940  9.6670 
  1207.500  3.3010  9.7030 -13.408 -15.408  3.3010  9.7030 
  1208.000  3.2890  9.7390 -13.163 -15.163  3.2890  9.7390 
  1208.500  3.2770  9.7750 -12.515 -14.515  3.2770  9.7750 
  1209.000  3.1770  9.7970 -11.836 -13.836  3.1770  9.7970 
  1209.500  3.0400  9.8190 -11.382 -13.382  3.0400  9.8190 
  1210.000  2.9120  9.8930 -10.993 -12.993  2.9120  9.8930 
  1210.500  2.9440  9.9570 -10.346 -12.346  2.9440  9.9570 
  1211.000  2.9750  10.099 -10.005 -12.005  2.9750  10.099 
  1211.500  3.0150  10.236 -9.6630 -11.663  3.0150  10.236 
  1212.000  3.0560  10.373 -8.8230 -10.823  3.0560  10.373 
  1212.500  3.0920  10.765 -8.2730 -10.273  3.0920  10.765 
  1213.000  3.1270  11.398 -7.5310 -9.5310  3.1270  11.398 
  1213.500  3.1440  11.809 -6.8830 -8.8830  3.1440  11.809 
  1214.000  3.1510  12.057 -6.7500 -8.7500  3.1510  12.057 
  1214.500  3.1580  12.199 -6.7760 -8.7760  3.1580  12.199 
  1215.000  3.1650  12.138 -6.9620 -8.9620  3.1650  12.138 
  1215.500  3.1580  11.856 -9.8710 -11.871  3.1580  11.856 
  1216.000  3.1510  11.661 -10.283 -12.283  3.1510  11.661 
  1216.500  3.1570  10.965 -10.982 -12.982  3.1570  10.965 
  1217.000  3.1590  10.443 -11.296 -13.296  3.1590  10.443 
  1217.500  3.1620  10.748 -11.226 -13.226  3.1620  10.748 
  1218.000  3.1690  10.818 -10.067 -12.067  3.1690  10.818 
  1218.500  3.1760  10.888 -8.3640 -10.364  3.1760  10.888 
  1219.000  3.1930  10.933 -6.6600 -8.6600  3.1930  10.933 
  1219.500  3.2090  10.979 -6.3660 -8.3660  3.2090  10.979 
  1220.000  3.2450  10.196 -6.2970 -8.2970  3.2450  10.196 
  1220.500  3.2690  9.7410 -6.2270 -8.2270  3.2690  9.7410 
  1221.000  3.2930  9.2860 -6.1570 -8.1570  3.2930  9.2860 
  1221.500  3.3170  9.1870 -6.0560 -8.0560  3.3170  9.1870 
  1222.000  3.3410  10.108 -5.9550 -7.9550  3.3410  10.108 
  1222.500  3.4050  10.558 -5.7230 -7.7230  3.4050  10.558 
  1223.000  3.4410  10.815 -5.4930 -7.4930  3.4410  10.815 
  1223.500  3.4860  10.928 -5.1990 -7.1990  3.4860  10.928 
  1224.000  3.5320  11.022 -4.9700 -6.9700  3.5320  11.022 
  1224.500  3.5390  11.000 -4.8850 -6.8850  3.5390  11.000 
  1225.000  3.5260  10.898 -4.8000 -6.8000  3.5260  10.898 
  1225.500  3.5320  10.795 -5.4350 -7.4350  3.5320  10.795 
  1226.000  3.5370  10.533 -5.9760 -7.9760  3.5370  10.533 
  1226.500  3.5430  10.426 -6.5490 -8.5490  3.5430  10.426 
  1227.000  3.5510  10.353 -6.8030 -8.8030  3.5510  10.353 
  1227.500  3.5500  10.280 -7.0570 -9.0570  3.5500  10.280 
  1228.000  3.5440  10.567 -7.6290 -9.6290  3.5440  10.567 
  1228.500  3.5390  10.855 -7.7540 -9.7540  3.5390  10.855 
  1229.000  3.5280  10.998 -7.5590 -9.5590  3.5280  10.998 
  1229.500  3.5170  11.089 -7.3160 -9.3160  3.5170  11.089 
  1230.000  3.4580  11.180 -7.0740 -9.0740  3.4580  11.180 
  1230.500  3.1200  11.246 -6.8770 -8.8770  3.1200  11.246 
  1231.000  2.9070  11.158 -6.9540 -8.9540  2.9070  11.158 
  1231.500  2.7520  10.704 -7.0310 -9.0310  2.7520  10.704 
  1232.000  2.5960  9.4230 -7.1240 -9.1240  2.5960  9.4230 
  1232.500  2.4800  9.3640 -7.2160 -9.2160  2.4800  9.3640 
  1233.000  2.5170  9.4590 -6.9880 -8.9880  2.5170  9.4590 
  1233.500  2.5550  9.7370 -6.5050 -8.5050  2.5550  9.7370 
  1234.000  3.1120  10.342 -5.2850 -7.2850  3.1120  10.342 
  1234.500  4.3720  10.794 -3.8400 -5.8400  4.3720  10.794 
  1235.000  5.2570  11.534 -5.0220 -7.0220  5.2570  11.534 
  1235.500  5.6990  12.554 -6.7480 -8.7480  5.6990  12.554 
  1236.000  6.1600  13.323 -8.1860 -10.186  6.1600  13.323 
  1236.500  6.6010  13.899 -8.8890 -10.889  6.6010  13.899 
  1237.000  6.7840  14.149 -9.5910 -11.591  6.7840  14.149 
  1237.500  7.0710  14.234 -10.803 -12.803  7.0710  14.234 
  1238.000  7.3590  13.906 -10.992 -12.992  7.3590  13.906 
  1238.500  7.5600  13.587 -10.989 -12.989  7.5600  13.587 
  1239.000  7.6460  12.787 -10.698 -12.698  7.6460  12.787 
  1239.500  7.4330  11.351 -9.2540 -11.254  7.4330  11.351 
  1240.000  7.2490  10.734 -8.0320 -10.032  7.2490  10.734 
  1240.500  6.9490  10.126 -7.6450 -9.6450  6.9490  10.126 
  1241.000  6.3800  9.5380 -7.5770 -9.5770  6.3800  9.5380 
  1241.500  4.6360  9.3540 -8.0560 -10.056  4.6360  9.3540 
  1242.000  3.9230  9.6120 -10.198 -12.198  3.9230  9.6120 
  1242.500  3.3730  9.9100 -12.117 -14.117  3.3730  9.9100 
  1243.000  4.2960  10.535 -14.164 -16.164  4.2960  10.535 
  1243.500  5.0360  11.313 -15.217 -17.217  5.0360  11.313 
  1244.000  5.4870  12.198 -15.438 -17.438  5.4870  12.198 
  1244.500  5.9290  12.842 -15.499 -17.499  5.9290  12.842 
  1245.000  6.1310  13.496 -15.464 -17.464  6.1310  13.496 
  1245.500  6.3320  14.024 -13.923 -15.923  6.3320  14.024 
