~Version Information
VERS.                     2.0: CWLS log ASCII Standard Version 2.00
WRAP.                      NO: One line per depth step
~Well Information Block
#MNEM.UNIT                               Data Type  Information
#---------                               ---------  -----------
STRT.FT                                    40.0000:
STOP.FT                                  2065.0000:
STEP.FT                                     0.5000:
NULL.                 -999.25                     :
COMP.                                             :COMPANY            
WELL.     MORRISON #1                             :WELL               
FLD .                                             :FIELD              
CTRY.                                             :COUNTRY            
STAT.                                             :STATE              
LOC .                                             :LOCATION           
UWI .                                             :UNIQUE WELL ID     
SRVC.                                             :Service company    
DATE.                                             :LOG DATE           
~Curve Information
#MNEM.UNIT           API CODE  Curve Description
#---------           --------  -----------------
DEPT.FT                      :   1 DEPTH
SN  .OHMM                    :   2
LN  .OHMM                    :   3
SP  .MV                      :   4
SBL .MV                      :   5
RS  .OHMM                    :   6
RD  .OHMM                    :   7
~A
    40.000 -999.25 -999.25 -9.9569 -11.957 -999.25 -999.25 
    40.500 -999.25 -999.25 -10.173 -12.173 -999.25 -999.25 
    41.000 -999.25 -999.25 -10.424 -12.424 -999.25 -999.25 
    41.500 -999.25 -999.25 -10.573 -12.573 -999.25 -999.25 
    42.000 -999.25 -999.25 -10.615 -12.615 -999.25 -999.25 
    42.500 -999.25 -999.25 -10.530 -12.530 -999.25 -999.25 
    43.000 -999.25 -999.25 -10.459 -12.459 -999.25 -999.25 
    43.500 -999.25 -999.25 -10.322 -12.322 -999.25 -999.25 
    44.000 -999.25 -999.25 -10.105 -12.105 -999.25 -999.25 
    44.500 -999.25 -999.25 -10.242 -12.242 -999.25 -999.25 
    45.000 -999.25 -999.25 -10.658 -12.658 -999.25 -999.25 
    45.500 -999.25 -999.25 -10.912 -12.912 -999.25 -999.25 
    46.000 -999.25 -999.25 -10.730 -12.730 -999.25 -999.25 
    46.500 -999.25 -999.25 -10.625 -12.625 -999.25 -999.25 
    47.000 -999.25 -999.25 -10.594 -12.594 -999.25 -999.25 
    47.500 -999.25 -999.25 -10.763 -12.763 -999.25 -999.25 
    48.000 -999.25 -999.25 -10.918 -12.918 -999.25 -999.25 
    48.500  30.147 -999.25 -10.740 -12.740  30.147 -999.25 
    49.000  30.140 -999.25 -10.337 -12.337  30.140 -999.25 
    49.500  30.109 -999.25 -10.053 -12.053  30.109 -999.25 
    50.000  30.085 -999.25 -10.110 -12.110  30.085 -999.25 
    50.500  29.985 -999.25 -10.275 -12.275  29.985 -999.25 
    51.000  29.879 -999.25 -10.478 -12.478  29.879 -999.25 
    51.500  29.761 -999.25 -10.714 -12.714  29.761 -999.25 
    52.000  29.641 -999.25 -11.031 -13.031  29.641 -999.25 
    52.500  29.537 -999.25 -11.379 -13.379  29.537 -999.25 
    53.000  29.726 -999.25 -11.992 -13.992  29.726 -999.25 
    53.500  29.808 -999.25 -12.915 -14.915  29.808 -999.25 
    54.000  29.762 -999.25 -14.078 -16.078  29.762 -999.25 
    54.500  29.660 -999.25 -14.565 -16.565  29.660 -999.25 
    55.000  29.547 -999.25 -14.528 -16.528  29.547 -999.25 
    55.500  29.439 -999.25 -13.997 -15.997  29.439 -999.25 
    56.000  29.282 -999.25 -13.587 -15.587  29.282 -999.25 
    56.500  29.054 -999.25 -13.353 -15.353  29.054 -999.25 
    57.000  28.871 -999.25 -13.284 -15.284  28.871 -999.25 
    57.500  29.466 -999.25 -13.986 -15.986  29.466 -999.25 
    58.000  29.647 -999.25 -16.519 -18.519  29.647 -999.25 
    58.500  29.758 -999.25 -16.567 -18.567  29.758 -999.25 
    59.000  29.602 -999.25 -16.309 -18.309  29.602 -999.25 
    59.500  29.347 -999.25 -16.054 -18.054  29.347 -999.25 
    60.000  29.036 -999.25 -15.868 -17.868  29.036 -999.25 
    60.500  28.695 -999.25 -15.799 -17.799  28.695 -999.25 
    61.000  28.437 -999.25 -15.850 -17.850  28.437 -999.25 
    61.500  28.330 -999.25 -15.931 -17.931  28.330 -999.25 
    62.000  29.281 -999.25 -16.293 -18.293  29.281 -999.25 
    62.500  29.360 -999.25 -16.728 -18.728  29.360 -999.25 
    63.000  29.314 -999.25 -17.935 -19.935  29.314 -999.25 
    63.500  29.062 -999.25 -18.436 -20.436  29.062 -999.25 
    64.000  28.486 -999.25 -18.601 -20.601  28.486 -999.25 
    64.500  24.662 -999.25 -18.694 -20.694  24.662 -999.25 
    65.000  23.363 -999.25 -18.780 -20.780  23.363 -999.25 
    65.500  21.947 -999.25 -18.868 -20.868  21.947 -999.25 
    66.000  20.528 -999.25 -18.974 -20.974  20.528 -999.25 
    66.500  19.218 -999.25 -19.074 -21.074  19.218 -999.25 
    67.000  17.176 -999.25 -19.232 -21.232  17.176 -999.25 
    67.500  16.403 -999.25 -19.378 -21.378  16.403 -999.25 
    68.000  16.212 -999.25 -19.544 -21.544  16.212 -999.25 
    68.500  18.064 -999.25 -19.738 -21.738  18.064 -999.25 
    69.000  18.502 -999.25 -19.966 -21.966  18.502 -999.25 
    69.500  18.617 -999.25 -19.799 -21.799  18.617 -999.25 
    70.000  17.761 -999.25 -19.513 -21.513  17.761 -999.25 
    70.500  16.742 -999.25 -19.176 -21.176  16.742 -999.25 
    71.000  16.083 -999.25 -18.889 -20.889  16.083 -999.25 
    71.500  15.418 -999.25 -18.782 -20.782  15.418 -999.25 
    72.000  14.735 -999.25 -18.928 -20.928  14.735 -999.25 
    72.500  13.967 -999.25 -19.097 -21.097  13.967 -999.25 
    73.000  13.382 -999.25 -19.379 -21.379  13.382 -999.25 
    73.500  12.764 -999.25 -19.630 -21.630  12.764 -999.25 
    74.000  12.216 -999.25 -19.809 -21.809  12.216 -999.25 
    74.500  11.754 -999.25 -19.957 -21.957  11.754 -999.25 
    75.000  11.322 -999.25 -20.042 -22.042  11.322 -999.25 
    75.500  10.968 -999.25 -18.810 -20.810  10.968 -999.25 
    76.000  10.843 -999.25 -18.429 -20.429  10.843 -999.25 
    76.500  11.208 -999.25 -18.309 -20.309  11.208 -999.25 
    77.000  11.736 -999.25 -18.436 -20.436  11.736 -999.25 
    77.500  11.914 -999.25 -18.622 -20.622  11.914 -999.25 
    78.000  12.016 -999.25 -18.780 -20.780  12.016 -999.25 
    78.500  12.067 -999.25 -18.902 -20.902  12.067 -999.25 
    79.000  11.974 -999.25 -18.991 -20.991  11.974 -999.25 
    79.500  11.368 -999.25 -18.885 -20.885  11.368 -999.25 
    80.000  10.684 -999.25 -18.475 -20.475  10.684 -999.25 
    80.500  10.329 -999.25 -17.460 -19.460  10.329 -999.25 
    81.000  10.008 -999.25 -16.203 -18.203  10.008 -999.25 
    81.500  9.7634 -999.25 -15.684 -17.684  9.7634 -999.25 
    82.000  9.6406 -999.25 -15.524 -17.524  9.6406 -999.25 
    82.500  10.564 -999.25 -15.734 -17.734  10.564 -999.25 
    83.000  11.200 -999.25 -16.004 -18.004  11.200 -999.25 
    83.500  11.756 -999.25 -16.301 -18.301  11.756 -999.25 
    84.000  12.389 -999.25 -16.619 -18.619  12.389 -999.25 
    84.500  12.880 -999.25 -16.943 -18.943  12.880 -999.25 
    85.000  13.056 -999.25 -17.074 -19.074  13.056 -999.25 
    85.500  12.969 -999.25 -17.075 -19.075  12.969 -999.25 
    86.000  12.933 -999.25 -17.149 -19.149  12.933 -999.25 
    86.500  13.247 -999.25 -17.245 -19.245  13.247 -999.25 
    87.000  13.529 -999.25 -17.351 -19.351  13.529 -999.25 
    87.500  13.748 -999.25 -17.478 -19.478  13.748 -999.25 
    88.000  13.791 -999.25 -17.652 -19.652  13.791 -999.25 
    88.500  13.695 -999.25 -17.832 -19.832  13.695 -999.25 
    89.000  13.197 -999.25 -18.035 -20.035  13.197 -999.25 
    89.500  12.616 -999.25 -18.306 -20.306  12.616 -999.25 
    90.000  12.051 -999.25 -17.924 -19.924  12.051 -999.25 
    90.500  11.570 -999.25 -16.720 -18.720  11.570 -999.25 
    91.000  11.221 -999.25 -15.918 -17.918  11.221 -999.25 
    91.500  11.022 -999.25 -15.673 -17.673  11.022 -999.25 
    92.000  10.972 -999.25 -15.832 -17.832  10.972 -999.25 
    92.500  10.993 -999.25 -17.563 -19.563  10.993 -999.25 
    93.000  11.060 -999.25 -18.136 -20.136  11.060 -999.25 
    93.500  11.244 -999.25 -18.153 -20.153  11.244 -999.25 
    94.000  11.794 -999.25 -17.866 -19.866  11.794 -999.25 
    94.500  12.575 -999.25 -17.585 -19.585  12.575 -999.25 
    95.000  13.325 -999.25 -17.396 -19.396  13.325 -999.25 
    95.500  14.069 -999.25 -17.191 -19.191  14.069 -999.25 
    96.000  14.618 -999.25 -17.065 -19.065  14.618 -999.25 
    96.500  15.053 -999.25 -17.427 -19.427  15.053 -999.25 
    97.000  15.447 -999.25 -17.934 -19.934  15.447 -999.25 
    97.500  15.747 -999.25 -18.411 -20.411  15.747 -999.25 
    98.000  15.937 -999.25 -18.820 -20.820  15.937 -999.25 
    98.500  15.958 -999.25 -19.156 -21.156  15.958 -999.25 
    99.000  15.639 -999.25 -19.406 -21.406  15.639 -999.25 
    99.500  15.400 -999.25 -19.613 -21.613  15.400 -999.25 
   100.000  15.374 -999.25 -19.253 -21.253  15.374 -999.25 
   100.500  15.332 -999.25 -17.758 -19.758  15.332 -999.25 
   101.000  15.321 -999.25 -17.433 -19.433  15.321 -999.25 
   101.500  15.214 -999.25 -17.108 -19.108  15.214 -999.25 
   102.000  14.435 -999.25 -16.622 -18.622  14.435 -999.25 
   102.500  13.847 -999.25 -16.603 -18.603  13.847 -999.25 
   103.000  13.212 -999.25 -16.585 -18.585  13.212 -999.25 
   103.500  12.394 -999.25 -16.872 -18.872  12.394 -999.25 
   104.000  12.191 -999.25 -16.955 -18.955  12.191 -999.25 
   104.500  12.631 -999.25 -17.039 -19.039  12.631 -999.25 
   105.000  13.024 -999.25 -17.122 -19.122  13.024 -999.25 
   105.500  13.291 -999.25 -17.217 -19.217  13.291 -999.25 
   106.000  13.415 -999.25 -17.311 -19.311  13.415 -999.25 
   106.500  11.607 -999.25 -17.405 -19.405  11.607 -999.25 
