~Version Information
VERS.                     2.0: CWLS log ASCII Standard Version 2.00
WRAP.                      NO: One line per depth step
~Well Information Block
#MNEM.UNIT                               Data Type  Information
#---------                               ---------  -----------
STRT.FT                                    40.0000:
STOP.FT                                  2065.0000:
STEP.FT                                     0.5000:
NULL.                 -999.25                     :
COMP.                                             :COMPANY            
WELL.     MORRISON #1                             :WELL               
FLD .                                             :FIELD              
CTRY.                                             :COUNTRY            
STAT.                                             :STATE              
LOC .                                             :LOCATION           
UWI .                                             :UNIQUE WELL ID     
SRVC.                                             :Service company    
DATE.                                             :LOG DATE           
~Curve Information
#MNEM.UNIT           API CODE  Curve Description
#---------           --------  -----------------
DEPT.FT                      :   1 DEPTH
SN  .OHMM                    :   2
LN  .OHMM                    :   3
SP  .MV                      :   4
SBL .MV                      :   5
RS  .OHMM                    :   6
RD  .OHMM                    :   7
~A
# ...
   844.000  7.6070  8.3270 -6.5880 -8.5880  7.6070  8.3270 
   844.500  6.5970  9.1240 -6.5380 -8.5380  6.5970  9.1240 
   845.000  5.7900  9.8150 -6.4890 -8.4890  5.7900  9.8150 
   845.500  5.0490  10.218 -6.5200 -8.5200  5.0490  10.218 
   846.000  4.7510  10.592 -6.5180 -8.5180  4.7510  10.592 
   846.500  4.0010  10.909 -6.5170 -8.5170  4.0010  10.909 
   847.000  3.7600  11.071 -6.5000 -8.5000  3.7600  11.071 
   847.500  3.4230  11.282 -6.4820 -8.4820  3.4230  11.282 
   848.000  3.2780  11.493 -6.4490 -8.4490  3.2780  11.493 
   848.500  3.2260  11.622 -6.5440 -8.5440  3.2260  11.622 
   849.000  3.1750  11.751 -6.6400 -8.6400  3.1750  11.751 
   849.500  3.1230  11.895 -6.9930 -8.9930  3.1230  11.895 
   850.000  3.0840  11.980 -7.3470 -9.3470  3.0840  11.980 
   850.500  3.0440  12.056 -9.5690 -11.569  3.0440  12.056 
   851.000  3.0120  12.132 -10.115 -12.115  3.0120  12.132 
   851.500  2.9800  12.179 -10.662 -12.662  2.9800  12.179 
   852.000  2.9480  11.631 -11.046 -13.046  2.9480  11.631 
   852.500  2.9150  11.332 -11.141 -13.141  2.9150  11.332 
   853.000  2.8520  11.153 -11.236 -13.236  2.8520  11.153 
   853.500  2.7880  10.974 -11.427 -13.427  2.7880  10.974 
   854.000  2.7200  10.867 -11.555 -13.555  2.7200  10.867 
   854.500  2.6520  10.876 -11.649 -13.649  2.6520  10.876 
   855.000  2.5840  10.885 -10.841 -12.841  2.5840  10.885 
   855.500  2.5350  10.826 -10.404 -12.404  2.5350  10.826 
   856.000  2.4860  10.618 -9.9670 -11.967  2.4860  10.618 
   856.500  2.4370  10.411 -9.1590 -11.159  2.4370  10.411 
   857.000  2.3970  10.102 -8.3510 -10.351  2.3970  10.102 
   857.500  2.3580  10.077 -7.8330 -9.8330  2.3580  10.077 
   858.000  2.3180  10.052 -7.3160 -9.3160  2.3180  10.052 
   858.500  2.2790  10.080 -7.0240 -9.0240  2.2790  10.080 
   859.000  2.2300  10.108 -6.7310 -8.7310  2.2300  10.108 
   859.500  2.1810  10.280 -7.0190 -9.0190  2.1810  10.280 
   860.000  2.1890  10.385 -7.5660 -9.5660  2.1890  10.385 
   860.500  2.1980  10.489 -8.1120 -10.112  2.1980  10.489 
   861.000  2.2640  10.498 -9.0290 -11.029  2.2640  10.498 
   861.500  2.3060  10.507 -9.9460 -11.946  2.3060  10.507 
   862.000  2.3490  10.506 -10.137 -12.137  2.3490  10.506 
   862.500  2.3920  10.495 -10.329 -12.329  2.3920  10.495 
   863.000  2.4360  10.484 -10.488 -12.488  2.4360  10.484 
   863.500  2.4800  10.474 -10.648 -12.648  2.4800  10.474 
   864.000  2.5180  10.343 -10.742 -12.742  2.5180  10.343 
   864.500  2.5550  10.212 -10.837 -12.837  2.5550  10.212 
   865.000  2.5920  9.8460 -10.916 -12.916  2.5920  9.8460 
   865.500  2.6330  9.6630 -10.995 -12.995  2.6330  9.6630 
   866.000  2.6740  9.5510 -11.073 -13.073  2.6740  9.5510 
   866.500  2.7140  9.4400 -11.152 -13.152  2.7140  9.4400 
   867.000  2.7580  9.2180 -11.231 -13.231  2.7580  9.2180 
   867.500  2.8020  9.1160 -11.309 -13.309  2.8020  9.1160 
   868.000  2.8460  9.0140 -11.533 -13.533  2.8460  9.0140 
   868.500  2.8740  8.7820 -11.611 -13.611  2.8740  8.7820 
   869.000  2.9010  8.7620 -11.690 -13.690  2.9010  8.7620 
   869.500  2.9290  8.7800 -11.753 -13.753  2.9290  8.7800 
   870.000  2.9670  8.8080 -11.815 -13.815  2.9670  8.8080 
   870.500  3.0040  8.8360 -11.846 -13.846  3.0040  8.8360 
   871.000  3.0800  9.0850 -11.860 -13.860  3.0800  9.0850 
   871.500  3.1080  9.2280 -11.874 -13.874  3.1080  9.2280 
   872.000  3.1360  9.3710 -12.259 -14.259  3.1360  9.3710 
   872.500  3.1590  9.5810 -12.644 -14.644  3.1590  9.5810 
   873.000  3.1820  9.7920 -13.126 -15.126  3.1820  9.7920 
   873.500  3.1950  9.9300 -13.607 -15.607  3.1950  9.9300 
   874.000  3.2080  10.068 -13.831 -15.831  3.2080  10.068 
   874.500  3.2270  10.154 -14.055 -16.055  3.2270  10.154 
   875.000  3.2350  10.191 -12.376 -14.376  3.2350  10.191 
   875.500  3.2440  10.229 -11.181 -13.181  3.2440  10.229 
   876.000  3.2330  10.237 -10.470 -12.470  3.2330  10.237 
   876.500  3.2030  10.246 -10.049 -12.049  3.2030  10.246 
   877.000  3.1400  10.226 -9.6280 -11.628  3.1400  10.226 
   877.500  3.0770  10.215 -8.8840 -10.884  3.0770  10.215 
   878.000  2.9990  10.204 -8.1730 -10.173  2.9990  10.204 
   878.500  2.9210  10.155 -7.4940 -9.4940  2.9210  10.155 
   879.000  2.8620  10.130 -7.0890 -9.0890  2.8620  10.130 
   879.500  2.8030  10.105 -6.6840 -8.6840  2.8030  10.105 
   880.000  2.7880  10.066 -6.7470 -8.7470  2.7880  10.066 
   880.500  2.7730  10.026 -8.3250 -10.325  2.7730  10.026 
   881.000  2.8480  10.016 -9.7090 -11.709  2.8480  10.016 
   881.500  2.9050  10.005 -11.061 -13.061  2.9050  10.005 
   882.000  2.9620  10.004 -11.559 -13.559  2.9620  10.004 
   882.500  2.9990  10.027 -12.057 -14.057  2.9990  10.027 
   883.000  3.0370  10.050 -12.195 -14.195  3.0370  10.050 
   883.500  3.0840  10.073 -12.333 -14.333  3.0840  10.073 
   884.000  3.1310  10.096 -12.471 -14.471  3.1310  10.096 
   884.500  3.1630  10.111 -12.662 -14.662  3.1630  10.111 
   885.000  3.1960  10.126 -14.981 -16.981  3.1960  10.126 
   885.500  3.2140  10.141 -16.785 -18.785  3.2140  10.141 
   886.000  3.2320  10.092 -17.105 -19.105  3.2320  10.092 
   886.500  3.2460  10.038 -17.039 -19.039  3.2460  10.038 
   887.000  3.2590  9.9850 -16.811 -18.811  3.2590  9.9850 
   887.500  3.2770  9.8390 -15.971 -17.971  3.2770  9.8390 
   888.000  3.2810  9.7470 -14.019 -16.019  3.2810  9.7470 
   888.500  3.2850  9.6550 -12.066 -14.066  3.2850  9.6550 
   889.000  3.2840  9.5190 -8.4530 -10.453  3.2840  9.5190 
   889.500  3.2830  9.4990 -7.1940 -9.1940  3.2830  9.4990 
   890.000  3.2630  9.5170 -6.1600 -8.1600  3.2630  9.5170 
   890.500  3.2430  9.5550 -5.3520 -7.3520  3.2430  9.5550 
   891.000  3.1930  9.5920 -5.0920 -7.0920  3.1930  9.5920 
   891.500  3.1640  9.6440 -4.8320 -6.8320  3.1640  9.6440 
   892.000  3.1340  9.6960 -4.5720 -6.5720  3.1340  9.6960 
   892.500  3.1140  9.7380 -4.3120 -6.3120  3.1140  9.7380 
   893.000  3.0930  9.7800 -4.0690 -6.0690  3.0930  9.7800 
   893.500  3.0830  9.8660 -3.8250 -5.8250  3.0830  9.8660 
   894.000  3.0910  9.9220 -3.5650 -5.5650  3.0910  9.9220 
   894.500  3.1000  9.9600 -3.8530 -5.8530  3.1000  9.9600 
   895.000  3.1120  9.9400 -5.5920 -7.5920  3.1120  9.9400 
   895.500  3.1240  9.7660 -7.8800 -9.8800  3.1240  9.7660 
   896.000  3.1350  9.5920 -8.3940 -10.394  3.1350  9.5920 
   896.500  3.1440  9.4470 -8.9080 -10.908  3.1440  9.4470 
   897.000  3.1530  9.3020 -9.6790 -11.679  3.1530  9.3020 
   897.500  3.1520  9.0990 -8.3560 -10.356  3.1520  9.0990 
   898.000  3.1510  9.0400 -7.2570 -9.2570  3.1510  9.0400 
   898.500  3.0340  9.0390 -6.8850 -8.8850  3.0340  9.0390 
   899.000  2.9370  9.0380 -6.5120 -8.5120  2.9370  9.0380 
   899.500  2.8590  9.0520 -8.0250 -10.025  2.8590  9.0520 
   900.000  2.8250  9.0650 -9.7000 -11.700  2.8250  9.0650 
   900.500  2.7900  9.1360 -10.246 -12.246  2.7900  9.1360 
   901.000  2.7980  9.2060 -10.372 -12.372  2.7980  9.2060 
   901.500  2.8060  9.3540 -10.740 -12.740  2.8060  9.3540 
   902.000  2.8110  9.5010 -11.109 -13.109  2.8110  9.5010 
   902.500  2.8160  9.7110 -12.525 -14.525  2.8160  9.7110 
   903.000  2.8210  9.7720 -12.715 -14.715  2.8210  9.7720 
   903.500  2.8130  9.8330 -12.697 -14.697  2.8130  9.8330 
   904.000  2.8060  9.8960 -12.678 -14.678  2.8060  9.8960 
   904.500  2.7980  9.9590 -12.643 -14.643  2.7980  9.9590 
   905.000  2.7960  10.021 -12.608 -14.608  2.7960  10.021 
   905.500  2.8140  10.058 -12.670 -14.670  2.8140  10.058 
   906.000  2.8320  10.095 -12.861 -14.861  2.8320  10.095 
   906.500  2.8590  9.9020 -13.116 -15.116  2.8590  9.9020 
   907.000  2.8870  9.7080 -14.017 -16.017  2.8870  9.7080 
   907.500  2.9190  9.5920 -15.562 -17.562  2.9190  9.5920 
   908.000  2.9510  9.5950 -16.365 -18.365  2.9510  9.5950 
   908.500  2.9740  9.5980 -17.104 -19.104  2.9740  9.5980 
   909.000  2.9970  9.6450 -17.843 -19.843  2.9970  9.6450 
   909.500  3.0100  9.6770 -18.147 -20.147  3.0100  9.6770 
   910.000  3.0230  9.7100 -18.451 -20.451  3.0230  9.7100 
   910.500  3.0310  9.7180 -18.642 -20.642  3.0310  9.7180 
