~Version Information
VERS.                     2.0: CWLS log ASCII Standard Version 2.00
WRAP.                      NO: One line per depth step
~Well Information Block
#MNEM.UNIT                               Data Type  Information
#---------                               ---------  -----------
STRT.FT                                    40.0000:
STOP.FT                                  2065.0000:
STEP.FT                                     0.5000:
NULL.                 -999.25                     :
COMP.                                             :COMPANY            
WELL.     MORRISON #1                             :WELL               
FLD .                                             :FIELD              
CTRY.                                             :COUNTRY            
STAT.                                             :STATE              
LOC .                                             :LOCATION           
UWI .                                             :UNIQUE WELL ID     
SRVC.                                             :Service company    
DATE.                                             :LOG DATE           
~Curve Information
#MNEM.UNIT           API CODE  Curve Description
#---------           --------  -----------------
DEPT.FT                      :   1 DEPTH
SN  .OHMM                    :   2
LN  .OHMM                    :   3
SP  .MV                      :   4
SBL .MV                      :   5
RS  .OHMM                    :   6
RD  .OHMM                    :   7
~A
# ...
  1313.000  8.1610  12.137 -14.906 -16.906  8.1610  12.137 
  1313.500  8.2300  12.341 -15.020 -17.020  8.2300  12.341 
  1314.000  8.3230  12.473 -15.629 -17.629  8.3230  12.473 
  1314.500  8.4160  12.605 -16.239 -18.239  8.4160  12.605 
  1315.000  8.7740  13.039 -16.815 -18.815  8.7740  13.039 
  1315.500  9.2180  13.262 -16.881 -18.881  9.2180  13.262 
  1316.000  9.6720  13.418 -16.818 -18.818  9.6720  13.418 
  1316.500  10.088  13.487 -16.756 -18.756  10.088  13.487 
  1317.000  10.359  13.411 -16.997 -18.997  10.359  13.411 
  1317.500  10.476  13.104 -17.239 -19.239  10.476  13.104 
  1318.000  10.594  12.731 -17.752 -19.752  10.594  12.731 
  1318.500  10.749  12.337 -17.913 -19.913  10.749  12.337 
  1319.000  10.765  11.944 -17.883 -19.883  10.765  11.944 
  1319.500  10.782  11.811 -17.403 -19.403  10.782  11.811 
  1320.000  9.3290  12.987 -16.603 -18.603  9.3290  12.987 
  1320.500  8.2420  13.692 -15.965 -17.965  8.2420  13.692 
  1321.000  7.6080  14.146 -14.845 -16.845  7.6080  14.146 
  1321.500  7.1090  14.494 -14.174 -16.174  7.1090  14.494 
  1322.000  6.8800  14.626 -13.695 -15.695  6.8800  14.626 
  1322.500  7.1120  14.758 -16.131 -18.131  7.1120  14.758 
  1323.000  7.4130  14.951 -18.021 -20.021  7.4130  14.951 
  1323.500  7.8190  15.020 -18.631 -20.631  7.8190  15.020 
  1324.000  8.2630  15.060 -18.825 -20.825  8.2630  15.060 
  1324.500  8.5920  15.023 -18.795 -20.795  8.5920  15.023 
  1325.000  9.2480  14.736 -18.765 -20.765  9.2480  14.736 
  1325.500  9.9580  14.146 -5.9120 -7.9120  9.9580  14.146 
  1326.000  10.243  13.787 -4.8810 -6.8810  10.243  13.787 
  1326.500  10.279  13.639 -4.3950 -6.3950  10.279  13.639 
  1327.000  10.171  13.790 -3.9090 -5.9090  10.171  13.790 
  1327.500  10.062  13.942 -3.1000 -5.1000  10.062  13.942 
  1328.000  8.9030  14.092 -2.6620 -4.6620  8.9030  14.092 
  1328.500  8.0910  14.166 -2.2230 -4.2230  8.0910  14.166 
  1329.000  7.5780  14.250 -1.5430 -3.5430  7.5780  14.250 
  1329.500  7.0840  14.281 -1.0880 -3.0880  7.0840  14.281 
  1330.000  6.6580  14.312 -0.5700 -2.5700  6.6580  14.312 
  1330.500  6.3420  14.347 -1.2530 -3.2530  6.3420  14.347 
  1331.000  6.0260  14.219 -1.9350 -3.9350  6.0260  14.219 
  1331.500  5.6280  13.840 -3.0020 -5.0020  5.6280  13.840 
  1332.000  5.2310  13.471 -4.0690 -6.0690  5.2310  13.471 
  1332.500  4.8130  13.132 -7.1030 -9.1030  4.8130  13.132 
  1333.000  4.6180  13.533 -8.2190 -10.219  4.6180  13.533 
  1333.500  4.6870  14.002 -9.4140 -11.414  4.6870  14.002 
  1334.000  4.7570  14.110 -10.609 -12.609  4.7570  14.110 
  1334.500  5.7930  14.217 -12.299 -14.299  5.7930  14.217 
  1335.000  5.8760  14.301 -13.190 -15.190  5.8760  14.301 
  1335.500  5.8730  14.326 -13.952 -15.952  5.8730  14.326 
  1336.000  5.8700  14.314 -14.266 -16.266  5.8700  14.314 
  1336.500  5.8970  14.302 -13.892 -15.892  5.8970  14.302 
  1337.000  5.9230  14.289 -13.518 -15.518  5.9230  14.289 
  1337.500  6.0350  14.248 -12.581 -14.581  6.0350  14.248 
  1338.000  6.1090  14.206 -12.094 -14.094  6.1090  14.206 
  1338.500  6.1830  14.116 -12.120 -14.120  6.1830  14.116 
  1339.000  6.2570  14.041 -12.098 -14.098  6.2570  14.041 
  1339.500  6.4460  13.966 -12.076 -14.076  6.4460  13.966 
  1340.000  6.5210  13.679 -11.844 -13.844  6.5210  13.679 
  1340.500  6.4880  13.392 -11.342 -13.342  6.4880  13.392 
  1341.000  6.4380  12.907 -10.840 -12.840  6.4380  12.907 
  1341.500  6.3870  12.789 -10.001 -12.001  6.3870  12.789 
  1342.000  6.0940  12.767 -9.1620 -11.162  6.0940  12.767 
  1342.500  5.9380  12.745 -8.3710 -10.371  5.9380  12.745 
  1343.000  5.7810  12.992 -7.5800 -9.5800  5.7810  12.992 
  1343.500  5.5270  13.326 -6.7710 -8.7710  5.5270  13.326 
  1344.000  5.4470  13.419 -7.7250 -9.7250  5.4470  13.419 
  1344.500  5.4150  13.435 -8.2960 -10.296  5.4150  13.435 
  1345.000  5.9130  11.969 -8.5460 -10.546  5.9130  11.969 
  1345.500  6.1510  11.533 -8.5400 -10.540  6.1510  11.533 
  1346.000  6.4080  11.192 -8.5350 -10.535  6.4080  11.192 
  1346.500  6.6650  10.978 -9.5510 -11.551  6.6650  10.978 
  1347.000  7.0660  10.542 -10.441 -12.441  7.0660  10.542 
  1347.500  7.1500  10.394 -10.916 -12.916  7.1500  10.394 
  1348.000  7.2340  10.873 -11.198 -13.198  7.2340  10.873 
  1348.500  7.1530  11.207 -11.481 -13.481  7.1530  11.207 
  1349.000  6.7750  11.637 -11.729 -13.729  6.7750  11.637 
  1349.500  6.5500  12.596 -11.115 -13.115  6.5500  12.596 
  1350.000  6.0560  13.421 -10.501 -12.501  6.0560  13.421 
  1350.500  5.8040  13.728 -8.9260 -10.926  5.8040  13.728 
  1351.000  5.5330  13.968 -7.4480 -9.4480  5.5330  13.968 
  1351.500  5.0410  14.207 -6.0670 -8.0670  5.0410  14.207 
  1352.000  4.6930  14.484 -4.4620 -6.4620  4.6930  14.484 
  1352.500  4.5180  14.646 -4.8750 -6.8750  4.5180  14.646 
  1353.000  5.3640  14.269 -6.4080 -8.4080  5.3640  14.269 
  1353.500  5.6420  13.286 -7.3340 -9.3340  5.6420  13.286 
  1354.000  6.0150  12.707 -7.4740 -9.4740  6.0150  12.707 
  1354.500  6.1490  12.263 -7.6150 -9.6150  6.1490  12.263 
  1355.000  6.1760  11.847 -8.1860 -10.186  6.1760  11.847 
  1355.500  6.0400  12.279 -9.2070 -11.207  6.0400  12.279 
  1356.000  5.6920  12.465 -9.7800 -11.780  5.6920  12.465 
  1356.500  5.1900  12.652 -10.897 -12.897  5.1900  12.652 
  1357.000  4.9280  12.996 -11.503 -13.503  4.9280  12.996 
  1357.500  4.6860  13.303 -12.235 -14.235  4.6860  13.303 
  1358.000  4.4440  13.436 -12.424 -14.424  4.4440  13.436 
  1358.500  4.3560  13.550 -12.324 -14.324  4.3560  13.550 
  1359.000  4.2680  13.713 -12.224 -14.224  4.2680  13.713 
  1359.500  4.0890  12.777 -12.124 -14.124  4.0890  12.777 
  1360.000  3.9090  11.793 -12.024 -14.024  3.9090  11.793 
  1360.500  3.5600  11.523 -11.828 -13.828  3.5600  11.523 
  1361.000  3.4340  11.223 -11.680 -13.680  3.4340  11.223 
  1361.500  3.6540  11.125 -11.533 -13.533  3.6540  11.125 
  1362.000  3.7970  11.027 -11.208 -13.208  3.7970  11.027 
  1362.500  3.8150  10.987 -10.884 -12.884  3.8150  10.987 
  1363.000  3.7410  11.072 -10.496 -12.496  3.7410  11.072 
  1363.500  3.6680  11.220 -10.043 -12.043  3.6680  11.220 
  1364.000  3.5740  11.368 -9.3980 -11.398  3.5740  11.368 
  1364.500  3.4810  11.829 -10.868 -12.868  3.4810  11.829 
  1365.000  3.4610  12.299 -11.889 -13.889  3.4610  12.299 
  1365.500  3.4400  13.087 -12.237 -14.237  3.4400  13.087 
  1366.000  3.4000  13.364 -12.298 -14.298  3.4000  13.364 
  1366.500  3.3600  13.488 -12.102 -14.102  3.3600  13.488 
  1367.000  3.4550  13.612 -11.617 -13.617  3.4550  13.612 
  1367.500  3.6610  13.736 -11.278 -13.278  3.6610  13.736 
  1368.000  3.8660  14.061 -10.939 -12.939  3.8660  14.061 
  1368.500  4.7690  14.137 -10.599 -12.599  4.7690  14.137 
  1369.000  5.2490  14.184 -10.259 -12.259  5.2490  14.184 
  1369.500  5.6810  14.028 -14.802 -16.802  5.6810  14.028 
  1370.000  5.9590  13.594 -14.493 -16.493  5.9590  13.594 
  1370.500  6.2460  12.572 -14.185 -16.185  6.2460  12.572 
  1371.000  6.3790  12.839 -14.022 -16.022  6.3790  12.839 
  1371.500  6.1180  12.973 -14.081 -16.081  6.1180  12.973 
  1372.000  5.7510  12.990 -14.686 -16.686  5.7510  12.990 
  1372.500  5.1330  12.941 -18.078 -20.078  5.1330  12.941 
  1373.000  4.7270  12.593 -20.860 -22.860  4.7270  12.593 
  1373.500  4.3310  12.389 -21.001 -23.001  4.3310  12.389 
  1374.000  4.1270  12.359 -21.143 -23.143  4.1270  12.359 
  1374.500  4.1060  12.314 -19.536 -21.536  4.1060  12.314 
  1375.000  4.2300  12.270 -16.970 -18.970  4.2300  12.270 
  1375.500  4.4610  10.391 -16.326 -18.326  4.4610  10.391 
  1376.000  5.3550  9.2550 -16.740 -18.740  5.3550  9.2550 
  1376.500  5.6150  8.6860 -13.086 -15.086  5.6150  8.6860 
  1377.000  5.7780  9.3110 -12.603 -14.603  5.7780  9.3110 
  1377.500  5.8730  9.9360 -12.281 -14.281  5.8730  9.9360 
  1378.000  5.9450  10.200 -11.959 -13.959  5.9450  10.200 
  1378.500  6.0160  10.465 -11.058 -13.058  6.0160  10.465 
  1379.000  5.3410  11.108 -10.496 -12.496  5.3410  11.108 
  1379.500  4.7050  11.762 -9.9330 -11.933  4.7050  11.762 
