~Version Information
VERS.                     2.0: CWLS log ASCII Standard Version 2.00
WRAP.                      NO: One line per depth step
~Well Information Block
#MNEM.UNIT                               Data Type  Information
#---------                               ---------  -----------
STRT.FT                                    40.0000:
STOP.FT                                  2065.0000:
STEP.FT                                     0.5000:
NULL.                 -999.25                     :
COMP.                                             :COMPANY            
WELL.     MORRISON #1                             :WELL               
FLD .                                             :FIELD              
CTRY.                                             :COUNTRY            
STAT.                                             :STATE              
LOC .                                             :LOCATION           
UWI .                                             :UNIQUE WELL ID     
SRVC.                                             :Service company    
DATE.                                             :LOG DATE           
~Curve Information
#MNEM.UNIT           API CODE  Curve Description
#---------           --------  -----------------
DEPT.FT                      :   1 DEPTH
SN  .OHMM                    :   2
LN  .OHMM                    :   3
SP  .MV                      :   4
SBL .MV                      :   5
RS  .OHMM                    :   6
RD  .OHMM                    :   7
~A
# ...
   978.000  2.3590  9.3820 -23.108 -25.108  2.3590  9.3820 
   978.500  2.0700  9.2230 -23.155 -25.155  2.0700  9.2230 
   979.000  1.7710  9.0630 -23.153 -25.153  1.7710  9.0630 
   979.500  1.9570  8.9710 -23.151 -25.151  1.9570  8.9710 
   980.000  2.1430  8.8780 -23.149 -25.149  2.1430  8.8780 
   980.500  2.5940  8.8000 -23.179 -25.179  2.5940  8.8000 
   981.000  2.8620  8.7900 -23.193 -25.193  2.8620  8.7900 
   981.500  3.0620  8.7790 -23.207 -25.207  3.0620  8.7790 
   982.000  3.3590  8.9510 -23.269 -25.269  3.3590  8.9510 
   982.500  3.4930  9.1130 -23.332 -25.332  3.4930  9.1130 
   983.000  3.6260  9.2800 -22.330 -24.330  3.6260  9.2800 
   983.500  3.7110  9.4470 -21.215 -23.215  3.7110  9.4470 
   984.000  3.3840  9.5420 -20.101 -22.101  3.3840  9.5420 
   984.500  3.2050  9.6370 -18.164 -20.164  3.2050  9.6370 
   985.000  3.0260  9.6890 -17.646 -19.646  3.0260  9.6890 
   985.500  2.6500  9.7410 -17.580 -19.580  2.6500  9.7410 
   986.000  2.5340  9.7060 -17.513 -19.513  2.5340  9.7060 
   986.500  2.7630  9.6710 -17.479 -19.479  2.7630  9.6710 
   987.000  3.0410  9.5690 -17.445 -19.445  3.0410  9.5690 
   987.500  3.2990  9.4670 -17.410 -19.410  3.2990  9.4670 
   988.000  3.3510  9.1680 -17.279 -19.279  3.3510  9.1680 
   988.500  3.4030  9.1190 -17.019 -19.019  3.4030  9.1190 
   989.000  3.2380  9.0700 -16.630 -18.630  3.2380  9.0700 
   989.500  3.0740  9.0690 -12.114 -14.114  3.0740  9.0690 
   990.000  2.5340  9.0870 -8.5970 -10.597  2.5340  9.0870 
   990.500  2.1390  9.1050 -7.6600 -9.6600  2.1390  9.1050 
   991.000  1.9650  9.2860 -7.4320 -9.4320  1.9650  9.2860 
   991.500  1.9160  9.4390 -8.6230 -10.623  1.9160  9.4390 
   992.000  2.0980  9.7740 -9.8140 -11.814  2.0980  9.7740 
   992.500  2.7690  9.9030 -11.102 -13.102  2.7690  9.9030 
   993.000  2.9410  10.032 -12.309 -14.309  2.9410  10.032 
   993.500  3.0460  10.232 -13.516 -15.516  3.0460  10.232 
   994.000  3.2270  10.260 -15.416 -17.416  3.2270  10.260 
   994.500  3.3700  10.288 -16.478 -18.478  3.3700  10.288 
   995.000  3.5710  10.262 -17.250 -19.250  3.5710  10.262 
   995.500  3.9150  10.237 -18.021 -20.021  3.9150  10.237 
   996.000  4.2030  10.145 -18.600 -20.600  4.2030  10.145 
   996.500  4.6530  10.053 -19.210 -21.210  4.6530  10.053 
   997.000  5.0650  10.023 -19.530 -21.530  5.0650  10.023 
   997.500  5.4960  10.060 -19.561 -21.561  5.4960  10.060 
   998.000  5.9370  10.155 -19.204 -21.204  5.9370  10.155 
   998.500  6.6570  10.322 -18.138 -20.138  6.6570  10.322 
   999.000  7.2030  10.489 -17.426 -19.426  7.2030  10.489 
   999.500  7.9990  10.589 -16.779 -18.779  7.9990  10.589 
  1000.000  8.3180  10.725 -17.386 -19.386  8.3180  10.725 
  1000.500  8.5270  10.799 -16.788 -18.788  8.5270  10.799 
  1001.000  8.6680  10.854 -16.189 -18.189  8.6680  10.854 
  1001.500  8.7810  10.899 -15.606 -17.606  8.7810  10.899 
  1002.000  8.8550  10.944 -15.024 -17.024  8.8550  10.944 
  1002.500  8.8320  10.970 -13.799 -15.799  8.8320  10.970 
  1003.000  8.7530  10.895 -12.991 -14.991  8.7530  10.895 
  1003.500  8.5760  10.820 -14.971 -16.971  8.5760  10.820 
  1004.000  8.1110  10.345 -18.808 -20.808  8.1110  10.345 
  1004.500  6.3270  9.7550 -20.756 -22.756  6.3270  9.7550 
  1005.000  5.2070  9.0100 -21.118 -23.118  5.2070  9.0100 
  1005.500  4.5490  8.1980 -21.480 -23.480  4.5490  8.1980 
  1006.000  4.0260  7.6850 -21.600 -23.600  4.0260  7.6850 
  1006.500  3.6190  7.2590 -21.610 -23.610  3.6190  7.2590 
  1007.000  3.4620  6.9380 -21.620 -23.620  3.4620  6.9380 
  1007.500  3.3920  7.0310 -21.631 -23.631  3.3920  7.0310 
  1008.000  3.3310  7.2300 -21.641 -23.641  3.3310  7.2300 
  1008.500  3.2940  7.4300 -21.666 -23.666  3.2940  7.4300 
  1009.000  3.2580  8.0000 -21.690 -23.690  3.2580  8.0000 
  1009.500  3.1870  8.5690 -21.685 -23.685  3.1870  8.5690 
  1010.000  3.0980  9.1630 -21.679 -23.679  3.0980  9.1630 
  1010.500  3.0660  9.5640 -21.560 -23.560  3.0660  9.5640 
  1011.000  3.1590  9.9950 -21.442 -23.442  3.1590  9.9950 
  1011.500  3.3190  10.261 -21.211 -23.211  3.3190  10.261 
  1012.000  3.5090  10.480 -20.964 -22.964  3.5090  10.480 
  1012.500  3.7560  10.689 -20.718 -22.718  3.7560  10.689 
  1013.000  3.9360  10.898 -20.263 -22.263  3.9360  10.898 
  1013.500  4.1260  11.356 -19.809 -21.809  4.1260  11.356 
  1014.000  4.0840  11.594 -19.258 -21.258  4.0840  11.594 
  1014.500  3.6190  11.918 -18.707 -20.707  3.6190  11.918 
  1015.000  3.3850  12.060 -18.442 -20.442  3.3850  12.060 
  1015.500  3.2180  12.173 -18.490 -20.490  3.2180  12.173 
  1016.000  3.1380  12.285 -18.537 -20.537  3.1380  12.285 
  1016.500  3.0100  12.397 -18.585 -20.585  3.0100  12.397 
  1017.000  2.8240  12.433 -18.627 -20.627  2.8240  12.433 
  1017.500  3.4850  12.497 -18.668 -20.668  3.4850  12.497 
  1018.000  3.8290  12.513 -18.757 -20.757  3.8290  12.513 
  1018.500  3.9710  12.501 -18.782 -20.782  3.9710  12.501 
  1019.000  4.0350  12.435 -18.872 -20.872  4.0350  12.435 
  1019.500  3.9170  12.370 -19.025 -21.025  3.9170  12.370 
  1020.000  3.7990  11.991 -19.211 -21.211  3.7990  11.991 
  1020.500  3.4190  11.747 -19.846 -21.846  3.4190  11.747 
  1021.000  3.2720  11.484 -20.448 -22.448  3.2720  11.484 
  1021.500  3.1250  11.192 -20.602 -22.602  3.1250  11.192 
  1022.000  2.9380  11.016 -20.563 -22.563  2.9380  11.016 
  1022.500  2.9070  10.859 -20.237 -22.237  2.9070  10.859 
  1023.000  2.8650  10.770 -19.397 -21.397  2.8650  10.770 
  1023.500  2.8670  10.641 -18.750 -20.750  2.8670  10.641 
  1024.000  2.8690  10.590 -18.200 -20.200  2.8690  10.590 
  1024.500  2.9240  10.597 -17.872 -19.872  2.9240  10.597 
  1025.000  2.9780  10.604 -18.346 -20.346  2.9780  10.604 
  1025.500  3.0210  10.661 -24.246 -26.246  3.0210  10.661 
  1026.000  3.0630  10.718 -24.059 -26.059  3.0630  10.718 
  1026.500  3.1060  10.774 -23.134 -25.134  3.1060  10.774 
  1027.000  2.9650  10.831 -21.890 -23.890  2.9650  10.831 
  1027.500  2.7860  10.854 -20.454 -22.454  2.7860  10.854 
  1028.000  2.6930  10.877 -19.467 -21.467  2.6930  10.877 
  1028.500  2.5910  10.862 -19.152 -21.152  2.5910  10.862 
  1029.000  2.5180  10.846 -18.838 -20.838  2.5180  10.846 
  1029.500  2.4160  10.638 -18.666 -20.666  2.4160  10.638 
  1030.000  2.3430  10.305 -18.495 -20.495  2.3430  10.305 
  1030.500  2.6750  9.2500 -18.452 -20.452  2.6750  9.2500 
  1031.000  3.1690  9.2450 -18.409 -20.409  3.1690  9.2450 
  1031.500  3.5390  9.2390 -18.414 -20.414  3.5390  9.2390 
  1032.000  3.8410  9.1750 -18.451 -20.451  3.8410  9.1750 
  1032.500  3.9760  9.1020 -20.025 -22.025  3.9760  9.1020 
  1033.000  4.1100  8.8080 -20.960 -22.960  4.1100  8.8080 
  1033.500  4.2960  8.2340 -21.381 -23.381  4.2960  8.2340 
  1034.000  4.3380  8.2430 -21.450 -23.450  4.3380  8.2430 
  1034.500  4.2850  8.2510 -21.135 -23.135  4.2850  8.2510 
  1035.000  3.8740  8.3710 -19.844 -21.844  3.8740  8.3710 
  1035.500  3.5130  9.7510 -18.552 -20.552  3.5130  9.7510 
  1036.000  3.1310  10.939 -17.403 -19.403  3.1310  10.939 
  1036.500  2.8370  11.338 -18.337 -20.337  2.8370  11.338 
  1037.000  2.6100  11.659 -20.199 -22.199  2.6100  11.659 
  1037.500  2.4400  11.894 -20.364 -22.364  2.4400  11.894 
  1038.000  2.4150  12.023 -20.209 -22.209  2.4150  12.023 
  1038.500  2.4330  12.076 -19.943 -21.943  2.4330  12.076 
  1039.000  2.4520  12.099 -19.677 -21.677  2.4520  12.099 
  1039.500  2.4550  11.977 -17.918 -19.918  2.4550  11.977 
  1040.000  2.4500  11.702 -17.492 -19.492  2.4500  11.702 
  1040.500  2.4440  9.9250 -17.066 -19.066  2.4440  9.9250 
  1041.000  2.4290  8.6680 -16.429 -18.429  2.4290  8.6680 
  1041.500  2.4180  8.2860 -16.146 -18.146  2.4180  8.2860 
  1042.000  2.4080  7.8570 -15.863 -17.863  2.4080  7.8570 
  1042.500  2.3780  7.5530 -15.515 -17.515  2.3780  7.5530 
  1043.000  2.3480  7.6240 -15.329 -17.329  2.3480  7.6240 
  1043.500  2.3520  7.8880 -15.143 -17.143  2.3520  7.8880 
  1044.000  2.3750  8.0070 -14.876 -16.876  2.3750  8.0070 
  1044.500  2.3990  8.5210 -14.609 -16.609  2.3990  8.5210 
