~Version Information
VERS.                     2.0: CWLS log ASCII Standard Version 2.00
WRAP.                      NO: One line per depth step
~Well Information Block
#MNEM.UNIT                               Data Type  Information
#---------                               ---------  -----------
STRT.FT                                    40.0000:
STOP.FT                                  2065.0000:
STEP.FT                                     0.5000:
NULL.                 -999.25                     :
COMP.                                             :COMPANY            
WELL.     MORRISON #1                             :WELL               
FLD .                                             :FIELD              
CTRY.                                             :COUNTRY            
STAT.                                             :STATE              
LOC .                                             :LOCATION           
UWI .                                             :UNIQUE WELL ID     
SRVC.                                             :Service company    
DATE.                                             :LOG DATE           
~Curve Information
#MNEM.UNIT           API CODE  Curve Description
#---------           --------  -----------------
DEPT.FT                      :   1 DEPTH
SN  .OHMM                    :   2
LN  .OHMM                    :   3
SP  .MV                      :   4
SBL .MV                      :   5
RS  .OHMM                    :   6
RD  .OHMM                    :   7
~A
# ...
  1715.000  8.2110  11.220 -41.088 -43.088  8.2110  11.220 
  1715.500  9.4400  11.260 -40.505 -42.505  9.4400  11.260 
  1716.000  9.5050  11.387 -39.795 -41.795  9.5050  11.387 
  1716.500  9.3380  11.514 -38.539 -40.539  9.3380  11.514 
  1717.000  7.3520  11.665 -18.065 -20.065  7.3520  11.665 
  1717.500  6.0100  11.864 -13.318 -15.318  6.0100  11.864 
  1718.000  5.0260  11.717 -9.6280 -11.628  5.0260  11.717 
  1718.500  3.6070  11.415 -8.6290 -10.629  3.6070  11.415 
  1719.000  2.8920  11.229 -9.8710 -11.871  2.8920  11.229 
  1719.500  2.9650  10.783 -12.684 -14.684  2.9650  10.783 
  1720.000  3.3860  10.357 -18.251 -20.251  3.3860  10.357 
  1720.500  4.1820  10.123 -22.344 -24.344  4.1820  10.123 
  1721.000  5.0070  10.851 -25.476 -27.476  5.0070  10.851 
  1721.500  5.8610  11.397 -26.784 -28.784  5.8610  11.397 
  1722.000  7.3790  11.789 -27.883 -29.883  7.3790  11.789 
  1722.500  10.505  12.027 -28.982 -30.982  10.505  12.027 
  1723.000  12.630  12.389 -30.063 -32.063  12.630  12.389 
  1723.500  13.137  11.905 -30.153 -32.153  13.137  11.905 
  1724.000  13.144  11.729 -28.865 -30.865  13.144  11.729 
  1724.500  12.467  11.783 -27.739 -29.739  12.467  11.783 
  1725.000  11.829  11.819 -26.612 -28.612  11.829  11.819 
  1725.500  11.509  11.500 -25.005 -27.005  11.509  11.500 
  1726.000  11.364  10.997 -24.265 -26.265  11.364  10.997 
  1726.500  11.266  10.987 -23.861 -25.861  11.266  10.987 
  1727.000  11.254  11.351 -23.457 -25.457  11.254  11.351 
  1727.500  11.339  11.734 -24.349 -26.349  11.339  11.734 
  1728.000  11.531  11.757 -27.676 -29.676  11.531  11.757 
  1728.500  11.857  11.780 -28.762 -30.762  11.857  11.780 
  1729.000  12.211  11.817 -29.849 -31.849  12.211  11.817 
  1729.500  12.460  11.901 -31.573 -33.573  12.460  11.901 
  1730.000  12.545  11.929 -31.633 -33.633  12.545  11.929 
  1730.500  12.360  11.667 -31.118 -33.118  12.360  11.667 
  1731.000  12.128  11.464 -30.602 -32.602  12.128  11.464 
  1731.500  11.886  11.462 -27.490 -29.490  11.886  11.462 
  1732.000  11.644  11.499 -24.699 -26.699  11.644  11.499 
  1732.500  10.429  11.537 -21.491 -23.491  10.429  11.537 
  1733.000  9.3970  11.665 -19.502 -21.502  9.3970  11.665 
  1733.500  8.5970  11.794 -18.506 -20.506  8.5970  11.794 
  1734.000  7.4110  11.849 -17.511 -19.511  7.4110  11.849 
  1734.500  6.4080  11.699 -14.878 -16.878  6.4080  11.699 
  1735.000  5.5020  11.549 -14.105 -16.105  5.5020  11.549 
  1735.500  4.8650  11.132 -14.999 -16.999  4.8650  11.132 
  1736.000  5.7100  11.237 -16.437 -18.437  5.7100  11.237 
  1736.500  6.2000  11.342 -18.066 -20.066  6.2000  11.342 
  1737.000  6.8530  11.879 -18.959 -20.959  6.8530  11.879 
  1737.500  6.3900  11.974 -19.020 -21.020  6.3900  11.974 
  1738.000  5.2910  11.982 -19.081 -21.081  5.2910  11.982 
  1738.500  4.5000  11.991 -18.693 -20.693  4.5000  11.991 
  1739.000  4.6040  11.622 -18.305 -20.305  4.6040  11.622 
  1739.500  5.0930  11.255 -17.370 -19.370  5.0930  11.255 
  1740.000  6.0550  10.830 -17.527 -19.527  6.0550  10.830 
  1740.500  6.8620  10.424 -17.683 -19.683  6.8620  10.424 
  1741.000  7.1200  10.548 -17.807 -19.807  7.1200  10.548 
  1741.500  7.0320  10.672 -17.804 -19.804  7.0320  10.672 
  1742.000  6.9920  11.084 -17.448 -19.448  6.9920  11.084 
  1742.500  7.5110  11.295 -17.093 -19.093  7.5110  11.295 
  1743.000  8.1060  11.505 -15.614 -17.614  8.1060  11.505 
  1743.500  8.5760  11.965 -14.714 -16.714  8.5760  11.965 
  1744.000  8.8920  12.262 -13.814 -15.814  8.8920  12.262 
  1744.500  9.1310  12.415 -12.865 -14.865  9.1310  12.415 
  1745.000  9.2170  12.548 -11.916 -13.916  9.2170  12.548 
  1745.500  9.2350  12.344 -11.174 -13.174  9.2350  12.344 
  1746.000  8.5590  12.025 -11.651 -13.651  8.5590  12.025 
  1746.500  7.3930  11.571 -12.127 -14.127  7.3930  11.571 
  1747.000  6.7990  11.175 -12.380 -14.380  6.7990  11.175 
  1747.500  6.2060  10.769 -12.633 -14.633  6.2060  10.769 
  1748.000  4.9430  10.488 -12.853 -14.853  4.9430  10.488 
  1748.500  4.2570  10.198 -12.898 -14.898  4.2570  10.198 
  1749.000  3.9770  9.9080 -12.942 -14.942  3.9770  9.9080 
  1749.500  3.6670  9.3760 -12.859 -14.859  3.6670  9.3760 
  1750.000  3.5980  9.2790 -12.775 -14.775  3.5980  9.2790 
  1750.500  4.6380  9.8370 -12.418 -14.418  4.6380  9.8370 
  1751.000  4.9510  11.213 -12.161 -14.161  4.9510  11.213 
  1751.500  5.2640  11.752 -11.903 -13.903  5.2640  11.752 
  1752.000  5.4360  11.935 -11.533 -13.533  5.4360  11.935 
  1752.500  5.4550  11.978 -11.163 -13.163  5.4550  11.978 
  1753.000  5.4740  12.021 -10.761 -12.761  5.4740  12.021 
  1753.500  4.4340  12.021 -10.359 -12.359  4.4340  12.021 
  1754.000  4.1250  12.001 -9.6830 -11.683  4.1250  12.001 
  1754.500  3.9420  11.972 -9.0080 -11.008  3.9420  11.972 
  1755.000  4.0380  11.952 -8.6220 -10.622  4.0380  11.952 
  1755.500  4.0860  11.932 -8.2370 -10.237  4.0860  11.932 
  1756.000  3.8350  12.062 -7.1760 -9.1760  3.8350  12.062 
  1756.500  3.4880  12.192 -6.4700 -8.4700  3.4880  12.192 
  1757.000  3.0740  12.432 -5.8270 -7.8270  3.0740  12.432 
  1757.500  2.8330  12.143 -5.5060 -7.5060  2.8330  12.143 
  1758.000  3.1220  11.989 -5.1190 -7.1190  3.1220  11.989 
  1758.500  3.3620  11.622 -5.3570 -7.3570  3.3620  11.622 
  1759.000  3.2560  11.372 -5.5950 -7.5950  3.2560  11.372 
  1759.500  3.1500  12.026 -5.8500 -7.8500  3.1500  12.026 
  1760.000  2.9560  12.729 -6.1060 -8.1060  2.9560  12.729 
  1760.500  2.8600  13.008 -6.6330 -8.6330  2.8600  13.008 
  1761.000  3.2450  13.113 -7.1590 -9.1590  3.2450  13.113 
  1761.500  3.4660  13.075 -7.8280 -9.8280  3.4660  13.075 
  1762.000  3.4470  12.554 -7.8900 -9.8900  3.4470  12.554 
  1762.500  3.0990  11.687 -7.6650 -9.6650  3.0990  11.687 
  1763.000  2.8290  10.724 -7.3090 -9.3090  2.8290  10.724 
  1763.500  2.8870  10.262 -7.0830 -9.0830  2.8870  10.262 
  1764.000  2.9450  9.8960 -7.0500 -9.0500  2.9450  9.8960 
  1764.500  3.5030  9.5200 -7.3520 -9.3520  3.5030  9.5200 
  1765.000  4.6380  9.6930 -7.6540 -9.6540  4.6380  9.6930 
  1765.500  5.3410  11.493 -7.9080 -9.9080  5.3410  11.493 
  1766.000  5.7830  12.735 -8.0670 -10.067  5.7830  12.735 
  1766.500  6.2640  13.091 -8.1610 -10.161  6.2640  13.091 
  1767.000  6.5240  13.447 -7.6470 -9.6470  6.5240  13.447 
  1767.500  6.5190  13.379 -7.1320 -9.1320  6.5190  13.379 
  1768.000  6.5140  13.312 -6.7630 -8.7630  6.5140  13.312 
  1768.500  6.2050  11.809 -6.3940 -8.3940  6.2050  11.809 
  1769.000  5.4160  11.462 -4.5000 -6.5000  5.4160  11.462 
  1769.500  3.6240  11.341 -3.8900 -5.8900  3.6240  11.341 
  1770.000  3.0760  11.221 -3.2800 -5.2800  3.0760  11.221 
  1770.500  3.0170  10.883 -3.2300 -5.2300  3.0170  10.883 
  1771.000  2.9640  10.738 -3.1800 -5.1800  2.9640  10.738 
  1771.500  2.9110  10.690 -3.3060 -5.3060  2.9110  10.690 
  1772.000  2.6210  10.757 -3.5930 -5.5930  2.6210  10.757 
  1772.500  2.5930  10.892 -4.1990 -6.1990  2.5930  10.892 
  1773.000  3.7670  11.022 -4.9980 -6.9980  3.7670  11.022 
  1773.500  4.8350  11.152 -6.6610 -8.6610  4.8350  11.152 
  1774.000  5.2390  11.353 -7.7810 -9.7810  5.2390  11.353 
  1774.500  5.4510  11.555 -9.1230 -11.123  5.4510  11.555 
  1775.000  5.4890  11.949 -9.1860 -11.186  5.4890  11.949 
  1775.500  4.2950  12.074 -8.5100 -10.510  4.2950  12.074 
  1776.000  3.4180  11.746 -7.5160 -9.5160  3.4180  11.746 
  1776.500  2.9750  11.380 -5.5290 -7.5290  2.9750  11.380 
  1777.000  2.6570  11.168 -3.7970 -5.7970  2.6570  11.168 
  1777.500  2.9650  11.322 -3.7950 -5.7950  2.9650  11.322 
  1778.000  3.4360  11.476 -5.7150 -7.7150  3.4360  11.476 
  1778.500  3.5510  11.764 -7.2190 -9.2190  3.5510  11.764 
  1779.000  3.3100  11.908 -7.4090 -9.4090  3.3100  11.908 
  1779.500  2.9730  11.792 -7.0230 -9.0230  2.9730  11.792 
  1780.000  2.3180  11.373 -5.6430 -7.6430  2.3180  11.373 
  1780.500  2.0670  10.954 -3.4310 -5.4310  2.0670  10.954 
  1781.000  2.4040  10.795 -3.1410 -5.1410  2.4040  10.795 
  1781.500  2.7310  10.635 -2.8510 -4.8510  2.7310  10.635 
