~Version Information
VERS.                     2.0: CWLS log ASCII Standard Version 2.00
WRAP.                      NO: One line per depth step
~Well Information Block
#MNEM.UNIT                               Data Type  Information
#---------                               ---------  -----------
STRT.FT                                    40.0000:
STOP.FT                                  2065.0000:
STEP.FT                                     0.5000:
NULL.                 -999.25                     :
COMP.                                             :COMPANY            
WELL.     MORRISON #1                             :WELL               
FLD .                                             :FIELD              
CTRY.                                             :COUNTRY            
STAT.                                             :STATE              
LOC .                                             :LOCATION           
UWI .                                             :UNIQUE WELL ID     
SRVC.                                             :Service company    
DATE.                                             :LOG DATE           
~Curve Information
#MNEM.UNIT           API CODE  Curve Description
#---------           --------  -----------------
DEPT.FT                      :   1 DEPTH
SN  .OHMM                    :   2
LN  .OHMM                    :   3
SP  .MV                      :   4
SBL .MV                      :   5
RS  .OHMM                    :   6
RD  .OHMM                    :   7
~A
# ...
  1849.000  5.2790  9.7360 -41.112 -43.112  5.2790  9.7360 
  1849.500  6.1000  10.144 -35.350 -37.350  6.1000  10.144 
  1850.000  7.2020  10.220 -33.690 -35.690  7.2020  10.220 
  1850.500  8.0720  10.296 -31.660 -33.660  8.0720  10.296 
  1851.000  9.1350  10.415 -30.465 -32.465  9.1350  10.415 
  1851.500  9.8320  10.602 -29.300 -31.300  9.8320  10.602 
  1852.000  10.173  10.789 -29.001 -31.001  10.173  10.789 
  1852.500  10.292  10.793 -29.055 -31.055  10.292  10.793 
  1853.000  10.306  10.710 -32.343 -34.343  10.306  10.710 
  1853.500  10.320  10.416 -37.937 -39.937  10.320  10.416 
  1854.000  9.7550  9.2640 -39.656 -41.656  9.7550  9.2640 
  1854.500  8.8250  8.9120 -39.805 -41.805  8.8250  8.9120 
  1855.000  8.2040  8.8480 -36.462 -38.462  8.2040  8.8480 
  1855.500  7.5530  8.8520 -35.139 -37.139  7.5530  8.8520 
  1856.000  6.9790  9.2700 -32.661 -34.661  6.9790  9.2700 
  1856.500  6.3670  9.5240 -31.690 -33.690  6.3670  9.5240 
  1857.000  5.9280  9.6060 -28.988 -30.988  5.9280  9.6060 
  1857.500  5.6430  9.6440 -27.472 -29.472  5.6430  9.6440 
  1858.000  5.4210  9.6810 -25.155 -27.155  5.4210  9.6810 
  1858.500  5.1990  9.2610 -22.966 -24.966  5.1990  9.2610 
  1859.000  4.8750  9.1400 -20.200 -22.200  4.8750  9.1400 
  1859.500  4.5520  9.1050 -18.941 -20.941  4.5520  9.1050 
  1860.000  4.0350  9.0710 -18.833 -20.833  4.0350  9.0710 
  1860.500  3.8330  9.2720 -20.009 -22.009  3.8330  9.2720 
  1861.000  3.6300  9.4740 -21.184 -23.184  3.6300  9.4740 
  1861.500  3.3060  9.8820 -31.068 -33.068  3.3060  9.8820 
  1862.000  3.7720  10.088 -33.461 -35.461  3.7720  10.088 
  1862.500  4.1320  10.097 -36.011 -38.011  4.1320  10.097 
  1863.000  4.7130  10.106 -36.545 -38.545  4.7130  10.106 
  1863.500  5.2180  9.9450 -36.534 -38.534  5.2180  9.9450 
  1864.000  5.5590  9.7620 -36.395 -38.395  5.5590  9.7620 
  1864.500  5.8230  9.5780 -36.320 -38.320  5.8230  9.5780 
  1865.000  5.9810  9.3410 -36.309 -38.309  5.9810  9.3410 
  1865.500  6.0140  9.3260 -37.131 -39.131  6.0140  9.3260 
  1866.000  6.0270  9.3000 -37.698 -39.698  6.0270  9.3000 
  1866.500  6.0410  9.2810 -38.264 -40.264  6.0410  9.2810 
  1867.000  6.0640  9.2610 -38.718 -40.718  6.0640  9.2610 
  1867.500  6.0780  9.1780 -39.172 -41.172  6.0780  9.1780 
  1868.000  6.0430  9.0080 -39.608 -41.608  6.0430  9.0080 
  1868.500  5.9310  8.8390 -39.245 -41.245  5.9310  8.8390 
  1869.000  5.8200  8.4860 -38.883 -40.883  5.8200  8.4860 
  1869.500  5.5540  8.2880 -38.197 -40.197  5.5540  8.2880 
  1870.000  5.5960  8.1090 -38.171 -40.171  5.5960  8.1090 
  1870.500  5.6680  8.5560 -38.145 -40.145  5.6680  8.5560 
  1871.000  5.7400  8.9450 -39.413 -41.413  5.7400  8.9450 
  1871.500  5.8780  9.1470 -39.787 -41.787  5.8780  9.1470 
  1872.000  6.0170  9.3480 -39.681 -41.681  6.0170  9.3480 
  1872.500  6.2320  9.5540 -39.574 -41.574  6.2320  9.5540 
  1873.000  6.2750  9.7600 -39.372 -41.372  6.2750  9.7600 
  1873.500  6.0670  9.5280 -39.169 -41.169  6.0670  9.5280 
  1874.000  5.5700  9.2970 -33.551 -35.551  5.5700  9.2970 
  1874.500  5.1410  9.2570 -31.329 -33.329  5.1410  9.2570 
  1875.000  4.7400  9.2180 -30.587 -32.587  4.7400  9.2180 
  1875.500  4.1220  9.5810 -29.844 -31.844  4.1220  9.5810 
  1876.000  3.8900  9.3830 -28.076 -30.076  3.8900  9.3830 
  1876.500  3.5800  9.1850 -27.271 -29.271  3.5800  9.1850 
  1877.000  3.9930  9.0090 -29.509 -31.509  3.9930  9.0090 
  1877.500  4.7140  9.0460 -31.748 -33.748  4.7140  9.0460 
  1878.000  5.1410  9.2660 -34.403 -36.403  5.1410  9.2660 
  1878.500  5.5680  9.4430 -36.321 -38.321  5.5680  9.4430 
  1879.000  5.9130  9.6200 -36.509 -38.509  5.9130  9.6200 
  1879.500  6.0270  9.7770 -33.015 -35.015  6.0270  9.7770 
  1880.000  5.7850  9.9350 -28.846 -30.846  5.7850  9.9350 
  1880.500  4.9740  9.9710 -26.248 -28.248  4.9740  9.9710 
  1881.000  4.3950  9.5460 -24.803 -26.803  4.3950  9.5460 
  1881.500  4.0570  9.3140 -24.671 -26.671  4.0570  9.3140 
  1882.000  4.1570  8.8980 -25.756 -27.756  4.1570  8.8980 
  1882.500  4.2570  8.9500 -28.027 -30.027  4.2570  8.9500 
  1883.000  4.7170  9.0020 -36.960 -38.960  4.7170  9.0020 
  1883.500  5.0520  9.1740 -37.179 -39.179  5.0520  9.1740 
  1884.000  5.2200  9.3450 -36.471 -38.471  5.2200  9.3450 
  1884.500  5.3870  9.6130 -35.427 -37.427  5.3870  9.6130 
  1885.000  5.5920  9.7460 -34.382 -36.382  5.5920  9.7460 
  1885.500  5.7980  9.6840 -33.241 -35.241  5.7980  9.6840 
  1886.000  5.3530  9.6220 -32.101 -34.101  5.3530  9.6220 
  1886.500  4.9670  9.5600 -29.630 -31.630  4.9670  9.5600 
  1887.000  4.2720  9.5390 -27.480 -29.480  4.2720  9.5390 
  1887.500  3.9240  9.5180 -24.816 -26.816  3.9240  9.5180 
  1888.000  4.2300  9.4300 -24.045 -26.045  4.2300  9.4300 
  1888.500  4.5370  9.3410 -22.888 -24.888  4.5370  9.3410 
  1889.000  4.9880  9.2340 -21.955 -23.955  4.9880  9.2340 
  1889.500  5.2080  9.1270 -23.648 -25.648  5.2080  9.1270 
  1890.000  5.4760  8.9710 -29.763 -31.763  5.4760  8.9710 
  1890.500  5.6530  8.9260 -35.172 -37.172  5.6530  8.9260 
  1891.000  5.8300  8.8820 -38.723 -40.723  5.8300  8.8820 
  1891.500  5.7030  8.8800 -40.097 -42.097  5.7030  8.8800 
  1892.000  5.8170  8.8790 -40.734 -42.734  5.8170  8.8790 
  1892.500  5.7960  8.8870 -41.434 -43.434  5.7960  8.8870 
  1893.000  5.7760  8.9140 -41.655 -43.655  5.7760  8.9140 
  1893.500  5.8990  8.9900 -41.460 -43.460  5.8990  8.9900 
  1894.000  5.8010  9.1140 -41.264 -43.264  5.8010  9.1140 
  1894.500  5.7030  9.3620 -40.041 -42.041  5.7030  9.3620 
  1895.000  5.8270  9.4960 -37.891 -39.891  5.8270  9.4960 
  1895.500  5.9510  9.5910 -35.293 -37.293  5.9510  9.5910 
  1896.000  6.0270  9.6280 -29.652 -31.652  6.0270  9.6280 
  1896.500  6.1020  9.6650 -27.919 -29.919  6.1020  9.6650 
  1897.000  5.1090  9.6820 -26.187 -28.187  5.1090  9.6820 
  1897.500  4.6170  9.6810 -22.626 -24.626  4.6170  9.6810 
  1898.000  4.1530  9.6800 -21.117 -23.117  4.1530  9.6800 
  1898.500  3.7470  9.6830 -20.343 -22.343  3.7470  9.6830 
  1899.000  3.4860  9.6870 -20.181 -22.181  3.4860  9.6870 
  1899.500  3.2440  9.6660 -21.523 -23.523  3.2440  9.6660 
  1900.000  3.8100  9.6440 -22.865 -24.865  3.8100  9.6440 
  1900.500  5.7450  9.6350 -26.608 -28.608  5.7450  9.6350 
  1901.000  6.8420  9.7790 -28.912 -30.912  6.8420  9.7790 
  1901.500  7.4390  9.9130 -31.601 -33.601  7.4390  9.9130 
  1902.000  7.7850  9.9900 -34.065 -36.065  7.7850  9.9900 
  1902.500  7.9680  10.110 -36.018 -38.018  7.9680  10.110 
  1903.000  8.0350  10.231 -37.489 -39.489  8.0350  10.231 
  1903.500  7.8080  9.6610 -38.960 -40.960  7.8080  9.6610 
  1904.000  7.5820  9.0360 -40.239 -42.239  7.5820  9.0360 
  1904.500  7.1480  8.6790 -40.911 -42.911  7.1480  8.6790 
  1905.000  6.5220  8.6600 -41.486 -43.486  6.5220  8.6600 
  1905.500  6.3000  8.6400 -41.084 -43.084  6.3000  8.6400 
  1906.000  5.7610  8.6490 -40.683 -42.683  5.7610  8.6490 
  1906.500  5.7510  8.9760 -39.398 -41.398  5.7510  8.9760 
  1907.000  6.0400  9.1200 -38.948 -40.948  6.0400  9.1200 
  1907.500  6.3280  9.3320 -38.851 -40.851  6.3280  9.3320 
  1908.000  6.6890  9.5440 -38.753 -40.753  6.6890  9.5440 
  1908.500  7.0500  9.7500 -38.751 -40.751  7.0500  9.7500 
  1909.000  7.4050  9.9570 -38.748 -40.748  7.4050  9.9570 
  1909.500  7.4440  9.4360 -38.522 -40.522  7.4440  9.4360 
  1910.000  7.1300  8.8490 -38.297 -40.297  7.1300  8.8490 
  1910.500  6.8170  8.6560 -37.365 -39.365  6.8170  8.6560 
  1911.000  6.2970  8.5400 -36.433 -38.433  6.2970  8.5400 
  1911.500  6.0560  8.4340 -35.967 -37.967  6.0560  8.4340 
  1912.000  5.8730  8.6210 -35.501 -37.501  5.8730  8.6210 
  1912.500  5.6900  8.8090 -34.441 -36.441  5.6900  8.8090 
  1913.000  5.7850  9.2030 -33.703 -35.703  5.7850  9.2030 
  1913.500  5.9680  9.7520 -33.061 -35.061  5.9680  9.7520 
  1914.000  6.1510  10.762 -32.531 -34.531  6.1510  10.762 
  1914.500  6.3340  11.455 -32.002 -34.002  6.3340  11.455 
  1915.000  6.5930  11.724 -30.396 -32.396  6.5930  11.724 
  1915.500  6.3610  11.753 -30.107 -32.107  6.3610  11.753 
