~Version Information
VERS.                     2.0: CWLS log ASCII Standard Version 2.00
WRAP.                      NO: One line per depth step
~Well Information Block
#MNEM.UNIT                               Data Type  Information
#---------                               ---------  -----------
STRT.FT                                    40.0000:
STOP.FT                                  2065.0000:
STEP.FT                                     0.5000:
NULL.                 -999.25                     :
COMP.                                             :COMPANY            
WELL.     MORRISON #1                             :WELL               
FLD .                                             :FIELD              
CTRY.                                             :COUNTRY            
STAT.                                             :STATE              
LOC .                                             :LOCATION           
UWI .                                             :UNIQUE WELL ID     
SRVC.                                             :Service company    
DATE.                                             :LOG DATE           
~Curve Information
#MNEM.UNIT           API CODE  Curve Description
#---------           --------  -----------------
DEPT.FT                      :   1 DEPTH
SN  .OHMM                    :   2
LN  .OHMM                    :   3
SP  .MV                      :   4
SBL .MV                      :   5
RS  .OHMM                    :   6
RD  .OHMM                    :   7
~A
# ...
  1983.000  3.4070  8.4230 -26.462 -28.462  3.4070  8.4230 
  1983.500  2.9540  8.3710 -21.528 -23.528  2.9540  8.3710 
  1984.000  2.6370  8.3180 -17.746 -19.746  2.6370  8.3180 
  1984.500  2.3870  8.3180 -16.561 -18.561  2.3870  8.3180 
  1985.000  2.1370  8.3180 -14.221 -16.221  2.1370  8.3180 
  1985.500  1.4340  8.5970 -12.074 -14.074  1.4340  8.5970 
  1986.000  1.1840  8.7220 -9.6710 -11.671  1.1840  8.7220 
  1986.500  0.9820  8.8470 -9.6690 -11.669  0.9820  8.8470 
  1987.000  1.0490  8.9390 -9.8600 -11.860  1.0490  8.9390 
  1987.500  1.3570  9.0310 -10.596 -12.596  1.3570  9.0310 
  1988.000  1.8770  8.8330 -11.333 -13.333  1.8770  8.8330 
  1988.500  2.7340  8.6360 -32.310 -34.310  2.7340  8.6360 
  1989.000  3.3500  8.2120 -43.423 -45.423  3.3500  8.2120 
  1989.500  3.9090  7.8370 -44.318 -46.318  3.9090  7.8370 
  1990.000  4.4380  7.5100 -44.510 -46.510  4.4380  7.5100 
  1990.500  4.4530  7.3360 -44.108 -46.108  4.4530  7.3360 
  1991.000  4.4670  7.3070 -43.707 -45.707  4.4670  7.3070 
  1991.500  4.4340  7.4420 -42.584 -44.584  4.4340  7.4420 
  1992.000  4.4000  7.5770 -41.461 -43.461  4.4000  7.5770 
  1992.500  4.3900  7.7310 -40.948 -42.948  4.3900  7.7310 
  1993.000  4.3860  7.7990 -40.242 -42.242  4.3860  7.7990 
  1993.500  4.3810  7.7890 -40.368 -42.368  4.3810  7.7890 
  1994.000  4.3520  7.7510 -43.891 -45.891  4.3520  7.7510 
  1994.500  4.2460  7.7220 -46.324 -48.324  4.2460  7.7220 
  1995.000  4.1210  7.6930 -46.579 -48.579  4.1210  7.6930 
  1995.500  4.0340  7.6650 -46.610 -48.610  4.0340  7.6650 
  1996.000  3.9570  7.6160 -46.641 -48.641  3.9570  7.6160 
  1996.500  3.9190  7.5870 -46.432 -48.432  3.9190  7.5870 
  1997.000  4.2080  7.5580 -46.222 -48.222  4.2080  7.5580 
  1997.500  5.1610  7.5300 -44.138 -46.138  5.1610  7.5300 
  1998.000  5.8450  7.5010 -42.471 -44.471  5.8450  7.5010 
  1998.500  6.2590  7.0580 -40.227 -42.227  6.2590  7.0580 
  1999.000  6.5190  7.3080 -38.913 -40.913  6.5190  7.3080 
  1999.500  6.0090  7.5110 -39.040 -41.040  6.0090  7.5110 
  2000.000  5.8530  8.4740 -41.408 -43.408  5.8530  8.4740 
  2000.500  5.6980  8.4370 -43.229 -45.229  5.6980  8.4370 
  2001.000  5.5750  8.4000 -44.488 -46.488  5.5750  8.4000 
  2001.500  5.4520  8.2720 -45.748 -47.748  5.4520  8.2720 
  2002.000  5.3040  7.9900 -47.118 -49.118  5.3040  7.9900 
  2002.500  5.1570  7.5150 -48.489 -50.489  5.1570  7.5150 
  2003.000  4.7870  7.4110 -49.922 -51.922  4.7870  7.4110 
  2003.500  4.3800  7.3070 -50.717 -52.717  4.3800  7.3070 
  2004.000  4.2040  7.1110 -51.159 -53.159  4.2040  7.1110 
  2004.500  4.5860  7.0890 -50.448 -52.448  4.5860  7.0890 
  2005.000  5.1510  7.7120 -48.584 -50.584  5.1510  7.7120 
  2005.500  5.6770  8.3150 -47.392 -49.392  5.6770  8.3150 
  2006.000  5.8860  8.4470 -46.649 -48.649  5.8860  8.4470 
  2006.500  5.8830  8.5310 -46.002 -48.002  5.8830  8.5310 
  2007.000  5.8420  8.5760 -50.479 -52.479  5.8420  8.5760 
  2007.500  5.7910  8.6210 -50.298 -52.298  5.7910  8.6210 
  2008.000  5.4600  8.6470 -50.117 -52.117  5.4600  8.6470 
  2008.500  4.9950  8.6050 -49.692 -51.692  4.9950  8.6050 
  2009.000  4.6170  8.5450 -49.460 -51.460  4.6170  8.5450 
  2009.500  4.9500  8.4650 -50.928 -52.928  4.9500  8.4650 
  2010.000  5.3420  8.4040 -51.306 -53.306  5.3420  8.4040 
  2010.500  5.5560  8.3430 -51.257 -53.257  5.5560  8.3430 
  2011.000  5.7700  8.2820 -51.209 -53.209  5.7700  8.2820 
  2011.500  5.9890  8.2840 -51.161 -53.161  5.9890  8.2840 
  2012.000  6.2070  8.2870 -50.929 -52.929  6.2070  8.2870 
  2012.500  6.2320  8.2960 -50.633 -52.633  6.2320  8.2960 
  2013.000  5.7190  8.3060 -50.403 -52.403  5.7190  8.3060 
  2013.500  5.4660  8.3160 -49.901 -51.901  5.4660  8.3160 
  2014.000  5.0680  8.3320 -49.399 -51.399  5.0680  8.3320 
  2014.500  4.8730  8.3430 -47.341 -49.341  4.8730  8.3430 
  2015.000  5.1100  8.3550 -45.957 -47.957  5.1100  8.3550 
  2015.500  5.3480  8.3810 -44.958 -46.958  5.3480  8.3810 
  2016.000  5.6530  8.4070 -44.727 -46.727  5.6530  8.4070 
  2016.500  5.8520  8.4900 -47.219 -49.219  5.8520  8.4900 
  2017.000  5.7820  8.5540 -48.846 -50.846  5.7820  8.5540 
  2017.500  6.1450  8.6000 -49.288 -51.288  6.1450  8.6000 
  2018.000  6.6420  8.5530 -49.347 -51.347  6.6420  8.5530 
  2018.500  6.8320  8.5070 -49.406 -51.406  6.8320  8.5070 
  2019.000  6.9250  8.4610 -49.108 -51.108  6.9250  8.4610 
  2019.500  6.9030  8.4150 -47.534 -49.534  6.9030  8.4150 
  2020.000  6.6110  8.3490 -43.554 -45.554  6.6110  8.3490 
  2020.500  5.8470  8.2830 -41.626 -43.626  5.8470  8.2830 
  2021.000  4.9780  8.2760 -39.954 -41.954  4.9780  8.2760 
  2021.500  4.3300  8.2680 -39.180 -41.180  4.3300  8.2680 
  2022.000  3.9420  8.2550 -37.507 -39.507  3.9420  8.2550 
  2022.500  4.4490  8.2570 -36.733 -38.733  4.4490  8.2570 
  2023.000  4.6480  8.2590 -38.072 -40.072  4.6480  8.2590 
  2023.500  4.9490  8.2660 -40.114 -42.114  4.9490  8.2660 
  2024.000  5.2490  8.2720 -42.639 -44.639  5.2490  8.2720 
  2024.500  6.0060  8.2790 -45.451 -47.451  6.0060  8.2790 
  2025.000  6.4850  8.3040 -46.918 -48.918  6.4850  8.3040 
  2025.500  6.9930  8.3410 -46.978 -48.978  6.9930  8.3410 
  2026.000  7.3090  8.3780 -47.039 -49.039  7.3090  8.3780 
  2026.500  7.5380  8.4290 -47.096 -49.096  7.5380  8.4290 
  2027.000  7.6330  8.4800 -47.349 -49.349  7.6330  8.4800 
  2027.500  7.4430  8.4930 -47.602 -49.602  7.4430  8.4930 
  2028.000  7.2540  8.5050 -48.076 -50.076  7.2540  8.5050 
  2028.500  7.0400  8.5030 -47.239 -49.239  7.0400  8.5030 
  2029.000  6.9320  8.5010 -46.177 -48.177  6.9320  8.5010 
  2029.500  7.2480  8.5000 -45.293 -47.293  7.2480  8.5000 
  2030.000  7.4580  8.4980 -44.409 -46.409  7.4580  8.4980 
  2030.500  7.6830  8.4960 -41.520 -43.520  7.6830  8.4960 
  2031.000  7.9070  8.5080 -40.459 -42.459  7.9070  8.5080 
  2031.500  8.2800  8.5210 -39.494 -41.494  8.2800  8.5210 
  2032.000  8.0280  8.5290 -38.529 -40.529  8.0280  8.5290 
  2032.500  7.6800  8.6330 -35.415 -37.415  7.6800  8.6330 
  2033.000  7.5040  8.7760 -33.906 -35.906  7.5040  8.7760 
  2033.500  7.7910  8.9180 -32.781 -34.781  7.7910  8.9180 
  2034.000  7.9340  9.1480 -32.071 -34.071  7.9340  9.1480 
  2034.500  8.1630  9.3770 -31.810 -33.810  8.1630  9.3770 
  2035.000  8.4410  9.6440 -31.581 -33.581  8.4410  9.6440 
  2035.500  8.6410  9.5360 -31.706 -33.706  8.6410  9.5360 
  2036.000  8.6290  9.4290 -32.295 -34.295  8.6290  9.4290 
  2036.500  8.5020  9.2300 -32.883 -34.883  8.5020  9.2300 
  2037.000  8.2980  9.0310 -34.159 -36.159  8.2980  9.0310 
  2037.500  7.8250  8.6240 -34.395 -36.395  7.8250  8.6240 
  2038.000  7.4760  8.9490 -34.632 -36.632  7.4760  8.9490 
  2038.500  7.1760  10.295 -34.272 -36.272  7.1760  10.295 
  2039.000  6.6830  10.919 -30.585 -32.585  6.6830  10.919 
  2039.500  6.2390  11.726 -12.739 -14.739  6.2390  11.726 
  2040.000  6.3430  12.600 -9.4030 -11.403  6.3430  12.600 
  2040.500  6.4470  12.955 -7.7340 -9.7340  6.4470  12.955 
  2041.000  6.8200  13.059 -6.8960 -8.8960  6.8200  13.059 
  2041.500  6.9920  12.812 -6.5390 -8.5390  6.9920  12.812 
  2042.000  6.9700  12.565 -7.8480 -9.8480  6.9700  12.565 
  2042.500  6.8340  11.571 -10.278 -12.278  6.8340  11.571 
  2043.000  6.2730  11.020 -12.804 -14.804  6.2730  11.020 
  2043.500  5.4920  9.5930 -14.754 -16.754  5.4920  9.5930 
  2044.000  4.5470  8.8790 -14.926 -16.926  4.5470  8.8790 
  2044.500  3.5530  8.6360 -15.098 -17.098  3.5530  8.6360 
  2045.000  3.5370  8.4800 -15.478 -17.478  3.5370  8.4800 
  2045.500  3.5210  8.4400 -15.858 -17.858  3.5210  8.4400 
  2046.000  3.5190  8.5120 -17.614 -19.614  3.5190  8.5120 
  2046.500  3.5170  8.5840 -21.580 -23.580  3.5170  8.5840 
  2047.000  3.2460  8.6560 -21.705 -23.705  3.2460  8.6560 
  2047.500  2.9740  8.7790 -21.557 -23.557  2.9740  8.7790 
  2048.000  2.8080 -999.25 -21.409 -23.409  2.8080 -999.25 
  2048.500  2.9320 -999.25 -18.809 -20.809  2.9320 -999.25 
  2049.000  3.1510 -999.25 -14.799 -16.799  3.1510 -999.25 
  2049.500  3.3420 -999.25 -13.515 -15.515  3.3420 -999.25 
