~Version Information
VERS.                     2.0: CWLS log ASCII Standard Version 2.00
WRAP.                      NO: One line per depth step
~Well Information Block
#MNEM.UNIT                               Data Type  Information
#---------                               ---------  -----------
STRT.FT                                  2690.0000:
STOP.FT                                  3210.0000:
STEP.FT                                     0.5000:
NULL.                 -999.25                     :
COMP.                                             :COMPANY            
WELL.     KCL-SAN EMIDIO #4 REDRILL               :WELL               
FLD .                                             :FIELD              
CTRY.                                             :COUNTRY            
STAT.                                             :STATE              
LOC .                                             :LOCATION           
UWI .                                             :UNIQUE WELL ID     
SRVC.                                             :Service company    
DATE.                                             :LOG DATE           
~Curve Information
#MNEM.UNIT           API CODE  Curve Description
#---------           --------  -----------------
DEPT.FT                      :   1 DEPTH
SP  .MV                      :   2
AM10.OHMM                    :   3
AO8..OHMM                    :   4
SBL .MV                      :   5
RS  .OHMM                    :   6
RM  .OHMM                    :   7
~A
# ...
  2824.000 -25.064  2.0120  2.0383  2.1495  2.0120  2.0383 
  2824.500 -28.804  1.9710  2.0383 -1.5793  1.9710  2.0383 
  2825.000 -31.985  1.9290  2.0056 -4.7490  1.9290  2.0056 
  2825.500 -31.957  1.8930  1.9748 -4.7098  1.8930  1.9748 
  2826.000 -31.665  1.8960  1.9478 -4.4066  1.8960  1.9478 
  2826.500 -31.373  1.8990  1.9255 -4.1033  1.8990  1.9255 
  2827.000 -30.985  1.9220  1.9177 -3.7041  1.9220  1.9177 
  2827.500 -32.233  1.9050  1.9098 -4.9409  1.9050  1.9098 
  2828.000 -32.696  1.8880  1.9040 -5.3926  1.8880  1.9040 
  2828.500 -32.667  1.8580  1.8998 -5.3524  1.8580  1.8998 
  2829.000 -32.082  1.8910  1.8967 -4.7562  1.8910  1.8967 
  2829.500 -30.644  1.9240  1.9121 -3.3069  1.9240  1.9121 
  2830.000 -27.896  1.9630  1.9274 -0.5477  1.9630  1.9274 
  2830.500 -26.785  2.0020  1.9487  0.5746  2.0020  1.9487 
  2831.000 -26.034  2.0100  1.9728  1.3368  2.0100  1.9728 
  2831.500 -25.284  2.0180  1.9985  2.0980  2.0180  1.9985 
  2832.000 -24.208  2.0500  2.0261  3.1853  2.0500  2.0261 
  2832.500 -23.884  2.0810  2.0560  3.5205  2.0810  2.0560 
  2833.000 -25.493  2.1040  2.0872  1.9227  2.1040  2.0872 
  2833.500 -25.596  2.1330  2.1200  1.8310  2.1330  2.1200 
  2834.000 -25.272  2.1440  2.1545  2.1662  2.1440  2.1545 
  2834.500 -25.046  2.1560  2.1944  2.4034  2.1560  2.1944 
  2835.000 -24.952  2.1880  2.2398  2.5087  2.1880  2.2398 
  2835.500 -26.626  2.2180  2.2928  0.8459  2.2180  2.2928 
  2836.000 -28.498  2.3230  2.3495 -1.0149  2.3230  2.3495 
  2836.500 -28.665  2.3990  2.4155 -1.1706  2.3990  2.4155 
  2837.000 -28.832  2.5180  2.5165 -1.3264  2.5180  2.5165 
  2837.500 -27.887  2.6830  2.6416 -0.3701  2.6830  2.6416 
  2838.000 -28.611  2.8220  2.7817 -1.0829  2.8220  2.7817 
  2838.500 -29.762  3.0990  2.9106 -2.2227  3.0990  2.9106 
  2839.000 -30.633  3.4790  3.0249 -3.0824  3.4790  3.0249 
  2839.500 -31.505  3.8460  3.1456 -3.9432  3.8460  3.1456 
  2840.000 -33.443  4.0310  3.3067 -5.8700  4.0310  3.3067 
  2840.500 -33.578  4.1200  3.6174 -5.9937  4.1200  3.6174 
  2841.000 -33.385  3.9380  3.9294 -5.7895  3.9380  3.9294 
  2841.500 -33.095  4.7310  4.0673 -5.4883  4.7310  4.0673 
  2842.000 -32.983  4.7840  4.3886 -5.3650  4.7840  4.3886 
  2842.500 -32.871  4.8170  4.4610 -5.2418  4.8170  4.4610 
  2843.000 -33.270  4.8500  4.4460 -5.6296  4.8500  4.4460 
  2843.500 -33.732  4.8820  4.4071 -6.0803  4.8820  4.4071 
  2844.000 -34.227  4.2210  4.3149 -6.5641  4.2210  4.3149 
  2844.500 -35.017  3.9300  4.1708 -7.3428  3.9300  4.1708 
  2845.000 -34.873  3.6380  3.9553 -7.1876  3.6380  3.9553 
  2845.500 -34.729  2.9730  3.7295 -7.0324  2.9730  3.7295 
  2846.000 -34.145  2.6890  3.4381 -6.4371  2.6890  3.4381 
  2846.500 -33.919  2.2480  3.1685 -6.1999  2.2480  3.1685 
  2847.000 -33.693  2.1030  2.8497 -5.9627  2.1030  2.8497 
  2847.500 -33.435  2.0000  2.3218 -5.6934  2.0000  2.3218 
  2848.000 -33.389  1.9370  1.9516 -5.6362  1.9370  1.9516 
  2848.500 -33.343  1.8940  1.8508 -5.5790  1.8940  1.8508 
  2849.000 -33.297  1.8500  1.8447 -5.5217  1.8500  1.8447 
  2849.500 -33.252  1.6380  1.8426 -5.4655  1.6380  1.8426 
  2850.000 -33.356  1.5570  1.8652 -5.5582  1.5570  1.8652 
  2850.500 -33.523  1.4760  1.8812 -5.7140  1.4760  1.8812 
  2851.000 -33.494  1.3800  1.9156 -5.6738  1.3800  1.9156 
  2851.500 -33.465  1.3360  1.9584 -5.6335  1.3360  1.9584 
  2852.000 -33.354  1.3230  2.0083 -5.5113  1.3230  2.0083 
  2852.500 -33.243  1.3090  2.0685 -5.3891  1.3090  2.0685 
  2853.000 -33.149  1.3090  2.1048 -5.2838  1.3090  2.1048 
  2853.500 -33.448  1.3090  2.1404 -5.5716  1.3090  2.1404 
  2854.000 -33.747  1.3120  2.1686 -5.8594  1.3120  2.1686 
  2854.500 -33.996  1.3150  2.1855 -6.0971  1.3150  2.1855 
  2855.000 -34.245  1.3250  2.1979 -6.3349  1.3250  2.1979 
  2855.500 -34.085  1.3310  2.2092 -6.1637  1.3310  2.2092 
  2856.000 -33.924  1.3610  2.2182 -5.9914  1.3610  2.2182 
  2856.500 -32.619  1.3900  2.2237 -4.6752  1.3900  2.2237 
  2857.000 -31.902  1.4480  2.2221 -3.9469  1.4480  2.2221 
  2857.500 -31.251  1.5050  2.2161 -3.2847  1.5050  2.2161 
  2858.000 -31.073  1.5150  2.2007 -3.0955  1.5150  2.2007 
  2858.500 -30.896  1.5210  2.1799 -2.9072  1.5210  2.1799 
  2859.000 -31.000  1.5280  2.1553 -3.0000  1.5280  2.1553 
  2859.500 -31.167  1.5370  2.1246 -3.1558  1.5370  2.1246 
  2860.000 -31.663  1.5470  2.0914 -3.6405  1.5470  2.0914 
  2860.500 -32.257  1.5570  2.0520 -4.2233  1.5570  2.0520 
  2861.000 -32.751  1.5660  2.0072 -4.7061  1.5660  2.0072 
  2861.500 -34.033  1.5860  1.9431 -5.9768  1.5860  1.9431 
  2862.000 -38.591  1.6810  1.8803 -10.524  1.6810  1.8803 
  2862.500 -43.575  1.8100  1.8214 -15.496  1.8100  1.8214 
  2863.000 -45.119  1.8730  1.7751 -17.029  1.8730  1.7751 
  2863.500 -45.581  1.9350  1.7519 -17.480  1.9350  1.7519 
  2864.000 -45.749  1.9680  1.7355 -17.637  1.9680  1.7355 
  2864.500 -44.607  1.9680  1.7253 -16.483  1.9680  1.7253 
  2865.000 -43.463  1.9660  1.7162 -15.328  1.9660  1.7162 
  2865.500 -41.862  1.9640  1.7088 -13.716  1.9640  1.7088 
  2866.000 -41.013  1.9770  1.7094 -12.856  1.9770  1.7094 
  2866.500 -40.509  1.9900  1.7114 -12.340  1.9900  1.7114 
  2867.000 -40.004  2.0330  1.7135 -11.824  2.0330  1.7135 
  2867.500 -41.058  2.0670  1.7169 -12.867  2.0670  1.7169 
  2868.000 -41.765  2.1020  1.7254 -13.563  2.1020  1.7254 
  2868.500 -42.473  2.1610  1.7457 -14.260  2.1610  1.7457 
  2869.000 -43.658  2.3620  1.7812 -15.433  2.3620  1.7812 
  2869.500 -43.890  2.5040  1.8381 -15.654  2.5040  1.8381 
  2870.000 -43.928  2.6690  1.9549 -15.681  2.6690  1.9549 
  2870.500 -43.734  2.7650  2.1095 -15.476  2.7650  2.1095 
  2871.000 -43.541  2.8240  2.2310 -15.271  2.8240  2.2310 
  2871.500 -41.285  2.8440  2.3159 -13.004  2.8440  2.3159 
  2872.000 -39.159  2.8630  2.3411 -10.867  2.8630  2.3411 
  2872.500 -37.263  2.8900  2.3078 -8.9596  2.8900  2.3078 
  2873.000 -35.628  2.8530  2.2644 -7.3134  2.8530  2.2644 
  2873.500 -33.863  2.7630  2.1747 -5.5372  2.7630  2.1747 
  2874.000 -32.883  2.5980  2.0039 -4.5459  2.5980  2.0039 
  2874.500 -33.281  2.3990  1.8462 -4.9327  2.3990  1.8462 
  2875.000 -33.219  2.2400  1.7125 -4.8595  2.2400  1.7125 
  2875.500 -32.502  1.9260  1.5901 -4.1312  1.9260  1.5901 
  2876.000 -32.079  1.7500  1.4767 -3.6970  1.7500  1.4767 
  2876.500 -32.230  1.6660  1.5135 -3.8367  1.6660  1.5135 
  2877.000 -32.381  1.5810  1.3884 -3.9765  1.5810  1.3884 
  2877.500 -32.418  1.4320  1.3050 -4.0023  1.4320  1.3050 
  2878.000 -32.029  1.3890  1.2805 -3.6020  1.3890  1.2805 
  2878.500 -30.919  1.3450  1.2679 -2.4808  1.3450  1.2679 
  2879.000 -30.300  1.2760  1.2855 -1.8506  1.2760  1.2855 
  2879.500 -29.845  1.2490  1.3365 -1.3843  1.2490  1.3365 
  2880.000 -29.129  1.2310  1.4158 -0.6571  1.2310  1.4158 
  2880.500 -28.902  1.2120  1.5122 -0.4189  1.2120  1.5122 
  2881.000 -28.775  1.2120  1.5930 -0.2806  1.2120  1.5930 
  2881.500 -28.910  1.2120  1.6403 -0.4044  1.2120  1.6403 
  2882.000 -30.421  1.2340  1.6743 -1.9041  1.2340  1.6743 
  2882.500 -32.850  1.2490  1.7015 -4.3219  1.2490  1.7015 
  2883.000 -33.411  1.2640  1.7065 -4.8717  1.2640  1.7065 
  2883.500 -34.004  1.2430  1.6921 -5.4534  1.2430  1.6921 
  2884.000 -34.368  1.2040  1.6764 -5.8062  1.2040  1.6764 
  2884.500 -34.798  1.1700  1.6503 -6.2250  1.1700  1.6503 
  2885.000 -35.097  1.1570  1.6189 -6.5127  1.1570  1.6189 
  2885.500 -35.297  1.1470  1.5849 -6.7015  1.1470  1.5849 
  2886.000 -35.399  1.1430  1.5501 -6.7923  1.1430  1.5501 
  2886.500 -35.337  1.1460  1.5176 -6.7190  1.1460  1.5176 
  2887.000 -35.276  1.1520  1.4839 -6.6468  1.1520  1.4839 
  2887.500 -35.312  1.1720  1.4575 -6.6716  1.1720  1.4575 
  2888.000 -35.348  1.1920  1.4366 -6.6963  1.1920  1.4366 
  2888.500 -35.549  1.2110  1.4243 -6.8861  1.2110  1.4243 
  2889.000 -35.749  1.2740  1.4237 -7.0748  1.2740  1.4237 
  2889.500 -35.262  1.3050  1.4481 -6.5766  1.3050  1.4481 
  2890.000 -34.185  1.3360  1.4766 -5.4884  1.3360  1.4766 
  2890.500 -33.463  1.3760  1.5128 -4.7551  1.3760  1.5128 
