~Version Information
VERS.                     2.0: CWLS log ASCII Standard Version 2.00
WRAP.                      NO: One line per depth step
~Well Information Block
#MNEM.UNIT                               Data Type  Information
#---------                               ---------  -----------
STRT.FT                                  2690.0000:
STOP.FT                                  3210.0000:
STEP.FT                                     0.5000:
NULL.                 -999.25                     :
COMP.                                             :COMPANY            
WELL.     KCL-SAN EMIDIO #4 REDRILL               :WELL               
FLD .                                             :FIELD              
CTRY.                                             :COUNTRY            
STAT.                                             :STATE              
LOC .                                             :LOCATION           
UWI .                                             :UNIQUE WELL ID     
SRVC.                                             :Service company    
DATE.                                             :LOG DATE           
~Curve Information
#MNEM.UNIT           API CODE  Curve Description
#---------           --------  -----------------
DEPT.FT                      :   1 DEPTH
SP  .MV                      :   2
AM10.OHMM                    :   3
AO8..OHMM                    :   4
SBL .MV                      :   5
RS  .OHMM                    :   6
RM  .OHMM                    :   7
~A
# ...
  3159.000 -31.912  3.2400  2.4990 -4.2984  3.2400  2.4990 
  3159.500 -29.621  3.3560  2.5850 -2.3483  3.3560  2.5850 
  3160.000 -28.050  3.6560  2.8530 -1.1182  3.6560  2.8530 
  3160.500 -27.494  3.8780  3.0970 -0.9031  3.8780  3.0970 
  3161.000 -28.544  4.1650  3.1780 -2.2940  4.1650  3.1780 
  3161.500 -35.296  4.1650  3.2590 -9.3869  4.1650  3.2590 
  3162.000 -36.705  3.9000  3.3520 -11.137  3.9000  3.3520 
  3162.500 -37.657  3.3280  3.3420 -12.430  3.3280  3.3420 
  3163.000 -37.921  3.0210  3.3320 -13.035  3.0210  3.3320 
  3163.500 -37.300  2.7000  3.1160 -12.755  2.7000  3.1160 
  3164.000 -36.515  2.5240  2.8680 -12.310  2.5240  2.8680 
  3164.500 -35.844  2.3750  2.4280 -11.980  2.3750  2.4280 
  3165.000 -35.174  2.2630  2.3520 -11.651  2.2630  2.3520 
  3165.500 -34.520  2.1550  2.2760 -11.338  2.1550  2.2760 
  3166.000 -33.866  2.0480  2.0740 -11.025  2.0480  2.0740 
  3166.500 -33.868  1.9970  1.9810 -11.368  1.9970  1.9810 
  3167.000 -33.870  1.9460  1.9280 -11.711  1.9460  1.9280 
  3167.500 -34.331  1.8950  1.8750 -12.513  1.8950  1.8750 
  3168.000 -34.512  1.8530  1.7490 -13.035  1.8530  1.7490 
  3168.500 -34.692  1.8120  1.6960 -13.556  1.8120  1.6960 
  3169.000 -34.547  1.7740  1.6750 -13.752  1.7740  1.6750 
  3169.500 -34.401  1.7360  1.6530 -13.946  1.7360  1.6530 
  3170.000 -33.584  1.7110  1.8610 -13.470  1.7110  1.8610 
  3170.500 -33.913  1.6860  2.0390 -14.140  1.6860  2.0390 
  3171.000 -33.948  1.6610  2.1240 -14.516  1.6610  2.1240 
  3171.500 -33.665  1.6360  2.2080 -14.574  1.6360  2.2080 
  3172.000 -33.382  1.6030  2.3800 -14.632  1.6030  2.3800 
  3172.500 -33.099  1.5880  2.4420 -14.690  1.5880  2.4420 
  3173.000 -31.708  1.5730  2.4890 -13.640  1.5730  2.4890 
  3173.500 -30.317  1.5290  2.5310 -12.590  1.5290  2.5310 
  3174.000 -27.829  1.4860  2.5410 -10.443  1.4860  2.5410 
  3174.500 -25.177  1.4730  2.5380 -8.1315  1.4730  2.5380 
  3175.000 -22.819  1.4780  2.5260 -6.1145  1.4780  2.5260 
  3175.500 -20.953  1.4830  2.5140 -4.5894  1.4830  2.5140 
  3176.000 -19.644  1.4950  2.4740 -3.6213  1.4950  2.4740 
  3176.500 -19.383  1.4940  2.4360 -3.7012  1.4940  2.4360 
  3177.000 -19.302  1.4920  2.3980 -3.9611  1.4920  2.3980 
  3177.500 -19.221  1.4840  2.3430 -4.2210  1.4840  2.3430 
  3178.000 -19.124  1.4750  2.2890 -3.8210  1.4750  2.2890 
  3178.500 -19.027  1.4550  2.2390 -3.4209  1.4550  2.2390 
  3179.000 -19.948  1.4480  2.2120 -4.0389  1.4480  2.2120 
  3179.500 -22.243  1.4420  2.2040 -6.0309  1.4420  2.2040 
  3180.000 -25.455  1.4610  2.1960 -8.9398  1.4610  2.1960 
  3180.500 -29.323  1.4810  2.1890 -12.505  1.4810  2.1890 
  3181.000 -30.471  1.5500  2.1970 -13.350  1.5500  2.1970 
  3181.500 -31.029  1.6720  2.2050 -13.605  1.6720  2.2050 
  3182.000 -31.587  1.7500  2.2160 -13.860  1.7500  2.2160 
  3182.500 -32.638  1.8280  2.2280 -14.608  1.8280  2.2280 
  3183.000 -33.213  1.8870  2.2460 -14.880  1.8870  2.2460 
  3183.500 -33.787  1.9460  2.2640 -15.151  1.9460  2.2640 
  3184.000 -34.510  2.0170  2.2920 -15.571  2.0170  2.2920 
  3184.500 -34.545  2.0880  2.3200 -15.303  2.0880  2.3200 
  3185.000 -34.579  2.2170  2.4390 -15.034  2.2170  2.4390 
  3185.500 -34.449  2.2860  2.6370 -14.601  2.2860  2.6370 
  3186.000 -34.319  2.3180  2.7160 -14.167  2.3180  2.7160 
  3186.500 -34.174  2.3490  2.7950 -13.719  2.3490  2.7950 
  3187.000 -34.028  2.3620  2.8710 -13.270  2.3620  2.8710 
  3187.500 -33.964  2.3750  2.9470 -12.903  2.3750  2.9470 
  3188.000 -34.162  2.2330  2.9500 -12.798  2.2330  2.9500 
  3188.500 -35.114  2.0900  2.9540 -13.447  2.0900  2.9540 
  3189.000 -35.279  1.6210  2.6620 -13.309  1.6210  2.6620 
  3189.500 -34.823  1.4950  2.3780 -12.550  1.4950  2.3780 
  3190.000 -34.267  1.3920  2.0570 -11.691  1.3920  2.0570 
  3190.500 -32.820  1.3430  1.7990 -9.9412  1.3430  1.7990 
  3191.000 -31.046  1.3200  1.5640 -7.8642  1.3200  1.5640 
  3191.500 -29.731  1.2970  1.5420 -6.2462  1.2970  1.5420 
  3192.000 -28.972  1.2840  1.5190 -5.1841  1.2840  1.5190 
  3192.500 -28.411  1.2910  1.5010 -4.3201  1.2910  1.5010 
  3193.000 -29.290  1.2970  1.4830 -4.8961  1.2970  1.4830 
  3193.500 -32.103  1.3270  1.4860 -7.4060  1.3270  1.4860 
  3194.000 -33.278  1.3540  1.4890 -8.2780  1.3540  1.4890 
  3194.500 -35.239  1.3800  1.5130 -9.9360  1.3800  1.5130 
  3195.000 -35.006  1.4300  1.5410 -9.3999  1.4300  1.5410 
  3195.500 -34.476  1.4550  1.5690 -8.5669  1.4550  1.5690 
  3196.000 -33.946  1.4800  1.7310 -7.7339  1.4800  1.7310 
  3196.500 -33.352  1.5200  1.9200 -6.8368  1.5200  1.9200 
  3197.000 -34.790  1.5600  2.1120 -7.9718  1.5600  2.1120 
  3197.500 -36.030  1.5960  2.2110 -8.9088  1.5960  2.2110 
  3198.000 -37.008  1.5970  2.2380 -9.5838  1.5970  2.2380 
  3198.500 -36.348  1.5310  2.2650 -8.6207  1.5310  2.2650 
  3199.000 -35.688  1.4650  2.2750 -7.6577  1.4650  2.2750 
  3199.500 -34.766  1.3420  2.2450 -6.4327  1.3420  2.2450 
  3200.000 -34.499  1.2230  2.0440 -5.8626  1.2230  2.0440 
  3200.500 -35.215  1.1710  1.7830 -6.2756  1.1710  1.7830 
  3201.000 -35.865  1.1450  1.6640 -6.6226  1.1450  1.6640 
  3201.500 -35.877  1.1180  1.5810 -6.3315  1.1180  1.5810 
  3202.000 -35.889  1.1180  1.5330 -6.0405  1.1180  1.5330 
  3202.500 -35.950  1.1190  1.4860 -5.7985  1.1190  1.4860 
  3203.000 -37.256  1.1630  1.4160 -6.8015  1.1630  1.4160 
  3203.500 -37.906  1.2080  1.3170 -7.1484  1.2080  1.3170 
  3204.000 -38.753  1.2810  1.3190 -7.6924  1.2810  1.3190 
  3204.500 -39.076  1.3540  1.3210 -7.7124  1.3540  1.3210 
  3205.000 -38.843  1.4200  1.3740 -7.1763  1.4200  1.3740 
  3205.500 -38.641  1.4170  1.4040 -6.6713  1.4170  1.4040 
  3206.000 -38.734  1.3970  1.4040 -6.4613  1.3970  1.4040 
  3206.500 -39.123  1.3790  1.4040 -6.5472  1.3790  1.4040 
  3207.000 -39.544  1.3610  1.3990 -6.6652  1.3610  1.3990 
  3207.500 -39.965  1.3450  1.3950 -6.7832  1.3450  1.3950 
  3208.000 -39.994  1.3440  1.3870 -6.5092  1.3440  1.3870 
  3208.500 -39.857  1.3420  1.3780 -6.0691  1.3420  1.3780 
  3209.000 -39.721  1.3410  1.3720 -5.6301  1.3410  1.3720 
  3209.500 -39.552  1.3390  1.3690 -5.1581  1.3390  1.3690 
  3210.000 -39.383 -999.25  1.3660 -4.6860 -999.25  1.3660 
