~Version Information
VERS.                     2.0: CWLS log ASCII Standard Version 2.00
WRAP.                      NO: One line per depth step
~Well Information Block
#MNEM.UNIT                               Data Type  Information
#---------                               ---------  -----------
STRT.FT                                  2690.0000:
STOP.FT                                  3210.0000:
STEP.FT                                     0.5000:
NULL.                 -999.25                     :
COMP.                                             :COMPANY            
WELL.     KCL-SAN EMIDIO #4 REDRILL               :WELL               
FLD .                                             :FIELD              
CTRY.                                             :COUNTRY            
STAT.                                             :STATE              
LOC .                                             :LOCATION           
UWI .                                             :UNIQUE WELL ID     
SRVC.                                             :Service company    
DATE.                                             :LOG DATE           
~Curve Information
#MNEM.UNIT           API CODE  Curve Description
#---------           --------  -----------------
DEPT.FT                      :   1 DEPTH
SP  .MV                      :   2
AM10.OHMM                    :   3
AO8..OHMM                    :   4
SBL .MV                      :   5
RS  .OHMM                    :   6
RM  .OHMM                    :   7
~A
# ...
  3025.000 -41.320  5.1080  3.7355 -9.8565  5.1080  3.7355 
  3025.500 -39.066  5.0970  3.8011 -7.5939  5.0970  3.8011 
  3026.000 -37.664  5.0770  3.8059 -6.1833  5.0770  3.8059 
  3026.500 -37.113  5.0740  3.7246 -5.6237  5.0740  3.7246 
  3027.000 -37.742  5.0960  3.5513 -6.2441  5.0960  3.5513 
  3027.500 -41.910  4.4580  3.3285 -10.404  4.4580  3.3285 
  3028.000 -45.585  4.0600  2.8545 -14.070  4.0600  2.8545 
  3028.500 -44.970  3.7990  2.5435 -13.446  3.7990  2.5435 
  3029.000 -43.961  3.2200  2.4406 -12.429  3.2200  2.4406 
  3029.500 -42.722  3.0140  2.3798 -11.181  3.0140  2.3798 
  3030.000 -41.091  2.8850  2.4150 -9.5416  2.8850  2.4150 
  3030.500 -40.260  2.8250  2.4790 -8.7021  2.8250  2.4790 
  3031.000 -39.430  2.8050  2.5440 -7.8635  2.8050  2.5440 
  3031.500 -38.306  2.3880  2.5910 -6.7309  2.3880  2.5910 
  3032.000 -37.182  2.1000  2.6390 -5.5983  2.1000  2.6390 
  3032.500 -37.058  1.9270  2.6360 -5.4657  1.9270  2.6360 
  3033.000 -36.934  1.8310  2.6330 -5.3331  1.8310  2.6330 
  3033.500 -37.105  1.7380  2.6310 -5.4956  1.7380  2.6310 
  3034.000 -37.145  1.6350  2.6320 -5.5270  1.6350  2.6320 
  3034.500 -36.955  1.5250  2.6330 -5.3284  1.5250  2.6330 
  3035.000 -36.633  1.4790  2.6430 -4.9978  1.4790  2.6430 
  3035.500 -36.148  1.4620  2.6460 -4.5042  1.4620  2.6460 
  3036.000 -35.401  1.4620  2.6490 -3.7486  1.4620  2.6490 
  3036.500 -35.095  1.4610  2.6350 -3.4341  1.4610  2.6350 
  3037.000 -34.790  1.4770  2.6160 -3.1205  1.4770  2.6160 
  3037.500 -34.468  1.4930  2.5980 -2.7899  1.4930  2.5980 
  3038.000 -34.147  1.5330  2.5890 -2.4603  1.5330  2.5890 
  3038.500 -34.647  1.5980  2.5810 -2.9517  1.5980  2.5810 
  3039.000 -35.178  1.7040  2.5830 -3.4741  1.7040  2.5830 
  3039.500 -35.085  1.8090  2.6340 -3.3726  1.8090  2.6340 
  3040.000 -35.617  1.9770  2.6850 -3.8960  1.9770  2.6850 
  3040.500 -36.408  2.0850  2.7860 -4.6784  2.0850  2.7860 
  3041.000 -37.200  2.1920  2.8860 -5.4618  2.1920  2.8860 
  3041.500 -40.321  2.5880  3.0380 -8.5742  2.5880  3.0380 
  3042.000 -41.245  2.9120  3.0800 -9.4896  2.9120  3.0800 
  3042.500 -40.728  3.2620  3.0830 -8.9641  3.2620  3.0830 
  3043.000 -39.030  3.5820  3.0800 -7.2575  3.5820  3.0800 
  3043.500 -37.725  3.7500  3.0260 -5.9439  3.7500  3.0260 
  3044.000 -35.308  3.9650  2.9760 -3.5183  3.9650  2.9760 
  3044.500 -33.970  4.0280  2.9350 -2.1717  4.0280  2.9350 
  3045.000 -32.208  4.0900  2.8930 -0.4011  4.0900  2.8930 
  3045.500 -31.821  3.9110  2.9090 -0.0055  3.9110  2.9090 
  3046.000 -31.696  3.8380  2.9250  0.1280  3.8380  2.9250 
  3046.500 -31.801  3.9070  2.9230  0.0316  3.9070  2.9230 
  3047.000 -31.987  3.9530  2.9210 -0.1458  3.9530  2.9210 
  3047.500 -32.173  4.0020  2.9040 -0.3232  4.0020  2.9040 
  3048.000 -32.769  3.9350  2.8340 -0.9106  3.9350  2.8340 
  3048.500 -33.365  3.0980  2.7050 -1.4980  3.0980  2.7050 
  3049.000 -34.551  2.6000  2.3900 -2.6755  2.6000  2.3900 
  3049.500 -35.737  2.1020  2.1350 -3.8529  2.1020  2.1350 
  3050.000 -36.858  1.8210  1.9730 -4.9653  1.8210  1.9730 
  3050.500 -37.979  1.7180  1.8930 -6.0777  1.7180  1.8930 
  3051.000 -38.281  1.6150  1.8130 -6.3711  1.6150  1.8130 
  3051.500 -37.927  1.5580  1.7820 -6.0085  1.5580  1.7820 
  3052.000 -37.147  1.5020  1.7500 -5.2200  1.5020  1.7500 
  3052.500 -36.204  1.4420  1.7590 -4.2684  1.4420  1.7590 
  3053.000 -35.456  1.4050  1.7790 -3.5118  1.4050  1.7790 
  3053.500 -34.676  1.3810  1.8910 -2.7232  1.3810  1.8910 
  3054.000 -34.945  1.3680  1.9890 -2.9836  1.3680  1.9890 
  3054.500 -35.181  1.3640  2.0650 -3.2110  1.3640  2.0650 
  3055.000 -35.220  1.3690  2.1410 -3.2415  1.3690  2.1410 
  3055.500 -35.030  1.3730  2.1720 -3.0429  1.3730  2.1720 
  3056.000 -34.823  1.4390  2.2030 -2.8273  1.4390  2.2030 
  3056.500 -34.615  1.4800  2.2260 -2.6107  1.4800  2.2260 
  3057.000 -33.673  1.5210  2.2480 -1.6601  1.5210  2.2480 
  3057.500 -33.385  1.5920  2.2560 -1.3635  1.5920  2.2560 
  3058.000 -33.325  1.6620  2.2630 -1.2950  1.6620  2.2630 
  3058.500 -33.265  1.7710  2.2700 -1.2264  1.7710  2.2700 
  3059.000 -36.091  1.7940  2.2680 -4.0438  1.7940  2.2680 
  3059.500 -43.175  1.7640  2.2660 -11.119  1.7640  2.2660 
  3060.000 -44.328  1.7450  2.2560 -12.264  1.7450  2.2560 
  3060.500 -43.974  1.7260  2.2320 -11.901  1.7260  2.2320 
  3061.000 -43.424  1.6960  2.1630 -11.342  1.6960  2.1630 
  3061.500 -42.938  1.6930  2.0930 -10.848  1.6930  2.0930 
  3062.000 -43.961  1.7120  1.9530 -11.862  1.7120  1.9530 
  3062.500 -45.573  1.7310  1.8670 -13.466  1.7310  1.8670 
  3063.000 -46.234  1.8190  1.8700 -14.118  1.8190  1.8700 
  3063.500 -46.044  1.9060  1.9420 -13.920  1.9060  1.9420 
  3064.000 -44.183  2.1300  2.0150 -12.050  2.1300  2.0150 
  3064.500 -41.764  2.2560  2.2390 -9.6224  2.2560  2.2390 
  3065.000 -39.641  2.4670  2.3410 -7.4908  2.4670  2.3410 
  3065.500 -38.730  3.1710  2.4270 -6.5712  3.1710  2.4270 
  3066.000 -37.818  3.5570  2.5120 -5.6506  3.5570  2.5120 
  3066.500 -36.924  3.6860  2.5630 -4.7480  3.6860  2.5630 
  3067.000 -36.030  3.7090  2.6140 -3.8454  3.7090  2.6140 
  3067.500 -35.593  3.6780  2.6350 -3.3999  3.6780  2.6350 
  3068.000 -35.157  3.4240  2.6560 -2.9553  3.4240  2.6560 
  3068.500 -34.019  2.8410  2.6590 -1.8087  2.8410  2.6590 
  3069.000 -33.468  2.6260  2.6420 -1.2491  2.6260  2.6420 
  3069.500 -33.048  2.3180  2.5690 -0.8205  2.3180  2.5690 
  3070.000 -32.858  2.1770  2.3410 -0.6220  2.1770  2.3410 
  3070.500 -33.781  2.0360  1.9900 -1.5364  2.0360  1.9900 
  3071.000 -34.704  1.6850  1.5690 -2.4508  1.6850  1.5690 
  3071.500 -36.088  1.5750  1.4100 -3.8262  1.5750  1.4100 
  3072.000 -35.439  1.5350  1.3170 -3.1686  1.5350  1.3170 
  3072.500 -34.790  1.5150  1.2640 -2.5110  1.5150  1.2640 
  3073.000 -33.552  1.4950  1.3160 -1.2644  1.4950  1.3160 
  3073.500 -32.183  1.3920  1.3390  0.1131  1.3920  1.3390 
  3074.000 -31.746  1.3190  1.3620  0.5587  1.3190  1.3620 
  3074.500 -31.309  1.3090  1.3950  1.0043  1.3090  1.3950 
  3075.000 -31.251  1.3610  1.4270  1.0709  1.3610  1.4270 
  3075.500 -31.913  1.4000  1.5440  0.4175  1.4000  1.5440 
  3076.000 -33.165  1.4200  1.6610 -0.8259  1.4200  1.6610 
  3076.500 -34.974  1.4390  1.9190 -2.6264  1.4390  1.9190 
  3077.000 -35.815  1.4350  2.0600 -3.4588  1.4350  2.0600 
  3077.500 -36.656  1.4350  2.1180 -4.2912  1.4350  2.1180 
  3078.000 -37.581  1.4350  2.1760 -5.2076  1.4350  2.1760 
  3078.500 -37.489  1.4540  2.2560 -5.1070  1.4540  2.2560 
  3079.000 -37.396  1.4970  2.3370 -5.0054  1.4970  2.3370 
  3079.500 -37.304  1.5590  2.3760 -4.9049  1.5590  2.3760 
  3080.000 -37.181  1.7110  2.3430 -4.7733  1.7110  2.3430 
  3080.500 -37.089  1.9450  2.3090 -4.6727  1.9450  2.3090 
  3081.000 -38.275  2.3290  2.2560 -5.8501  2.3290  2.2560 
  3081.500 -39.985  2.5890  2.2650 -7.5515  2.5890  2.2650 
  3082.000 -42.088  2.7280  2.3340 -9.6459  2.7280  2.3340 
  3082.500 -43.766  2.7800  2.4270 -11.315  2.7800  2.4270 
  3083.000 -43.805  2.8100  2.5190 -11.346  2.8100  2.5190 
  3083.500 -43.843  2.8230  2.5900 -11.375  2.8230  2.5900 
  3084.000 -42.672  2.7590  2.6600 -10.196  2.7590  2.6600 
  3084.500 -40.810  2.5940  2.7260 -8.3250  2.5940  2.7260 
  3085.000 -38.195  2.5170  2.7060 -5.7014  2.5170  2.7060 
  3085.500 -35.909  2.3450  2.5070 -3.4069  2.3450  2.5070 
  3086.000 -35.325  2.2650  2.2620 -2.8143  2.2650  2.2620 
  3086.500 -35.299  2.0530  1.9670 -2.7797  2.0530  1.9670 
  3087.000 -35.272  1.8810  1.7420 -2.7441  1.8810  1.7420 
  3087.500 -35.245  1.7930  1.7350 -2.7085  1.7930  1.7350 
  3088.000 -35.219  1.7050  1.7280 -2.6739  1.7050  1.7280 
  3088.500 -35.095  1.6000  1.7240 -2.5414  1.6000  1.7240 
  3089.000 -34.939  1.4960  1.7200 -2.3768  1.4960  1.7200 
  3089.500 -34.781  1.4240  1.7170 -2.2102  1.4240  1.7170 
  3090.000 -35.505  1.3530  1.7130 -2.9256  1.3530  1.7130 
  3090.500 -36.230  1.2860  1.7150 -3.6420  1.2860  1.7150 
  3091.000 -36.542  1.2610  1.7180 -3.9454  1.2610  1.7180 
  3091.500 -36.855  1.2360  1.7200 -4.2498  1.2360  1.7200 
