~Version Information
VERS.                     2.0: CWLS log ASCII Standard Version 2.00
WRAP.                      NO: One line per depth step
~Well Information Block
#MNEM.UNIT                               Data Type  Information
#---------                               ---------  -----------
STRT.FT                                  2690.0000:
STOP.FT                                  3210.0000:
STEP.FT                                     0.5000:
NULL.                 -999.25                     :
COMP.                                             :COMPANY            
WELL.     KCL-SAN EMIDIO #4 REDRILL               :WELL               
FLD .                                             :FIELD              
CTRY.                                             :COUNTRY            
STAT.                                             :STATE              
LOC .                                             :LOCATION           
UWI .                                             :UNIQUE WELL ID     
SRVC.                                             :Service company    
DATE.                                             :LOG DATE           
~Curve Information
#MNEM.UNIT           API CODE  Curve Description
#---------           --------  -----------------
DEPT.FT                      :   1 DEPTH
SP  .MV                      :   2
AM10.OHMM                    :   3
AO8..OHMM                    :   4
SBL .MV                      :   5
RS  .OHMM                    :   6
RM  .OHMM                    :   7
~A
# ...
  3092.000 -36.872  1.2060  1.7220 -4.2583  1.2060  1.7220 
  3092.500 -36.890  1.2000  1.7350 -4.2677  1.2000  1.7350 
  3093.000 -36.795  1.1930  1.7420 -4.1641  1.1930  1.7420 
  3093.500 -36.796  1.1930  1.7480 -4.1565  1.1930  1.7480 
  3094.000 -37.224  1.1930  1.7550 -4.5759  1.1930  1.7550 
  3094.500 -37.553  1.2190  1.7810 -4.8963  1.2190  1.7810 
  3095.000 -37.456  1.2450  1.8370 -4.7908  1.2450  1.8370 
  3095.500 -37.195  1.2800  1.8830 -4.5212  1.2800  1.8830 
  3096.000 -37.114  1.3140  1.8960 -4.4316  1.3140  1.8960 
  3096.500 -37.033  1.3900  1.8950 -4.3420  1.3900  1.8950 
  3097.000 -37.987  1.4690  1.8930 -5.2874  1.4690  1.8930 
  3097.500 -38.380  1.6740  1.8930 -5.6718  1.6740  1.8930 
  3098.000 -38.774  1.9420  1.9850 -6.0573  1.9420  1.9850 
  3098.500 -42.152  2.0810  2.1010 -9.4267  2.0810  2.1010 
  3099.000 -43.890  2.1930  2.1470 -11.156  2.1930  2.1470 
  3099.500 -45.103  2.1960  2.1430 -12.361  2.1960  2.1430 
  3100.000 -45.826  2.1600  2.1400 -13.075  2.1600  2.1400 
  3100.500 -45.335  2.9100  2.1360 -12.575  2.9100  2.1360 
  3101.000 -44.845  2.7910  2.1430 -12.077  2.7910  2.1430 
  3101.500 -41.735  2.7380  2.1490 -8.9582  2.7380  2.1490 
  3102.000 -40.262  2.7860  2.1990 -7.4766  2.7860  2.1990 
  3102.500 -37.839  2.8340  2.4430 -5.0450  2.8340  2.4430 
  3103.000 -35.252  2.9330  2.7640 -2.4494  2.9330  2.7640 
  3103.500 -34.303  3.0320  2.9230 -1.4918  3.0320  2.9230 
  3104.000 -34.616  3.3990  3.0480 -1.7963  3.3990  3.0480 
  3104.500 -34.928  3.7490  3.1310 -2.0997  3.7490  3.1310 
  3105.000 -35.519  3.9900  3.1630 -2.6821  3.9900  3.1630 
  3105.500 -36.110  4.1190  3.1830 -3.2645  4.1190  3.1830 
  3106.000 -36.292  4.1140  3.2030 -3.4379  4.1140  3.2030 
  3106.500 -36.474  4.1090  3.1990 -3.6113  4.1090  3.1990 
  3107.000 -36.476  3.7810  3.1230 -3.6048  3.7810  3.1230 
  3107.500 -36.412  3.2490  2.9960 -3.5322  3.2490  2.9960 
  3108.000 -36.347  3.0440  2.8680 -3.4586  3.0440  2.8680 
  3108.500 -36.121  2.6600  2.3590 -3.2240  2.6600  2.3590 
  3109.000 -36.024  2.4250  1.9550 -3.1184  2.4250  1.9550 
  3109.500 -36.205  2.0210  1.5650 -3.2908  2.0210  1.5650 
  3110.000 -36.386  1.8260  1.4160 -3.4633  1.8260  1.4160 
  3110.500 -37.043  1.6570  1.3400 -4.1117  1.6570  1.3400 
  3111.000 -37.487  1.4890  1.3130 -4.5471  1.4890  1.3130 
  3111.500 -37.930  1.3780  1.3260 -4.9815  1.3780  1.3260 
  3112.000 -38.228  1.2670  1.3620 -5.2709  1.2670  1.3620 
  3112.500 -38.262  1.2130  1.3990 -5.2963  1.2130  1.3990 
  3113.000 -38.083  1.1950  1.5030 -5.1088  1.1950  1.5030 
  3113.500 -37.903  1.1760  1.6070 -4.9202  1.1760  1.6070 
  3114.000 -37.446  1.1570  1.6780 -4.4546  1.1570  1.6780 
  3114.500 -36.989  1.1290  1.7490 -3.9890  1.1290  1.7490 
  3115.000 -36.466  1.1000  1.8210 -3.5026  1.1000  1.8210 
  3115.500 -35.944  1.0920  1.8710 -3.0172  1.0920  1.8710 
  3116.000 -35.750  1.0850  1.9200 -2.8598  1.0850  1.9200 
  3116.500 -35.865  1.0770  1.9470 -3.0113  1.0770  1.9470 
  3117.000 -35.981  1.0830  1.9730 -3.1639  1.0830  1.9730 
  3117.500 -36.163  1.0900  1.9710 -3.3825  1.0900  1.9710 
  3118.000 -36.344  1.1140  1.9690 -3.6001  1.1140  1.9690 
  3118.500 -36.675  1.1390  1.9420 -3.9677  1.1390  1.9420 
  3119.000 -37.036  1.1820  1.9230 -4.3653  1.1820  1.9230 
  3119.500 -37.660  1.1900  1.9030 -5.0259  1.1900  1.9030 
  3120.000 -39.038  1.1980  1.8490 -6.4404  1.1980  1.8490 
  3120.500 -39.760  1.1880  1.8200 -7.1990  1.1880  1.8200 
  3121.000 -40.516  1.1780  1.7900 -7.9916  1.1780  1.7900 
  3121.500 -40.647  1.1380  1.7270 -8.1592  1.1380  1.7270 
  3122.000 -40.779  1.0980  1.6830 -8.3278  1.0980  1.6830 
  3122.500 -41.470  1.0520  1.6550 -9.0554  1.0520  1.6550 
  3123.000 -41.767  1.0150  1.6270 -9.3889  1.0150  1.6270 
  3123.500 -41.490  1.0050  1.5510 -9.1485  1.0050  1.5510 
  3124.000 -41.213  0.9950  1.5320 -8.9081  0.9950  1.5320 
  3124.500 -40.886  0.9920  1.5140 -8.6177  0.9920  1.5140 
  3125.000 -40.576  1.0000  1.5310 -8.3443  1.0000  1.5310 
  3125.500 -40.266  1.0080  1.5470 -8.0709  1.0080  1.5470 
  3126.000 -38.859  1.0210  1.5860 -6.7005  1.0210  1.5860 
  3126.500 -37.844  1.0340  1.6260 -5.7221  1.0340  1.6260 
  3127.000 -36.830  1.0600  1.6690 -4.7446  1.0600  1.6690 
  3127.500 -36.407  1.0870  1.7550 -4.3582  1.0870  1.7550 
  3128.000 -36.293  1.1130  1.7640 -4.2808  1.1130  1.7640 
  3128.500 -36.180  1.1860  1.7400 -4.2044  1.1860  1.7400 
  3129.000 -36.165  1.2580  1.7150 -4.2260  1.2580  1.7150 
  3129.500 -36.150  1.3570  1.6860 -4.2476  1.3570  1.6860 
  3130.000 -36.233  1.4430  1.6570 -4.3671  1.4430  1.6570 
  3130.500 -36.315  1.5290  1.6280 -4.4857  1.5290  1.6280 
  3131.000 -37.169  1.7270  1.5750 -5.3763  1.7270  1.5750 
  3131.500 -38.022  1.8230  1.5580 -6.2659  1.8230  1.5580 
  3132.000 -38.714  1.8720  1.5930 -6.9945  1.8720  1.5930 
  3132.500 -38.715  1.9220  1.6280 -7.0321  1.9220  1.6280 
  3133.000 -38.716  2.0060  1.7430 -7.0697  2.0060  1.7430 
  3133.500 -38.652  2.0900  1.8040 -7.0422  2.0900  1.8040 
  3134.000 -38.587  2.2410  1.8650 -7.0138  2.2410  1.8650 
  3134.500 -38.983  2.3910  2.0440 -7.4464  2.3910  2.0440 
  3135.000 -39.967  2.6010  2.1330 -8.4670  2.6010  2.1330 
  3135.500 -40.279  2.8110  2.2280 -8.8156  2.8110  2.2280 
  3136.000 -40.591  3.2500  2.2850 -9.1642  3.2500  2.2850 
  3136.500 -40.549  3.4480  2.3410 -9.1588  3.4480  2.3410 
  3137.000 -40.507  3.4910  2.5120 -9.1533  3.4910  2.5120 
  3137.500 -40.465  3.4610  2.5590 -9.1479  3.4610  2.5590 
  3138.000 -39.551  3.3970  2.6580 -8.2705  3.3970  2.6580 
  3138.500 -39.125  3.3320  2.6720 -7.8811  3.3320  2.6720 
  3139.000 -38.700  3.2260  2.6870 -7.4927  3.2260  2.6870 
  3139.500 -38.031  3.1470  2.6850 -6.8603  3.1470  2.6850 
  3140.000 -37.361  2.9940  2.6840 -6.2269  2.9940  2.6840 
  3140.500 -37.199  2.7260  2.5350 -6.1014  2.7260  2.5350 
  3141.000 -37.511  2.2100  1.6980 -6.4500  2.2100  1.6980 
  3141.500 -37.823  1.9060  1.3570 -6.7986  1.9060  1.3570 
  3142.000 -38.087  1.8230  1.3140 -7.0992  1.8230  1.3140 
  3142.500 -38.351  1.7730  1.2710 -7.3998  1.7730  1.2710 
  3143.000 -38.123  1.7170  1.2590 -7.2084  1.7170  1.2590 
  3143.500 -37.895  1.5650  1.2470 -7.0170  1.5650  1.2470 
  3144.000 -36.783  1.4720  1.2640 -5.9415  1.4720  1.2640 
  3144.500 -36.292  1.3260  1.2800 -5.4871  1.3260  1.2800 
  3145.000 -35.802  1.2700  1.2970 -5.0337  1.2700  1.2970 
  3145.500 -35.673  1.2800  1.3820 -4.9413  1.2800  1.3820 
  3146.000 -36.035  1.2560  1.4270 -5.3399  1.2560  1.4270 
  3146.500 -36.396  1.2030  1.4710 -5.7375  1.2030  1.4710 
  3147.000 -36.891  1.1500  1.5410 -6.2690  1.1500  1.5410 
  3147.500 -36.778  1.1440  1.5930 -6.1926  1.1440  1.5930 
  3148.000 -36.665  1.1430  1.6460 -6.1162  1.1430  1.6460 
  3148.500 -36.518  1.1600  1.6920 -6.0058  1.1600  1.6920 
  3149.000 -36.371  1.1780  1.7380 -5.8954  1.1780  1.7380 
  3149.500 -35.914  1.1960  1.7850 -5.4750  1.1960  1.7850 
  3150.000 -35.457  1.2470  1.8410 -5.0546  1.2470  1.8410 
  3150.500 -35.295  1.2980  1.8970 -4.9291  1.2980  1.8970 
  3151.000 -35.132  1.3810  1.9640 -4.8027  1.3810  1.9640 
  3151.500 -35.297  1.4420  2.0320 -5.0043  1.4420  2.0320 
  3152.000 -35.462  1.5030  2.0860 -5.2059  1.5030  2.0860 
  3152.500 -36.678  1.5590  2.1410 -6.4585  1.5590  2.1410 
  3153.000 -36.876  1.6150  2.1390 -6.6931  1.6150  2.1390 
  3153.500 -36.681  1.6360  2.1370 -6.5347  1.6360  2.1370 
  3154.000 -36.485  1.6580  2.0890 -6.3752  1.6580  2.0890 
  3154.500 -36.241  1.8620  2.0410 -6.1678  1.8620  2.0410 
  3155.000 -35.996  2.0510  2.0230 -5.9594  2.0510  2.0230 
  3155.500 -36.752  2.1300  2.0040 -6.7520  2.1300  2.0040 
  3156.000 -37.064  2.2980  2.0240 -7.4049  2.2980  2.0240 
  3156.500 -37.376  2.4900  2.0440 -8.0578  2.4900  2.0440 
  3157.000 -36.969  2.6060  2.1290 -7.9917  2.6060  2.1290 
  3157.500 -36.561  2.7210  2.1920 -7.9246  2.7210  2.1920 
  3158.000 -35.023  3.0020  2.2550 -6.7275  3.0020  2.2550 
  3158.500 -33.467  3.1240  2.4130 -5.5125  3.1240  2.4130 
