~Version Information
VERS.                     2.0: CWLS log ASCII Standard Version 2.00
WRAP.                      NO: One line per depth step
~Well Information Block
#MNEM.UNIT                               Data Type  Information
#---------                               ---------  -----------
STRT.FT                                  2690.0000:
STOP.FT                                  3210.0000:
STEP.FT                                     0.5000:
NULL.                 -999.25                     :
COMP.                                             :COMPANY            
WELL.     KCL-SAN EMIDIO #4 REDRILL               :WELL               
FLD .                                             :FIELD              
CTRY.                                             :COUNTRY            
STAT.                                             :STATE              
LOC .                                             :LOCATION           
UWI .                                             :UNIQUE WELL ID     
SRVC.                                             :Service company    
DATE.                                             :LOG DATE           
~Curve Information
#MNEM.UNIT           API CODE  Curve Description
#---------           --------  -----------------
DEPT.FT                      :   1 DEPTH
SP  .MV                      :   2
AM10.OHMM                    :   3
AO8..OHMM                    :   4
SBL .MV                      :   5
RS  .OHMM                    :   6
RM  .OHMM                    :   7
~A
# ...
  2757.000 -36.711  2.5420  2.2638 -8.5999  2.5420  2.2638 
  2757.500 -35.140  2.5640  2.2349 -7.0385  2.5640  2.2349 
  2758.000 -34.174  2.5820  2.2122 -6.0822  2.5820  2.2122 
  2758.500 -33.209  2.6000  2.1958 -5.1269  2.6000  2.1958 
  2759.000 -31.050  2.5990  2.1797 -2.9775  2.5990  2.1797 
  2759.500 -29.971  2.5600  2.1702 -1.9082  2.5600  2.1702 
  2760.000 -29.841  2.4830  2.1709 -1.7879  2.4830  2.1709 
  2760.500 -29.711  2.3940  2.1882 -1.6675  2.3940  2.1882 
  2761.000 -28.600  2.3970  2.2285 -0.5662  2.3970  2.2285 
  2761.500 -28.012  2.4000  2.3221  0.0122  2.4000  2.3221 
  2762.000 -28.586  2.4630  2.4025 -0.5715  2.4630  2.4025 
  2762.500 -29.160  2.5420  2.4487 -1.1552  2.5420  2.4487 
  2763.000 -26.378  2.5980  2.4854  1.6172  2.5980  2.4854 
  2763.500 -22.350  2.6770  2.5269  5.6355  2.6770  2.5269 
  2764.000 -20.812  2.6510  2.5730  7.1638  2.6510  2.5730 
  2764.500 -20.159  2.6310  2.6230  7.8072  2.6310  2.6230 
  2765.000 -20.062  2.6110  2.6713  7.8945  2.6110  2.6713 
  2765.500 -20.686  2.5540  2.7116  7.2609  2.5540  2.7116 
  2766.000 -22.015  2.5380  2.7986  5.9222  2.5380  2.7986 
  2766.500 -23.343  2.5280  2.8720  4.5845  2.5280  2.8720 
  2767.000 -25.836  2.5180  2.7975  2.0819  2.5180  2.7975 
  2767.500 -28.000  2.4710  2.7086 -0.0918  2.4710  2.7086 
  2768.000 -29.412  2.4180  2.5500 -1.5134  2.4180  2.5500 
  2768.500 -28.937  2.2990  2.3904 -1.0481  2.2990  2.3904 
  2769.000 -28.463  2.1930  2.3014 -0.5838  2.1930  2.3014 
  2769.500 -27.975  2.1580  2.2452 -0.1054  2.1580  2.2452 
  2770.000 -28.895  2.1230  2.1885 -1.0351  2.1230  2.1885 
  2770.500 -29.387  2.0800  2.1392 -1.5368  2.0800  2.1392 
  2771.000 -29.307  2.0370  2.1017 -1.4664  2.0370  2.1017 
  2771.500 -29.226  2.0200  2.0683 -1.3951  2.0200  2.0683 
  2772.000 -29.294  2.0030  2.0426 -1.4727  2.0030  2.0426 
  2772.500 -30.247  2.0160  2.0294 -2.4354  2.0160  2.0294 
  2773.000 -31.559  2.0300  2.0381 -3.7571  2.0300  2.0381 
  2773.500 -31.626  2.0850  2.0519 -3.8337  2.0850  2.0519 
  2774.000 -31.694  2.0920  2.0725 -3.9114  2.0920  2.0725 
  2774.500 -31.630  2.1480  2.1083 -3.8571  2.1480  2.1083 
  2775.000 -33.434  2.1590  2.1682 -5.6707  2.1590  2.1682 
  2775.500 -33.992  2.1710  2.2311 -6.2384  2.1710  2.2311 
  2776.000 -34.060  2.1870  2.3245 -6.3160  2.1870  2.3245 
  2776.500 -32.325  2.1920  2.3956 -4.5907  2.1920  2.3956 
  2777.000 -31.246  2.1970  2.4301 -3.5214  2.1970  2.4301 
  2777.500 -30.854  2.2080  2.4433 -3.1390  2.2080  2.4433 
  2778.000 -30.430  2.2200  2.3920 -2.7247  2.2200  2.3920 
  2778.500 -30.007  2.2310  2.3224 -2.3113  2.2310  2.3224 
  2779.000 -29.860  2.2420  2.2722 -2.1740  2.2420  2.2722 
  2779.500 -29.713  2.2460  2.2429 -2.0367  2.2460  2.2429 
  2780.000 -29.633  2.2490  2.2386 -1.9663  2.2490  2.2386 
  2780.500 -29.554  2.2520  2.2386 -1.8970  2.2520  2.2386 
  2781.000 -31.523  2.2520  2.2387 -3.8757  2.2520  2.2387 
  2781.500 -32.606  2.2520  2.2369 -4.9683  2.2520  2.2369 
  2782.000 -33.066  2.2460  2.2342 -5.4380  2.2460  2.2342 
  2782.500 -32.675  2.2410  2.2299 -5.0566  2.2410  2.2299 
  2783.000 -32.283  2.2280  2.2247 -4.6743  2.2280  2.2247 
  2783.500 -31.891  2.2140  2.2164 -4.2920  2.2140  2.2164 
  2784.000 -31.500  2.2080  2.2062 -3.9106  2.2080  2.2062 
  2784.500 -31.108  2.2010  2.1945 -3.5283  2.2010  2.1945 
  2785.000 -31.242  2.1840  2.1855 -3.6720  2.1840  2.1855 
  2785.500 -31.538  2.1710  2.1784 -3.9776  2.1710  2.1784 
  2786.000 -31.834  2.1310  2.1708 -4.2833  2.1310  2.1708 
  2786.500 -32.377  2.0980  2.1627 -4.8359  2.0980  2.1627 
  2787.000 -32.919  2.0600  2.1532 -5.3876  2.0600  2.1532 
  2787.500 -32.365  2.0210  2.1431 -4.8433  2.0210  2.1431 
  2788.000 -31.318  1.9810  2.1364 -3.8059  1.9810  2.1364 
  2788.500 -30.534  1.9350  2.1329 -3.0316  1.9350  2.1329 
  2789.000 -30.207  1.9050  2.1304 -2.7142  1.9050  2.1304 
  2789.500 -29.881  1.8870  2.1360 -2.3979  1.8870  2.1360 
  2790.000 -30.310  1.8680  2.1450 -2.8366  1.8680  2.1450 
  2790.500 -30.739  1.9010  2.1575 -3.2752  1.9010  2.1575 
  2791.000 -32.644  1.9310  2.1745 -5.1899  1.9310  2.1745 
  2791.500 -33.286  1.9600  2.1851 -5.8416  1.9600  2.1851 
  2792.000 -33.928  2.0060  2.1870 -6.4932  2.0060  2.1870 
  2792.500 -34.261  2.0520  2.1854 -6.8359  2.0520  2.1854 
  2793.000 -33.903  2.0690  2.1796 -6.4875  2.0690  2.1796 
  2793.500 -33.546  2.0850  2.1653 -6.1402  2.0850  2.1653 
  2794.000 -32.077  2.0880  2.1407 -4.6809  2.0880  2.1407 
  2794.500 -31.409  2.0910  2.1178 -4.0225  2.0910  2.1178 
  2795.000 -30.741  2.0940  2.1112 -3.3642  2.0940  2.1112 
  2795.500 -30.155  2.1070  2.1141 -2.7879  2.1070  2.1141 
  2796.000 -29.734  2.1200  2.1264 -2.3765  2.1200  2.1264 
  2796.500 -29.638  2.1360  2.1371 -2.2902  2.1360  2.1371 
  2797.000 -29.542  2.1590  2.1469 -2.2038  2.1590  2.1469 
  2797.500 -29.482  2.1700  2.1552 -2.1535  2.1700  2.1552 
  2798.000 -29.551  2.1820  2.1618 -2.2322  2.1820  2.1618 
  2798.500 -29.619  2.1880  2.1677 -2.3098  2.1880  2.1677 
  2799.000 -30.673  2.1830  2.1759 -3.3735  2.1830  2.1759 
  2799.500 -31.300  2.1780  2.1830 -4.0101  2.1780  2.1830 
  2800.000 -31.352  2.1410  2.1845 -4.0718  2.1410  2.1845 
  2800.500 -31.404  2.1040  2.1555 -4.1335  2.1040  2.1555 
  2801.000 -31.049  2.0380  2.1129 -3.7881  2.0380  2.1129 
  2801.500 -30.774  2.0190  2.0672 -3.5228  2.0190  2.0672 
  2802.000 -30.500  2.0010  2.0260 -3.2585  2.0010  2.0260 
  2802.500 -30.241  1.9970  2.0260 -3.0091  1.9970  2.0260 
  2803.000 -29.982  1.9940  2.0228 -2.7598  1.9940  2.0228 
  2803.500 -29.691  1.9980  2.0251 -2.4784  1.9980  2.0251 
  2804.000 -29.400  2.0030  2.0579 -2.1971  2.0030  2.0579 
  2804.500 -29.208  1.9960  2.1151 -2.0148  1.9960  2.1151 
  2805.000 -29.096  1.9650  2.1478 -1.9124  1.9650  2.1478 
  2805.500 -28.985  1.9330  2.1629 -1.8111  1.9330  2.1629 
  2806.000 -29.973  1.8930  2.1686 -2.8087  1.8930  2.1686 
  2806.500 -30.665  1.8530  2.1687 -3.5104  1.8530  2.1687 
  2807.000 -30.423  1.8050  2.1588 -3.2781  1.8050  2.1588 
  2807.500 -30.180  1.7570  2.1558 -3.0447  1.7570  2.1558 
  2808.000 -29.709  1.6970  2.1523 -2.5834  1.6970  2.1523 
  2808.500 -29.237  1.6800  2.1189 -2.1211  1.6800  2.1189 
  2809.000 -28.652  1.6880  2.0581 -1.5457  1.6880  2.0581 
  2809.500 -28.067  1.6960  1.9999 -0.9704  1.6960  1.9999 
  2810.000 -28.037  1.7320  1.9640 -0.9500  1.7320  1.9640 
  2810.500 -28.007  1.7680  2.0033 -0.9297  1.7680  2.0033 
  2811.000 -28.110  1.8080  2.0418 -1.0424  1.8080  2.0418 
  2811.500 -28.212  1.8240  2.0598 -1.1540  1.8240  2.0598 
  2812.000 -27.921  1.8400  2.0701 -0.8727  1.8400  2.0701 
  2812.500 -27.892  1.8530  2.0646 -0.8534  1.8530  2.0646 
  2813.000 -27.862  1.8530  2.0592 -0.8330  1.8530  2.0592 
  2813.500 -28.097  1.8460  2.0530 -1.0777  1.8460  2.0530 
  2814.000 -28.200  1.8390  2.0505 -1.1903  1.8390  2.0505 
  2814.500 -28.367  1.8310  2.0472 -1.3670  1.8310  2.0472 
  2815.000 -28.698  1.8220  2.0473 -1.6868  1.8220  2.0473 
  2815.500 -30.504  1.8190  2.0440 -3.4815  1.8190  2.0440 
  2816.000 -32.146  1.8150  2.0360 -5.1123  1.8150  2.0360 
  2816.500 -32.150  1.8210  2.0259 -5.1051  1.8210  2.0259 
  2817.000 -31.662  1.8260  2.0172 -4.6058  1.8260  2.0172 
  2817.500 -31.173  1.8310  2.0086 -4.1056  1.8310  2.0086 
  2818.000 -27.968  1.8540  2.0010 -0.8893  1.8540  2.0010 
  2818.500 -27.152  1.8760  1.9921 -0.0621  1.8760  1.9921 
  2819.000 -26.156  1.9060  1.9793  0.9451  1.9060  1.9793 
  2819.500 -25.160  1.8840  1.9508  1.9524  1.8840  1.9508 
  2820.000 -23.166  1.8620  1.9099  3.9576  1.8620  1.9099 
  2820.500 -22.563  1.8520  1.8695  4.5718  1.8520  1.8695 
  2821.000 -21.960  1.8870  1.8396  5.1861  1.8870  1.8396 
  2821.500 -21.244  1.9210  1.8487  5.9133  1.9210  1.8487 
  2822.000 -20.921  2.0660  1.8729  6.2475  2.0660  1.8729 
  2822.500 -20.793  2.0760  1.9205  6.3868  2.0760  1.9205 
  2823.000 -21.551  2.0690  2.0133  5.6400  2.0690  2.0133 
  2823.500 -22.767  2.0490  2.0382  4.4352  2.0490  2.0382 
