~Version Information
VERS.                     2.0: CWLS log ASCII Standard Version 2.00
WRAP.                      NO: One line per depth step
~Well Information Block
#MNEM.UNIT                               Data Type  Information
#---------                               ---------  -----------
STRT.FT                                  2690.0000:
STOP.FT                                  3210.0000:
STEP.FT                                     0.5000:
NULL.                 -999.25                     :
COMP.                                             :COMPANY            
WELL.     KCL-SAN EMIDIO #4 REDRILL               :WELL               
FLD .                                             :FIELD              
CTRY.                                             :COUNTRY            
STAT.                                             :STATE              
LOC .                                             :LOCATION           
UWI .                                             :UNIQUE WELL ID     
SRVC.                                             :Service company    
DATE.                                             :LOG DATE           
~Curve Information
#MNEM.UNIT           API CODE  Curve Description
#---------           --------  -----------------
DEPT.FT                      :   1 DEPTH
SP  .MV                      :   2
AM10.OHMM                    :   3
AO8..OHMM                    :   4
SBL .MV                      :   5
RS  .OHMM                    :   6
RM  .OHMM                    :   7
~A
# ...
  2958.000 -43.140  3.9630  3.3491 -9.3622  3.9630  3.3491 
  2958.500 -42.452  4.0910  3.6071 -8.7089  4.0910  3.6071 
  2959.000 -41.829  4.0780  3.8698 -8.1207  4.0780  3.8698 
  2959.500 -40.486  3.8730  4.1088 -6.8124  3.8730  4.1088 
  2960.000 -38.454  3.5620  4.1297 -4.8151  3.5620  4.1297 
  2960.500 -37.634  3.5420  4.0703 -4.0298  3.5420  4.0703 
  2961.000 -37.667  3.5880  3.9493 -4.0976  3.5880  3.9493 
  2961.500 -37.536  3.6410  3.7104 -4.0013  3.6410  3.7104 
  2962.000 -37.044  3.6510  3.1009 -3.5440  3.6510  3.1009 
  2962.500 -35.177  3.5120  2.5352 -1.7117  3.5120  2.5352 
  2963.000 -34.390  3.3400  2.4865 -0.9594  3.3400  2.4865 
  2963.500 -34.161  3.0690  2.5384 -0.7652  3.0690  2.5384 
  2964.000 -34.094  2.9400  2.5793 -0.7329  2.9400  2.5793 
  2964.500 -34.028  2.8010  2.6035 -0.7016  2.8010  2.6035 
  2965.000 -33.996  2.6590  2.6091 -0.7043  2.6590  2.6091 
  2965.500 -34.012  2.4440  2.6091 -0.7551  2.4440  2.6091 
  2966.000 -34.027  2.3150  2.5995 -0.8048  2.3150  2.5995 
  2966.500 -34.224  2.1910  2.5929 -1.0365  2.1910  2.5929 
  2967.000 -34.422  2.0670  2.5856 -1.2692  2.0670  2.5856 
  2967.500 -34.732  1.7890  2.5601 -1.6139  1.7890  2.5601 
  2968.000 -35.042  1.7710  2.4922 -1.9587  1.7710  2.4922 
  2968.500 -35.895  1.7530  2.3887 -2.8464  1.7530  2.3887 
  2969.000 -36.584  1.7360  2.2622 -3.5701  1.7360  2.2622 
  2969.500 -36.846  1.6180  2.1639 -3.8668  1.6180  2.1639 
  2970.000 -35.780  1.5010  2.1037 -2.8356  1.5010  2.1037 
  2970.500 -34.715  1.4940  2.1508 -1.8053  1.4940  2.1508 
  2971.000 -33.077  1.5320  2.1882 -0.2020  1.5320  2.1882 
  2971.500 -32.602  1.5700  2.2233  0.2383  1.5700  2.2233 
  2972.000 -32.126  1.5430  2.2496  0.6796  1.5430  2.2496 
  2972.500 -31.930  1.4610  2.2627  0.8408  1.4610  2.2627 
  2973.000 -32.224  1.4270  2.2582  0.5121  1.4270  2.2582 
  2973.500 -32.682  1.4360  2.1626  0.0194  1.4360  2.1626 
  2974.000 -33.140  1.4440  2.0701 -0.4733  1.4440  2.0701 
  2974.500 -34.157  1.4650  2.0192 -1.5251  1.4650  2.0192 
  2975.000 -33.632  1.4870  1.9858 -1.0348  1.4870  1.9858 
  2975.500 -33.108  1.4970  1.9788 -0.5455  1.4970  1.9788 
  2976.000 -32.224  1.4770  1.9721  0.3038  1.4770  1.9721 
  2976.500 -31.633  1.4500  1.9697  0.8601  1.4500  1.9697 
  2977.000 -31.436  1.4630  1.9661  1.0223  1.4630  1.9661 
  2977.500 -32.027  1.4770  1.9587  0.3966  1.4770  1.9587 
  2978.000 -32.943  1.6250  1.9458 -0.5541  1.6250  1.9458 
  2978.500 -34.385  1.7000  1.9485 -2.0308  1.7000  1.9485 
  2979.000 -34.941  1.7740  1.9587 -2.6216  1.7740  1.9587 
  2979.500 -35.498  1.8800  1.9906 -3.2133  1.8800  1.9906 
  2980.000 -35.793  1.9340  2.0303 -3.5430  1.9340  2.0303 
  2980.500 -34.745  1.9890  2.0758 -2.5297  1.9890  2.0758 
  2981.000 -34.384  2.0380  2.1273 -2.2034  2.0380  2.1273 
  2981.500 -35.432  2.0880  2.1937 -3.2862  2.0880  2.1937 
  2982.000 -36.940  2.2630  2.2543 -4.8289  2.2630  2.2543 
  2982.500 -38.053  2.3820  2.3371 -5.9766  2.3820  2.3371 
  2983.000 -39.495  2.4580  2.4115 -7.4533  2.4580  2.4115 
  2983.500 -39.969  3.4370  2.4847 -7.9621  3.4370  2.4847 
  2984.000 -40.443  3.7380  2.5637 -8.4708  3.7380  2.5637 
  2984.500 -38.250  4.0750  2.6516 -6.3125  4.0750  2.6516 
  2985.000 -36.905  4.3030  2.7339 -5.0022  4.3030  2.7339 
  2985.500 -33.957  4.5080  2.8002 -2.0889  4.5080  2.8002 
  2986.000 -33.006  4.9110  2.8396 -1.1727  4.9110  2.8396 
  2986.500 -32.089  5.1390  2.8046 -0.2904  5.1390  2.8046 
  2987.000 -31.892  5.2320  2.7215 -0.1281  5.2320  2.7215 
  2987.500 -32.711  5.2420  2.6697 -0.9818  5.2420  2.6697 
  2988.000 -33.530  5.2090  2.6413 -1.8356  5.2090  2.6413 
  2988.500 -34.808  5.1460  2.7496 -3.1483  5.1460  2.7496 
  2989.000 -35.364  4.7320  2.9013 -3.7390  4.7320  2.9013 
  2989.500 -36.052  4.5120  3.0413 -4.4617  4.5120  3.0413 
  2990.000 -35.986  4.2920  3.0946 -4.4304  4.2920  3.0946 
  2990.500 -35.011  4.1500  3.1013 -3.4902  4.1500  3.1013 
  2991.000 -34.475  4.0100  2.8596 -2.9889  4.0100  2.8596 
  2991.500 -33.940  3.8050  2.4864 -2.4886  3.8050  2.4864 
  2992.000 -31.524  3.8810  2.4103 -0.1073  3.8810  2.4103 
  2992.500 -30.448  3.6450  2.6012  0.9339  3.6450  2.6012 
  2993.000 -29.226  3.5890  2.7572  2.1212  3.5890  2.7572 
  2993.500 -28.003  3.5320  2.9000  3.3095  3.5320  2.9000 
  2994.000 -26.569  3.5670  3.0239  4.7088  3.5670  3.0239 
  2994.500 -27.493  3.6010  3.1139  3.7501  3.6010  3.1139 
  2995.000 -28.613  2.9520  3.1911  2.5953  2.9520  3.1911 
  2995.500 -29.668  2.6810  3.2076  1.5056  2.6810  3.2076 
  2996.000 -30.953  2.4320  3.2027  0.1859  2.4320  3.2027 
  2996.500 -32.303  2.3490  3.1554 -1.1988  2.3490  3.1554 
  2997.000 -32.833  2.2660  3.0548 -1.7636  2.2660  3.0548 
  2997.500 -31.561  2.1170  2.9210 -0.5263  2.1170  2.9210 
  2998.000 -30.535  2.0340  2.7184  0.4650  2.0340  2.7184 
  2998.500 -29.509  1.9740  2.5911  1.4996  1.9740  2.5911 
  2999.000 -28.436  1.9470  2.5698  2.5812  1.9470  2.5698 
  2999.500 -28.016  1.9430  2.6355  3.0098  1.9430  2.6355 
  3000.000 -28.940  1.9560  2.6691  2.0943  1.9560  2.6691 
  3000.500 -32.224  1.9690  2.5468 -1.1811  1.9690  2.5468 
  3001.000 -32.689  2.0250  2.5677 -1.6375  2.0250  2.5677 
  3001.500 -33.088  2.0810  2.6171 -2.0279  2.0810  2.6171 
  3002.000 -34.504  2.1470  2.6757 -3.4353  2.1470  2.6757 
  3002.500 -35.198  2.1910  2.7377 -4.1207  2.1910  2.7377 
  3003.000 -35.237  2.2350  2.8038 -4.1512  2.2350  2.8038 
  3003.500 -35.276  2.3140  2.8730 -4.1816  2.3140  2.8730 
  3004.000 -35.348  2.3930  2.9423 -4.2450  2.3930  2.9423 
  3004.500 -35.551  2.5280  3.0061 -4.4394  2.5280  3.0061 
  3005.000 -36.016  2.5060  3.0662 -4.8958  2.5060  3.0662 
  3005.500 -37.006  2.4840  3.1113 -5.8772  2.4840  3.1113 
  3006.000 -37.601  2.5470  3.1360 -6.4637  2.5470  3.1360 
  3006.500 -38.197  2.6090  3.1361 -7.0511  2.6090  3.1361 
  3007.000 -37.189  2.7080  3.0531 -6.0345  2.7080  3.0531 
  3007.500 -36.212  2.6480  2.8968 -5.0489  2.6480  2.8968 
  3008.000 -36.005  2.4430  2.7332 -4.8333  2.4430  2.7332 
  3008.500 -35.798  2.3760  2.6283 -4.6177  2.3760  2.6283 
  3009.000 -35.652  2.3160  2.5244 -4.4632  2.3160  2.5244 
  3009.500 -35.505  2.2760  2.4064 -4.3076  2.2760  2.4064 
  3010.000 -35.359  2.2360  2.2774 -4.1530  2.2360  2.2774 
  3010.500 -35.758  2.0870  2.1588 -4.5434  2.0870  2.1588 
  3011.000 -36.158  2.0000  2.0887 -4.9348  2.0000  2.0887 
  3011.500 -35.641  1.9840  2.0291 -4.4092  1.9840  2.0291 
  3012.000 -35.123  2.0130  1.9842 -3.8827  2.0130  1.9842 
  3012.500 -34.900  2.0420  1.9467 -3.6511  2.0420  1.9467 
  3013.000 -34.678  2.0020  1.9194 -3.4205  2.0020  1.9194 
  3013.500 -34.750  1.9620  1.8968 -3.4839  1.9620  1.8968 
  3014.000 -35.019  1.8960  1.9091 -3.7443  1.8960  1.9091 
  3014.500 -35.303  1.8290  1.9995 -4.0197  1.8290  1.9995 
  3015.000 -35.587  1.7720  2.1310 -4.2952  1.7720  2.1310 
  3015.500 -36.414  1.7950  2.2819 -5.1136  1.7950  2.2819 
  3016.000 -36.682  1.8940  2.4413 -5.3730  1.8940  2.4413 
  3016.500 -36.360  1.9700  2.5715 -5.0424  1.9700  2.5715 
  3017.000 -36.039  2.0550  2.6502 -4.7128  2.0550  2.6502 
  3017.500 -35.521  2.1110  2.6954 -4.1862  2.1110  2.6954 
  3018.000 -35.004  2.2890  2.7703 -3.6607  2.2890  2.7703 
  3018.500 -34.732  2.6360  2.7554 -3.3801  2.6360  2.7554 
  3019.000 -34.461  2.8510  3.0661 -3.1005  2.8510  3.0661 
  3019.500 -34.303  3.0880  3.3002 -2.9339  3.0880  3.3002 
  3020.000 -32.901  3.3330  3.4402 -1.5233  3.3330  3.4402 
  3020.500 -32.055  3.4880  3.5757 -0.6687  3.4880  3.5757 
  3021.000 -31.669  3.8840  3.7295 -0.2742  3.8840  3.7295 
  3021.500 -31.937  4.3470  3.8736 -0.5336  4.3470  3.8736 
  3022.000 -33.385  4.8890  3.9161 -1.9730  4.8890  3.9161 
  3022.500 -37.946  5.4240  3.8503 -6.5254  5.4240  3.8503 
  3023.000 -41.163  5.5260  3.6662 -9.7338  5.5260  3.6662 
  3023.500 -44.217  5.3040  3.3191 -12.779  5.3040  3.3191 
  3024.000 -46.845  5.1150  3.3313 -15.399  5.1150  3.3313 
  3024.500 -46.261  5.1020  3.4075 -14.806  5.1020  3.4075 
