~Version Information
VERS.                     2.0: CWLS log ASCII Standard Version 2.00
WRAP.                      NO: One line per depth step
~Well Information Block
#MNEM.UNIT                               Data Type  Information
#---------                               ---------  -----------
STRT.FT                                  2690.0000:
STOP.FT                                  3210.0000:
STEP.FT                                     0.5000:
NULL.                 -999.25                     :
COMP.                                             :COMPANY            
WELL.     KCL-SAN EMIDIO #4 REDRILL               :WELL               
FLD .                                             :FIELD              
CTRY.                                             :COUNTRY            
STAT.                                             :STATE              
LOC .                                             :LOCATION           
UWI .                                             :UNIQUE WELL ID     
SRVC.                                             :Service company    
DATE.                                             :LOG DATE           
~Curve Information
#MNEM.UNIT           API CODE  Curve Description
#---------           --------  -----------------
DEPT.FT                      :   1 DEPTH
SP  .MV                      :   2
AM10.OHMM                    :   3
AO8..OHMM                    :   4
SBL .MV                      :   5
RS  .OHMM                    :   6
RM  .OHMM                    :   7
~A
  2690.000 -37.353 -999.25 -999.25 -8.3530 -999.25 -999.25 
  2690.500 -37.781 -999.25 -999.25 -8.7810 -999.25 -999.25 
  2691.000 -37.685 -999.25 -999.25 -8.6850 -999.25 -999.25 
  2691.500 -37.391 -999.25 -999.25 -8.3910 -999.25 -999.25 
  2692.000 -35.787  1.4410  1.1664 -6.7870  1.4410  1.1664 
  2692.500 -34.806  1.4510  1.2287 -5.8060  1.4510  1.2287 
  2693.000 -34.579  1.4610  1.2380 -5.5790  1.4610  1.2380 
  2693.500 -35.137  1.4640  1.2591 -6.1370  1.4640  1.2591 
  2694.000 -35.384  1.4750  1.3839 -6.3840  1.4750  1.3839 
  2694.500 -35.632  1.4870  1.4854 -6.6320  1.4870  1.4854 
  2695.000 -35.995  1.5160  1.5130 -6.9950  1.5160  1.5130 
  2695.500 -37.504  1.5850  1.5431 -8.5040  1.5850  1.5431 
  2696.000 -38.161  1.6180  1.5905 -9.1610  1.6180  1.5905 
  2696.500 -38.146  1.6510  1.6508 -9.1460  1.6510  1.6508 
  2697.000 -38.131  1.7170  1.5820 -9.1310  1.7170  1.5820 
  2697.500 -37.936  1.7600  1.5314 -8.9360  1.7600  1.5314 
  2698.000 -37.741  1.8030  1.4956 -8.7410  1.8030  1.4956 
  2698.500 -37.155  1.8750  1.5143 -8.1550  1.8750  1.5143 
  2699.000 -36.796  1.9550  1.5621 -7.7960  1.9550  1.5621 
  2699.500 -36.470  2.0110  1.6273 -7.4700  2.0110  1.6273 
  2700.000 -36.078  2.1460  1.7583 -7.0780  2.1460  1.7583 
  2700.500 -35.622  2.2090  1.9260 -6.6220  2.2090  1.9260 
  2701.000 -35.443  2.2480  2.0349 -6.4430  2.2480  2.0349 
  2701.500 -35.263  2.2650  1.9657 -6.2630  2.2650  1.9657 
  2702.000 -34.644  2.1550  1.8762 -5.6440  2.1550  1.8762 
  2702.500 -34.121  2.0590  1.7832 -5.1210  2.0590  1.7832 
  2703.000 -33.010  1.9270  1.6653 -4.0100  1.9270  1.6653 
  2703.500 -31.865  1.8270  1.5822 -2.8650  1.8270  1.5822 
  2704.000 -31.211  1.7510  1.5506 -2.2110  1.7510  1.5506 
  2704.500 -31.607  1.7250  1.5358 -2.6070  1.7250  1.5358 
  2705.000 -31.903  1.7150  1.5294 -2.9030  1.7150  1.5294 
  2705.500 -31.708  1.7050  1.5420 -2.7080  1.7050  1.5420 
  2706.000 -31.513  1.7070  1.5550 -2.5130  1.7070  1.5550 
  2706.500 -30.401  1.7090  1.5641 -1.4010  1.7090  1.5641 
  2707.000 -29.911  1.7110  1.5751 -0.9110  1.7110  1.5751 
  2707.500 -28.996  1.7400  1.6053  0.0040  1.7400  1.6053 
  2708.000 -28.669  1.7810  1.6531  0.3310  1.7810  1.6531 
  2708.500 -28.342  1.8230  1.7292  0.6580  1.8230  1.7292 
  2709.000 -28.115  1.8440  1.8018  0.8850  1.8440  1.8018 
  2709.500 -27.887  1.8650  1.8525  1.1130  1.8650  1.8525 
  2710.000 -28.874  1.8270  1.9003  0.1260  1.8270  1.9003 
  2710.500 -29.399  1.7890  1.9474 -0.3990  1.7890  1.9474 
  2711.000 -29.598  1.7490  1.9930 -0.5980  1.7490  1.9930 
  2711.500 -29.796  1.7090  1.9748 -0.8057  1.7090  1.9748 
  2712.000 -30.191  1.7060  1.9419 -1.2103  1.7060  1.9419 
  2712.500 -30.684  1.7020  1.9052 -1.7130  1.7020  1.9052 
  2713.000 -31.177  1.7220  1.8683 -2.2156  1.7220  1.8683 
  2713.500 -33.342  1.7380  1.8316 -4.3903  1.7380  1.8316 
  2714.000 -33.836  1.7280  1.7973 -4.8940  1.7280  1.7973 
  2714.500 -33.837  1.7020  1.7675 -4.9046  1.7020  1.7675 
  2715.000 -33.838  1.6750  1.7377 -4.9153  1.6750  1.7377 
  2715.500 -34.103  1.6020  1.7237 -5.1900  1.6020  1.7237 
  2716.000 -34.826  1.5820  1.7176 -5.9226  1.5820  1.7176 
  2716.500 -35.171  1.5760  1.7125 -6.2773  1.5760  1.7125 
  2717.000 -35.516  1.5710  1.7126 -6.6319  1.5710  1.7126 
  2717.500 -36.110  1.5650  1.7166 -7.2356  1.5650  1.7166 
  2718.000 -36.241  1.6040  1.7304 -7.3763  1.6040  1.7304 
  2718.500 -36.373  1.6340  1.7475 -7.5179  1.6340  1.7475 
  2719.000 -36.541  1.6570  1.7732 -7.6956  1.6570  1.7732 
  2719.500 -36.083  1.6570  1.7967 -7.2473  1.6570  1.7967 
  2720.000 -33.497  1.6550  1.8216 -4.6709  1.6550  1.8216 
  2720.500 -31.402  1.6530  1.8404 -2.5856  1.6530  1.8404 
  2721.000 -29.438  1.6890  1.8453 -0.6312  1.6890  1.8453 
  2721.500 -28.063  1.7320  1.8405  0.7341  1.7320  1.8405 
  2722.000 -27.082  1.7390  1.8378  1.7054  1.7390  1.8378 
  2722.500 -26.036  1.7150  1.8355  2.7418  1.7150  1.8355 
  2723.000 -25.807  1.7090  1.8397  2.9611  1.7090  1.8397 
  2723.500 -26.891  1.7180  1.8507  1.8675  1.7180  1.8507 
  2724.000 -27.843  1.7560  1.8620  0.9058  1.7560  1.8620 
  2724.500 -29.090  1.7940  1.8748 -0.3509  1.7940  1.8748 
  2725.000 -29.714  1.7870  1.8920 -0.9845  1.7870  1.8920 
  2725.500 -29.726  1.7790  1.8844 -1.0062  1.7790  1.8844 
  2726.000 -29.738  1.7710  1.8640 -1.0279  1.7710  1.8640 
  2726.500 -29.751  1.7700  1.8312 -1.0505  1.7700  1.8312 
  2727.000 -29.656  1.7700  1.7990 -0.9652  1.7700  1.7990 
  2727.500 -30.247  1.8180  1.7688 -1.5658  1.8180  1.7688 
  2728.000 -30.838  1.8660  1.7469 -2.1665  1.8660  1.7469 
  2728.500 -33.790  1.9180  1.7542 -5.1282  1.9180  1.7542 
  2729.000 -35.463  1.8870  1.7707 -6.8108  1.8870  1.7707 
  2729.500 -35.661  1.8550  1.7911 -7.0185  1.8550  1.7911 
  2730.000 -35.302  1.8090  1.8011 -6.6691  1.8090  1.8011 
  2730.500 -34.943  1.7870  1.8033 -6.3198  1.7870  1.8033 
  2731.000 -34.634  1.7660  1.7929 -6.0205  1.7660  1.7929 
  2731.500 -34.325  1.7550  1.7806 -5.7211  1.7550  1.7806 
  2732.000 -34.032  1.8150  1.7653 -5.4378  1.8150  1.7653 
  2732.500 -34.591  1.8150  1.7506 -6.0065  1.8150  1.7506 
  2733.000 -35.083  1.8150  1.7403 -6.5081  1.8150  1.7403 
  2733.500 -35.511  1.8010  1.7342 -6.9458  1.8010  1.7342 
  2734.000 -35.939  1.7880  1.7390 -7.3834  1.7880  1.7390 
  2734.500 -36.170  1.7480  1.7476 -7.6241  1.7480  1.7476 
  2735.000 -35.352  1.7280  1.7448 -6.8158  1.7280  1.7448 
  2735.500 -34.535  1.7160  1.7391 -6.0084  1.7160  1.7391 
  2736.000 -33.587  1.7040  1.7279 -5.0701  1.7040  1.7279 
  2736.500 -33.753  1.7220  1.7333 -5.2458  1.7220  1.7333 
  2737.000 -33.919  1.7400  1.7428 -5.4214  1.7400  1.7428 
  2737.500 -34.330  1.7870  1.7523 -5.8421  1.7870  1.7523 
  2738.000 -34.741  1.7530  1.7545 -6.2627  1.7530  1.7545 
  2738.500 -35.365  1.7300  1.7419 -6.8964  1.7300  1.7419 
  2739.000 -35.989  1.7070  1.7293 -7.5301  1.7070  1.7293 
  2739.500 -36.844  1.6770  1.7157 -8.3947  1.6770  1.7157 
  2740.000 -37.108  1.6800  1.7026 -8.6684  1.6800  1.7026 
  2740.500 -36.618  1.7050  1.6923 -8.1880  1.7050  1.6923 
  2741.000 -36.128  1.7290  1.6875 -7.7077  1.7290  1.6875 
  2741.500 -36.360  1.7590  1.6855 -7.9494  1.7590  1.6855 
  2742.000 -39.113  1.7880  1.6863 -10.712  1.7880  1.6863 
  2742.500 -40.196  1.8030  1.6927 -11.805  1.8030  1.6927 
  2743.000 -39.821  1.8180  1.7092 -11.439  1.8180  1.7092 
  2743.500 -39.446  1.8040  1.7284 -11.074  1.8040  1.7284 
  2744.000 -37.548  1.7940  1.7490 -9.1857  1.7940  1.7490 
  2744.500 -36.567  1.8090  1.7718 -8.2143  1.8090  1.7718 
  2745.000 -37.421  1.8240  1.7659 -9.0780  1.8240  1.7659 
  2745.500 -38.602  1.8680  1.7620 -10.269  1.8680  1.7620 
  2746.000 -39.817  1.9130  1.7721 -11.493  1.9130  1.7721 
  2746.500 -39.785  1.9610  1.7844 -11.471  1.9610  1.7844 
  2747.000 -39.296  2.0080  1.8078 -10.992  2.0080  1.8078 
  2747.500 -37.790  2.0280  1.8365 -9.4953  2.0280  1.8365 
  2748.000 -34.844  2.0480  1.8733 -6.5590  2.0480  1.8733 
  2748.500 -33.207  2.1140  1.9141 -4.9316  2.1140  1.9141 
  2749.000 -31.964  2.1850  1.9576 -3.6983  2.1850  1.9576 
  2749.500 -31.113  2.2560  2.0082 -2.8570  2.2560  2.0082 
  2750.000 -30.460  2.3680  2.0523 -2.2136  2.3680  2.0523 
  2750.500 -30.510  2.3730  2.0962 -2.2733  2.3730  2.0962 
  2751.000 -30.561  2.3770  2.1396 -2.3339  2.3770  2.1396 
  2751.500 -31.104  2.4200  2.1804 -2.8866  2.4200  2.1804 
  2752.000 -31.647  2.4860  2.2212 -3.4393  2.4860  2.2212 
  2752.500 -32.305  2.5420  2.2644 -4.1069  2.5420  2.2644 
  2753.000 -32.813  2.5720  2.3105 -4.6246  2.5720  2.3105 
  2753.500 -33.322  2.6010  2.3607 -5.1433  2.6010  2.3607 
  2754.000 -34.374  2.6210  2.4110 -6.2049  2.6210  2.4110 
  2754.500 -35.424  2.6410  2.3950 -7.2646  2.6410  2.3950 
  2755.000 -36.212  2.6410  2.3691 -8.0622  2.6410  2.3691 
  2755.500 -36.869  2.5910  2.3440 -8.7289  2.5910  2.3440 
  2756.000 -37.526  2.5410  2.3169 -9.3956  2.5410  2.3169 
  2756.500 -37.757  2.5210  2.2906 -9.6362  2.5210  2.2906 
