~Version Information
VERS.                     2.0: CWLS log ASCII Standard Version 2.00
WRAP.                      NO: One line per depth step
~Well Information Block
#MNEM.UNIT                               Data Type  Information
#---------                               ---------  -----------
STRT.FT                                  2690.0000:
STOP.FT                                  3210.0000:
STEP.FT                                     0.5000:
NULL.                 -999.25                     :
COMP.                                             :COMPANY            
WELL.     KCL-SAN EMIDIO #4 REDRILL               :WELL               
FLD .                                             :FIELD              
CTRY.                                             :COUNTRY            
STAT.                                             :STATE              
LOC .                                             :LOCATION           
UWI .                                             :UNIQUE WELL ID     
SRVC.                                             :Service company    
DATE.                                             :LOG DATE           
~Curve Information
#MNEM.UNIT           API CODE  Curve Description
#---------           --------  -----------------
DEPT.FT                      :   1 DEPTH
SP  .MV                      :   2
AM10.OHMM                    :   3
AO8..OHMM                    :   4
SBL .MV                      :   5
RS  .OHMM                    :   6
RM  .OHMM                    :   7
~A
# ...
  2891.000 -33.889  1.3890  1.5439 -5.1699  1.3890  1.5439 
  2891.500 -34.118  1.4020  1.5746 -5.3877  1.4020  1.5746 
  2892.000 -33.741  1.4180  1.6257 -4.9994  1.4180  1.6257 
  2892.500 -33.363  1.4350  1.6644 -4.6102  1.4350  1.6644 
  2893.000 -33.593  1.4480  1.6465 -4.8290  1.4480  1.6465 
  2893.500 -33.822  1.4350  1.6212 -5.0467  1.4350  1.6212 
  2894.000 -33.496  1.3250  1.5699 -4.7095  1.3250  1.5699 
  2894.500 -33.135  1.2660  1.4813 -4.3372  1.2660  1.4813 
  2895.000 -33.036  1.1900  1.4037 -4.2270  1.1900  1.4037 
  2895.500 -32.937  1.1900  1.3585 -4.1168  1.1900  1.3585 
  2896.000 -32.937  1.2490  1.3397 -4.1055  1.2490  1.3397 
  2896.500 -32.937  1.3090  1.3308 -4.0943  1.3090  1.3308 
  2897.000 -32.904  1.4180  1.3184 -4.0501  1.4180  1.3184 
  2897.500 -32.870  1.4540  1.3770 -4.0048  1.4540  1.3770 
  2898.000 -32.774  1.4740  1.4040 -3.8976  1.4740  1.4040 
  2898.500 -32.751  1.4840  1.4279 -3.8634  1.4840  1.4279 
  2899.000 -32.729  1.4840  1.4460 -3.8301  1.4840  1.4460 
  2899.500 -32.706  1.4700  1.4557 -3.7959  1.4700  1.4557 
  2900.000 -32.673  1.4570  1.4579 -3.7517  1.4570  1.4579 
  2900.500 -32.641  1.4170  1.4579 -3.7084  1.4170  1.4579 
  2901.000 -32.642  1.3910  1.4469 -3.6982  1.3910  1.4469 
  2901.500 -32.641  1.3640  1.4415 -3.6859  1.3640  1.4415 
  2902.000 -32.740  1.3110  1.4383 -3.7737  1.3110  1.4383 
  2902.500 -33.067  1.2650  1.4405 -4.0895  1.2650  1.4405 
  2903.000 -34.410  1.2350  1.4417 -5.4212  1.2350  1.4417 
  2903.500 -35.623  1.2180  1.4418 -6.6230  1.2180  1.4418 
  2904.000 -36.212  1.2220  1.4374 -7.0564  1.2220  1.4374 
  2904.500 -36.834  1.2280  1.4313 -7.5229  1.2280  1.4313 
  2905.000 -37.784  1.2450  1.4251 -8.3173  1.2450  1.4251 
  2905.500 -38.832  1.2680  1.4150 -9.2098  1.2680  1.4150 
  2906.000 -38.767  1.2810  1.3994 -8.9892  1.2810  1.3994 
  2906.500 -38.258  1.2810  1.3789 -8.3247  1.2810  1.3789 
  2907.000 -37.749  1.2610  1.3594 -7.6601  1.2610  1.3594 
  2907.500 -37.373  1.2410  1.3595 -7.1286  1.2410  1.3595 
  2908.000 -36.996  1.1980  1.3551 -6.5960  1.1980  1.3551 
  2908.500 -36.783  1.1550  1.3512 -6.2274  1.1550  1.3512 
  2909.000 -36.570  1.1420  1.3458 -5.8589  1.1420  1.3458 
  2909.500 -36.308  1.1450  1.3429 -5.4413  1.1450  1.3429 
  2910.000 -36.308  1.1480  1.3414 -5.2858  1.1480  1.3414 
  2910.500 -36.800  1.1480  1.3400 -5.6222  1.1480  1.3400 
  2911.000 -36.733  1.1480  1.3400 -5.3997  1.1480  1.3400 
  2911.500 -36.635  1.1460  1.3401 -5.1461  1.1460  1.3401 
  2912.000 -36.536  1.1440  1.3422 -4.8916  1.1440  1.3422 
  2912.500 -36.504  1.1410  1.3435 -4.7040  1.1410  1.3435 
  2913.000 -36.602  1.1280  1.3435 -4.6464  1.1280  1.3435 
  2913.500 -36.896  1.1150  1.3387 -4.7849  1.1150  1.3387 
  2914.000 -37.420  1.1030  1.3270 -5.1533  1.1030  1.3270 
  2914.500 -38.699  1.0920  1.3051 -6.2768  1.0920  1.3051 
  2915.000 -39.420  1.0810  1.2799 -6.8422  1.0810  1.2799 
  2915.500 -39.746  1.0710  1.2521 -7.0127  1.0710  1.2521 
  2916.000 -39.926  1.0610  1.2202 -7.0371  1.0610  1.2202 
  2916.500 -40.105  1.0530  1.1874 -7.0606  1.0530  1.1874 
  2917.000 -40.285  1.0450  1.1464 -7.0850  1.0450  1.1464 
  2917.500 -40.465  1.0400  1.1162 -7.1094  1.0400  1.1162 
  2918.000 -40.744  1.0350  1.0919 -7.2329  1.0350  1.0919 
  2918.500 -41.022  1.0310  1.0697 -7.3553  1.0310  1.0697 
  2919.000 -41.679  1.0280  1.0832 -7.8568  1.0280  1.0832 
  2919.500 -41.776  1.0240  1.1005 -7.7982  1.0240  1.1005 
  2920.000 -41.497  1.0210  1.1183 -7.3637  1.0210  1.1183 
  2920.500 -41.218  1.0200  1.1361 -6.9291  1.0200  1.1361 
  2921.000 -40.923  1.0190  1.1456 -6.4786  1.0190  1.1456 
  2921.500 -40.628  1.0180  1.1527 -6.0280  1.0180  1.1527 
  2922.000 -40.531  1.0160  1.1560 -5.7754  1.0160  1.1560 
  2922.500 -40.727  1.0140  1.1561 -5.8159  1.0140  1.1561 
  2923.000 -41.218  1.0110  1.1529 -6.1513  1.0110  1.1529 
  2923.500 -42.136  1.0090  1.1529 -6.9138  1.0090  1.1529 
  2924.000 -42.463  1.0070  1.1395 -7.0852  1.0070  1.1395 
  2924.500 -42.791  0.9970  1.1364 -7.2577  0.9970  1.1364 
  2925.000 -42.660  0.9920  1.1456 -6.9711  0.9920  1.1456 
  2925.500 -42.479  0.9870  1.1523 -6.6346  0.9870  1.1523 
  2926.000 -42.298  0.9940  1.1565 -6.2980  0.9940  1.1565 
  2926.500 -41.839  1.0240  1.1537 -5.8737  1.0240  1.1537 
  2927.000 -41.380  1.0670  1.1499 -5.4494  1.0670  1.1499 
  2927.500 -40.790  1.1260  1.1467 -4.8942  1.1260  1.1467 
  2928.000 -40.200  1.2120  1.1527 -4.3389  1.2120  1.1527 
  2928.500 -40.052  1.2680  1.1689 -4.2256  1.2680  1.1689 
  2929.000 -39.905  1.3240  1.1872 -4.1133  1.3240  1.1872 
  2929.500 -39.888  1.4130  1.2124 -4.1311  1.4130  1.2124 
  2930.000 -39.872  1.4700  1.2349 -4.1498  1.4700  1.2349 
  2930.500 -38.399  1.5590  1.2769 -2.7115  1.5590  1.2769 
  2931.000 -37.382  1.6480  1.3325 -1.7292  1.6480  1.3325 
  2931.500 -36.365  1.7570  1.4090 -0.7469  1.7570  1.4090 
  2932.000 -34.662  1.8730  1.4796  0.9213  1.8730  1.4796 
  2932.500 -34.661  1.9790  1.5375  0.8876  1.9790  1.5375 
  2933.000 -34.660  2.0840  1.6038  0.8539  2.0840  1.6038 
  2933.500 -34.464  2.2130  1.6848  1.0152  2.2130  1.6848 
  2934.000 -34.267  2.2680  1.7737  1.1774  2.2680  1.7737 
  2934.500 -36.332  2.3220  1.8643 -0.9223  2.3220  1.8643 
  2935.000 -38.429  2.2720  1.9320 -3.0540  2.2720  1.9320 
  2935.500 -39.150  2.0940  1.9753 -3.8097  2.0940  1.9753 
  2936.000 -37.250  1.9810  1.9974 -1.9444  1.9810  1.9974 
  2936.500 -35.579  2.0210  2.0135 -0.3082  2.0210  2.0135 
  2937.000 -34.006  2.0610  2.0256  1.2301  2.0610  2.0256 
  2937.500 -33.513  2.0140  2.0274  1.6884  2.0140  2.0274 
  2938.000 -34.890  1.9740  1.9751  0.2767  1.9740  1.9751 
  2938.500 -36.233  1.9510  1.9415 -1.1011  1.9510  1.9415 
  2939.000 -37.707  1.9740  1.9469 -2.6098  1.9740  1.9469 
  2939.500 -38.067  2.0540  1.9635 -3.0045  2.0540  1.9635 
  2940.000 -38.428  2.1160  2.0000 -3.4002  2.1160  2.0000 
  2940.500 -37.281  2.1630  2.0657 -2.2879  2.1630  2.0657 
  2941.000 -35.970  2.2090  2.1361 -1.0117  2.2090  2.1361 
  2941.500 -33.446  2.2680  2.1976  1.4776  2.2680  2.1976 
  2942.000 -29.613  2.2350  2.2230  5.2759  2.2350  2.2230 
  2942.500 -27.516  2.1990  2.1788  7.3382  2.1990  2.1788 
  2943.000 -29.187  2.1720  2.1736  5.6324  2.1720  2.1736 
  2943.500 -29.481  2.3610  2.2030  5.3037  2.3610  2.2030 
  2944.000 -29.775  2.4800  2.3900  4.9750  2.4800  2.3900 
  2944.500 -29.186  2.6120  2.5323  5.5293  2.6120  2.5323 
  2945.000 -28.039  2.6550  2.6371  6.6416  2.6550  2.6371 
  2945.500 -23.583  2.6940  2.6625  11.063  2.6940  2.6625 
  2946.000 -19.487  2.7900  2.6848  15.124  2.7900  2.6848 
  2946.500 -18.406  2.8990  2.7218  16.170  2.8990  2.7218 
  2947.000 -18.766  2.6510  2.7796  15.776  2.6510  2.7796 
  2947.500 -21.977  2.6510  2.8356  12.530  2.6510  2.8356 
  2948.000 -25.548  2.6770  2.9144  8.9242  2.6770  2.9144 
  2948.500 -26.154  2.7340  3.0237  8.2835  2.7340  3.0237 
  2949.000 -26.759  2.8820  3.1857  7.6438  2.8820  3.1857 
  2949.500 -27.677  3.5540  3.4023  6.6911  3.5540  3.4023 
  2950.000 -33.313  3.8810  3.6570  1.0203  3.8810  3.6570 
  2950.500 -35.607  4.1120  3.9397 -1.3084  4.1120  3.9397 
  2951.000 -36.622  4.2540  4.2190 -2.3581  4.2540  4.2190 
  2951.500 -36.098  4.2150  4.3239 -1.8688  4.2150  4.3239 
  2952.000 -35.279  3.9300  4.2227 -1.0846  3.9300  4.2227 
  2952.500 -35.868  3.7420  4.0882 -1.7083  3.7420  4.0882 
  2953.000 -37.113  3.6720  3.9340 -2.9880  3.6720  3.9340 
  2953.500 -38.391  3.6690  3.7463 -4.3007  3.6690  3.7463 
  2954.000 -39.111  3.6980  3.5082 -5.0554  3.6980  3.5082 
  2954.500 -39.830  3.7280  3.2221 -5.8092  3.7280  3.2221 
  2955.000 -40.945  3.8370  3.0238 -6.9589  3.8370  3.0238 
  2955.500 -42.059  3.9790  2.8831 -8.1076  3.9790  2.8831 
  2956.000 -42.977  4.0550  2.8528 -9.0603  4.0550  2.8528 
  2956.500 -43.353  3.9790  2.8644 -9.4711  3.9790  2.8644 
  2957.000 -43.729  3.7280  2.9172 -9.8818  3.7280  2.9172 
  2957.500 -43.435  3.7050  3.1068 -9.6225  3.7050  3.1068 
