~Version Information
VERS.                     2.0: CWLS log ASCII Standard Version 2.00
WRAP.                      NO: One line per depth step
~Well Information Block
#MNEM.UNIT                               Data Type  Information
#---------                               ---------  -----------
STRT.FT                                   360.0000:
STOP.FT                                  6850.0000:
STEP.FT                                     0.5000:
NULL.                 -999.25                     :
COMP.                                             :COMPANY            
WELL.     SAN EMIDIO A #17-20                     :WELL               
FLD .                                             :FIELD              
CTRY.                                             :COUNTRY            
STAT.                                             :STATE              
LOC .                                             :LOCATION           
UWI .                                             :UNIQUE WELL ID     
SRVC.                                             :Service company    
DATE.                                             :LOG DATE           
~Curve Information
#MNEM.UNIT           API CODE  Curve Description
#---------           --------  -----------------
DEPT.FT                      :   1 DEPTH
SP  .MV                      :   2
2Z18.OHMM                    :   3
31Z9.OHMM                    :   4
31Z1.OHMM                    :   5
SBL .MV                      :   6
RS  .OHMM                    :   7
RM  .OHMM                    :   8
RD  .OHMM                    :   9
DEVI.DEG                     :  10
TVD .FT                      :  11
AZIM.DEG                     :  12
NORT.FT                      :  13
EAST.FT                      :  14
OFFS.FT                      :  15
~A
# ...
  6405.000 -12.002  2.5340  2.1650  2.0310 -7.0020  2.5340  2.1650  2.0310  5.3261  6402.6  188.15  15.212  59.072  52.527 
  6405.500 -11.922  2.4990  2.0980  2.0300 -6.9220  2.4990  2.0980  2.0300  5.3288  6403.1  188.16  15.166  59.066  52.490 
  6406.000 -11.844  2.4310  2.0630  2.0290 -6.8440  2.4310  2.0630  2.0290  5.3315  6403.6  188.17  15.120  59.059  52.453 
  6406.500 -11.765  2.4310  2.0630  2.0280 -6.7650  2.4310  2.0630  2.0280  5.3343  6404.1  188.17  15.074  59.052  52.415 
  6407.000 -11.435  2.4300  2.0620  2.0270 -6.4350  2.4300  2.0620  2.0270  5.3370  6404.6  188.18  15.028  59.046  52.378 
  6407.500 -11.354  2.4120  2.0610  2.0590 -6.3540  2.4120  2.0610  2.0590  5.3397  6405.1  188.18  14.982  59.039  52.341 
  6408.000 -11.274  2.3950  2.0600  2.1250 -6.2740  2.3950  2.0600  2.1250  5.3424  6405.6  188.19  14.936  59.033  52.304 
  6408.500 -11.195  2.3940  2.0920  2.2250 -6.1950  2.3940  2.0920  2.2250  5.3451  6406.1  188.19  14.890  59.026  52.266 
  6409.000 -11.115  2.3930  2.0910  2.2900 -6.1150  2.3930  2.0910  2.2900  5.3479  6406.6  188.20  14.844  59.019  52.229 
  6409.500 -11.119  2.3910  2.1240  2.3230 -6.1190  2.3910  2.1240  2.3230  5.3506  6407.1  188.20  14.798  59.013  52.192 
  6410.000 -11.124  2.3910  2.1900  2.3550 -6.1240  2.3910  2.1900  2.3550  5.3533  6407.6  188.21  14.751  59.006  52.154 
  6410.500 -11.297  2.3560  2.2390  2.3880 -6.2970  2.3560  2.2390  2.3880  5.3560  6408.1  188.21  14.705  58.999  52.117 
  6411.000 -11.635  2.3720  2.2880  2.3870 -6.6350  2.3720  2.2880  2.3870  5.3587  6408.6  188.22  14.659  58.993  52.080 
  6411.500 -11.807  2.3880  2.2870  2.3860 -6.8070  2.3880  2.2870  2.3860  5.3614  6409.1  188.23  14.613  58.986  52.042 
  6412.000 -12.061  2.4200  2.3030  2.3850 -7.0610  2.4200  2.3030  2.3850  5.3642  6409.6  188.23  14.566  58.979  52.005 
  6412.500 -12.315  2.4530  2.3190  2.3840 -7.3150  2.4530  2.3190  2.3840  5.3669  6410.1  188.24  14.520  58.973  51.967 
  6413.000 -12.823  2.4860  2.3520  2.3490 -7.8230  2.4860  2.3520  2.3490  5.3696  6410.6  188.24  14.474  58.966  51.930 
  6413.500 -13.162  2.5180  2.3170  2.3150 -8.1620  2.5180  2.3170  2.3150  5.3723  6411.1  188.25  14.428  58.959  51.892 
  6414.000 -13.332  2.5500  2.2830  2.2810 -8.3320  2.5500  2.2830  2.2810  5.3750  6411.6  188.25  14.381  58.952  51.855 
  6414.500 -13.503  2.5500  2.2150  2.2460 -8.5030  2.5500  2.2150  2.2460  5.3777  6412.1  188.26  14.335  58.946  51.817 
  6415.000 -13.842  2.5150  2.1810  2.2120 -8.8420  2.5150  2.1810  2.2120  5.3805  6412.6  188.26  14.288  58.939  51.780 
  6415.500 -14.180  2.4810  2.1460  2.1770 -9.1800  2.4810  2.1460  2.1770  5.3832  6413.1  188.27  14.242  58.932  51.742 
  6416.000 -14.353  2.4800  2.0780  2.1430 -9.3530  2.4800  2.0780  2.1430  5.3859  6413.6  188.27  14.196  58.925  51.704 
  6416.500 -14.608  2.4790  2.1030  2.1420 -9.6080  2.4790  2.1030  2.1420  5.3886  6414.0  188.28  14.149  58.919  51.667 
  6417.000 -14.862  2.4950  2.1270  2.1410 -9.8620  2.4950  2.1270  2.1410  5.3913  6414.5  188.28  14.103  58.912  51.629 
  6417.500 -15.284  2.5110  2.1510  2.1730 -10.284  2.5110  2.1510  2.1730  5.3941  6415.0  188.29  14.056  58.905  51.591 
  6418.000 -15.707  2.5430  2.1750  2.2060 -10.707  2.5430  2.1750  2.2060  5.3968  6415.5  188.30  14.010  58.898  51.554 
  6418.500 -16.381  2.5760  2.2410  2.3380 -11.381  2.5760  2.2410  2.3380  5.3995  6416.0  188.30  13.963  58.892  51.516 
  6419.000 -16.469  2.6080  2.3070  2.4380 -11.469  2.6080  2.3070  2.4380  5.4022  6416.5  188.31  13.916  58.885  51.478 
  6419.500 -16.557  2.6400  2.5400  2.5040 -11.557  2.6400  2.5400  2.5040  5.4049  6417.0  188.31  13.870  58.878  51.440 
  6420.000 -16.396  2.6730  2.6730  2.5360 -11.396  2.6730  2.6730  2.5360  5.4076  6417.5  188.32  13.823  58.871  51.403 
  6420.500 -16.231  2.6720  2.7060  2.5350 -11.231  2.6720  2.7060  2.5350  5.4104  6418.0  188.32  13.777  58.864  51.365 
  6421.000 -16.066  2.6710  2.6380  2.5010 -11.066  2.6710  2.6380  2.5010  5.4131  6418.5  188.33  13.730  58.858  51.327 
  6421.500 -15.236  2.6710  2.5030  2.4670 -10.236  2.6710  2.5030  2.4670  5.4158  6419.0  188.33  13.683  58.851  51.289 
  6422.000 -14.905  2.6200  2.4020  2.2310 -9.9050  2.6200  2.4020  2.2310  5.4185  6419.5  188.34  13.636  58.844  51.251 
  6422.500 -14.909  2.5680  2.2000  2.1290 -9.9090  2.5680  2.2000  2.1290  5.4212  6420.0  188.34  13.590  58.837  51.213 
  6423.000 -14.912  2.5170  2.0650  1.9950 -9.9120  2.5170  2.0650  1.9950  5.4239  6420.5  188.35  13.543  58.830  51.176 
  6423.500 -15.085  2.4660  2.0310  1.9270 -10.085  2.4660  2.0310  1.9270  5.4267  6421.0  188.36  13.496  58.823  51.138 
  6424.000 -15.089  2.4320  1.9970  1.8920 -10.089  2.4320  1.9970  1.8920  5.4294  6421.5  188.36  13.449  58.816  51.100 
  6424.500 -15.093  2.3970  1.9790  1.8910 -10.093  2.3970  1.9790  1.8910  5.4321  6422.0  188.37  13.403  58.809  51.062 
  6425.000 -14.930  2.3800  1.9620  1.9240 -9.9300  2.3800  1.9620  1.9240  5.4348  6422.5  188.37  13.356  58.803  51.024 
  6425.500 -14.433  2.3620  1.9600  1.9730 -9.4330  2.3620  1.9600  1.9730  5.4375  6423.0  188.38  13.309  58.796  50.986 
  6426.000 -14.102  2.3780  1.9930  2.0220 -9.1020  2.3780  1.9930  2.0220  5.4402  6423.5  188.38  13.262  58.789  50.948 
  6426.500 -13.270  2.3940  2.0260  2.0880 -8.2700  2.3940  2.0260  2.0880  5.4430  6424.0  188.39  13.215  58.782  50.909 
  6427.000 -12.438  2.3930  2.0910  2.1210 -7.4380  2.3930  2.0910  2.1210  5.4457  6424.5  188.39  13.168  58.775  50.871 
  6427.500 -11.940  2.4250  2.1910  2.1530 -6.9400  2.4250  2.1910  2.1530  5.4484  6425.0  188.40  13.121  58.768  50.833 
  6428.000 -11.275  2.4240  2.3240  2.2520 -6.2750  2.4240  2.3240  2.2520  5.4511  6425.5  188.40  13.074  58.761  50.795 
  6428.500 -10.945  2.3900  2.3900  2.2850 -5.9450  2.3900  2.3900  2.2850  5.4538  6426.0  188.41  13.027  58.754  50.757 
  6429.000 -10.949  2.3720  2.4560  2.3170 -5.9490  2.3720  2.4560  2.3170  5.4566  6426.5  188.42  12.980  58.747  50.719 
  6429.500 -10.619  2.3550  2.5550  2.3500 -5.6190  2.3550  2.5550  2.3500  5.4593  6427.0  188.42  12.933  58.740  50.681 
  6430.000 -10.623  2.3540  2.6210  2.3650 -5.6230  2.3540  2.6210  2.3650  5.4620  6427.5  188.43  12.886  58.733  50.642 
  6430.500 -10.626  2.3530  2.6540  2.3810 -5.6260  2.3530  2.6540  2.3810  5.4647  6428.0  188.43  12.839  58.726  50.604 
  6431.000 -10.630  2.3850  2.6530  2.3970 -5.6300  2.3850  2.6530  2.3970  5.4674  6428.5  188.44  12.792  58.719  50.566 
  6431.500 -10.635  2.3840  2.6520  2.4130 -5.6350  2.3840  2.6520  2.4130  5.4701  6429.0  188.44  12.745  58.712  50.528 
  6432.000 -10.807  2.4170  2.6510  2.4450 -5.8070  2.4170  2.6510  2.4450  5.4729  6429.5  188.45  12.697  58.705  50.489 
  6432.500 -10.810  2.4490  2.6170  2.4780 -5.8100  2.4490  2.6170  2.4780  5.4756  6430.0  188.45  12.650  58.698  50.451 
  6433.000 -10.814  2.5150  2.5820  2.5100 -5.8140  2.5150  2.5820  2.5100  5.4783  6430.5  188.46  12.603  58.691  50.413 
  6433.500 -10.987  2.5480  2.5480  2.5090 -5.9870  2.5480  2.5480  2.5090  5.4810  6431.0  188.46  12.556  58.684  50.374 
  6434.000 -11.158  2.5470  2.5470  2.5410 -6.1580  2.5470  2.5470  2.5410  5.4837  6431.5  188.47  12.509  58.677  50.336 
  6434.500 -11.162  2.5460  2.5130  2.5400 -6.1620  2.5460  2.5130  2.5400  5.4864  6432.0  188.47  12.461  58.670  50.297 
  6435.000 -11.167  2.5460  2.4450  2.5560 -6.1670  2.5460  2.4450  2.5560  5.4892  6432.5  188.48  12.414  58.663  50.259 
  6435.500 -11.337  2.5280  2.4110  2.5720 -6.3370  2.5280  2.4110  2.5720  5.4919  6433.0  188.49  12.367  58.656  50.221 
  6436.000 -11.508  2.5100  2.3760  2.5710 -6.5080  2.5100  2.3760  2.5710  5.4946  6433.5  188.49  12.319  58.649  50.182 
  6436.500 -11.848  2.4760  2.3420  2.5030 -6.8480  2.4760  2.3420  2.5030  5.4973  6434.0  188.50  12.272  58.642  50.144 
  6437.000 -11.851  2.4580  2.2740  2.4850 -6.8510  2.4580  2.2740  2.4850  5.5000  6434.5  188.50  12.224  58.635  50.105 
