~Version Information
VERS.                     2.0: CWLS log ASCII Standard Version 2.00
WRAP.                      NO: One line per depth step
~Well Information Block
#MNEM.UNIT                               Data Type  Information
#---------                               ---------  -----------
STRT.FT                                   360.0000:
STOP.FT                                  6850.0000:
STEP.FT                                     0.5000:
NULL.                 -999.25                     :
COMP.                                             :COMPANY            
WELL.     SAN EMIDIO A #17-20                     :WELL               
FLD .                                             :FIELD              
CTRY.                                             :COUNTRY            
STAT.                                             :STATE              
LOC .                                             :LOCATION           
UWI .                                             :UNIQUE WELL ID     
SRVC.                                             :Service company    
DATE.                                             :LOG DATE           
~Curve Information
#MNEM.UNIT           API CODE  Curve Description
#---------           --------  -----------------
DEPT.FT                      :   1 DEPTH
SP  .MV                      :   2
2Z18.OHMM                    :   3
31Z9.OHMM                    :   4
31Z1.OHMM                    :   5
SBL .MV                      :   6
RS  .OHMM                    :   7
RM  .OHMM                    :   8
RD  .OHMM                    :   9
DEVI.DEG                     :  10
TVD .FT                      :  11
AZIM.DEG                     :  12
NORT.FT                      :  13
EAST.FT                      :  14
OFFS.FT                      :  15
~A
# ...
  5527.500 -15.835  1.3860  1.4200  1.5620 -14.165  1.3860  1.4200  1.5620  2.8105  5526.6  56.001  57.423  52.897  78.008 
  5528.000 -15.832  1.3860  1.4200  1.5630 -14.160  1.3860  1.4200  1.5630  2.8100  5527.1  56.601  57.436  52.918  78.032 
  5528.500 -15.828  1.3870  1.4200  1.5630 -14.155  1.3870  1.4200  1.5630  2.8096  5527.6  57.201  57.449  52.938  78.056 
  5529.000 -15.825  1.3870  1.4200  1.5640 -14.150  1.3870  1.4200  1.5640  2.8092  5528.1  57.801  57.462  52.959  78.080 
  5529.500 -15.989  1.3870  1.4210  1.5640 -14.312  1.3870  1.4210  1.5640  2.8088  5528.6  58.401  57.475  52.980  78.104 
  5530.000 -16.071  1.3880  1.4210  1.5650 -14.393  1.3880  1.4210  1.5650  2.8084  5529.1  59.001  57.488  53.001  78.127 
  5530.500 -16.152  1.3880  1.4220  1.5650 -14.472  1.3880  1.4220  1.5650  2.8080  5529.6  59.601  57.500  53.022  78.151 
  5531.000 -16.232  1.3890  1.4220  1.5660 -14.550  1.3890  1.4220  1.5660  2.8075  5530.1  60.201  57.512  53.043  78.175 
  5531.500 -16.313  1.3890  1.4220  1.5660 -14.630  1.3890  1.4220  1.5660  2.8071  5530.6  60.801  57.524  53.065  78.198 
  5532.000 -16.476  1.3730  1.4230  1.6000 -14.791  1.3730  1.4230  1.6000  2.8067  5531.1  61.401  57.536  53.086  78.222 
  5532.500 -16.640  1.3560  1.4230  1.6010 -14.953  1.3560  1.4230  1.6010  2.8063  5531.6  62.001  57.548  53.108  78.245 
  5533.000 -16.637  1.3570  1.4230  1.6010 -14.949  1.3570  1.4230  1.6010  2.8059  5532.1  62.601  57.559  53.130  78.269 
  5533.500 -16.801  1.3570  1.4230  1.6020 -15.111  1.3570  1.4230  1.6020  2.8055  5532.6  63.201  57.570  53.151  78.292 
  5534.000 -16.798  1.3570  1.4240  1.6020 -15.106  1.3570  1.4240  1.6020  2.8050  5533.1  63.801  57.581  53.173  78.315 
  5534.500 -16.962  1.3580  1.4240  1.6020 -15.269  1.3580  1.4240  1.6020  2.8046  5533.6  64.401  57.591  53.196  78.338 
  5535.000 -16.959  1.3580  1.4250  1.6030 -15.264  1.3580  1.4250  1.6030  2.8042  5534.1  65.001  57.602  53.218  78.361 
  5535.500 -16.956  1.3580  1.4250  1.6030 -15.259  1.3580  1.4250  1.6030  2.8038  5534.6  65.601  57.612  53.240  78.384 
  5536.000 -16.954  1.3750  1.4250  1.6040 -15.256  1.3750  1.4250  1.6040  2.8034  5535.1  66.201  57.622  53.262  78.407 
  5536.500 -16.949  1.3920  1.4250  1.6040 -15.249  1.3920  1.4250  1.6040  2.8030  5535.6  66.801  57.631  53.285  78.429 
  5537.000 -16.778  1.3930  1.4260  1.6050 -15.076  1.3930  1.4260  1.6050  2.8025  5536.1  67.401  57.641  53.307  78.452 
  5537.500 -16.775  1.4100  1.4260  1.6060 -15.072  1.4100  1.4260  1.6060  2.8021  5536.6  68.001  57.650  53.330  78.475 
  5538.000 -16.771  1.4260  1.4260  1.6060 -15.066  1.4260  1.4260  1.6060  2.8017  5537.1  68.601  57.659  53.353  78.497 
  5538.500 -16.768  1.4270  1.4270  1.6060 -15.061  1.4270  1.4270  1.6060  2.8013  5537.6  69.201  57.667  53.376  78.519 
  5539.000 -16.849  1.4440  1.4270  1.6070 -15.141  1.4440  1.4270  1.6070  2.8009  5538.1  69.801  57.676  53.399  78.541 
  5539.500 -16.930  1.4610  1.4440  1.6080 -15.220  1.4610  1.4440  1.6080  2.8005  5538.6  70.401  57.684  53.422  78.563 
  5540.000 -17.429  1.4780  1.4610  1.6080 -15.717  1.4780  1.4610  1.6080  2.8000  5539.1  71.001  57.692  53.445  78.585 
  5540.500 -17.762  1.4950  1.4780  1.6420 -16.049  1.4950  1.4780  1.6420  2.7996  5539.6  71.601  57.700  53.468  78.607 
  5541.000 -18.094  1.5290  1.4950  1.6430 -16.379  1.5290  1.4950  1.6430  2.7992  5540.1  72.201  57.707  53.491  78.629 
  5541.500 -18.090  1.5290  1.4960  1.6430 -16.373  1.5290  1.4960  1.6430  2.7988  5540.6  72.801  57.714  53.514  78.651 
  5542.000 -18.086  1.5460  1.5290  1.6440 -16.368  1.5460  1.5290  1.6440  2.7984  5541.1  73.401  57.721  53.538  78.672 
  5542.500 -18.083  1.5630  1.5300  1.6770 -16.363  1.5630  1.5300  1.6770  2.7980  5541.6  74.001  57.728  53.561  78.693 
  5543.000 -18.080  1.5970  1.5300  1.7110 -16.358  1.5970  1.5300  1.7110  2.7975  5542.1  74.601  57.734  53.585  78.715 
  5543.500 -18.244  1.6140  1.5800  1.7780 -16.521  1.6140  1.5800  1.7780  2.7971  5542.6  75.201  57.741  53.608  78.736 
  5544.000 -18.408  1.6310  1.6310  1.8120 -16.683  1.6310  1.6310  1.8120  2.7967  5543.1  75.801  57.747  53.632  78.757 
  5544.500 -18.490  1.6650  1.6310  1.8460 -16.763  1.6650  1.6310  1.8460  2.7963  5543.6  76.401  57.752  53.656  78.777 
  5545.000 -18.571  1.6980  1.6310  1.8470 -16.843  1.6980  1.6310  1.8470  2.7959  5544.1  77.001  57.758  53.680  78.798 
  5545.500 -18.566  1.6990  1.6320  1.8140 -16.836  1.6990  1.6320  1.8140  2.7955  5544.6  77.601  57.763  53.703  78.819 
  5546.000 -18.730  1.6320  1.6320  1.7640 -16.998  1.6320  1.6320  1.7640  2.7950  5545.1  78.201  57.768  53.727  78.839 
  5546.500 -18.727  1.6330  1.6660  1.7140 -16.994  1.6330  1.6660  1.7140  2.7946  5545.6  78.801  57.773  53.751  78.859 
  5547.000 -18.724  1.6160  1.6490  1.6650 -16.989  1.6160  1.6490  1.6650  2.7942  5546.1  79.401  57.777  53.775  78.879 
  5547.500 -18.888  1.6000  1.6330  1.6150 -17.151  1.6000  1.6330  1.6150  2.7938  5546.6  80.001  57.782  53.799  78.899 
  5548.000 -19.053  1.5330  1.6000  1.5160 -17.315  1.5330  1.6000  1.5160  2.7934  5547.1  80.601  57.786  53.823  78.919 
  5548.500 -19.217  1.5000  1.5340  1.4830 -17.477  1.5000  1.5340  1.4830  2.7930  5547.6  81.201  57.789  53.847  78.939 
  5549.000 -19.381  1.5010  1.5010  1.4500 -17.639  1.5010  1.5010  1.4500  2.7925  5548.1  81.801  57.793  53.871  78.958 
  5549.500 -19.713  1.5010  1.4510  1.4180 -17.970  1.5010  1.4510  1.4180  2.7921  5548.6  82.401  57.796  53.895  78.978 
  5550.000 -19.878  1.4680  1.4010  1.4180 -18.133  1.4680  1.4010  1.4180  2.7917  5549.1  83.001  57.799  53.920  78.997 
  5550.500 -20.127  1.4680  1.3680  1.3850 -18.380  1.4680  1.3680  1.3850  2.7913  5549.6  83.601  57.802  53.944  79.016 
  5551.000 -20.376  1.4690  1.3690  1.3860 -18.628  1.4690  1.3690  1.3860  2.7909  5550.1  84.201  57.804  53.968  79.035 
  5551.500 -20.706  1.4690  1.3690  1.4200 -18.956  1.4690  1.3690  1.4200  2.7905  5550.6  84.801  57.806  53.992  79.054 
  5552.000 -20.788  1.4530  1.3690  1.4200 -19.036  1.4530  1.3690  1.4200  2.7900  5551.1  85.401  57.808  54.017  79.072 
  5552.500 -20.869  1.4360  1.4030  1.4200 -19.116  1.4360  1.4030  1.4200  2.7896  5551.6  86.001  57.810  54.041  79.090 
  5553.000 -20.864  1.4530  1.4360  1.4210 -19.109  1.4530  1.4360  1.4210  2.7892  5552.1  86.601  57.811  54.065  79.109 
  5553.500 -20.525  1.4700  1.4700  1.4220 -18.768  1.4700  1.4700  1.4220  2.7888  5552.6  87.201  57.813  54.089  79.127 
  5554.000 -20.354  1.4710  1.5040  1.4390 -18.596  1.4710  1.5040  1.4390  2.7884  5553.1  87.801  57.814  54.114  79.145 
  5554.500 -19.680  1.4710  1.5380  1.4560 -17.920  1.4710  1.5380  1.4560  2.7880  5553.6  88.401  57.814  54.138  79.162 
  5555.000 -19.173  1.4710  1.5550  1.4560 -17.411  1.4710  1.5550  1.4560  2.7875  5554.1  89.001  57.815  54.162  79.180 
  5555.500 -18.667  1.4880  1.5720  1.4730 -16.904  1.4880  1.5720  1.4730  2.7871  5554.6  89.601  57.815  54.187  79.197 
  5556.000 -18.496  1.5050  1.5890  1.4900 -16.731  1.5050  1.5890  1.4900  2.7867  5555.1  90.201  57.815  54.211  79.214 
  5556.500 -18.492  1.5060  1.6060  1.5250 -16.725  1.5060  1.6060  1.5250  2.7863  5555.6  90.801  57.814  54.235  79.231 
  5557.000 -18.824  1.5060  1.6060  1.5250 -17.056  1.5060  1.6060  1.5250  2.7859  5556.1  91.401  57.814  54.260  79.248 
  5557.500 -18.989  1.4890  1.5900  1.5250 -17.219  1.4890  1.5900  1.5250  2.7855  5556.6  92.001  57.813  54.284  79.264 
  5558.000 -19.070  1.4730  1.5730  1.5590 -17.298  1.4730  1.5730  1.5590  2.7850  5557.1  92.601  57.812  54.308  79.281 
  5558.500 -19.151  1.4740  1.5570  1.5600 -17.378  1.4740  1.5570  1.5600  2.7846  5557.6  93.201  57.810  54.332  79.297 
  5559.000 -19.232  1.4740  1.5400  1.5600 -17.457  1.4740  1.5400  1.5600  2.7842  5558.1  93.801  57.809  54.357  79.313 
  5559.500 -19.312  1.4740  1.5080  1.5780 -17.535  1.4740  1.5080  1.5780  2.7838  5558.6  94.401  57.807  54.381  79.329 
