~Version Information
VERS.                     2.0: CWLS log ASCII Standard Version 2.00
WRAP.                      NO: One line per depth step
~Well Information Block
#MNEM.UNIT                               Data Type  Information
#---------                               ---------  -----------
STRT.FT                                   360.0000:
STOP.FT                                  6850.0000:
STEP.FT                                     0.5000:
NULL.                 -999.25                     :
COMP.                                             :COMPANY            
WELL.     SAN EMIDIO A #17-20                     :WELL               
FLD .                                             :FIELD              
CTRY.                                             :COUNTRY            
STAT.                                             :STATE              
LOC .                                             :LOCATION           
UWI .                                             :UNIQUE WELL ID     
SRVC.                                             :Service company    
DATE.                                             :LOG DATE           
~Curve Information
#MNEM.UNIT           API CODE  Curve Description
#---------           --------  -----------------
DEPT.FT                      :   1 DEPTH
SP  .MV                      :   2
2Z18.OHMM                    :   3
31Z9.OHMM                    :   4
31Z1.OHMM                    :   5
SBL .MV                      :   6
RS  .OHMM                    :   7
RM  .OHMM                    :   8
RD  .OHMM                    :   9
DEVI.DEG                     :  10
TVD .FT                      :  11
AZIM.DEG                     :  12
NORT.FT                      :  13
EAST.FT                      :  14
OFFS.FT                      :  15
~A
# ...
  4227.500 -35.766  10.668  6.4890  7.3770 -32.172  10.668  6.4890  7.3770  0.8188  4227.0  21.727  39.271  30.775  49.530 
  4228.000 -35.930  10.969  6.5230  7.3940 -32.338  10.969  6.5230  7.3940  0.8200  4227.5  21.722  39.278  30.777  49.536 
  4228.500 -36.260  11.137  6.6570  7.4120 -32.670  11.137  6.6570  7.4120  0.8213  4228.0  21.717  39.284  30.780  49.543 
  4229.000 -36.590  11.322  6.7580  7.4470 -33.001  11.322  6.7580  7.4470  0.8225  4228.5  21.712  39.291  30.783  49.550 
  4229.500 -36.587  11.506  6.9260  7.4810 -33.000  11.506  6.9260  7.4810  0.8238  4229.0  21.707  39.298  30.785  49.556 
  4230.000 -36.584  12.009  7.0610  7.4820 -32.999  12.009  7.0610  7.4820  0.8250  4229.5  21.702  39.304  30.788  49.563 
  4230.500 -36.580  12.377  7.2290  7.4330 -32.997  12.377  7.2290  7.4330  0.8263  4230.0  21.697  39.311  30.791  49.569 
  4231.000 -36.077  12.678  7.2960  7.3840 -32.496  12.678  7.2960  7.3840  0.8275  4230.5  21.692  39.318  30.793  49.576 
  4231.500 -35.740  12.345  7.5310  7.2510 -32.161  12.345  7.5310  7.2510  0.8288  4231.0  21.687  39.324  30.796  49.583 
  4232.000 -35.069  12.145  7.7320  7.3190 -31.492  12.145  7.7320  7.3190  0.8300  4231.5  21.682  39.331  30.799  49.589 
  4232.500 -33.731  11.945  8.0670  7.4200 -30.156  11.945  8.0670  7.4200  0.8313  4232.0  21.677  39.338  30.801  49.596 
  4233.000 -32.392  11.712  8.6030  7.4880 -28.819  11.712  8.6030  7.4880  0.8325  4232.5  21.672  39.345  30.804  49.603 
  4233.500 -31.388  11.646  9.0710  7.4390 -27.817  11.646  9.0710  7.4390  0.8338  4233.0  21.667  39.351  30.807  49.609 
  4234.000 -31.885  11.596  9.4060  7.3900 -28.316  11.596  9.4060  7.3900  0.8350  4233.5  21.662  39.358  30.809  49.616 
  4234.500 -33.718  11.546  9.4740  7.1570 -30.151  11.546  9.4740  7.1570  0.8363  4234.0  21.657  39.365  30.812  49.623 
  4235.000 -35.549  11.547  9.4410  7.0580 -31.983  11.547  9.4410  7.0580  0.8375  4234.5  21.652  39.372  30.815  49.629 
  4235.500 -37.214  11.715  9.4080  6.9580 -33.650  11.715  9.4080  6.9580  0.8388  4235.0  21.647  39.379  30.817  49.636 
  4236.000 -37.795  11.749  9.3420  6.8590 -34.233  11.749  9.3420  6.8590  0.8400  4235.5  21.642  39.385  30.820  49.643 
  4236.500 -38.377  11.750  9.3760  6.7930 -34.817  11.750  9.3760  6.7930  0.8413  4236.0  21.637  39.392  30.823  49.650 
  4237.000 -37.705  11.717  9.4100  6.7270 -34.147  11.717  9.4100  6.7270  0.8425  4236.5  21.632  39.399  30.826  49.656 
  4237.500 -37.202  11.484  9.5450  6.6950 -33.646  11.484  9.5450  6.6950  0.8438  4237.0  21.627  39.406  30.828  49.663 
  4238.000 -36.699  11.250  9.5450  6.6620 -33.145  11.250  9.5450  6.6620  0.8450  4237.5  21.622  39.413  30.831  49.670 
  4238.500 -35.526  10.917  9.5130  6.6630 -31.974  10.917  9.5130  6.6630  0.8463  4238.0  21.617  39.420  30.834  49.677 
  4239.000 -34.355  10.750  9.5130  6.6640 -30.805  10.750  9.5130  6.6640  0.8475  4238.5  21.612  39.426  30.836  49.683 
  4239.500 -32.684  10.584  9.4800  6.7320 -29.136  10.584  9.4800  6.7320  0.8488  4239.0  21.607  39.433  30.839  49.690 
  4240.000 -31.012  10.417  9.4140  6.8000 -27.466  10.417  9.4140  6.8000  0.8500  4239.5  21.602  39.440  30.842  49.697 
  4240.500 -29.339  10.451  9.3810  6.8350 -25.795  10.451  9.3810  6.8350  0.8513  4240.0  21.597  39.447  30.845  49.704 
  4241.000 -29.002  10.853  9.3490  6.9690 -25.459  10.853  9.3490  6.9690  0.8525  4240.5  21.592  39.454  30.847  49.711 
  4241.500 -30.667  11.222  9.3160  7.1040 -27.126  11.222  9.3160  7.1040  0.8538  4241.0  21.587  39.461  30.850  49.717 
  4242.000 -33.167  12.626  9.3000  7.3060 -29.628  12.626  9.3000  7.3060  0.8550  4241.5  21.582  39.468  30.853  49.724 
  4242.500 -35.666  14.165  9.2840  7.6070 -32.129  14.165  9.2840  7.6070  0.8563  4242.0  21.577  39.475  30.856  49.731 
  4243.000 -36.997  15.403  9.3510  8.1430 -33.462  15.403  9.3510  8.1430  0.8575  4242.5  21.572  39.482  30.858  49.738 
  4243.500 -37.661  15.671  9.4190  8.6120 -34.128  15.671  9.4190  8.6120  0.8588  4243.0  21.567  39.489  30.861  49.745 
  4244.000 -37.992  16.039  9.8210  9.0810 -34.461  16.039  9.8210  9.0810  0.8600  4243.5  21.562  39.496  30.864  49.752 
  4244.500 -38.322  16.441  11.092  9.9180 -34.793  16.441  11.092  9.9180  0.8613  4244.0  21.557  39.503  30.867  49.759 
  4245.000 -38.318  16.809  11.861  10.337 -34.791  16.809  11.861  10.337  0.8625  4244.5  21.552  39.510  30.869  49.766 
  4245.500 -37.648  17.211  12.698  10.756 -34.123  17.211  12.698  10.756  0.8638  4245.0  21.547  39.517  30.872  49.773 
  4246.000 -37.228  17.345  13.267  10.824 -33.705  17.345  13.267  10.824  0.8650  4245.5  21.542  39.524  30.875  49.779 
  4246.500 -36.809  16.945  13.702  10.791 -33.287  16.945  13.702  10.791  0.8663  4246.0  21.537  39.531  30.878  49.786 
  4247.000 -36.138  14.505  14.171  10.625 -32.618  14.505  14.171  10.625  0.8675  4246.5  21.532  39.538  30.881  49.793 
  4247.500 -35.468  13.603  14.071  10.426 -31.950  13.603  14.071  10.426  0.8688  4247.0  21.527  39.545  30.883  49.800 
  4248.000 -34.295  12.868  12.768  10.259 -30.779  12.868  12.768  10.259  0.8700  4247.5  21.522  39.552  30.886  49.807 
  4248.500 -33.791  12.033  12.368  10.026 -30.277  12.033  12.368  10.026  0.8713  4248.0  21.517  39.559  30.889  49.814 
  4249.000 -32.954  11.198  10.897  9.4260 -29.442  11.198  10.897  9.4260  0.8725  4248.5  21.512  39.566  30.892  49.821 
  4249.500 -32.117  10.196  10.330  8.8920 -28.607  10.196  10.330  8.8920  0.8738  4249.0  21.507  39.573  30.894  49.828 
  4250.000 -31.279  9.6950  10.330  8.3580 -27.771  9.6950  10.330  8.3580  0.8750  4249.5  21.502  39.580  30.897  49.835 
  4250.500 -29.439  8.9600  10.298  8.3250 -25.933  8.9600  10.298  8.3250  0.8763  4250.0  21.497  39.587  30.900  49.842 
  4251.000 -27.268  7.7570  10.231  8.2600 -23.764  7.7570  10.231  8.2600  0.8775  4250.5  21.492  39.595  30.903  49.849 
  4251.500 -25.429  7.7250  10.148  8.0600 -21.927  7.7250  10.148  8.0600  0.8788  4251.0  21.487  39.602  30.906  49.856 
  4252.000 -12.914  7.9590  10.065  7.8940 -9.4135  7.9590  10.065  7.8940  0.8800  4251.5  21.482  39.609  30.908  49.863 
  4252.500 -12.410  8.1940  8.4950  7.7270 -8.9114  8.1940  8.4950  7.7270  0.8813  4252.0  21.477  39.616  30.911  49.870 
  4253.000 -13.575  8.4620  8.2950  7.1600 -10.078  8.4620  8.2950  7.1600  0.8825  4252.5  21.472  39.623  30.914  49.877 
  4253.500 -14.740  8.6630  8.6630  7.8970 -11.245  8.6630  8.6630  7.8970  0.8838  4253.0  21.467  39.630  30.917  49.885 
  4254.000 -16.572  8.9650  9.8010  8.6000 -13.079  8.9650  9.8010  8.6000  0.8850  4253.5  21.462  39.638  30.920  49.892 
  4254.500 -19.571  9.2660  10.303  8.9350 -16.080  9.2660  10.303  8.9350  0.8863  4254.0  21.457  39.645  30.923  49.899 
  4255.000 -24.906  9.7350  11.440  10.073 -21.417  9.7350  11.440  10.073  0.8875  4254.5  21.452  39.652  30.925  49.906 
  4255.500 -25.403  9.6350  12.109  10.375 -21.916  9.6350  12.109  10.375  0.8888  4255.0  21.447  39.659  30.928  49.913 
  4256.000 -24.399  9.5690  13.013  10.276 -20.914  9.5690  13.013  10.276  0.8900  4255.5  21.442  39.666  30.931  49.920 
  4256.500 -22.560  9.5370  13.013  10.076 -19.077  9.5370  13.013  10.076  0.8913  4256.0  21.437  39.674  30.934  49.927 
  4257.000 -21.056  9.8710  12.446  9.8430 -17.575  9.8710  12.446  9.8430  0.8925  4256.5  21.432  39.681  30.937  49.934 
  4257.500 -19.718  10.240  12.079  9.2750 -16.239  10.240  12.079  9.2750  0.8938  4257.0  21.427  39.688  30.940  49.941 
  4258.000 -20.715  10.976  11.478  8.9420 -17.237  10.976  11.478  8.9420  0.8950  4257.5  21.422  39.695  30.942  49.949 
  4258.500 -22.547  11.411  10.275  9.0770 -19.071  11.411  10.275  9.0770  0.8963  4258.0  21.417  39.703  30.945  49.956 
  4259.000 -25.046  12.749  10.158  9.4460 -21.572  12.749  10.158  9.4460  0.8975  4258.5  21.412  39.710  30.948  49.963 
  4259.500 -29.213  13.920  10.042  10.349 -25.741  13.920  10.042  10.349  0.8988  4259.0  21.407  39.717  30.951  49.970 
