~Version Information
VERS.                     2.0: CWLS log ASCII Standard Version 2.00
WRAP.                      NO: One line per depth step
~Well Information Block
#MNEM.UNIT                               Data Type  Information
#---------                               ---------  -----------
STRT.FT                                   360.0000:
STOP.FT                                  6850.0000:
STEP.FT                                     0.5000:
NULL.                 -999.25                     :
COMP.                                             :COMPANY            
WELL.     SAN EMIDIO A #17-20                     :WELL               
FLD .                                             :FIELD              
CTRY.                                             :COUNTRY            
STAT.                                             :STATE              
LOC .                                             :LOCATION           
UWI .                                             :UNIQUE WELL ID     
SRVC.                                             :Service company    
DATE.                                             :LOG DATE           
~Curve Information
#MNEM.UNIT           API CODE  Curve Description
#---------           --------  -----------------
DEPT.FT                      :   1 DEPTH
SP  .MV                      :   2
2Z18.OHMM                    :   3
31Z9.OHMM                    :   4
31Z1.OHMM                    :   5
SBL .MV                      :   6
RS  .OHMM                    :   7
RM  .OHMM                    :   8
RD  .OHMM                    :   9
DEVI.DEG                     :  10
TVD .FT                      :  11
AZIM.DEG                     :  12
NORT.FT                      :  13
EAST.FT                      :  14
OFFS.FT                      :  15
~A
# ...
  1660.000 -13.100  6.4820  15.927  9.7990 -5.8926  6.4820  15.927  9.7990  1.1000  1659.9  61.000  4.2280  10.744  10.587 
  1660.500 -11.263  6.3820  15.159  9.3990 -4.0630  6.3820  15.159  9.3990  1.1009  1660.4  60.775  4.2327  10.753  10.596 
  1661.000 -10.760  6.2490  10.554  8.8980 -3.5674  6.2490  10.554  8.8980  1.1017  1660.9  60.550  4.2374  10.761  10.606 
  1661.500 -9.4220  6.3820  10.020  8.7320 -2.2368  6.3820  10.020  8.7320  1.1025  1661.4  60.325  4.2422  10.770  10.615 
  1662.000 -9.0860  6.6160  9.7200  8.6980 -1.9082  6.6160  9.7200  8.6980  1.1034  1661.9  60.100  4.2470  10.778  10.624 
  1662.500 -9.1660  6.8000  9.5870  8.8990 -1.9956  6.8000  9.5870  8.8990  1.1042  1662.4  59.875  4.2518  10.786  10.633 
  1663.000 -9.2470  6.9840  9.7210  8.9990 -2.0840  6.9840  9.7210  8.9990  1.1050  1662.9  59.650  4.2567  10.795  10.643 
  1663.500 -9.9090  7.4850  9.8550  9.1160 -2.7534  7.4850  9.8550  9.1160  1.1059  1663.4  59.425  4.2616  10.803  10.652 
  1664.000 -11.239  7.7520  10.189  9.2330 -4.0909  7.7520  10.189  9.2330  1.1067  1663.9  59.200  4.2665  10.811  10.662 
  1664.500 -11.569  8.2530  10.356  9.9010 -4.4283  8.2530  10.356  9.9010  1.1075  1664.4  58.975  4.2715  10.819  10.671 
  1665.000 -12.567  8.8550  10.490  10.435 -5.4337  8.8550  10.490  10.435  1.1084  1664.9  58.750  4.2765  10.828  10.680 
  1665.500 -15.230  9.3890  10.624  10.652 -8.1041  9.3890  10.624  10.652  1.1092  1665.4  58.525  4.2816  10.836  10.690 
  1666.000 -19.393  9.6900  10.841  10.869 -12.274  9.6900  10.841  10.869  1.1100  1665.9  58.300  4.2867  10.844  10.699 
  1666.500 -22.223  9.9900  11.058  11.503 -15.112  9.9900  11.058  11.503  1.1109  1666.4  58.075  4.2918  10.852  10.709 
  1667.000 -22.887  10.358  11.259  11.904 -15.783  10.358  11.259  11.904  1.1117  1666.9  57.850  4.2970  10.861  10.718 
  1667.500 -25.216  10.692  11.293  12.238 -18.120  10.692  11.293  12.238  1.1125  1667.4  57.625  4.3022  10.869  10.728 
  1668.000 -26.713  10.926  11.259  12.639 -19.624  10.926  11.259  12.639  1.1134  1667.9  57.400  4.3074  10.877  10.737 
  1668.500 -27.376  11.160  11.226  12.939 -20.295  11.160  11.226  12.939  1.1142  1668.4  57.175  4.3127  10.885  10.747 
  1669.000 -28.206  11.594  11.093  13.273 -21.132  11.594  11.093  13.273  1.1150  1668.9  56.950  4.3180  10.893  10.756 
  1669.500 -28.870  11.728  10.827  13.440 -21.803  11.728  10.827  13.440  1.1159  1669.4  56.725  4.3233  10.901  10.766 
  1670.000 -29.533  12.062  10.560  13.507 -22.474  12.062  10.560  13.507  1.1167  1669.9  56.500  4.3287  10.910  10.775 
  1670.500 -30.863  12.229  10.227  13.540 -23.811  12.229  10.227  13.540  1.1175  1670.4  56.275  4.3341  10.918  10.785 
  1671.000 -32.360  12.630  10.060  13.607 -25.316  12.630  10.060  13.607  1.1184  1670.9  56.050  4.3395  10.926  10.794 
  1671.500 -34.356  13.031  9.9940  13.708 -27.319  13.031  9.9940  13.708  1.1192  1671.4  55.825  4.3450  10.934  10.804 
  1672.000 -34.937  13.498  10.061  14.042 -27.907  13.498  10.061  14.042  1.1200  1671.9  55.600  4.3506  10.942  10.813 
  1672.500 -35.517  14.233  10.328  14.242 -28.495  14.233  10.328  14.242  1.1209  1672.4  55.375  4.3561  10.950  10.823 
  1673.000 -37.013  14.701  10.695  14.476 -29.998  14.701  10.695  14.476  1.1217  1672.9  55.150  4.3617  10.958  10.833 
  1673.500 -38.509  15.168  11.063  14.676 -31.502  15.168  11.063  14.676  1.1225  1673.4  54.925  4.3673  10.966  10.842 
  1674.000 -40.173  15.602  11.297  14.843 -33.173  15.602  11.297  14.843  1.1234  1673.9  54.700  4.3730  10.974  10.852 
  1674.500 -41.503  16.170  11.698  14.910 -34.499  16.170  11.698  14.910  1.1242  1674.4  54.475  4.3787  10.982  10.862 
  1675.000 -41.666  16.571  12.032  14.977 -34.657  16.571  12.032  14.977  1.1250  1674.9  54.250  4.3844  10.990  10.871 
  1675.500 -41.830  17.005  12.332  14.977 -34.817  17.005  12.332  14.977  1.1259  1675.4  54.025  4.3902  10.998  10.881 
  1676.000 -41.659  17.673  12.800  14.944 -34.641  17.673  12.800  14.944  1.1267  1675.9  53.800  4.3960  11.006  10.891 
  1676.500 -41.489  17.873  13.401  14.878 -34.467  17.873  13.401  14.878  1.1275  1676.4  53.575  4.4019  11.014  10.901 
  1677.000 -41.486  17.940  13.618  14.644 -34.459  17.940  13.618  14.644  1.1284  1676.9  53.350  4.4077  11.022  10.910 
  1677.500 -41.816  18.174  13.836  14.578 -34.785  18.174  13.836  14.578  1.1292  1677.4  53.125  4.4136  11.030  10.920 
  1678.000 -41.980  18.475  14.504  14.411 -34.944  18.475  14.504  14.411  1.1300  1677.9  52.900  4.4196  11.037  10.930 
  1678.500 -42.144  18.743  14.938  14.294 -35.104  18.743  14.938  14.294  1.1309  1678.4  52.675  4.4256  11.045  10.940 
  1679.000 -42.639  19.310  15.105  14.177 -35.594  19.310  15.105  14.177  1.1317  1678.9  52.450  4.4316  11.053  10.949 
  1679.500 -43.136  19.811  15.439  13.911 -36.087  19.811  15.439  13.911  1.1325  1679.4  52.225  4.4376  11.061  10.959 
  1680.000 -43.799  19.817  15.673  13.844 -36.745  19.817  15.673  13.844  1.1334  1679.9  52.000  4.4437  11.069  10.969 
  1680.500 -44.463  19.822  15.907  13.811 -37.405  19.822  15.907  13.811  1.1342  1680.4  51.775  4.4499  11.077  10.979 
  1681.000 -45.293 -999.25  16.341  13.844 -38.230 -999.25  16.341  13.844  1.1350  1680.9  51.550  4.4560  11.084  10.989 
  1681.500 -46.623 -999.25  16.608  13.945 -39.556 -999.25  16.608  13.945  1.1359  1681.4  51.325  4.4622  11.092  10.999 
  1682.000 -47.286 -999.25  17.210  14.112 -40.214 -999.25  17.210  14.112  1.1367  1681.9  51.100  4.4684  11.100  11.008 
  1682.500 -47.533 -999.25  17.544  14.546 -40.457 -999.25  17.544  14.546  1.1375  1682.4  50.875  4.4747  11.107  11.018 
  1683.000 -47.780 -999.25  18.145  14.946 -40.699 -999.25  18.145  14.946  1.1384  1682.9  50.650  4.4810  11.115  11.028 
  1683.500 -47.860 -999.25  18.579  15.414 -40.775 -999.25  18.579  15.414  1.1392  1683.4  50.425  4.4873  11.123  11.038 
  1684.000 -47.940 -999.25  18.913  15.681 -40.850 -999.25  18.913  15.681  1.1400  1683.9  50.200  4.4937  11.130  11.048 
  1684.500 -48.103 -999.25  19.681  15.748 -41.009 -999.25  19.681  15.748  1.1409  1684.4  49.975  4.5001  11.138  11.058 
  1685.000 -48.433 -999.25  19.982  15.815 -41.334 -999.25  19.982  15.815  1.1417  1684.9  49.750  4.5065  11.146  11.068 
  1685.500 -48.596 -999.25  19.982  15.848 -41.493 -999.25  19.982  15.848  1.1425  1685.4  49.525  4.5130  11.153  11.078 
  1686.000 -49.093 -999.25  19.982  15.882 -41.985 -999.25  19.982  15.882  1.1434  1685.9  49.300  4.5195  11.161  11.088 
  1686.500 -50.256 -999.25  19.983  15.882 -43.144 -999.25  19.983  15.882  1.1442  1686.4  49.075  4.5261  11.168  11.098 
  1687.000 -51.419 -999.25  19.983  15.882 -44.302 -999.25  19.983  15.882  1.1450  1686.9  48.850  4.5326  11.176  11.108 
  1687.500 -51.583 -999.25  19.983  15.916 -44.462 -999.25  19.983  15.916  1.1459  1687.4  48.625  4.5392  11.183  11.118 
  1688.000 -51.746 -999.25  19.984  16.150 -44.620 -999.25  19.984  16.150  1.1467  1687.9  48.400  4.5459  11.191  11.128 
  1688.500 -51.743 -999.25  19.984  16.283 -44.613 -999.25  19.984  16.283  1.1475  1688.4  48.175  4.5526  11.198  11.138 
  1689.000 -51.573 -999.25  19.984  16.484 -44.438 -999.25  19.984  16.484  1.1484  1688.9  47.950  4.5593  11.206  11.148 
  1689.500 -51.403 -999.25  19.985  16.701 -44.264 -999.25  19.985  16.701  1.1492  1689.4  47.725  4.5660  11.213  11.158 
  1690.000 -50.899 -999.25  19.985  16.884 -43.756 -999.25  19.985  16.884  1.1500  1689.9  47.500  4.5728  11.221  11.168 
  1690.500 -48.896 -999.25  19.985  17.586 -41.748 -999.25  19.985  17.586  1.1509  1690.4  47.275  4.5796  11.228  11.178 
  1691.000 -48.059 -999.25  19.986  17.853 -40.907 -999.25  19.986  17.853  1.1517  1690.9  47.050  4.5865  11.235  11.188 
  1691.500 -47.556 -999.25  19.986  18.153 -40.399 -999.25  19.986  18.153  1.1525  1691.4  46.825  4.5933  11.243  11.198 
  1692.000 -47.220 -999.25  19.986  18.287 -40.059 -999.25  19.986  18.287  1.1534  1691.9  46.600  4.6003  11.250  11.208 
