~Version Information
VERS.                     2.0: CWLS log ASCII Standard Version 2.00
WRAP.                      NO: One line per depth step
~Well Information Block
#MNEM.UNIT                               Data Type  Information
#---------                               ---------  -----------
STRT.FT                                   360.0000:
STOP.FT                                  6850.0000:
STEP.FT                                     0.5000:
NULL.                 -999.25                     :
COMP.                                             :COMPANY            
WELL.     SAN EMIDIO A #17-20                     :WELL               
FLD .                                             :FIELD              
CTRY.                                             :COUNTRY            
STAT.                                             :STATE              
LOC .                                             :LOCATION           
UWI .                                             :UNIQUE WELL ID     
SRVC.                                             :Service company    
DATE.                                             :LOG DATE           
~Curve Information
#MNEM.UNIT           API CODE  Curve Description
#---------           --------  -----------------
DEPT.FT                      :   1 DEPTH
SP  .MV                      :   2
2Z18.OHMM                    :   3
31Z9.OHMM                    :   4
31Z1.OHMM                    :   5
SBL .MV                      :   6
RS  .OHMM                    :   7
RM  .OHMM                    :   8
RD  .OHMM                    :   9
DEVI.DEG                     :  10
TVD .FT                      :  11
AZIM.DEG                     :  12
NORT.FT                      :  13
EAST.FT                      :  14
OFFS.FT                      :  15
~A
# ...
  1237.500 -48.312  18.961  17.226  19.929 -35.116  18.961  17.226  19.929  1.0833  1237.5  77.125  2.9192  4.1820  5.0213 
  1238.000 -48.476  18.928  17.093  19.930 -35.286  18.928  17.093  19.930  1.0833  1238.0  77.100  2.9213  4.1912  5.0293 
  1238.500 -48.641  18.795  16.893  19.930 -35.457  18.795  16.893  19.930  1.0833  1238.5  77.075  2.9234  4.2004  5.0373 
  1239.000 -49.638  18.696  16.827  19.947 -36.460  18.696  16.827  19.947  1.0833  1239.0  77.050  2.9256  4.2097  5.0454 
  1239.500 -50.302  18.529  16.827  19.964 -37.130  18.529  16.827  19.964  1.0833  1239.5  77.025  2.9277  4.2189  5.0534 
  1240.000 -50.633  18.463  16.894  19.965 -37.467  18.463  16.894  19.965  1.0833  1240.0  77.000  2.9298  4.2281  5.0614 
  1240.500 -50.463  18.297  17.496  19.965 -37.303  18.297  17.496  19.965  1.0833  1240.5  76.975  2.9319  4.2373  5.0694 
  1241.000 -49.961  18.097  17.730  19.966 -36.807  18.097  17.730  19.966  1.0833  1241.0  76.950  2.9341  4.2465  5.0774 
  1241.500 -47.625  17.897  18.131  19.966 -34.477  17.897  18.131  19.966  1.0833  1241.5  76.925  2.9362  4.2557  5.0855 
  1242.000 -46.123  17.731  18.465  19.967 -32.981  17.731  18.465  19.967  1.0833  1242.0  76.900  2.9384  4.2649  5.0935 
  1242.500 -44.620  17.631  19.000  19.967 -31.484  17.631  19.000  19.967  1.0833  1242.5  76.875  2.9405  4.2741  5.1015 
  1243.000 -43.951  17.532  19.734  19.968 -30.821  17.532  19.734  19.968  1.0833  1243.0  76.850  2.9426  4.2833  5.1095 
  1243.500 -43.115  17.566  19.969  19.968 -29.991  17.566  19.969  19.968  1.0833  1243.5  76.825  2.9448  4.2925  5.1176 
  1244.000 -42.613  17.666  19.969  19.952 -29.495  17.666  19.969  19.952  1.0833  1244.0  76.800  2.9470  4.3017  5.1256 
  1244.500 -42.777  18.101  19.970  19.936 -29.665  18.101  19.970  19.936  1.0833  1244.5  76.775  2.9491  4.3109  5.1336 
  1245.000 -43.275  18.435  19.970  19.936 -30.169  18.435  19.970  19.936  1.0833  1245.0  76.750  2.9513  4.3201  5.1417 
  1245.500 -43.773  18.802  19.971  19.937 -30.673  18.802  19.971  19.937  1.0833  1245.5  76.725  2.9535  4.3293  5.1497 
  1246.000 -44.603  19.938  19.971  19.938 -31.509  19.938  19.971  19.938  1.0833  1246.0  76.700  2.9556  4.3385  5.1578 
  1246.500 -45.933  19.941  19.972  19.938 -32.845  19.941  19.972  19.938  1.0833  1246.5  76.675  2.9578  4.3477  5.1658 
  1247.000 -47.431 -999.25  19.972  19.939 -34.349 -999.25  19.972  19.939  1.0833  1247.0  76.650  2.9600  4.3569  5.1739 
  1247.500 -48.762 -999.25  19.973  19.939 -35.686 -999.25  19.973  19.939  1.0833  1247.5  76.625  2.9622  4.3661  5.1819 
  1248.000 -50.259 -999.25  19.973  19.939 -37.190 -999.25  19.973  19.939  1.0833  1248.0  76.600  2.9644  4.3753  5.1900 
  1248.500 -51.007 -999.25  19.973  19.940 -37.944 -999.25  19.973  19.940  1.0833  1248.5  76.575  2.9666  4.3845  5.1980 
  1249.000 -51.755 -999.25  19.974  19.940 -38.698 -999.25  19.974  19.940  1.0833  1249.0  76.550  2.9688  4.3937  5.2061 
  1249.500 -52.752 -999.25  19.975  19.941 -39.701 -999.25  19.975  19.941  1.0833  1249.5  76.525  2.9710  4.4029  5.2141 
  1250.000 -53.084 -999.25  19.975  19.942 -40.039 -999.25  19.975  19.942  1.0833  1250.0  76.500  2.9732  4.4121  5.2222 
  1250.500 -53.415 -999.25  19.976  19.942 -40.376 -999.25  19.976  19.942  1.0833  1250.5  76.475  2.9754  4.4213  5.2302 
  1251.000 -54.245 -999.25  19.976  19.943 -41.212 -999.25  19.976  19.943  1.0833  1251.0  76.450  2.9776  4.4305  5.2383 
  1251.500 -54.576 -999.25  19.977  19.943 -41.549 -999.25  19.977  19.943  1.0833  1251.5  76.425  2.9798  4.4397  5.2464 
  1252.000 -54.907 -999.25  19.977  19.944 -41.886 -999.25  19.977  19.944  1.0833  1252.0  76.400  2.9820  4.4489  5.2544 
  1252.500 -54.071 -999.25  19.978  19.944 -41.056 -999.25  19.978  19.944  1.0833  1252.5  76.375  2.9843  4.4580  5.2625 
  1253.000 -52.735 -999.25  19.978  19.945 -39.726 -999.25  19.978  19.945  1.0833  1253.0  76.350  2.9865  4.4672  5.2706 
  1253.500 -52.483 -999.25  19.979  19.945 -39.480 -999.25  19.979  19.945  1.0833  1253.5  76.325  2.9887  4.4764  5.2787 
  1254.000 -52.231 -999.25  19.979  19.946 -39.234 -999.25  19.979  19.946  1.0833  1254.0  76.300  2.9910  4.4856  5.2867 
  1254.500 -52.144 -999.25  19.980  19.946 -39.153 -999.25  19.980  19.946  1.0833  1254.5  76.275  2.9932  4.4948  5.2948 
  1255.000 -52.058 -999.25  19.980  19.963 -39.073 -999.25  19.980  19.963  1.0833  1255.0  76.250  2.9955  4.5040  5.3029 
  1255.500 -52.056 -999.25  19.981  19.980 -39.077 -999.25  19.981  19.980  1.0833  1255.5  76.225  2.9977  4.5131  5.3110 
  1256.000 -52.053 -999.25  19.981  19.981 -39.080 -999.25  19.981  19.981  1.0833  1256.0  76.200  3.0000  4.5223  5.3191 
  1256.500 -52.051 -999.25  19.982  19.982 -39.084 -999.25  19.982  19.982  1.0833  1256.5  76.175  3.0022  4.5315  5.3272 
  1257.000 -52.049 -999.25  19.982  19.982 -39.088 -999.25  19.982  19.982  1.0833  1257.0  76.150  3.0045  4.5407  5.3352 
  1257.500 -51.963 -999.25  19.983  19.983 -39.008 -999.25  19.983  19.983  1.0833  1257.5  76.125  3.0068  4.5499  5.3433 
  1258.000 -51.877 -999.25  19.983  19.983 -38.928 -999.25  19.983  19.983  1.0833  1258.0  76.100  3.0090  4.5590  5.3514 
  1258.500 -51.874 -999.25  19.983  19.984 -38.931 -999.25  19.983  19.984  1.0833  1258.5  76.075  3.0113  4.5682  5.3595 
  1259.000 -51.872 -999.25  19.984  19.984 -38.935 -999.25  19.984  19.984  1.0833  1259.0  76.050  3.0136  4.5774  5.3676 
  1259.500 -51.702 -999.25  19.984  19.985 -38.771 -999.25  19.984  19.985  1.0833  1259.5  76.025  3.0159  4.5866  5.3757 
  1260.000 -51.700 -999.25  19.985  19.985 -38.776 -999.25  19.985  19.985  1.0833  1260.0  76.000  3.0182  4.5957  5.3838 
  1260.500 -51.531 -999.25  19.986  19.986 -38.613 -999.25  19.986  19.986  1.0833  1260.5  75.975  3.0204  4.6049  5.3919 
  1261.000 -51.195 -999.25  19.986  19.986 -38.283 -999.25  19.986  19.986  1.0833  1261.0  75.950  3.0227  4.6141  5.4000 
  1261.500 -50.692 -999.25  19.986  19.987 -37.786 -999.25  19.986  19.987  1.0833  1261.5  75.925  3.0250  4.6232  5.4082 
  1262.000 -50.190 -999.25  19.954  19.987 -37.290 -999.25  19.954  19.987  1.0833  1262.0  75.900  3.0273  4.6324  5.4163 
  1262.500 -49.854 -999.25  19.954  19.988 -36.960 -999.25  19.954  19.988  1.0833  1262.5  75.875  3.0297  4.6416  5.4244 
  1263.000 -49.685 -999.25  19.955  19.988 -36.797 -999.25  19.955  19.988  1.0833  1263.0  75.850  3.0320  4.6507  5.4325 
  1263.500 -49.516  19.989  19.955  19.989 -36.634  19.989  19.955  19.989  1.0833  1263.5  75.825  3.0343  4.6599  5.4406 
  1264.000 -49.347  19.856  19.956  19.989 -36.471  19.856  19.956  19.989  1.0833  1264.0  75.800  3.0366  4.6691  5.4487 
  1264.500 -48.844  19.589  19.956  19.990 -35.974  19.589  19.956  19.990  1.0833  1264.5  75.775  3.0389  4.6782  5.4569 
  1265.000 -48.175  19.122  19.923  19.990 -35.311  19.122  19.923  19.990  1.0833  1265.0  75.750  3.0412  4.6874  5.4650 
  1265.500 -46.672  18.489  19.924  19.991 -33.814  18.489  19.924  19.991  1.0833  1265.5  75.725  3.0436  4.6966  5.4731 
  1266.000 -44.836  17.121  19.924  19.991 -31.984  17.121  19.924  19.991  1.0833  1266.0  75.700  3.0459  4.7057  5.4812 
  1266.500 -43.167  16.053  19.925  19.992 -30.321  16.053  19.925  19.992  1.0833  1266.5  75.675  3.0483  4.7149  5.4894 
  1267.000 -42.498  15.687  19.925  19.992 -29.658  15.687  19.925  19.992  1.0833  1267.0  75.650  3.0506  4.7240  5.4975 
  1267.500 -38.495  15.253  19.926  19.993 -25.661  15.253  19.926  19.993  1.0833  1267.5  75.625  3.0529  4.7332  5.5056 
  1268.000 -34.493  13.185  19.926  19.993 -21.665  13.185  19.926  19.993  1.0833  1268.0  75.600  3.0553  4.7423  5.5138 
  1268.500 -31.324  10.715  19.927  19.977 -18.502  10.715  19.927  19.977  1.0833  1268.5  75.575  3.0576  4.7515  5.5219 
  1269.000 -27.988  9.9820  19.927  19.961 -15.172  9.9820  19.927  19.961  1.0833  1269.0  75.550  3.0600  4.7607  5.5300 
  1269.500 -27.820  9.6820  19.861  17.191 -15.010  9.6820  19.861  17.191  1.0833  1269.5  75.525  3.0624  4.7698  5.5382 
