~Version Information
VERS.                     2.0: CWLS log ASCII Standard Version 2.00
WRAP.                      NO: One line per depth step
~Well Information Block
#MNEM.UNIT                               Data Type  Information
#---------                               ---------  -----------
STRT.FT                                   360.0000:
STOP.FT                                  6850.0000:
STEP.FT                                     0.5000:
NULL.                 -999.25                     :
COMP.                                             :COMPANY            
WELL.     SAN EMIDIO A #17-20                     :WELL               
FLD .                                             :FIELD              
CTRY.                                             :COUNTRY            
STAT.                                             :STATE              
LOC .                                             :LOCATION           
UWI .                                             :UNIQUE WELL ID     
SRVC.                                             :Service company    
DATE.                                             :LOG DATE           
~Curve Information
#MNEM.UNIT           API CODE  Curve Description
#---------           --------  -----------------
DEPT.FT                      :   1 DEPTH
SP  .MV                      :   2
2Z18.OHMM                    :   3
31Z9.OHMM                    :   4
31Z1.OHMM                    :   5
SBL .MV                      :   6
RS  .OHMM                    :   7
RM  .OHMM                    :   8
RD  .OHMM                    :   9
DEVI.DEG                     :  10
TVD .FT                      :  11
AZIM.DEG                     :  12
NORT.FT                      :  13
EAST.FT                      :  14
OFFS.FT                      :  15
~A
# ...
  3805.000 -41.917  9.0090  5.2020  5.6200 -36.189  9.0090  5.2020  5.6200  0.4417  3804.6  5.5017  34.944  28.373  44.772 
  3805.500 -42.000  9.0420  5.2690  5.6200 -36.271  9.0420  5.2690  5.6200  0.4442  3805.1  5.6517  34.948  28.373  44.775 
  3806.000 -41.167  9.0420  5.3360  5.5860 -35.437  9.0420  5.3360  5.5860  0.4467  3805.6  5.8017  34.952  28.373  44.778 
  3806.500 -39.667  8.9750  5.5030  5.5860 -33.936  8.9750  5.5030  5.5860  0.4492  3806.1  5.9517  34.956  28.374  44.781 
  3807.000 -36.000  8.9080  5.6030  5.5860 -30.267  8.9080  5.6030  5.5860  0.4517  3806.6  6.1017  34.960  28.374  44.784 
  3807.500 -32.667  8.7750  5.7700  5.5860 -26.933  8.7750  5.7700  5.5860  0.4542  3807.1  6.2517  34.964  28.375  44.787 
  3808.000 -30.500  8.6410  5.7700  5.5190 -24.765  8.6410  5.7700  5.5190  0.4567  3807.6  6.4017  34.968  28.375  44.790 
  3808.500 -28.500  7.9400  5.7700  5.5190 -22.764  7.9400  5.7700  5.5190  0.4592  3808.1  6.5517  34.972  28.376  44.793 
  3809.000 -27.667  7.3730  5.7370  5.5200 -21.930  7.3730  5.7370  5.5200  0.4617  3808.6  6.7017  34.976  28.376  44.797 
  3809.500 -24.500  6.9390  5.6360  5.3190 -18.762  6.9390  5.6360  5.3190  0.4642  3809.1  6.8517  34.980  28.377  44.800 
  3810.000 -17.500  6.3710  5.5700  5.1860 -11.761  6.3710  5.5700  5.1860  0.4667  3809.6  7.0017  34.984  28.377  44.803 
  3810.500 -16.167  6.0370  5.5030  4.9520 -10.426  6.0370  5.5030  4.9520  0.4692  3810.1  7.1517  34.988  28.378  44.806 
  3811.000 -15.500  5.5360  5.2690  4.7180 -9.7583  5.5360  5.2690  4.7180  0.4717  3810.6  7.3017  34.992  28.378  44.809 
  3811.500 -19.833  5.4030  5.0690  4.4180 -14.090  5.4030  5.0690  4.4180  0.4742  3811.1  7.4517  34.996  28.379  44.813 
  3812.000 -24.000  5.3690  4.8690  4.0840 -18.256  5.3690  4.8690  4.0840  0.4767  3811.6  7.6017  35.000  28.379  44.816 
  3812.500 -26.500  5.5700  4.9690  4.0840 -20.755  5.5700  4.9690  4.0840  0.4792  3812.1  7.7517  35.005  28.380  44.819 
  3813.000 -29.667  5.7030  5.0690  4.1510 -23.921  5.7030  5.0690  4.1510  0.4817  3812.6  7.9017  35.009  28.380  44.823 
  3813.500 -33.333  6.0710  5.2360  4.2840 -27.586  6.0710  5.2360  4.2840  0.4842  3813.1  8.0517  35.013  28.381  44.826 
  3814.000 -35.667  6.8720  5.4030  4.4180 -29.918  6.8720  5.4030  4.4180  0.4867  3813.6  8.2017  35.017  28.381  44.830 
  3814.500 -36.333  7.2730  5.7700  4.7850 -30.583  7.2730  5.7700  4.7850  0.4892  3814.1  8.3517  35.021  28.382  44.833 
  3815.000 -36.667  7.6730  6.2040  5.0520 -30.916  7.6730  6.2040  5.0520  0.4917  3814.6  8.5017  35.026  28.383  44.836 
  3815.500 -36.583  8.2410  6.3710  5.2530 -30.831  8.2410  6.3710  5.2530  0.4942  3815.1  8.6517  35.030  28.383  44.840 
  3816.000 -36.500  8.3910  6.5210  5.4200 -30.747  8.3910  6.5210  5.4200  0.4967  3815.6  8.8017  35.034  28.384  44.843 
  3816.500 -36.167  8.5410  6.6720  5.4860 -30.413  8.5410  6.6720  5.4860  0.4992  3816.1  8.9517  35.038  28.385  44.847 
  3817.000 -35.750  8.5080  6.7050  5.4860 -29.995  8.5080  6.7050  5.4860  0.5017  3816.6  9.1017  35.043  28.385  44.850 
  3817.500 -35.333  8.2080  6.7380  5.4860 -29.576  8.2080  6.7380  5.4860  0.5042  3817.1  9.2517  35.047  28.386  44.854 
  3818.000 -32.833  8.0410  6.7050  5.4530 -27.075  8.0410  6.7050  5.4530  0.5067  3817.6  9.4017  35.051  28.387  44.858 
  3818.500 -30.333  7.6730  6.6720  5.4200 -24.574  7.6730  6.6720  5.4200  0.5092  3818.1  9.5517  35.056  28.388  44.861 
  3819.000 -29.500  7.3730  6.4710  5.4200 -23.740  7.3730  6.4710  5.4200  0.5117  3818.6  9.7017  35.060  28.388  44.865 
  3819.500 -29.667  7.3060  6.2380  5.4200 -23.906  7.3060  6.2380  5.4200  0.5142  3819.1  9.8517  35.065  28.389  44.869 
  3820.000 -30.750  7.2390  6.0370  5.4200 -24.988  7.2390  6.0370  5.4200  0.5167  3819.6  10.002  35.069  28.390  44.872 
  3820.500 -31.833  7.3400  5.8700  5.4200 -26.070  7.3400  5.8700  5.4200  0.5192  3820.1  10.152  35.074  28.391  44.876 
  3821.000 -37.167  7.5400  5.7700  5.4530 -31.402  7.5400  5.7700  5.4530  0.5217  3820.6  10.302  35.078  28.391  44.880 
  3821.500 -39.833  7.8400  5.6700  5.4870 -34.067  7.8400  5.6700  5.4870  0.5242  3821.1  10.452  35.083  28.392  44.883 
  3822.000 -43.000  8.3080  5.5370  5.6200 -37.233  8.3080  5.5370  5.6200  0.5267  3821.6  10.602  35.087  28.393  44.887 
  3822.500 -45.000  8.6080  5.5370  5.7040 -39.232  8.6080  5.5370  5.7040  0.5292  3822.1  10.752  35.092  28.394  44.891 
  3823.000 -45.833  9.7770  6.0370  5.7870 -40.064  9.7770  6.0370  5.7870  0.5317  3822.6  10.902  35.096  28.395  44.895 
  3823.500 -46.667  10.345  6.2710  5.9870 -40.897  10.345  6.2710  5.9870  0.5342  3823.1  11.052  35.101  28.396  44.899 
  3824.000 -44.000  10.345  6.6720  6.1880 -38.229  10.345  6.6720  6.1880  0.5367  3823.6  11.202  35.105  28.397  44.903 
  3824.500 -40.000  10.328  6.9720  6.3210 -34.227  10.328  6.9720  6.3210  0.5392  3824.1  11.352  35.110  28.398  44.907 
  3825.000 -36.667  10.311  7.0730  6.3550 -30.893  10.311  7.0730  6.3550  0.5417  3824.6  11.502  35.115  28.399  44.911 
  3825.500 -34.167  10.211  7.2060  6.3550 -28.392  10.211  7.2060  6.3550  0.5442  3825.1  11.652  35.119  28.400  44.915 
  3826.000 -32.000  10.111  7.2060  6.3550 -26.224  10.111  7.2060  6.3550  0.5467  3825.6  11.802  35.124  28.401  44.919 
  3826.500 -29.667  9.5770  7.2060  6.3550 -23.890  9.5770  7.2060  6.3550  0.5492  3826.1  11.952  35.129  28.402  44.923 
  3827.000 -24.667  8.2750  7.2060  6.2880 -18.889  8.2750  7.2060  6.2880  0.5517  3826.6  12.102  35.133  28.403  44.927 
  3827.500 -23.167  7.5070  7.1730  6.2550 -17.388  7.5070  7.1730  6.2550  0.5542  3827.1  12.252  35.138  28.404  44.931 
  3828.000 -20.167  5.9040  7.0390  6.0540 -14.386  5.9040  7.0390  6.0540  0.5567  3827.6  12.402  35.143  28.405  44.935 
  3828.500 -19.000  5.1030  6.9060  5.9210 -13.218  5.1030  6.9060  5.9210  0.5592  3828.1  12.552  35.147  28.406  44.939 
  3829.000 -12.333  4.4350  6.3050  5.4870 -6.5501  4.4350  6.3050  5.4870  0.5617  3828.6  12.702  35.152  28.407  44.943 
  3829.500 -11.000  4.1680  5.4030  5.1860 -5.2160  4.1680  5.4030  5.1860  0.5642  3829.1  12.852  35.157  28.408  44.947 
  3830.000 -10.333  4.0340  4.8690  4.7860 -4.5479  4.0340  4.8690  4.7860  0.5667  3829.6  13.002  35.162  28.409  44.951 
  3830.500 -10.167  4.0010  4.5690  4.6850 -4.3807  4.0010  4.5690  4.6850  0.5692  3830.1  13.152  35.167  28.410  44.956 
  3831.000 -10.000  3.9680  4.3680  4.5850 -4.2126  3.9680  4.3680  4.5850  0.5717  3830.6  13.302  35.172  28.411  44.960 
  3831.500 -9.8330  3.9680  4.2680  4.5190 -4.0444  3.9680  4.2680  4.5190  0.5742  3831.1  13.452  35.176  28.412  44.964 
  3832.000 -10.333  4.0680  4.3020  4.4520 -4.5433  4.0680  4.3020  4.4520  0.5767  3831.6  13.602  35.181  28.414  44.968 
  3832.500 -11.500  4.1680  4.3350  4.4520 -5.7091  4.1680  4.3350  4.4520  0.5792  3832.1  13.752  35.186  28.415  44.973 
  3833.000 -13.167  4.3680  4.6350  4.7520 -7.3750  4.3680  4.6350  4.7520  0.5817  3832.6  13.902  35.191  28.416  44.977 
  3833.500 -14.500  4.5690  5.0360  4.9360 -8.7069  4.5690  5.0360  4.9360  0.5842  3833.1  14.052  35.196  28.417  44.981 
  3834.000 -16.833  5.2370  5.2030  5.1200 -11.039  5.2370  5.2030  5.1200  0.5867  3833.6  14.202  35.201  28.418  44.986 
  3834.500 -21.333  5.7040  5.3700  5.3370 -15.538  5.7040  5.3700  5.3370  0.5892  3834.1  14.352  35.206  28.420  44.990 
  3835.000 -23.667  6.2720  5.6710  5.5540 -17.870  6.2720  5.6710  5.5540  0.5917  3834.6  14.502  35.211  28.421  44.995 
  3835.500 -25.667  6.9060  5.9710  5.9540 -19.869  6.9060  5.9710  5.9540  0.5942  3835.1  14.652  35.216  28.422  44.999 
  3836.000 -27.500  7.2730  6.7720  6.3550 -21.701  7.2730  6.7720  6.3550  0.5967  3835.6  14.802  35.221  28.424  45.004 
  3836.500 -28.667  7.8080  7.0730  6.7560 -22.867  7.8080  7.0730  6.7560  0.5992  3836.1  14.952  35.226  28.425  45.008 
  3837.000 -29.833  8.3750  7.5400  7.2230 -24.032  8.3750  7.5400  7.2230  0.6017  3836.6  15.102  35.231  28.426  45.013 
