~Version Information
VERS.                     2.0: CWLS log ASCII Standard Version 2.00
WRAP.                      NO: One line per depth step
~Well Information Block
#MNEM.UNIT                               Data Type  Information
#---------                               ---------  -----------
STRT.FT                                   360.0000:
STOP.FT                                  6850.0000:
STEP.FT                                     0.5000:
NULL.                 -999.25                     :
COMP.                                             :COMPANY            
WELL.     SAN EMIDIO A #17-20                     :WELL               
FLD .                                             :FIELD              
CTRY.                                             :COUNTRY            
STAT.                                             :STATE              
LOC .                                             :LOCATION           
UWI .                                             :UNIQUE WELL ID     
SRVC.                                             :Service company    
DATE.                                             :LOG DATE           
~Curve Information
#MNEM.UNIT           API CODE  Curve Description
#---------           --------  -----------------
DEPT.FT                      :   1 DEPTH
SP  .MV                      :   2
2Z18.OHMM                    :   3
31Z9.OHMM                    :   4
31Z1.OHMM                    :   5
SBL .MV                      :   6
RS  .OHMM                    :   7
RM  .OHMM                    :   8
RD  .OHMM                    :   9
DEVI.DEG                     :  10
TVD .FT                      :  11
AZIM.DEG                     :  12
NORT.FT                      :  13
EAST.FT                      :  14
OFFS.FT                      :  15
~A
# ...
  5105.000 -43.833  2.6100  2.0100  2.1920 -42.508  2.6100  2.0100  2.1920  1.8000  5104.4  78.302  49.356  43.004  65.308 
  5105.500 -44.501  2.6610  2.0280  2.2420 -43.177  2.6610  2.0280  2.2420  1.7967  5104.9  78.332  49.359  43.020  65.322 
  5106.000 -45.001  2.7120  2.0450  2.3100 -43.678  2.7120  2.0450  2.3100  1.7933  5105.4  78.362  49.362  43.035  65.335 
  5106.500 -45.668  2.7800  2.0630  2.3440 -44.346  2.7800  2.0630  2.3440  1.7900  5105.9  78.392  49.365  43.050  65.348 
  5107.000 -46.168  2.8140  2.0800  2.3780 -44.846  2.8140  2.0800  2.3780  1.7867  5106.4  78.422  49.368  43.066  65.361 
  5107.500 -46.836  2.8650  2.0980  2.3950 -45.515  2.8650  2.0980  2.3950  1.7833  5106.9  78.452  49.371  43.081  65.374 
  5108.000 -48.174  2.9160  2.1150  2.4130 -46.854  2.9160  2.1150  2.4130  1.7800  5107.4  78.482  49.374  43.096  65.387 
  5108.500 -49.010  3.0330  2.1490  2.4130 -47.691  3.0330  2.1490  2.4130  1.7767  5107.9  78.512  49.378  43.111  65.399 
  5109.000 -49.846  3.1510  2.1830  2.4140 -48.527  3.1510  2.1830  2.4140  1.7733  5108.4  78.542  49.381  43.126  65.412 
  5109.500 -51.521  3.3850  2.2180  2.4650 -50.203  3.3850  2.2180  2.4650  1.7700  5108.9  78.572  49.384  43.142  65.425 
  5110.000 -52.691  3.5860  2.2190  2.5160 -51.374  3.5860  2.2190  2.5160  1.7667  5109.4  78.602  49.387  43.157  65.438 
  5110.500 -54.869  3.6540  2.2190  2.5500 -53.553  3.6540  2.2190  2.5500  1.7633  5109.9  78.632  49.390  43.172  65.451 
  5111.000 -56.878  4.1220  2.1870  2.5500 -55.562  4.1220  2.1870  2.5500  1.7600  5110.4  78.662  49.393  43.187  65.464 
  5111.500 -59.559  4.1730  2.1540  2.5510 -58.244  4.1730  2.1540  2.5510  1.7567  5110.9  78.692  49.396  43.202  65.476 
  5112.000 -66.769  4.2230  2.0890  2.5510 -65.455  4.2230  2.0890  2.5510  1.7533  5111.4  78.722  49.399  43.217  65.489 
  5112.500 -73.308  4.3580  2.0890  2.5520 -71.994  4.3580  2.0890  2.5520  1.7500  5111.9  78.752  49.402  43.232  65.502 
  5113.000 -76.492  4.4260  2.0570  2.5200 -75.179  4.4260  2.0570  2.5200  1.7467  5112.4  78.782  49.405  43.247  65.515 
  5113.500 -79.844  4.4930  2.0410  2.5200 -78.532  4.4930  2.0410  2.5200  1.7433  5112.9  78.812  49.408  43.262  65.527 
  5114.000 -80.176  4.5610  2.0250  2.5210 -78.865  4.5610  2.0250  2.5210  1.7400  5113.4  78.842  49.411  43.277  65.540 
  5114.500 -80.508  4.6780  1.9930  2.5220 -79.197  4.6780  1.9930  2.5220  1.7367  5113.9  78.872  49.414  43.291  65.552 
  5115.000 -80.840  4.7960  1.9930  2.5220 -79.530  4.7960  1.9930  2.5220  1.7333  5114.4  78.902  49.416  43.306  65.565 
  5115.500 -82.011  4.9640  1.9940  2.5390 -80.702  4.9640  1.9940  2.5390  1.7300  5114.9  78.932  49.419  43.321  65.577 
  5116.000 -83.014  4.9640  1.9950  2.5570 -81.706  4.9640  1.9950  2.5570  1.7267  5115.4  78.962  49.422  43.336  65.590 
  5116.500 -84.185  4.9650  1.9960  2.5910 -82.877  4.9650  1.9960  2.5910  1.7233  5115.9  78.992  49.425  43.351  65.602 
  5117.000 -84.182  5.0660  1.9970  2.6250 -82.875  5.0660  1.9970  2.6250  1.7200  5116.4  79.022  49.428  43.365  65.615 
  5117.500 -83.843  5.1670  2.0140  2.6090 -82.537  5.1670  2.0140  2.6090  1.7167  5116.9  79.052  49.431  43.380  65.627 
  5118.000 -82.833  5.2350  2.0320  2.5930 -81.528  5.2350  2.0320  2.5930  1.7133  5117.4  79.082  49.434  43.395  65.640 
  5118.500 -80.314  5.3020  2.1320  2.6270 -79.009  5.3020  2.1320  2.6270  1.7100  5117.9  79.112  49.436  43.409  65.652 
  5119.000 -79.136  5.2700  2.2330  2.6280 -77.832  5.2700  2.2330  2.6280  1.7067  5118.4  79.142  49.439  43.424  65.664 
  5119.500 -77.623  5.0700  2.4010  2.7950 -76.320  5.0700  2.4010  2.7950  1.7033  5118.9  79.172  49.442  43.439  65.677 
  5120.000 -69.734  3.2360  2.6020  2.9290 -68.431  3.2360  2.6020  2.9290  1.7000  5119.4  79.202  49.445  43.453  65.689 
  5120.500 -63.692  3.1030  2.7370  3.1300 -62.390  3.1030  2.7370  3.1300  1.6967  5119.9  79.232  49.448  43.468  65.701 
  5121.000 -59.831  2.9040  2.8040  3.2640 -58.530  2.9040  2.8040  3.2640  1.6933  5120.4  79.262  49.450  43.482  65.713 
  5121.500 -50.768  2.9380  2.8380  3.3650 -49.468  2.9380  2.8380  3.3650  1.6900  5120.9  79.292  49.453  43.497  65.725 
  5122.000 -47.745  2.9730  2.7390  3.3990 -46.445  2.9730  2.7390  3.3990  1.6867  5121.4  79.322  49.456  43.511  65.738 
  5122.500 -36.671  2.9730  2.5060  3.3660 -35.372  2.9730  2.5060  3.3660  1.6833  5121.9  79.352  49.459  43.526  65.750 
  5123.000 -29.789  2.9410  2.3740  3.2500 -28.491  2.9410  2.3740  3.2500  1.6800  5122.4  79.382  49.461  43.540  65.762 
  5123.500 -27.940  2.9080  2.1740  3.1340 -26.643  2.9080  2.1740  3.1340  1.6767  5122.9  79.412  49.464  43.554  65.774 
  5124.000 -24.582  2.8760  2.0420  2.7340 -23.285  2.8760  2.0420  2.7340  1.6733  5123.4  79.442  49.467  43.569  65.786 
  5124.500 -22.566  2.6760  1.7760  2.3680 -21.270  2.6760  1.7760  2.3680  1.6700  5123.9  79.472  49.469  43.583  65.798 
  5125.000 -21.388  2.6270  1.7430  2.2850 -20.093  2.6270  1.7430  2.2850  1.6667  5124.4  79.502  49.472  43.597  65.810 
  5125.500 -21.217  2.5780  1.7100  2.2020 -19.922  2.5780  1.7100  2.2020  1.6634  5124.9  79.532  49.475  43.612  65.822 
  5126.000 -21.130  2.5120  1.6780  2.1030 -19.836  2.5120  1.6780  2.1030  1.6600  5125.4  79.562  49.477  43.626  65.834 
  5126.500 -21.044  2.4460  1.6450  2.0870 -19.751  2.4460  1.6450  2.0870  1.6567  5125.9  79.592  49.480  43.640  65.846 
  5127.000 -21.207  2.3800  1.7130  2.0710 -19.915  2.3800  1.7130  2.0710  1.6534  5126.4  79.622  49.482  43.654  65.858 
  5127.500 -21.204  2.2810  1.7140  2.0390 -19.912  2.2810  1.7140  2.0390  1.6500  5126.9  79.652  49.485  43.669  65.869 
  5128.000 -21.200  2.2820  1.7820  2.0220 -19.909  2.2820  1.7820  2.0220  1.6467  5127.4  79.682  49.488  43.683  65.881 
  5128.500 -21.198  2.2830  1.8490  2.0060 -19.908  2.2830  1.8490  2.0060  1.6434  5127.9  79.712  49.490  43.697  65.893 
  5129.000 -21.195  2.2500  1.9170  2.0070 -19.906  2.2500  1.9170  2.0070  1.6400  5128.4  79.742  49.493  43.711  65.905 
  5129.500 -20.855  2.2510  1.9840  2.0080 -19.566  2.2510  1.9840  2.0080  1.6367  5128.9  79.772  49.495  43.725  65.917 
  5130.000 -20.348  2.2520  2.1190  2.0090 -19.060  2.2520  2.1190  2.0090  1.6334  5129.4  79.802  49.498  43.739  65.928 
  5130.500 -19.842  2.2530  2.3860  2.0090 -18.555  2.2530  2.3860  2.0090  1.6300  5129.9  79.832  49.500  43.753  65.940 
  5131.000 -19.167  2.2540  2.6540  2.0430 -17.881  2.2540  2.6540  2.0430  1.6267  5130.4  79.862  49.503  43.767  65.952 
  5131.500 -18.829  2.2540  2.7550  2.0610 -17.543  2.2540  2.7550  2.0610  1.6234  5130.9  79.892  49.505  43.781  65.963 
  5132.000 -18.657  2.2550  2.7890  2.0780 -17.372  2.2550  2.7890  2.0780  1.6200  5131.4  79.922  49.508  43.795  65.975 
  5132.500 -18.486  2.2390  2.7570  2.0790 -17.202  2.2390  2.7570  2.0790  1.6167  5131.9  79.952  49.510  43.809  65.986 
  5133.000 -17.812  2.2240  2.7070  2.0790 -16.528  2.2240  2.7070  2.0790  1.6134  5132.4  79.982  49.513  43.823  65.998 
  5133.500 -17.138  2.1910  2.6580  2.0800 -15.855  2.1910  2.6580  2.0800  1.6100  5132.9  80.012  49.515  43.836  66.009 
  5134.000 -16.631  2.1920  2.6250  2.1140 -15.349  2.1920  2.6250  2.1140  1.6067  5133.4  80.042  49.517  43.850  66.021 
  5134.500 -16.459  2.1920  2.5930  2.1310 -15.178  2.1920  2.5930  2.1310  1.6034  5133.9  80.072  49.520  43.864  66.032 
  5135.000 -16.792  2.1600  2.5600  2.1480 -15.511  2.1600  2.5600  2.1480  1.6000  5134.4  80.102  49.522  43.878  66.044 
  5135.500 -17.126  2.1270  2.5280  2.1990 -15.846  2.1270  2.5280  2.1990  1.5967  5134.9  80.132  49.525  43.891  66.055 
  5136.000 -18.127  2.1120  2.4790  2.2500 -16.848  2.1120  2.4790  2.2500  1.5934  5135.4  80.162  49.527  43.905  66.067 
  5136.500 -17.452  2.0960  2.4290  2.3010 -16.174  2.0960  2.4290  2.3010  1.5900  5135.9  80.192  49.529  43.919  66.078 
  5137.000 -17.114  2.0640  2.4130  2.3510 -15.836  2.0640  2.4130  2.3510  1.5867  5136.4  80.222  49.532  43.932  66.089 
