~Version Information
VERS.                     2.0: CWLS log ASCII Standard Version 2.00
WRAP.                      NO: One line per depth step
~Well Information Block
#MNEM.UNIT                               Data Type  Information
#---------                               ---------  -----------
STRT.FT                                   360.0000:
STOP.FT                                  6850.0000:
STEP.FT                                     0.5000:
NULL.                 -999.25                     :
COMP.                                             :COMPANY            
WELL.     SAN EMIDIO A #17-20                     :WELL               
FLD .                                             :FIELD              
CTRY.                                             :COUNTRY            
STAT.                                             :STATE              
LOC .                                             :LOCATION           
UWI .                                             :UNIQUE WELL ID     
SRVC.                                             :Service company    
DATE.                                             :LOG DATE           
~Curve Information
#MNEM.UNIT           API CODE  Curve Description
#---------           --------  -----------------
DEPT.FT                      :   1 DEPTH
SP  .MV                      :   2
2Z18.OHMM                    :   3
31Z9.OHMM                    :   4
31Z1.OHMM                    :   5
SBL .MV                      :   6
RS  .OHMM                    :   7
RM  .OHMM                    :   8
RD  .OHMM                    :   9
DEVI.DEG                     :  10
TVD .FT                      :  11
AZIM.DEG                     :  12
NORT.FT                      :  13
EAST.FT                      :  14
OFFS.FT                      :  15
~A
# ...
  6827.500 -86.595  4.7070  3.2350  2.9110 -81.595  4.7070  3.2350  2.9110  5.0000  6823.0  191.45 -25.854  52.726  19.001 
  6828.000 -86.098  4.7900  3.2170  2.9280 -81.098  4.7900  3.2170  2.9280  5.0000  6823.5  191.47 -25.897  52.718  18.965 
  6828.500 -85.183  4.8400  3.1830  2.9450 -80.183  4.8400  3.1830  2.9450  5.0000  6824.0  191.49 -25.940  52.709  18.929 
  6829.000 -84.268  4.8890  3.1830  3.0450 -79.268  4.8890  3.1830  3.0450  5.0000  6824.5  191.51 -25.982  52.700  18.892 
  6829.500 -82.602  4.8890  3.2160  3.0780 -77.602  4.8890  3.2160  3.0780  5.0000  6825.0  191.54 -26.025  52.692  18.856 
  6830.000 -81.604  4.8880  3.2490  3.1450 -76.604  4.8880  3.2490  3.1450  5.0000  6825.5  191.56 -26.068  52.683  18.820 
  6830.500 -80.938  4.8880  3.2820  3.1780 -75.938  4.8880  3.2820  3.1780  5.0000  6826.0  191.58 -26.110  52.674  18.783 
  6831.000 -80.274  4.9040  3.3150  3.1790 -75.274  4.9040  3.3150  3.1790  5.0000  6826.5  191.60 -26.153  52.665  18.747 
  6831.500 -79.108  4.9200  3.3480  3.1790 -74.108  4.9200  3.3480  3.1790  5.0000  6827.0  191.62 -26.196  52.657  18.711 
  6832.000 -77.943  4.9200  3.4470  3.1120 -72.943  4.9200  3.4470  3.1120  5.0000  6827.5  191.65 -26.238  52.648  18.674 
  6832.500 -76.777  4.9200  3.4470  3.0450 -71.777  4.9200  3.4470  3.0450  5.0000  6828.0  191.67 -26.281  52.639  18.638 
  6833.000 -74.608  4.9520  3.4350  2.9950 -69.608  4.9520  3.4350  2.9950  5.0000  6828.5  191.69 -26.324  52.630  18.601 
  6833.500 -73.608  4.9520  3.4240  2.9450 -68.608  4.9520  3.4240  2.9450  5.0000  6829.0  191.71 -26.367  52.621  18.565 
  6834.000 -72.608  4.9510  3.4120  2.8440 -67.608  4.9510  3.4120  2.8440  5.0000  6829.5  191.73 -26.409  52.612  18.528 
  6834.500 -69.436  4.9500  3.3450  2.7940 -64.436  4.9500  3.3450  2.7940  5.0000  6830.0  191.76 -26.452  52.603  18.492 
  6835.000 -66.598  4.9500  3.2940  2.7440 -61.598  4.9500  3.2940  2.7440  5.0000  6830.5  191.78 -26.494  52.595  18.456 
  6835.500 -64.261  4.9830  3.2430  2.7100 -59.261  4.9830  3.2430  2.7100  5.0000  6831.0  191.80 -26.537  52.586  18.419 
  6836.000 -62.090  5.0160  3.1760  2.6770 -57.090  5.0160  3.1760  2.6770  5.0000  6831.5  191.82 -26.580  52.577  18.383 
  6836.500 -60.255  5.0820  3.1090  2.5760 -55.255  5.0820  3.1090  2.5760  5.0000  6832.0  191.85 -26.622  52.568  18.346 
  6837.000 -61.264  5.1490  3.0080  2.5430 -56.264  5.1490  3.0080  2.5430  5.0000  6832.5  191.87 -26.665  52.559  18.310 
  6837.500 -64.280  5.2150  2.9730  2.5760 -59.280  5.2150  2.9730  2.5760  5.0000  6833.0  191.89 -26.708  52.550  18.273 
  6838.000 -66.794  5.4150  2.9060  2.6100 -61.794  5.4150  2.9060  2.6100  5.0000  6833.5  191.91 -26.750  52.541  18.237 
  6838.500 -69.476  5.6160  2.8890  2.6260 -64.476  5.6160  2.8890  2.6260  5.0000  6834.0  191.93 -26.793  52.532  18.200 
  6839.000 -74.333  5.7820  2.8720  2.6430 -69.333  5.7820  2.8720  2.6430  5.0000  6834.5  191.96 -26.836  52.523  18.164 
  6839.500 -78.520  5.9160  2.8710  2.6760 -73.520  5.9160  2.8710  2.6760  5.0000  6835.0  191.98 -26.878  52.514  18.127 
  6840.000 -81.704  5.9820  2.8710  2.6930 -76.704  5.9820  2.8710  2.6930  5.0000  6835.5  192.00 -26.921  52.505  18.090 
  6840.500 -83.047  6.0490  2.8700  2.7100 -78.047  6.0490  2.8700  2.7100  5.0000  6836.0  192.00 -26.964  52.496  18.054 
  6841.000 -83.889  6.0650  2.8700  2.7270 -78.889  6.0650  2.8700  2.7270  5.0000  6836.5  192.00 -27.006  52.487  18.017 
  6841.500 -84.730  6.0810  2.8690  2.7440 -79.730  6.0810  2.8690  2.7440  5.0000  6837.0  192.00 -27.049  52.478  17.981 
  6842.000 -85.572  6.0810  2.8690  2.7440 -80.572  6.0810  2.8690  2.7440  5.0000  6837.5  192.00 -27.091  52.468  17.944 
  6842.500 -85.911  6.0810  2.8680  2.7440 -80.911  6.0810  2.8680  2.7440  5.0000  6838.0  192.00 -27.134  52.459  17.908 
  6843.000 -86.083  6.1130  2.8680  2.7270 -81.083  6.1130  2.8680  2.7270  5.0000  6838.5  192.00 -27.177  52.450  17.871 
  6843.500 -86.255  6.1290  2.8670  2.7100 -81.255  6.1290  2.8670  2.7100  5.0000  6839.0  192.00 -27.219  52.441  17.835 
  6844.000 -86.260  6.1460  2.8830  2.6940 -81.260  6.1460  2.8830  2.6940  5.0000  6839.5  192.00 -27.262  52.432  17.798 
  6844.500 -86.264  6.1450  2.9000  2.6770 -81.264  6.1450  2.9000  2.6770  5.0000  6840.0  192.00 -27.305  52.423  17.762 
  6845.000 -86.268  6.1450  2.8990  2.6760 -81.268  6.1450  2.8990  2.6760  5.0000  6840.5  192.00 -27.347  52.414  17.725 
  6845.500 -86.357  6.1440  2.8990  2.7100 -81.357  6.1440  2.8990  2.7100  5.0000  6841.0  192.00 -27.390  52.405  17.688 
  6846.000 -86.446  6.1430  2.8980  2.7100 -81.446  6.1430  2.8980  2.7100  5.0000  6841.5  192.00 -27.432  52.396  17.652 
  6846.500 -86.451  6.1430  2.8980  2.7270 -81.451  6.1430  2.8980  2.7270  5.0000  6842.0  192.00 -27.475  52.387  17.615 
  6847.000 -86.456  6.1430  2.8970  2.7440 -81.456  6.1430  2.8970  2.7440  5.0000  6842.5  192.00 -27.518  52.378  17.579 
  6847.500 -999.25  6.1420  2.8970  2.7440 -999.25  6.1420  2.8970  2.7440  5.0000  6843.0  192.00 -27.560  52.369  17.542 
  6848.000 -999.25  6.1420  2.8960  2.7440 -999.25  6.1420  2.8960  2.7440  5.0000  6843.5  192.00 -27.603  52.360  17.506 
  6848.500 -999.25  6.1410  2.8950  2.7440 -999.25  6.1410  2.8950  2.7440  5.0000  6844.0  192.00 -27.646  52.351  17.469 
  6849.000 -999.25  6.1410  2.8950 -999.25 -999.25  6.1410  2.8950 -999.25  5.0000  6844.5  192.00 -27.688  52.342  17.433 
  6849.500 -999.25  6.1400  2.8950 -999.25 -999.25  6.1400  2.8950 -999.25  5.0000  6845.0  192.00 -27.731  52.333  17.396 
  6850.000 -999.25  6.1400  2.9280 -999.25 -999.25  6.1400  2.9280 -999.25  5.0000  6845.5  192.00 -27.773  52.323  17.360 
