~Version Information
VERS.                     2.0: CWLS log ASCII Standard Version 2.00
WRAP.                      NO: One line per depth step
~Well Information Block
#MNEM.UNIT                               Data Type  Information
#---------                               ---------  -----------
STRT.FT                                   360.0000:
STOP.FT                                  6850.0000:
STEP.FT                                     0.5000:
NULL.                 -999.25                     :
COMP.                                             :COMPANY            
WELL.     SAN EMIDIO A #17-20                     :WELL               
FLD .                                             :FIELD              
CTRY.                                             :COUNTRY            
STAT.                                             :STATE              
LOC .                                             :LOCATION           
UWI .                                             :UNIQUE WELL ID     
SRVC.                                             :Service company    
DATE.                                             :LOG DATE           
~Curve Information
#MNEM.UNIT           API CODE  Curve Description
#---------           --------  -----------------
DEPT.FT                      :   1 DEPTH
SP  .MV                      :   2
2Z18.OHMM                    :   3
31Z9.OHMM                    :   4
31Z1.OHMM                    :   5
SBL .MV                      :   6
RS  .OHMM                    :   7
RM  .OHMM                    :   8
RD  .OHMM                    :   9
DEVI.DEG                     :  10
TVD .FT                      :  11
AZIM.DEG                     :  12
NORT.FT                      :  13
EAST.FT                      :  14
OFFS.FT                      :  15
~A
# ...
  2505.000 -37.937  12.160  13.931  8.0520 -30.204  12.160  13.931  8.0520  1.1626  2504.8  13.300  15.882  16.993  23.246 
  2505.500 -37.937  11.692  13.430  7.8180 -30.226  11.692  13.430  7.8180  1.1621  2505.3  13.330  15.891  16.995  23.254 
  2506.000 -38.353  11.358  12.761  7.5170 -30.664  11.358  12.761  7.5170  1.1617  2505.8  13.360  15.901  16.997  23.263 
  2506.500 -38.769  11.313  12.594  7.3160 -31.102  11.313  12.594  7.3160  1.1613  2506.3  13.390  15.911  17.000  23.271 
  2507.000 -39.934  11.268  12.878  7.2490 -32.290  11.268  12.878  7.2490  1.1609  2506.8  13.420  15.921  17.002  23.280 
  2507.500 -40.100  11.223  13.161  7.3490 -32.478  11.223  13.161  7.3490  1.1605  2507.3  13.450  15.931  17.004  23.289 
  2508.000 -40.266  10.655  13.662  7.6500 -32.666  10.655  13.662  7.6500  1.1601  2507.8  13.480  15.941  17.007  23.297 
  2508.500 -40.266  10.387  14.029  7.9170 -32.688  10.387  14.029  7.9170  1.1596  2508.3  13.510  15.950  17.009  23.306 
  2509.000 -39.268  10.052  14.196  7.9840 -31.712  10.052  14.196  7.9840  1.1592  2508.8  13.540  15.960  17.012  23.315 
  2509.500 -38.270  9.6180  14.263  7.9500 -30.737  9.6180  14.263  7.9500  1.1588  2509.3  13.570  15.970  17.014  23.323 
  2510.000 -36.606  8.2470  14.162  7.8500 -29.095  8.2470  14.162  7.8500  1.1584  2509.8  13.600  15.980  17.016  23.332 
  2510.500 -33.777  7.2110  13.627  7.6820 -26.288  7.2110  13.627  7.6820  1.1580  2510.3  13.630  15.990  17.019  23.340 
  2511.000 -28.619  6.2750  12.858  7.5150 -21.152  6.2750  12.858  7.5150  1.1576  2510.8  13.660  16.000  17.021  23.349 
  2511.500 -24.293  6.0070  12.256  7.1810 -16.849  6.0070  12.256  7.1810  1.1571  2511.3  13.690  16.009  17.023  23.358 
  2512.000 -22.463  5.9570  10.886  6.5460 -15.041  5.9570  10.886  6.5460  1.1567  2511.8  13.720  16.019  17.026  23.366 
  2512.500 -21.464  5.9060  10.284  6.4790 -14.064  5.9060  10.284  6.4790  1.1563  2512.3  13.750  16.029  17.028  23.375 
  2513.000 -21.964  5.7720  9.7820  6.4450 -14.586  5.7720  9.7820  6.4450  1.1559  2512.8  13.780  16.039  17.031  23.384 
  2513.500 -22.463  5.7390  8.6790  6.4780 -15.107  5.7390  8.6790  6.4780  1.1555  2513.3  13.810  16.049  17.033  23.392 
  2514.000 -22.962  5.7050  8.2780  6.6120 -15.629  5.7050  8.2780  6.6120  1.1550  2513.8  13.840  16.058  17.035  23.401 
  2514.500 -23.211  5.7710  8.1610  6.7450 -15.900  5.7710  8.1610  6.7450  1.1546  2514.3  13.870  16.068  17.038  23.409 
  2515.000 -23.461  5.9050  8.0430  7.0130 -16.172  5.9050  8.0430  7.0130  1.1542  2514.8  13.900  16.078  17.040  23.418 
  2515.500 -23.794  5.9710  7.9430  7.3800 -16.527  5.9710  7.9430  7.3800  1.1538  2515.3  13.930  16.088  17.043  23.427 
  2516.000 -24.127  6.0380  7.9090  7.6810 -16.883  6.0380  7.9090  7.6810  1.1534  2515.8  13.960  16.097  17.045  23.435 
  2516.500 -24.459  6.2380  7.9420  8.0480 -17.237  6.2380  7.9420  8.0480  1.1530  2516.3  13.990  16.107  17.048  23.444 
  2517.000 -24.792  6.4050  8.0760  8.2480 -17.592  6.4050  8.0760  8.2480  1.1525  2516.8  14.020  16.117  17.050  23.453 
  2517.500 -27.288  6.5050  8.2760  8.5490 -20.110  6.5050  8.2760  8.5490  1.1521  2517.3  14.050  16.127  17.052  23.461 
  2518.000 -28.619  6.5380  8.4420  8.7490 -21.463  6.5380  8.4420  8.7490  1.1517  2517.8  14.080  16.137  17.055  23.470 
  2518.500 -29.784  6.4700  8.6760  9.1500 -22.651  6.4700  8.6760  9.1500  1.1513  2518.3  14.110  16.146  17.057  23.478 
  2519.000 -30.616  6.2700  8.8760  9.3840 -23.505  6.2700  8.8760  9.3840  1.1509  2518.8  14.140  16.156  17.060  23.487 
  2519.500 -29.867  6.2020  8.8420  9.4500 -22.778  6.2020  8.8420  9.4500  1.1505  2519.3  14.170  16.166  17.062  23.496 
  2520.000 -29.118  5.9680  8.8420  9.3830 -22.051  5.9680  8.8420  9.3830  1.1500  2519.8  14.200  16.175  17.065  23.504 
  2520.500 -26.623  5.8680  8.7750  9.1830 -19.579  5.8680  8.7750  9.1830  1.1496  2520.3  14.230  16.185  17.067  23.513 
  2521.000 -25.791  5.6670  8.2400  8.9820 -18.769  5.6670  8.2400  8.9820  1.1492  2520.8  14.260  16.195  17.070  23.522 
  2521.500 -21.964  5.5330  7.9050  8.1470 -14.964  5.5330  7.9050  8.1470  1.1488  2521.3  14.290  16.205  17.072  23.530 
  2522.000 -20.300  5.4660  7.0030  7.9120 -13.322  5.4660  7.0030  7.9120  1.1484  2521.8  14.320  16.214  17.075  23.539 
  2522.500 -20.466  5.5320  6.7020  7.8960 -13.510  5.5320  6.7020  7.8960  1.1480  2522.3  14.350  16.224  17.077  23.547 
  2523.000 -20.632  5.6320  6.6010  7.8790 -13.699  5.6320  6.6010  7.8790  1.1475  2522.8  14.380  16.234  17.080  23.556 
  2523.500 -21.048  5.7320  6.6340  8.0120 -14.137  5.7320  6.6340  8.0120  1.1471  2523.3  14.410  16.243  17.082  23.565 
  2524.000 -21.464  5.9990  6.7340  8.2460 -14.575  5.9990  6.7340  8.2460  1.1467  2523.8  14.440  16.253  17.085  23.573 
  2524.500 -22.296  6.1990  6.8670  8.4800 -15.429  6.1990  6.8670  8.4800  1.1463  2524.3  14.470  16.263  17.087  23.582 
  2525.000 -23.128  6.4330  7.0010  8.6800 -16.284  6.4330  7.0010  8.6800  1.1459  2524.8  14.500  16.272  17.090  23.591 
  2525.500 -23.960  6.6660  7.1010  8.8800 -17.138  6.6660  7.1010  8.8800  1.1455  2525.3  14.530  16.282  17.092  23.599 
  2526.000 -25.624  6.8330  7.3340  9.2810 -18.824  6.8330  7.3340  9.2810  1.1450  2525.8  14.560  16.292  17.095  23.608 
  2526.500 -27.954  6.7990  7.6350  9.4150 -21.176  6.7990  7.6350  9.4150  1.1446  2526.3  14.590  16.301  17.097  23.616 
  2527.000 -29.285  6.6990  8.0690  9.4480 -22.529  6.6990  8.0690  9.4480  1.1442  2526.8  14.620  16.311  17.100  23.625 
  2527.500 -30.782  6.6320  8.1690  9.4480 -24.049  6.6320  8.1690  9.4480  1.1438  2527.3  14.650  16.321  17.102  23.634 
  2528.000 -31.448  6.4980  8.3350  9.2810 -24.737  6.4980  8.3350  9.2810  1.1434  2527.8  14.680  16.330  17.105  23.642 
  2528.500 -31.115  6.0960  8.3690  9.1130 -24.426  6.0960  8.3690  9.1130  1.1430  2528.3  14.710  16.340  17.107  23.651 
  2529.000 -30.782  5.7620  8.3010  8.8790 -24.115  5.7620  8.3010  8.8790  1.1425  2528.8  14.740  16.350  17.110  23.659 
  2529.500 -30.283  5.3600  8.2340  8.4450 -23.639  5.3600  8.2340  8.4450  1.1421  2529.3  14.770  16.359  17.112  23.668 
  2530.000 -26.789  5.0930  8.0840  7.9100 -20.167  5.0930  8.0840  7.9100  1.1417  2529.8  14.800  16.369  17.115  23.677 
  2530.500 -23.627  4.9090  7.9330  7.2750 -17.027  4.9090  7.9330  7.2750  1.1413  2530.3  14.830  16.379  17.117  23.685 
  2531.000 -21.298  4.7250  6.0610  6.8400 -14.720  4.7250  6.0610  6.8400  1.1409  2530.8  14.860  16.388  17.120  23.694 
  2531.500 -21.048  4.4900  5.8940  6.7060 -14.492  4.4900  5.8940  6.7060  1.1405  2531.3  14.890  16.398  17.122  23.702 
  2532.000 -20.799  4.3560  5.7600  6.5390 -14.266  4.3560  5.7600  6.5390  1.1400  2531.8  14.920  16.407  17.125  23.711 
  2532.500 -19.967  4.3220  5.7590  6.4720 -13.456  4.3220  5.7590  6.4720  1.1396  2532.3  14.950  16.417  17.128  23.720 
  2533.000 -19.634  4.2220  5.7760  6.4380 -13.145  4.2220  5.7760  6.4380  1.1392  2532.8  14.980  16.427  17.130  23.728 
  2533.500 -19.301  4.1210  5.7920  6.4220 -12.834  4.1210  5.7920  6.4220  1.1388  2533.3  15.010  16.436  17.133  23.737 
  2534.000 -19.135  4.0540  5.7920  6.4050 -12.691  4.0540  5.7920  6.4050  1.1384  2533.8  15.040  16.446  17.135  23.746 
  2534.500 -18.968  3.9870  5.6910  6.3380 -12.546  3.9870  5.6910  6.3380  1.1380  2534.3  15.070  16.455  17.138  23.754 
  2535.000 -18.469  3.9200  5.6570  6.2710 -12.069  3.9200  5.6570  6.2710  1.1375  2534.8  15.100  16.465  17.140  23.763 
  2535.500 -18.220  3.8530  5.5400  6.1700 -11.842  3.8530  5.5400  6.1700  1.1371  2535.3  15.130  16.475  17.143  23.771 
  2536.000 -17.970  3.7850  5.4230  6.0700 -11.614  3.7850  5.4230  6.0700  1.1367  2535.8  15.160  16.484  17.146  23.780 
  2536.500 -17.887  3.7680  5.3220  5.9360 -11.554  3.7680  5.3220  5.9360  1.1363  2536.3  15.190  16.494  17.148  23.789 
  2537.000 -17.804  3.7510  5.2220  5.6350 -11.493  3.7510  5.2220  5.6350  1.1359  2536.8  15.220  16.503  17.151  23.797 
