~Version Information
VERS.                     2.0: CWLS log ASCII Standard Version 2.00
WRAP.                      NO: One line per depth step
~Well Information Block
#MNEM.UNIT                               Data Type  Information
#---------                               ---------  -----------
STRT.FT                                   360.0000:
STOP.FT                                  6850.0000:
STEP.FT                                     0.5000:
NULL.                 -999.25                     :
COMP.                                             :COMPANY            
WELL.     SAN EMIDIO A #17-20                     :WELL               
FLD .                                             :FIELD              
CTRY.                                             :COUNTRY            
STAT.                                             :STATE              
LOC .                                             :LOCATION           
UWI .                                             :UNIQUE WELL ID     
SRVC.                                             :Service company    
DATE.                                             :LOG DATE           
~Curve Information
#MNEM.UNIT           API CODE  Curve Description
#---------           --------  -----------------
DEPT.FT                      :   1 DEPTH
SP  .MV                      :   2
2Z18.OHMM                    :   3
31Z9.OHMM                    :   4
31Z1.OHMM                    :   5
SBL .MV                      :   6
RS  .OHMM                    :   7
RM  .OHMM                    :   8
RD  .OHMM                    :   9
DEVI.DEG                     :  10
TVD .FT                      :  11
AZIM.DEG                     :  12
NORT.FT                      :  13
EAST.FT                      :  14
OFFS.FT                      :  15
~A
# ...
  5950.000 -11.364  1.9850  1.7680  2.0520 -8.0875  1.9850  1.7680  2.0520  2.1250  5948.8  164.00  46.178  61.772  76.333 
  5950.500 -11.533  2.0030  1.7690  2.0360 -8.2506  2.0030  1.7690  2.0360  2.1263  5949.3  164.06  46.160  61.777  76.324 
  5951.000 -11.869  2.0040  1.7700  2.0030 -8.5808  2.0040  1.7700  2.0030  2.1275  5949.8  164.12  46.143  61.783  76.315 
  5951.500 -12.037  2.0050  1.7710  1.9700 -8.7429  2.0050  1.7710  1.9700  2.1288  5950.3  164.18  46.125  61.788  76.306 
  5952.000 -11.869  2.0060  1.7560  1.9710 -8.5690  2.0060  1.7560  1.9710  2.1300  5950.8  164.24  46.107  61.793  76.296 
  5952.500 -12.541  1.9900  1.7400  1.9550 -9.2351  1.9900  1.7400  1.9550  2.1313  5951.3  164.30  46.089  61.798  76.287 
  5953.000 -12.709  1.9740  1.7410  1.9390 -9.3972  1.9740  1.7410  1.9390  2.1325  5951.8  164.36  46.071  61.803  76.278 
  5953.500 -13.045  1.9760  1.7420  1.9400 -9.7274  1.9760  1.7420  1.9400  2.1338  5952.3  164.42  46.053  61.808  76.269 
  5954.000 -13.130  1.9930  1.7760  1.9400 -9.8065  1.9930  1.7760  1.9400  2.1350  5952.8  164.48  46.035  61.813  76.260 
  5954.500 -13.215  2.0110  1.7770  1.9410 -9.8856  2.0110  1.7770  1.9410  2.1363  5953.3  164.54  46.017  61.818  76.251 
  5955.000 -13.550  2.0120  1.7950  1.9580 -10.215  2.0120  1.7950  1.9580  2.1375  5953.8  164.60  45.999  61.823  76.242 
  5955.500 -13.718  2.0290  1.8120  1.9750 -10.377  2.0290  1.8120  1.9750  2.1388  5954.3  164.66  45.981  61.828  76.232 
  5956.000 -13.887  2.0470  1.8470  2.0770 -10.540  2.0470  1.8470  2.0770  2.1400  5954.8  164.72  45.963  61.832  76.223 
  5956.500 -13.719  2.0480  1.8480  2.1110 -10.366  2.0480  1.8480  2.1110  2.1413  5955.3  164.78  45.945  61.837  76.214 
  5957.000 -13.048  2.0660  1.8490  2.1780 -9.6892  2.0660  1.8490  2.1780  2.1425  5955.8  164.84  45.927  61.842  76.204 
  5957.500 -12.042  2.0830  1.8830  2.2450 -8.6773  2.0830  1.8830  2.2450  2.1438  5956.3  164.90  45.909  61.847  76.195 
  5958.000 -11.372  2.1180  1.9180  2.3130 -8.0014  2.1180  1.9180  2.3130  2.1450  5956.8  164.96  45.891  61.852  76.186 
  5958.500 -10.533  2.1520  1.9520  2.3800 -7.1565  2.1520  1.9520  2.3800  2.1463  5957.3  165.02  45.873  61.857  76.176 
  5959.000 -9.6950  2.1860  1.9700  2.4140 -6.3126  2.1860  1.9700  2.4140  2.1475  5957.8  165.08  45.855  61.862  76.167 
  5959.500 -9.0240  2.2210  1.9870  2.4310 -5.6358  2.2210  1.9870  2.4310  2.1488  5958.3  165.14  45.837  61.866  76.158 
  5960.000 -9.0250  2.2220  1.9880  2.4480 -5.6309  2.2220  1.9880  2.4480  2.1500  5958.8  165.20  45.819  61.871  76.148 
  5960.500 -9.0250  2.2230  1.9890  2.4490 -5.6250  2.2230  1.9890  2.4490  2.1513  5959.3  165.26  45.800  61.876  76.139 
  5961.000 -9.3610  2.2070  1.9900  2.4500 -5.9551  2.2070  1.9900  2.4500  2.1525  5959.8  165.32  45.782  61.881  76.129 
  5961.500 -9.5300  2.1910  1.9910  2.4170 -6.1182  2.1910  1.9910  2.4170  2.1538  5960.3  165.38  45.764  61.885  76.120 
  5962.000 -9.6990  2.1590  1.9920  2.4180 -6.2814  2.1590  1.9920  2.4180  2.1550  5960.8  165.44  45.746  61.890  76.110 
  5962.500 -9.6980  2.1270  1.9930  2.3860 -6.2745  2.1270  1.9930  2.3860  2.1563  5961.3  165.50  45.728  61.895  76.101 
  5963.000 -9.8660  2.0940  1.9610  2.3530 -6.4366  2.0940  1.9610  2.3530  2.1575  5961.8  165.56  45.709  61.900  76.091 
  5963.500 -9.8670  2.0620  1.9620  2.3200 -6.4317  2.0620  1.9620  2.3200  2.1588  5962.3  165.62  45.691  61.904  76.081 
  5964.000 -9.8670  2.0130  1.9630  2.3210 -6.4258  2.0130  1.9630  2.3210  2.1600  5962.8  165.68  45.673  61.909  76.072 
  5964.500 -9.8680  1.9640  1.9640  2.3050 -6.4209  1.9640  1.9640  2.3050  2.1613  5963.3  165.74  45.655  61.914  76.062 
  5965.000 -9.8680  1.9650  1.9480  2.2890 -6.4151  1.9650  1.9480  2.2890  2.1625  5963.8  165.80  45.636  61.918  76.053 
  5965.500 -10.036  1.9330  1.9330  2.2560 -6.5772  1.9330  1.9330  2.2560  2.1638  5964.3  165.86  45.618  61.923  76.043 
  5966.000 -10.037  1.9170  1.9340  2.2230 -6.5723  1.9170  1.9340  2.2230  2.1650  5964.8  165.92  45.600  61.927  76.033 
  5966.500 -10.037  1.9010  1.9350  2.2070 -6.5664  1.9010  1.9350  2.2070  2.1663  5965.3  165.98  45.581  61.932  76.023 
  5967.000 -10.204  1.8690  1.9190  2.1910 -6.7275  1.8690  1.9190  2.1910  2.1675  5965.8  166.04  45.563  61.937  76.014 
  5967.500 -9.8690  1.8370  1.9030  2.1590 -6.3866  1.8370  1.9030  2.1590  2.1688  5966.3  166.10  45.545  61.941  76.004 
  5968.000 -9.7020  1.8380  1.8880  2.1260 -6.2138  1.8380  1.8880  2.1260  2.1700  5966.8  166.16  45.526  61.946  75.994 
  5968.500 -9.5360  1.8390  1.8720  2.0930 -6.0419  1.8390  1.8720  2.0930  2.1713  5967.3  166.22  45.508  61.950  75.984 
  5969.000 -9.1990  1.8060  1.8730  2.0770 -5.6990  1.8060  1.8730  2.0770  2.1725  5967.8  166.28  45.489  61.955  75.974 
  5969.500 -9.2000  1.7910  1.8740  2.0610 -5.6941  1.7910  1.8740  2.0610  2.1738  5968.3  166.34  45.471  61.959  75.965 
  5970.000 -9.2010  1.7750  1.8420  2.0450 -5.6892  1.7750  1.8420  2.0450  2.1750  5968.8  166.40  45.453  61.964  75.955 
  5970.500 -9.3680  1.7590  1.8430  2.0290 -5.8504  1.7590  1.8430  2.0290  2.1763  5969.3  166.46  45.434  61.968  75.945 
  5971.000 -9.5370  1.7440  1.8430  1.9960 -6.0135  1.7440  1.8430  1.9960  2.1775  5969.8  166.52  45.416  61.972  75.935 
  5971.500 -9.7060  1.7450  1.8780  1.9640 -6.1766  1.7450  1.8780  1.9640  2.1788  5970.3  166.58  45.397  61.977  75.925 
  5972.000 -10.208  1.7460  1.8790  1.9310 -6.6727  1.7460  1.8790  1.9310  2.1800  5970.8  166.64  45.379  61.981  75.915 
  5972.500 -10.126  1.7460  1.8800  1.9150 -6.5848  1.7460  1.8800  1.9150  2.1813  5971.3  166.70  45.360  61.986  75.905 
  5973.000 -10.043  1.7470  1.8810  1.8990 -6.4959  1.7470  1.8810  1.8990  2.1825  5971.8  166.76  45.342  61.990  75.895 
  5973.500 -9.8760  1.7490  1.9150  1.8500 -6.3231  1.7490  1.9150  1.8500  2.1838  5972.3  166.82  45.323  61.994  75.885 
  5974.000 -9.7080  1.7830  1.9160  1.8000 -6.1492  1.7830  1.9160  1.8000  2.1850  5972.8  166.88  45.304  61.999  75.875 
  5974.500 -9.7070  1.8510  1.9170  1.7680 -6.1423  1.8510  1.9170  1.7680  2.1863  5973.3  166.94  45.286  62.003  75.865 
  5975.000 -9.7080  1.8520  1.9520  1.7350 -6.1374  1.8520  1.9520  1.7350  2.1875  5973.8  167.00  45.267  62.007  75.855 
  5975.500 -9.7100  1.8690  1.9530  1.7190 -6.1335  1.8690  1.9530  1.7190  2.1888  5974.3  167.06  45.249  62.012  75.844 
  5976.000 -9.8760  1.8870  1.9530  1.7030 -6.2936  1.8870  1.9530  1.7030  2.1900  5974.8  167.12  45.230  62.016  75.834 
  5976.500 -10.045  1.8880  1.9880  1.6870 -6.4568  1.8880  1.9880  1.6870  2.1913  5975.3  167.18  45.211  62.020  75.824 
  5977.000 -10.381  1.8890  1.9560  1.6710 -6.7869  1.8890  1.9560  1.6710  2.1925  5975.8  167.24  45.193  62.024  75.814 
  5977.500 -10.466  1.8900  1.9730  1.6550 -6.8660  1.8900  1.9730  1.6550  2.1938  5976.3  167.30  45.174  62.028  75.804 
  5978.000 -10.550  1.8910  1.9910  1.6390 -6.9441  1.8910  1.9910  1.6390  2.1950  5976.8  167.36  45.155  62.033  75.793 
  5978.500 -10.719  1.8920  1.9920  1.6390 -7.1072  1.8920  1.9920  1.6390  2.1963  5977.3  167.42  45.137  62.037  75.783 
  5979.000 -10.887  1.8930  1.9930  1.6400 -7.2694  1.8930  1.9930  1.6400  2.1975  5977.8  167.48  45.118  62.041  75.773 
  5979.500 -10.886  1.8940  1.9770  1.6400 -7.2625  1.8940  1.9770  1.6400  2.1988  5978.3  167.54  45.099  62.045  75.763 
  5980.000 -10.886  1.9120  1.9620  1.6750 -7.2566  1.9120  1.9620  1.6750  2.2000  5978.8  167.60  45.080  62.049  75.752 
  5980.500 -10.887  1.9290  1.9460  1.6920 -7.2517  1.9290  1.9460  1.6920  2.2013  5979.3  167.66  45.062  62.053  75.742 
  5981.000 -10.803  1.9310  1.9300  1.7090 -7.1618  1.9310  1.9300  1.7090  2.2025  5979.8  167.72  45.043  62.057  75.731 
  5981.500 -10.720  1.9310  1.9150  1.7270 -7.0729  1.9310  1.9150  1.7270  2.2038  5980.3  167.78  45.024  62.062  75.721 
  5982.000 -10.721  1.9320  1.8990  1.7440 -7.0681  1.9320  1.8990  1.7440  2.2050  5980.8  167.84  45.005  62.066  75.711 
