~Version Information
VERS.                     2.0: CWLS log ASCII Standard Version 2.00
WRAP.                      NO: One line per depth step
~Well Information Block
#MNEM.UNIT                               Data Type  Information
#---------                               ---------  -----------
STRT.FT                                   360.0000:
STOP.FT                                  6850.0000:
STEP.FT                                     0.5000:
NULL.                 -999.25                     :
COMP.                                             :COMPANY            
WELL.     SAN EMIDIO A #17-20                     :WELL               
FLD .                                             :FIELD              
CTRY.                                             :COUNTRY            
STAT.                                             :STATE              
LOC .                                             :LOCATION           
UWI .                                             :UNIQUE WELL ID     
SRVC.                                             :Service company    
DATE.                                             :LOG DATE           
~Curve Information
#MNEM.UNIT           API CODE  Curve Description
#---------           --------  -----------------
DEPT.FT                      :   1 DEPTH
SP  .MV                      :   2
2Z18.OHMM                    :   3
31Z9.OHMM                    :   4
31Z1.OHMM                    :   5
SBL .MV                      :   6
RS  .OHMM                    :   7
RM  .OHMM                    :   8
RD  .OHMM                    :   9
DEVI.DEG                     :  10
TVD .FT                      :  11
AZIM.DEG                     :  12
NORT.FT                      :  13
EAST.FT                      :  14
OFFS.FT                      :  15
~A
# ...
  4682.500 -51.471  5.6100  3.7540  3.7880 -49.527  5.6100  3.7540  3.7880  0.9708  4682.0  50.477  46.582  34.972  57.667 
  4683.000 -51.299  5.5930  3.8220  3.7890 -49.356  5.5930  3.8220  3.7890  0.9717  4682.5  50.492  46.587  34.978  57.676 
  4683.500 -51.128  5.5280  3.8560  3.7890 -49.186  5.5280  3.8560  3.7890  0.9725  4683.0  50.507  46.593  34.985  57.684 
  4684.000 -50.789  5.4950  3.8900  3.8070 -48.848  5.4950  3.8900  3.8070  0.9733  4683.5  50.522  46.598  34.991  57.692 
  4684.500 -50.368  5.4450  3.8910  3.8240 -48.427  5.4450  3.8910  3.8240  0.9742  4684.0  50.537  46.604  34.998  57.701 
  4685.000 -49.946  5.3960  3.8580  3.8580 -48.006  5.3960  3.8580  3.8580  0.9750  4684.5  50.552  46.609  35.004  57.709 
  4685.500 -48.772  5.2630  3.8250  3.8590 -46.833  5.2630  3.8250  3.8590  0.9758  4685.0  50.567  46.614  35.011  57.718 
  4686.000 -48.434  5.1300  3.7590  3.8590 -46.496  5.1300  3.7590  3.8590  0.9767  4685.5  50.582  46.620  35.018  57.726 
  4686.500 -47.094  4.9300  3.6930  3.8600 -45.156  4.9300  3.6930  3.8600  0.9775  4686.0  50.597  46.625  35.024  57.735 
  4687.000 -46.088  4.8470  3.6270  3.8610 -44.151  4.8470  3.6270  3.8610  0.9783  4686.5  50.612  46.631  35.031  57.743 
  4687.500 -44.082  4.7640  3.5940  3.8610 -42.146  4.7640  3.5940  3.8610  0.9792  4687.0  50.627  46.636  35.037  57.752 
  4688.000 -41.908  4.5970  3.5610  3.8620 -39.972  4.5970  3.5610  3.8620  0.9800  4687.5  50.642  46.641  35.044  57.760 
  4688.500 -40.068  4.4310  3.5280  3.8630 -38.133  4.4310  3.5280  3.8630  0.9808  4688.0  50.657  46.647  35.051  57.769 
  4689.000 -37.895  4.2980  3.4960  3.8970 -35.961  4.2980  3.4960  3.8970  0.9817  4688.5  50.672  46.652  35.057  57.777 
  4689.500 -36.722  4.1320  3.4960  3.9310 -34.789  4.1320  3.4960  3.9310  0.9825  4689.0  50.687  46.658  35.064  57.786 
  4690.000 -35.049  4.0480  3.4970  3.9820 -33.116  4.0480  3.4970  3.9820  0.9833  4689.5  50.702  46.663  35.070  57.794 
  4690.500 -33.876  3.9650  3.4980  4.0320 -31.944  3.9650  3.4980  4.0320  0.9842  4690.0  50.717  46.669  35.077  57.803 
  4691.000 -27.364  3.8320  3.4980  4.0000 -25.433  3.8320  3.4980  4.0000  0.9850  4690.5  50.732  46.674  35.084  57.812 
  4691.500 -20.520  3.6990  3.4990  3.9340 -18.590  3.6990  3.4990  3.9340  0.9858  4691.0  50.747  46.680  35.090  57.820 
  4692.000 -13.007  3.6000  3.4660  3.9170 -11.077  3.6000  3.4660  3.9170  0.9867  4691.5  50.762  46.685  35.097  57.829 
  4692.500 -10.667  3.5000  3.4670  3.9010 -8.7381  3.5000  3.4670  3.9010  0.9875  4692.0  50.777  46.690  35.104  57.837 
  4693.000 -9.3280  3.4340  3.4680  3.8350 -7.3998  3.4340  3.4680  3.8350  0.9883  4692.5  50.792  46.696  35.110  57.846 
  4693.500 -9.4890  3.4680  3.5020  4.0030 -7.5615  3.4680  3.5020  4.0030  0.9892  4693.0  50.807  46.701  35.117  57.854 
  4694.000 -10.652  3.5020  3.5860  4.0710 -8.7253  3.5020  3.5860  4.0710  0.9900  4693.5  50.822  46.707  35.124  57.863 
  4694.500 -12.816  3.5030  3.6700  4.2050 -10.890  3.5030  3.6700  4.2050  0.9908  4694.0  50.837  46.712  35.131  57.872 
  4695.000 -13.811  3.4700  3.7710  4.2730 -11.886  3.4700  3.7710  4.2730  0.9917  4694.5  50.852  46.718  35.137  57.880 
  4695.500 -13.806  3.4040  3.7880  4.2730 -11.881  3.4040  3.7880  4.2730  0.9925  4695.0  50.867  46.723  35.144  57.889 
  4696.000 -13.635  3.3210  3.8060  4.2070 -11.711  3.3210  3.8060  4.2070  0.9933  4695.5  50.882  46.729  35.151  57.897 
  4696.500 -11.795  3.2380  3.7400  4.1740 -9.8719  3.2380  3.7400  4.1740  0.9942  4696.0  50.897  46.734  35.157  57.906 
  4697.000 -9.9550  3.1720  3.7070  4.1410 -8.0327  3.1720  3.7070  4.1410  0.9950  4696.5  50.912  46.740  35.164  57.915 
  4697.500 -8.7820  3.1390  3.6410  4.0420 -6.8604  3.1390  3.6410  4.0420  0.9958  4697.0  50.927  46.745  35.171  57.923 
  4698.000 -7.1090  3.1060  3.6080  3.9420 -5.1881  3.1060  3.6080  3.9420  0.9967  4697.5  50.942  46.751  35.178  57.932 
  4698.500 -6.7700  3.0400  3.5420  3.8920 -4.8499  3.0400  3.5420  3.8920  0.9975  4698.0  50.957  46.756  35.184  57.941 
  4699.000 -6.4320  3.0410  3.4760  3.8430 -4.5126  3.0410  3.4760  3.8430  0.9983  4698.5  50.972  46.762  35.191  57.949 
  4699.500 -6.2600  3.0080  3.4760  3.8270 -4.3413  3.0080  3.4760  3.8270  0.9992  4699.0  50.987  46.767  35.198  57.958 
  4700.000 -6.0880  3.0090  3.4600  3.8110 -4.1701  3.0090  3.4600  3.8110  1.0000  4699.5  51.002  46.773  35.205  57.967 
  4700.500 -6.0030  3.0090  3.4440  3.8120 -4.0858  3.0090  3.4440  3.8120  1.0004  4700.0  51.072  46.778  35.212  57.975 
  4701.000 -5.9180  3.0100  3.4110  3.7790 -4.0015  3.0100  3.4110  3.7790  1.0008  4700.5  51.142  46.783  35.218  57.984 
  4701.500 -5.9150  3.0100  3.3780  3.7460 -3.9992  3.0100  3.3780  3.7460  1.0013  4701.0  51.212  46.789  35.225  57.993 
  4702.000 -6.2460  3.0780  3.3450  3.7130 -4.3310  3.0780  3.3450  3.7130  1.0017  4701.5  51.282  46.794  35.232  58.001 
  4702.500 -6.5110  3.1450  3.3120  3.6800 -4.5967  3.1450  3.3120  3.6800  1.0021  4702.0  51.352  46.800  35.239  58.010 
  4703.000 -6.7750  3.1790  3.3130  3.6810 -4.8614  3.1790  3.3130  3.6810  1.0025  4702.5  51.422  46.805  35.246  58.019 
  4703.500 -7.0390  3.2800  3.3300  3.6810 -5.1262  3.2800  3.3300  3.6810  1.0029  4703.0  51.492  46.811  35.253  58.028 
  4704.000 -7.3040  3.3470  3.3470  3.6820 -5.3919  3.3470  3.3470  3.6820  1.0033  4703.5  51.562  46.816  35.259  58.036 
  4704.500 -7.5680  3.4810  3.3480  3.6490 -5.6566  3.4810  3.3480  3.6490  1.0038  4704.0  51.632  46.822  35.266  58.045 
  4705.000 -8.0640  3.6160  3.2810  3.6490 -6.1534  3.6160  3.2810  3.6490  1.0042  4704.5  51.702  46.827  35.273  58.054 
  4705.500 -8.5640  3.7830  3.2480  3.6330 -6.6541  3.7830  3.2480  3.6330  1.0046  4705.0  51.772  46.833  35.280  58.062 
  4706.000 -9.7290  3.9510  3.2160  3.6160 -7.8198  3.9510  3.2160  3.6160  1.0050  4705.5  51.842  46.838  35.287  58.071 
  4706.500 -11.728  4.2520  3.1830  3.6170 -9.8196  4.2520  3.1830  3.6170  1.0054  4706.0  51.912  46.843  35.294  58.080 
  4707.000 -16.062  4.9210  3.2160  3.6180 -14.154  4.9210  3.2160  3.6180  1.0058  4706.5  51.982  46.849  35.301  58.088 
  4707.500 -18.896  6.2260  3.2500  3.7850 -16.989  6.2260  3.2500  3.7850  1.0063  4707.0  52.052  46.854  35.308  58.097 
  4708.000 -23.899  6.5610  3.4180  3.8190 -21.993  6.5610  3.4180  3.8190  1.0067  4707.5  52.122  46.860  35.315  58.106 
  4708.500 -34.739  6.9960  3.4850  3.9200 -32.834  6.9960  3.4850  3.9200  1.0071  4708.0  52.192  46.865  35.322  58.115 
  4709.000 -45.580  7.1300  3.5530  3.9540 -43.675  7.1300  3.5530  3.9540  1.0075  4708.5  52.262  46.870  35.328  58.123 
  4709.500 -50.915  7.3980  3.6200  3.9540 -49.011  7.3980  3.6200  3.9540  1.0079  4709.0  52.332  46.876  35.335  58.132 
  4710.000 -57.418  7.5650  3.6870  3.9550 -55.515  7.5650  3.6870  3.9550  1.0083  4709.5  52.402  46.881  35.342  58.141 
  4710.500 -59.419  7.2990  3.7210  3.9550 -57.516  7.2990  3.7210  3.9550  1.0088  4710.0  52.472  46.886  35.349  58.149 
  4711.000 -60.751  6.9310  3.6880  3.8560 -58.849  6.9310  3.6880  3.8560  1.0092  4710.5  52.542  46.892  35.356  58.158 
  4711.500 -59.247  5.8290  3.6560  3.8390 -57.346  5.8290  3.6560  3.8390  1.0096  4711.0  52.612  46.897  35.363  58.167 
  4712.000 -49.735  5.6620  3.6560  3.8230 -47.835  5.6620  3.6560  3.8230  1.0100  4711.5  52.682  46.902  35.370  58.176 
  4712.500 -46.730  5.4950  3.6230  3.7230 -44.830  5.4950  3.6230  3.7230  1.0104  4712.0  52.752  46.908  35.377  58.184 
  4713.000 -42.557  5.2620  3.5570  3.6570 -40.658  5.2620  3.5570  3.6570  1.0108  4712.5  52.822  46.913  35.384  58.193 
  4713.500 -37.550  5.0280  3.5070  3.5910 -35.652  5.0280  3.5070  3.5910  1.0113  4713.0  52.892  46.918  35.391  58.202 
  4714.000 -31.541  4.7610  3.4570  3.4580 -29.644  4.7610  3.4570  3.4580  1.0117  4713.5  52.962  46.924  35.399  58.211 
  4714.500 -28.369  4.6610  3.3740  3.3580 -26.472  4.6610  3.3740  3.3580  1.0121  4714.0  53.032  46.929  35.406  58.219 
