~Version Information
VERS.                     2.0: CWLS log ASCII Standard Version 2.00
WRAP.                      NO: One line per depth step
~Well Information Block
#MNEM.UNIT                               Data Type  Information
#---------                               ---------  -----------
STRT.FT                                   360.0000:
STOP.FT                                  6850.0000:
STEP.FT                                     0.5000:
NULL.                 -999.25                     :
COMP.                                             :COMPANY            
WELL.     SAN EMIDIO A #17-20                     :WELL               
FLD .                                             :FIELD              
CTRY.                                             :COUNTRY            
STAT.                                             :STATE              
LOC .                                             :LOCATION           
UWI .                                             :UNIQUE WELL ID     
SRVC.                                             :Service company    
DATE.                                             :LOG DATE           
~Curve Information
#MNEM.UNIT           API CODE  Curve Description
#---------           --------  -----------------
DEPT.FT                      :   1 DEPTH
SP  .MV                      :   2
2Z18.OHMM                    :   3
31Z9.OHMM                    :   4
31Z1.OHMM                    :   5
SBL .MV                      :   6
RS  .OHMM                    :   7
RM  .OHMM                    :   8
RD  .OHMM                    :   9
DEVI.DEG                     :  10
TVD .FT                      :  11
AZIM.DEG                     :  12
NORT.FT                      :  13
EAST.FT                      :  14
OFFS.FT                      :  15
~A
# ...
   782.500 -23.204  4.7510  4.8850  5.9560 -13.246  4.7510  4.8850  5.9560  0.4562  782.49  29.524  0.5548  1.0829  1.1581 
   783.000 -23.705  4.9180  5.1190  6.1230 -13.752  4.9180  5.1190  6.1230  0.4575  782.99  28.909  0.5583  1.0848  1.1619 
   783.500 -22.706  4.9850  5.2530  6.3240 -12.758  4.9850  5.2530  6.3240  0.4587  783.49  28.294  0.5619  1.0867  1.1657 
   784.000 -21.707  5.1190  5.3530  6.3740 -11.765  5.1190  5.3530  6.3740  0.4600  783.99  27.679  0.5654  1.0886  1.1696 
   784.500 -20.208  5.2200  5.3200  6.4240 -10.271  5.2200  5.3200  6.4240  0.4612  784.49  27.064  0.5690  1.0904  1.1734 
   785.000 -19.208  5.3200  5.2530  6.4580 -9.2756  5.3200  5.2530  6.4580  0.4625  784.99  26.449  0.5726  1.0922  1.1772 
   785.500 -19.043  5.3870  5.1190  6.4910 -9.1157  5.3870  5.1190  6.4910  0.4637  785.49  25.834  0.5762  1.0940  1.1810 
   786.000 -19.710  5.4540  5.0520  6.4580 -9.7877  5.4540  5.0520  6.4580  0.4650  785.99  25.219  0.5799  1.0957  1.1849 
   786.500 -20.211  5.5540  5.0190  6.4240 -10.294  5.5540  5.0190  6.4240  0.4662  786.49  24.604  0.5836  1.0974  1.1887 
   787.000 -19.878  5.6550  4.9850  6.3910 -9.9658  5.6550  4.9850  6.3910  0.4675  786.99  23.989  0.5873  1.0991  1.1925 
   787.500 -19.379  5.8890  5.0020  6.3570 -9.4718  5.8890  5.0020  6.3570  0.4687  787.49  23.374  0.5911  1.1007  1.1963 
   788.000 -19.380  5.9890  5.0190  6.3240 -9.4779  5.9890  5.0190  6.3240  0.4700  787.99  22.759  0.5949  1.1023  1.2001 
   788.500 -20.381  6.0560  5.0190  6.3240 -10.484  6.0560  5.0190  6.3240  0.4712  788.49  22.144  0.5987  1.1038  1.2039 
   789.000 -21.215  6.1230  5.0520  6.3570 -11.323  6.1230  5.0520  6.3570  0.4725  788.99  21.529  0.6025  1.1054  1.2077 
   789.500 -22.383  6.3240  5.0860  6.3570 -12.496  6.3240  5.0860  6.3570  0.4737  789.49  20.914  0.6064  1.1068  1.2114 
   790.000 -23.717  6.4910  5.1190  6.4580 -13.835  6.4910  5.1190  6.4580  0.4750  789.99  20.299  0.6103  1.1083  1.2152 
   790.500 -24.551  6.5910  5.2200  6.5240 -14.674  6.5910  5.2200  6.5240  0.4762  790.49  19.684  0.6142  1.1097  1.2189 
   791.000 -25.052  6.5580  5.3200  6.6250 -15.180  6.5580  5.3200  6.6250  0.4775  790.99  19.069  0.6181  1.1110  1.2227 
   791.500 -25.219  6.5240  5.4200  6.6250 -15.352  6.5240  5.4200  6.6250  0.4787  791.49  18.454  0.6221  1.1124  1.2264 
   792.000 -24.887  6.5240  5.6880  6.6250 -15.025  6.5240  5.6880  6.6250  0.4800  791.99  17.839  0.6261  1.1136  1.2302 
   792.500 -24.388  6.5240  5.7210  6.4910 -14.531  6.5240  5.7210  6.4910  0.4812  792.49  17.224  0.6301  1.1149  1.2339 
   793.000 -23.222  6.5910  5.7550  6.3910 -13.370  6.5910  5.7550  6.3910  0.4825  792.99  16.609  0.6341  1.1161  1.2376 
   793.500 -20.723  6.6750  5.7210  6.2230 -10.876  6.6750  5.7210  6.2230  0.4837  793.49  15.994  0.6382  1.1172  1.2413 
   794.000 -18.890  6.7590  5.6550  6.0230 -9.0484  6.7590  5.6550  6.0230  0.4850  793.99  15.379  0.6423  1.1184  1.2450 
   794.500 -18.474  6.9260  5.5540  5.9220 -8.6375  6.9260  5.5540  5.9220  0.4862  794.49  14.764  0.6464  1.1194  1.2486 
   795.000 -18.058  7.1600  5.5210  5.8220 -8.2265  7.1600  5.5210  5.8220  0.4875  794.99  14.149  0.6505  1.1205  1.2523 
   795.500 -19.059  7.4610  5.4200  5.7880 -9.2326  7.4610  5.4200  5.7880  0.4887  795.49  13.534  0.6546  1.1215  1.2559 
   796.000 -20.560  7.9300  5.4200  6.0230 -10.739  7.9300  5.4200  6.0230  0.4900  795.99  12.919  0.6588  1.1224  1.2595 
   796.500 -21.561  8.4320  5.6880  6.1900 -11.745  8.4320  5.6880  6.1900  0.4912  796.49  12.304  0.6630  1.1234  1.2631 
   797.000 -23.728  9.2010  5.7880  6.4240 -13.917  9.2010  5.7880  6.4240  0.4925  796.99  11.689  0.6672  1.1242  1.2667 
   797.500 -26.729  9.7360  5.9890  6.6580 -16.923  9.7360  5.9890  6.6580  0.4937  797.49  11.074  0.6714  1.1251  1.2703 
   798.000 -31.730  10.305  6.9930  7.0260 -21.929  10.305  6.9930  7.0260  0.4950  797.99  10.459  0.6757  1.1258  1.2739 
   798.500 -35.064  11.777  7.3270  7.4610 -25.268  11.777  7.3270  7.4610  0.4962  798.49  9.8444  0.6799  1.1266  1.2774 
   799.000 -36.898  13.082  7.7620  7.8630 -27.107  13.082  7.7620  7.8630  0.4975  798.99  9.2294  0.6842  1.1273  1.2809 
   799.500 -38.566  14.588  8.3310  8.2640 -28.780  14.588  8.3310  8.2640  0.4987  799.49  8.6144  0.6885  1.1279  1.2844 
   800.000 -39.400  16.495  9.1010  8.5990 -29.619  16.495  9.1010  8.5990  0.5000  799.99  7.9994  0.6929  1.1285  1.2879 
   800.500 -39.901  17.934  9.9710  9.0340 -30.125  17.934  9.9710  9.0340  0.4996  800.49  7.9694  0.6972  1.1291  1.2914 
   801.000 -40.235  18.603  10.473  9.3020 -30.464  18.603  10.473  9.3020  0.4992  800.99  7.9394  0.7015  1.1297  1.2949 
   801.500 -40.069  19.373  10.941  9.6700 -30.303  19.373  10.941  9.6700  0.4987  801.49  7.9094  0.7058  1.1303  1.2983 
   802.000 -39.737  19.707  11.309  9.8700 -29.976  19.707  11.309  9.8700  0.4983  801.99  7.8794  0.7101  1.1309  1.3018 
   802.500 -39.071  19.774  11.577  9.9040 -29.315  19.774  11.577  9.9040  0.4979  802.49  7.8494  0.7144  1.1315  1.3053 
   803.000 -38.738  19.674  11.593  9.8700 -28.987  19.674  11.593  9.8700  0.4975  802.99  7.8194  0.7187  1.1321  1.3087 
   803.500 -38.573  19.339  11.610  9.8700 -28.827  19.339  11.610  9.8700  0.4971  803.49  7.7894  0.7230  1.1327  1.3122 
   804.000 -39.240  19.172  11.610  9.7360 -29.499  19.172  11.610  9.7360  0.4967  803.99  7.7594  0.7273  1.1333  1.3156 
   804.500 -39.991  18.971  11.610  9.6700 -30.255  18.971  11.610  9.6700  0.4963  804.49  7.7294  0.7316  1.1339  1.3191 
   805.000 -40.742  19.072  11.610  9.5690 -31.011  19.072  11.610  9.5690  0.4958  804.99  7.6994  0.7359  1.1345  1.3225 
   805.500 -42.243  19.339  11.777  9.5360 -32.517  19.339  11.777  9.5360  0.4954  805.49  7.6694  0.7402  1.1350  1.3260 
   806.000 -43.743  19.707  12.647  9.5690 -34.023  19.707  12.647  9.5690  0.4950  805.99  7.6394  0.7444  1.1356  1.3294 
   806.500 -44.411  19.975  13.183  9.6030 -34.696  19.975  13.183  9.6030  0.4946  806.49  7.6094  0.7487  1.1362  1.3328 
   807.000 -44.412 -999.25  13.383  9.8700 -34.702 -999.25  13.383  9.8700  0.4942  806.99  7.5794  0.7530  1.1367  1.3363 
   807.500 -44.246 -999.25  13.919  9.9870 -34.541 -999.25  13.919  9.9870  0.4938  807.49  7.5494  0.7573  1.1373  1.3397 
   808.000 -43.747 -999.25  15.625  10.105 -34.047 -999.25  15.625  10.105  0.4933  807.99  7.5194  0.7615  1.1379  1.3431 
   808.500 -42.914 -999.25  16.294  10.339 -33.219 -999.25  16.294  10.339  0.4929  808.49  7.4894  0.7658  1.1384  1.3465 
   809.000 -42.582 -999.25  17.432  10.540 -32.892 -999.25  17.432  10.540  0.4925  808.99  7.4594  0.7701  1.1390  1.3499 
   809.500 -41.416 -999.25  18.168  10.740 -31.731 -999.25  18.168  10.740  0.4921  809.49  7.4294  0.7743  1.1396  1.3533 
   810.000 -40.750 -999.25  18.536  10.908 -31.070 -999.25  18.536  10.908  0.4917  809.99  7.3994  0.7786  1.1401  1.3567 
   810.500 -40.084 -999.25  19.506  11.041 -30.409 -999.25  19.506  11.041  0.4913  810.49  7.3694  0.7828  1.1407  1.3601 
   811.000 -39.585 -999.25  19.518  11.142 -29.915 -999.25  19.518  11.142  0.4908  810.99  7.3394  0.7871  1.1412  1.3635 
   811.500 -39.086 -999.25 -999.25  11.276 -29.421 -999.25  19.529  11.276  0.4904  811.49  7.3094  0.7913  1.1417  1.3669 
   812.000 -38.837 -999.25 -999.25  11.376 -29.177 -999.25  19.541  11.376  0.4900  811.99  7.2794  0.7956  1.1423  1.3703 
   812.500 -38.587 -999.25 -999.25  11.510 -28.932 -999.25  19.552  11.510  0.4896  812.49  7.2494  0.7998  1.1428  1.3736 
   813.000 -38.672 -999.25 -999.25  11.610 -29.022 -999.25  19.564  11.610  0.4892  812.99  7.2194  0.8040  1.1434  1.3770 
   813.500 -38.756 -999.25 -999.25  11.711 -29.111 -999.25  19.575  11.711  0.4888  813.49  7.1894  0.8083  1.1439  1.3804 
   814.000 -40.090 -999.25 -999.25  12.112 -30.450 -999.25  19.586  12.112  0.4883  813.99  7.1594  0.8125  1.1444  1.3838 
   814.500 -40.924 -999.25 -999.25  12.480 -31.289 -999.25  19.598  12.480  0.4879  814.49  7.1294  0.8167  1.1450  1.3871 
