~Version Information
VERS.                     2.0: CWLS log ASCII Standard Version 2.00
WRAP.                      NO: One line per depth step
~Well Information Block
#MNEM.UNIT                               Data Type  Information
#---------                               ---------  -----------
STRT.FT                                   360.0000:
STOP.FT                                  6850.0000:
STEP.FT                                     0.5000:
NULL.                 -999.25                     :
COMP.                                             :COMPANY            
WELL.     SAN EMIDIO A #17-20                     :WELL               
FLD .                                             :FIELD              
CTRY.                                             :COUNTRY            
STAT.                                             :STATE              
LOC .                                             :LOCATION           
UWI .                                             :UNIQUE WELL ID     
SRVC.                                             :Service company    
DATE.                                             :LOG DATE           
~Curve Information
#MNEM.UNIT           API CODE  Curve Description
#---------           --------  -----------------
DEPT.FT                      :   1 DEPTH
SP  .MV                      :   2
2Z18.OHMM                    :   3
31Z9.OHMM                    :   4
31Z1.OHMM                    :   5
SBL .MV                      :   6
RS  .OHMM                    :   7
RM  .OHMM                    :   8
RD  .OHMM                    :   9
DEVI.DEG                     :  10
TVD .FT                      :  11
AZIM.DEG                     :  12
NORT.FT                      :  13
EAST.FT                      :  14
OFFS.FT                      :  15
~A
# ...
  2082.500 -34.081  12.531  14.937  12.665 -23.417  12.531  14.937  12.665  0.7938  2082.3  26.650  10.042  15.465  18.036 
  2083.000 -35.579  13.066  15.372  13.166 -24.911  13.066  15.372  13.166  0.7925  2082.8  26.660  10.048  15.468  18.042 
  2083.500 -39.074  13.534  15.706  13.667 -28.401  13.534  15.706  13.667  0.7913  2083.3  26.670  10.054  15.471  18.049 
  2084.000 -40.406  14.035  16.040  14.236 -29.729  14.035  16.040  14.236  0.7900  2083.8  26.680  10.060  15.474  18.055 
  2084.500 -42.903  14.904  16.374  15.171 -32.221  14.904  16.374  15.171  0.7888  2084.3  26.690  10.066  15.477  18.062 
  2085.000 -45.898  15.472  16.642  15.906 -35.212  15.472  16.642  15.906  0.7875  2084.8  26.700  10.073  15.480  18.068 
  2085.500 -46.898  15.756  17.176  16.708 -36.207  15.756  17.176  16.708  0.7863  2085.3  26.710  10.079  15.483  18.075 
  2086.000 -47.730  16.040  17.510  17.477 -37.035  16.040  17.510  17.477  0.7850  2085.8  26.720  10.085  15.486  18.082 
  2086.500 -48.896  16.675  17.811  18.112 -38.196  16.675  17.811  18.112  0.7838  2086.3  26.730  10.091  15.489  18.088 
  2087.000 -50.561  16.909  18.179  18.613 -39.857  16.909  18.179  18.613  0.7825  2086.8  26.740  10.097  15.493  18.094 
  2087.500 -50.895  17.210  18.479  19.048 -40.186  17.210  18.479  19.048  0.7813  2087.3  26.750  10.103  15.496  18.101 
  2088.000 -51.062  17.577  18.814  19.181 -40.349  17.577  18.814  19.181  0.7800  2087.8  26.760  10.109  15.499  18.107 
  2088.500 -51.063  17.778  18.814  19.181 -40.346  17.778  18.814  19.181  0.7788  2088.3  26.770  10.115  15.502  18.114 
  2089.000 -51.063  17.978  18.647  19.048 -40.341  17.978  18.647  19.048  0.7775  2088.8  26.780  10.121  15.505  18.120 
  2089.500 -51.064  18.145  18.312  18.914 -40.338  18.145  18.312  18.914  0.7763  2089.3  26.790  10.127  15.508  18.127 
  2090.000 -50.732  18.279  17.978  18.613 -40.001  18.279  17.978  18.613  0.7750  2089.8  26.800  10.133  15.511  18.133 
  2090.500 -50.567  18.312  17.143  18.379 -39.832  18.312  17.143  18.379  0.7738  2090.3  26.810  10.139  15.514  18.140 
  2091.000 -50.318  18.346  16.842  18.279 -39.578  18.346  16.842  18.279  0.7725  2090.8  26.820  10.145  15.517  18.146 
  2091.500 -50.069  18.446  16.809  18.246 -39.325  18.446  16.809  18.246  0.7713  2091.3  26.830  10.151  15.520  18.152 
  2092.000 -49.072  18.446  17.277  18.246 -38.323  18.446  17.277  18.246  0.7700  2091.8  26.840  10.157  15.523  18.159 
  2092.500 -48.241  18.429  17.611  18.279 -37.488  18.429  17.611  18.279  0.7688  2092.3  26.850  10.163  15.526  18.165 
  2093.000 -47.742  18.413  17.878  18.379 -36.984  18.413  17.878  18.379  0.7675  2092.8  26.860  10.169  15.529  18.172 
  2093.500 -46.412  18.312  18.212  18.446 -35.650  18.312  18.212  18.446  0.7663  2093.3  26.870  10.175  15.532  18.178 
  2094.000 -45.747  18.145  18.914  18.446 -34.980  18.145  18.914  18.446  0.7650  2093.8  26.880  10.181  15.535  18.184 
  2094.500 -44.833  17.845  19.549  18.413 -34.062  17.845  19.549  18.413  0.7638  2094.3  26.890  10.187  15.538  18.191 
  2095.000 -43.918  17.210  19.916  18.279 -33.142  17.210  19.916  18.279  0.7625  2094.8  26.900  10.193  15.541  18.197 
  2095.500 -41.756  13.567  19.950  17.978 -30.976  13.567  19.950  17.978  0.7613  2095.3  26.910  10.199  15.544  18.203 
  2096.000 -40.759  12.398  19.883  17.644 -29.974  12.398  19.883  17.644  0.7600  2095.8  26.920  10.205  15.547  18.210 
  2096.500 -39.096  11.529  19.783  17.143 -28.307  11.529  19.783  17.143  0.7588  2096.3  26.930  10.211  15.550  18.216 
  2097.000 -38.265  10.794  19.449  16.842 -27.471  10.794  19.449  16.842  0.7575  2096.8  26.940  10.217  15.553  18.222 
  2097.500 -36.934  9.6240  18.814  14.302 -26.136  9.6240  18.814  14.302  0.7563  2097.3  26.950  10.223  15.556  18.228 
  2098.000 -34.772  8.2540  18.179  13.133 -23.969  8.2540  18.179  13.133  0.7550  2097.8  26.960  10.229  15.559  18.235 
  2098.500 -30.447  6.8840  17.243  12.398 -19.640  6.8840  17.243  12.398  0.7538  2098.3  26.970  10.234  15.562  18.241 
  2099.000 -19.965  5.8150  14.904  11.395 -9.1533  5.8150  14.904  11.395  0.7525  2098.8  26.980  10.240  15.565  18.247 
  2099.500 -18.302  5.3800  14.637  10.593 -7.4859  5.3800  14.637  10.593  0.7513  2099.3  26.990  10.246  15.568  18.253 
  2100.000 -16.306  4.9460  14.302  9.3900 -5.4854  4.9460  14.302  9.3900  0.7500  2099.8  27.000  10.252  15.571  18.260 
  2100.500 -15.142  4.8120  11.529  8.0200 -4.3169  4.8120  11.529  8.0200  0.7500  2100.3  26.960  10.258  15.574  18.266 
  2101.000 -14.144  4.6450  9.2230  7.7190 -3.3144  4.6450  9.2230  7.7190  0.7500  2100.8  26.920  10.264  15.577  18.272 
  2101.500 -13.977  4.5780  8.3540  7.4180 -3.1429  4.5780  8.3540  7.4180  0.7500  2101.3  26.880  10.269  15.580  18.278 
  2102.000 -13.977  4.5440  7.8520  7.1170 -3.1384  4.5440  7.8520  7.1170  0.7500  2101.8  26.840  10.275  15.583  18.284 
  2102.500 -13.977  4.5440  7.4510  7.2510 -3.1340  4.5440  7.4510  7.2510  0.7500  2102.3  26.800  10.281  15.586  18.291 
  2103.000 -14.643  4.6110  7.3840  7.4840 -3.7955  4.6110  7.3840  7.4840  0.7500  2102.8  26.760  10.287  15.589  18.297 
  2103.500 -16.140  4.6440  7.5180  7.8520 -5.2880  4.6440  7.5180  7.8520  0.7500  2103.3  26.720  10.293  15.592  18.303 
  2104.000 -17.305  4.7440  7.6850  8.0860 -6.4485  4.7440  7.6850  8.0860  0.7500  2103.8  26.680  10.299  15.595  18.309 
  2104.500 -21.964  4.9780  7.8510  8.3530 -11.103  4.9780  7.8510  8.3530  0.7500  2104.3  26.640  10.304  15.598  18.316 
  2105.000 -21.964  5.2450  7.9850  8.6530 -11.099  5.2450  7.9850  8.6530  0.7500  2104.8  26.600  10.310  15.601  18.322 
  2105.500 -20.966  5.3280  8.0850  8.7200 -10.096  5.3280  8.0850  8.7200  0.7500  2105.3  26.560  10.316  15.603  18.328 
  2106.000 -21.798  5.4120  8.1180  8.7530 -10.924  5.4120  8.1180  8.7530  0.7500  2105.8  26.520  10.322  15.606  18.334 
  2106.500 -22.796  5.5450  8.1850  8.8200 -11.917  5.5450  8.1850  8.8200  0.7500  2106.3  26.480  10.328  15.609  18.340 
  2107.000 -23.628  5.6120  8.1850  8.8870 -12.745  5.6120  8.1850  8.8870  0.7500  2106.8  26.440  10.334  15.612  18.347 
  2107.500 -24.543  5.6120  8.1850  9.0530 -13.655  5.6120  8.1850  9.0530  0.7500  2107.3  26.400  10.340  15.615  18.353 
  2108.000 -25.458  5.5780  8.0840  9.2540 -14.566  5.5780  8.0840  9.2540  0.7500  2107.8  26.360  10.345  15.618  18.359 
  2108.500 -26.290  5.5780  8.0170  9.3200 -15.393  5.5780  8.0170  9.3200  0.7500  2108.3  26.320  10.351  15.621  18.365 
  2109.000 -25.126  5.4440  7.9170  9.3870 -14.225  5.4440  7.9170  9.3870  0.7500  2108.8  26.280  10.357  15.624  18.371 
  2109.500 -23.961  5.2430  7.8160  9.3200 -13.055  5.2430  7.8160  9.3200  0.7500  2109.3  26.240  10.363  15.627  18.378 
  2110.000 -22.796  5.0430  7.6160  9.2870 -11.886  5.0430  7.6160  9.2870  0.7500  2109.8  26.200  10.369  15.630  18.384 
  2110.500 -21.964  4.6410  7.4150  9.1530 -11.049  4.6410  7.4150  9.1530  0.7500  2110.3  26.160  10.375  15.632  18.390 
  2111.000 -21.132  4.3070  7.0470  8.9850 -10.213  4.3070  7.0470  8.9850  0.7500  2110.8  26.120  10.381  15.635  18.396 
  2111.500 -19.302  4.1730  6.6790  8.7510 -8.3782  4.1730  6.6790  8.7510  0.7500  2111.3  26.080  10.387  15.638  18.402 
  2112.000 -18.719  4.1060  6.0780  8.4500 -7.7907  4.1060  6.0780  8.4500  0.7500  2111.8  26.040  10.392  15.641  18.409 
  2112.500 -18.137  4.0390  5.3760  8.0160 -7.2043  4.0390  5.3760  8.0160  0.7500  2112.3  26.000  10.398  15.644  18.415 
  2113.000 -17.139  3.9560  5.0080  7.5810 -6.2018  3.9560  5.0080  7.5810  0.7500  2112.8  25.960  10.404  15.647  18.421 
  2113.500 -16.140  3.8720  4.8070  6.9800 -5.1983  3.8720  4.8070  6.9800  0.7500  2113.3  25.920  10.410  15.650  18.427 
  2114.000 -15.807  3.8550  4.6070  6.8120 -4.8608  3.8550  4.6070  6.8120  0.7500  2113.8  25.880  10.416  15.653  18.433 
  2114.500 -15.475  3.8380  4.4400  6.7620 -4.5243  3.8380  4.4400  6.7620  0.7500  2114.3  25.840  10.422  15.655  18.439 
