~Version Information
VERS.                     2.0: CWLS log ASCII Standard Version 2.00
WRAP.                      NO: One line per depth step
~Well Information Block
#MNEM.UNIT                               Data Type  Information
#---------                               ---------  -----------
STRT.FT                                   360.0000:
STOP.FT                                  6850.0000:
STEP.FT                                     0.5000:
NULL.                 -999.25                     :
COMP.                                             :COMPANY            
WELL.     SAN EMIDIO A #17-20                     :WELL               
FLD .                                             :FIELD              
CTRY.                                             :COUNTRY            
STAT.                                             :STATE              
LOC .                                             :LOCATION           
UWI .                                             :UNIQUE WELL ID     
SRVC.                                             :Service company    
DATE.                                             :LOG DATE           
~Curve Information
#MNEM.UNIT           API CODE  Curve Description
#---------           --------  -----------------
DEPT.FT                      :   1 DEPTH
SP  .MV                      :   2
2Z18.OHMM                    :   3
31Z9.OHMM                    :   4
31Z1.OHMM                    :   5
SBL .MV                      :   6
RS  .OHMM                    :   7
RM  .OHMM                    :   8
RD  .OHMM                    :   9
DEVI.DEG                     :  10
TVD .FT                      :  11
AZIM.DEG                     :  12
NORT.FT                      :  13
EAST.FT                      :  14
OFFS.FT                      :  15
~A
# ...
  2960.000 -39.734  15.138  17.410  10.496 -35.937  15.138  17.410  10.496  1.0167  2959.7  53.600  22.874  22.810  32.303 
  2960.500 -39.898  13.634  17.510  10.613 -36.100  13.634  17.510  10.613  1.0155  2960.2  53.530  22.879  22.817  32.312 
  2961.000 -40.063  13.500  17.744  10.814 -36.264  13.500  17.744  10.814  1.0142  2960.7  53.460  22.885  22.824  32.321 
  2961.500 -40.062  13.400  17.945  10.981 -36.262  13.400  17.945  10.981  1.0130  2961.2  53.390  22.890  22.831  32.330 
  2962.000 -38.396  13.701  17.978  11.316 -34.595  13.701  17.978  11.316  1.0117  2961.7  53.320  22.895  22.838  32.338 
  2962.500 -36.564  14.202  17.911  11.617 -32.762  14.202  17.911  11.617  1.0105  2962.2  53.250  22.901  22.845  32.347 
  2963.000 -35.731  14.536  17.577  12.118 -31.928  14.536  17.577  12.118  1.0092  2962.7  53.180  22.906  22.852  32.356 
  2963.500 -35.396  14.837  17.109  12.452 -31.591  14.837  17.109  12.452  1.0080  2963.2  53.110  22.911  22.859  32.365 
  2964.000 -36.226  15.038  16.474  12.720 -32.420  15.038  16.474  12.720  1.0067  2963.7  53.040  22.916  22.866  32.373 
  2964.500 -37.722  15.806  16.207  12.854 -33.915  15.806  16.207  12.854  1.0055  2964.2  52.970  22.922  22.873  32.382 
  2965.000 -40.050  16.307  16.074  12.987 -36.242  16.307  16.074  12.987  1.0042  2964.7  52.900  22.927  22.880  32.391 
  2965.500 -41.379  16.441  15.940  13.188 -37.570  16.441  15.940  13.188  1.0030  2965.2  52.830  22.932  22.887  32.399 
  2966.000 -42.376  16.575  16.060  13.422 -38.566  16.575  16.060  13.422  1.0017  2965.7  52.760  22.937  22.894  32.408 
  2966.500 -42.541  16.792  16.180  13.589 -38.730  16.792  16.180  13.589  1.0005  2966.2  52.690  22.943  22.901  32.417 
  2967.000 -42.373  17.009  16.301  13.790 -38.560  17.009  16.301  13.790  0.9992  2966.7  52.620  22.948  22.908  32.425 
  2967.500 -42.205  17.126  16.421  14.091 -38.391  17.126  16.421  14.091  0.9980  2967.2  52.550  22.953  22.915  32.434 
  2968.000 -41.871  17.243  16.541  14.325 -38.056  17.243  16.541  14.325  0.9967  2967.7  52.480  22.959  22.922  32.443 
  2968.500 -42.202  17.276  16.742  14.726 -38.386  17.276  16.742  14.726  0.9955  2968.2  52.410  22.964  22.929  32.451 
  2969.000 -41.867  17.210  16.926  14.877 -38.050  17.210  16.926  14.877  0.9942  2968.7  52.340  22.969  22.936  32.460 
  2969.500 -41.616  17.143  17.109  15.027 -37.798  17.143  17.109  15.027  0.9930  2969.2  52.270  22.975  22.943  32.468 
  2970.000 -41.364  16.976  17.277  15.295 -37.545  16.976  17.277  15.295  0.9917  2969.7  52.200  22.980  22.949  32.477 
  2970.500 -41.197  16.875  17.444  15.345 -37.376  16.875  17.444  15.345  0.9905  2970.2  52.130  22.985  22.956  32.486 
  2971.000 -41.195  16.909  17.677  15.396 -37.373  16.909  17.677  15.396  0.9892  2970.7  52.060  22.990  22.963  32.494 
  2971.500 -41.027  17.043  17.811  15.630 -37.204  17.043  17.811  15.630  0.9880  2971.2  51.990  22.996  22.970  32.503 
  2972.000 -41.025  17.243  17.978  15.763 -37.201  17.243  17.978  15.763  0.9867  2971.7  51.920  23.001  22.977  32.511 
  2972.500 -41.024  17.544  18.145  15.797 -37.199  17.544  18.145  15.797  0.9855  2972.2  51.850  23.006  22.983  32.520 
  2973.000 -41.188  17.911  18.312  15.797 -37.362  17.911  18.312  15.797  0.9842  2972.7  51.780  23.012  22.990  32.528 
  2973.500 -41.686  18.279  18.480  15.797 -37.859  18.279  18.480  15.797  0.9830  2973.2  51.710  23.017  22.997  32.537 
  2974.000 -42.183  18.713  18.613  15.797 -38.354  18.713  18.613  15.797  0.9817  2973.7  51.640  23.022  23.004  32.545 
  2974.500 -42.680  18.947  18.914  15.831 -38.850  18.947  18.914  15.831  0.9805  2974.2  51.570  23.028  23.010  32.554 
  2975.000 -43.345  19.282  19.148  15.848 -39.514  19.282  19.148  15.848  0.9792  2974.7  51.500  23.033  23.017  32.562 
  2975.500 -44.341  19.482  19.449  15.865 -40.509  19.482  19.449  15.865  0.9780  2975.2  51.430  23.038  23.024  32.571 
  2976.000 -45.172  19.883  19.783  15.932 -41.339  19.883  19.783  15.932  0.9767  2975.7  51.360  23.044  23.030  32.579 
  2976.500 -45.336  19.886  19.794  15.999 -41.502  19.886  19.794  15.999  0.9755  2976.2  51.290  23.049  23.037  32.588 
  2977.000 -46.333 -999.25  19.805  16.133 -42.498 -999.25  19.805  16.133  0.9742  2976.7  51.220  23.054  23.044  32.596 
  2977.500 -46.830 -999.25  19.816  16.266 -42.993 -999.25  19.816  16.266  0.9730  2977.2  51.150  23.060  23.050  32.605 
  2978.000 -46.995 -999.25  19.827  16.634 -43.157 -999.25  19.827  16.634  0.9717  2977.7  51.080  23.065  23.057  32.613 
  2978.500 -46.827 -999.25  19.838  16.969 -42.988 -999.25  19.838  16.969  0.9705  2978.2  51.010  23.070  23.063  32.621 
  2979.000 -46.659 -999.25  19.850  17.403 -42.819 -999.25  19.850  17.403  0.9692  2978.7  50.940  23.076  23.070  32.630 
  2979.500 -45.825 -999.25  19.861  17.704 -41.984 -999.25  19.861  17.704  0.9680  2979.2  50.870  23.081  23.076  32.638 
  2980.000 -44.992 -999.25  19.872  18.139 -41.150 -999.25  19.872  18.139  0.9667  2979.7  50.800  23.086  23.083  32.647 
  2980.500 -43.659 -999.25  19.883  18.306 -39.816 -999.25  19.883  18.306  0.9655  2980.2  50.730  23.092  23.090  32.655 
  2981.000 -42.825  19.916  19.894  18.640 -38.980  19.916  19.894  18.640  0.9642  2980.7  50.660  23.097  23.096  32.663 
  2981.500 -42.325  19.783  19.905  18.908 -38.479  19.783  19.905  18.908  0.9630  2981.2  50.590  23.102  23.103  32.672 
  2982.000 -41.491  19.549  19.916  18.975 -37.644  19.549  19.916  18.975  0.9617  2981.7  50.520  23.108  23.109  32.680 
  2982.500 -40.824  18.847  19.928  18.942 -36.976  18.847  19.928  18.942  0.9605  2982.2  50.450  23.113  23.115  32.688 
  2983.000 -40.656  18.312  19.939  18.808 -36.807  18.312  19.939  18.808  0.9592  2982.7  50.380  23.118  23.122  32.697 
  2983.500 -40.654  18.145  19.950  18.608 -36.804  18.145  19.950  18.608  0.9580  2983.2  50.310  23.124  23.128  32.705 
  2984.000 -40.652  18.012  19.961  18.441 -36.801  18.012  19.961  18.441  0.9567  2983.7  50.240  23.129  23.135  32.713 
  2984.500 -40.651  17.978  19.972  18.341 -36.798  17.978  19.972  18.341  0.9555  2984.2  50.170  23.134  23.141  32.722 
  2985.000 -41.148  17.945  19.983  18.241 -37.294  17.945  19.983  18.241  0.9542  2984.7  50.100  23.140  23.148  32.730 
  2985.500 -41.812  17.811  19.983  18.207 -37.957  17.811  19.983  18.207  0.9530  2985.2  50.030  23.145  23.154  32.738 
  2986.000 -41.145  17.477  19.983  18.408 -37.289  17.477  19.983  18.408  0.9517  2985.7  49.960  23.150  23.160  32.747 
  2986.500 -40.977  16.909  19.983  18.642 -37.120  16.909  19.983  18.642  0.9505  2986.2  49.890  23.156  23.167  32.755 
  2987.000 -39.478  16.274  19.980  19.043 -35.620  16.274  19.980  19.043  0.9492  2986.7  49.820  23.161  23.173  32.763 
  2987.500 -38.145  15.572  19.976  19.211 -34.286  15.572  19.976  19.211  0.9480  2987.2  49.750  23.166  23.179  32.771 
  2988.000 -37.477  14.870  19.972  19.445 -33.616  14.870  19.972  19.445  0.9467  2987.7  49.680  23.172  23.186  32.780 
  2988.500 -36.810  12.030  19.968  19.345 -32.948  12.030  19.968  19.345  0.9455  2988.2  49.610  23.177  23.192  32.788 
  2989.000 -34.146  11.429  19.965  19.144 -30.283  11.429  19.965  19.144  0.9442  2988.7  49.540  23.182  23.198  32.796 
  2989.500 -31.483  10.827  19.961  18.643 -27.619  10.827  19.961  18.643  0.9430  2989.2  49.470  23.188  23.204  32.804 
  2990.000 -29.484  8.6880  19.957  18.109 -25.619  8.6880  19.957  18.109  0.9417  2989.7  49.400  23.193  23.211  32.812 
  2990.500 -27.985  7.2850  19.954  16.638 -24.119  7.2850  19.954  16.638  0.9405  2990.2  49.330  23.198  23.217  32.821 
  2991.000 -26.486  6.7840  19.950  16.070 -22.619  6.7840  19.950  16.070  0.9392  2990.7  49.260  23.204  23.223  32.829 
  2991.500 -22.824  6.4490  17.009  15.302 -18.955  6.4490  17.009  15.302  0.9380  2991.2  49.190  23.209  23.229  32.837 
  2992.000 -20.825  6.2490  15.104  14.032 -16.955  6.2490  15.104  14.032  0.9367  2991.7  49.120  23.214  23.235  32.845 
