~Version Information
VERS.                     2.0: CWLS log ASCII Standard Version 2.00
WRAP.                      NO: One line per depth step
~Well Information Block
#MNEM.UNIT                               Data Type  Information
#---------                               ---------  -----------
STRT.FT                                   360.0000:
STOP.FT                                  6850.0000:
STEP.FT                                     0.5000:
NULL.                 -999.25                     :
COMP.                                             :COMPANY            
WELL.     SAN EMIDIO A #17-20                     :WELL               
FLD .                                             :FIELD              
CTRY.                                             :COUNTRY            
STAT.                                             :STATE              
LOC .                                             :LOCATION           
UWI .                                             :UNIQUE WELL ID     
SRVC.                                             :Service company    
DATE.                                             :LOG DATE           
~Curve Information
#MNEM.UNIT           API CODE  Curve Description
#---------           --------  -----------------
DEPT.FT                      :   1 DEPTH
SP  .MV                      :   2
2Z18.OHMM                    :   3
31Z9.OHMM                    :   4
31Z1.OHMM                    :   5
SBL .MV                      :   6
RS  .OHMM                    :   7
RM  .OHMM                    :   8
RD  .OHMM                    :   9
DEVI.DEG                     :  10
TVD .FT                      :  11
AZIM.DEG                     :  12
NORT.FT                      :  13
EAST.FT                      :  14
OFFS.FT                      :  15
~A
# ...
  3382.500 -45.450  16.908  12.801  10.413 -40.688  16.908  12.801  10.413  0.8917  3382.1  34.225  28.868  27.444  39.818 
  3383.000 -45.613  16.440  12.600  9.8460 -40.850  16.440  12.600  9.8460  0.8900  3382.6  34.190  28.874  27.448  39.826 
  3383.500 -45.777  15.873  12.400  9.5790 -41.012  15.873  12.400  9.5790  0.8883  3383.1  34.155  28.880  27.452  39.833 
  3384.000 -46.273  15.439  12.166  9.4620 -41.507  15.439  12.166  9.4620  0.8867  3383.6  34.120  28.887  27.457  39.841 
  3384.500 -45.937  15.238  12.033  9.3450 -41.170  15.238  12.033  9.3450  0.8850  3384.1  34.085  28.893  27.461  39.848 
  3385.000 -45.600  14.938  11.899  9.2120 -40.832  14.938  11.899  9.2120  0.8833  3384.6  34.050  28.900  27.465  39.856 
  3385.500 -45.263  14.370  11.732  9.1450 -40.494  14.370  11.732  9.1450  0.8817  3385.1  34.015  28.906  27.470  39.864 
  3386.000 -45.093  14.036  11.599  9.1110 -40.323  14.036  11.599  9.1110  0.8800  3385.6  33.980  28.912  27.474  39.871 
  3386.500 -45.257  14.070  11.554  9.2780 -40.486  14.070  11.554  9.2780  0.8783  3386.1  33.945  28.919  27.478  39.879 
  3387.000 -45.587  14.370  11.510  9.3280 -40.814  14.370  11.510  9.3280  0.8767  3386.6  33.910  28.925  27.482  39.886 
  3387.500 -45.833  14.487  11.465  9.3790 -41.059  14.487  11.465  9.3790  0.8750  3387.1  33.875  28.931  27.487  39.894 
  3388.000 -46.080  14.604  12.400  9.5290 -41.305  14.604  12.400  9.5290  0.8733  3387.6  33.840  28.938  27.491  39.901 
  3388.500 -46.410  14.804  12.935  9.6790 -41.634  14.804  12.935  9.6790  0.8717  3388.1  33.805  28.944  27.495  39.909 
  3389.000 -46.573  14.838  13.235  9.7290 -41.796  14.838  13.235  9.7290  0.8700  3388.6  33.770  28.950  27.499  39.916 
  3389.500 -46.737  14.704  13.569  9.7790 -41.959  14.704  13.569  9.7790  0.8683  3389.1  33.735  28.957  27.504  39.923 
  3390.000 -46.900  14.337  14.103  9.8460 -42.121  14.337  14.103  9.8460  0.8667  3389.6  33.700  28.963  27.508  39.931 
  3390.500 -46.730  13.168  14.304  9.8460 -41.949  13.168  14.304  9.8460  0.8650  3390.1  33.665  28.969  27.512  39.938 
  3391.000 -45.727  12.734  14.571  9.8290 -40.945  12.734  14.571  9.8290  0.8633  3390.6  33.630  28.976  27.516  39.946 
  3391.500 -44.390  12.501  14.637  9.8130 -39.607  12.501  14.637  9.8130  0.8617  3391.1  33.595  28.982  27.520  39.953 
  3392.000 -42.220  12.400  14.704  9.7790 -37.436  12.400  14.704  9.7790  0.8600  3391.6  33.560  28.988  27.524  39.960 
  3392.500 -40.717  12.734  14.604  9.8290 -35.932  12.734  14.604  9.8290  0.8583  3392.1  33.525  28.994  27.529  39.968 
  3393.000 -39.047  13.168  14.370  9.8800 -34.261  13.168  14.370  9.8800  0.8567  3392.6  33.490  29.001  27.533  39.975 
  3393.500 -37.543  13.469  13.903  10.180 -32.756  13.469  13.903  10.180  0.8550  3393.1  33.455  29.007  27.537  39.982 
  3394.000 -37.373  13.703  13.736  10.414 -32.584  13.703  13.736  10.414  0.8533  3393.6  33.420  29.013  27.541  39.990 
  3394.500 -37.870  13.936  13.769  10.915 -33.080  13.936  13.769  10.915  0.8517  3394.1  33.385  29.019  27.545  39.997 
  3395.000 -38.367  14.103  13.970  11.148 -33.576  14.103  13.970  11.148  0.8500  3394.6  33.350  29.025  27.549  40.004 
  3395.500 -40.030  14.370  14.053  11.416 -35.238  14.370  14.053  11.416  0.8483  3395.1  33.315  29.032  27.553  40.011 
  3396.000 -42.693  14.537  14.137  11.716 -37.900  14.537  14.137  11.716  0.8467  3395.6  33.280  29.038  27.557  40.019 
  3396.500 -45.023  15.305  14.371  12.017 -40.229  15.305  14.371  12.017  0.8450  3396.1  33.245  29.044  27.561  40.026 
  3397.000 -45.853  15.305  14.437  12.284 -41.058  15.305  14.437  12.284  0.8433  3396.6  33.210  29.050  27.565  40.033 
  3397.500 -46.017  15.205  14.504  12.551 -41.220  15.205  14.504  12.551  0.8417  3397.1  33.175  29.056  27.569  40.040 
  3398.000 -45.180  14.704  14.471  12.751 -40.382  14.704  14.471  12.751  0.8400  3397.6  33.140  29.062  27.573  40.047 
  3398.500 -44.343  11.833  14.404  12.768 -39.544  11.833  14.404  12.768  0.8383  3398.1  33.105  29.068  27.577  40.055 
  3399.000 -43.340  10.898  14.270  12.785 -38.540  10.898  14.270  12.785  0.8367  3398.6  33.070  29.075  27.581  40.062 
  3399.500 -41.337  8.8280  14.204  12.701 -36.536  8.8280  14.204  12.701  0.8350  3399.1  33.035  29.081  27.585  40.069 
  3400.000 -38.667  8.1940  14.137  12.618 -33.865  8.1940  14.137  12.618  0.8333  3399.6  33.000  29.087  27.589  40.076 
  3400.500 -35.333  7.5260  13.770  11.516 -30.530  7.5260  13.770  11.516  0.8337  3400.1  32.865  29.093  27.593  40.083 
  3401.000 -32.667  6.8580  11.165  9.7800 -27.862  6.8580  11.165  9.7800  0.8342  3400.6  32.730  29.099  27.597  40.090 
  3401.500 -27.500  6.5580  9.9300  9.0790 -22.694  6.5580  9.9300  9.0790  0.8346  3401.1  32.595  29.105  27.601  40.097 
  3402.000 -18.167  6.5240  9.3960  8.6110 -13.360  6.5240  9.3960  8.6110  0.8350  3401.6  32.460  29.111  27.605  40.104 
  3402.500 -15.833  6.7910  8.5610  8.4110 -11.025  6.7910  8.5610  8.4110  0.8354  3402.1  32.325  29.117  27.609  40.112 
  3403.000 -14.500  7.7260  8.0600  8.0100 -9.6909  7.7260  8.0600  8.0100  0.8358  3402.6  32.190  29.124  27.613  40.119 
  3403.500 -14.167  9.0620  7.4590  8.4780 -9.3567  9.0620  7.4590  8.4780  0.8362  3403.1  32.055  29.130  27.617  40.126 
  3404.000 -14.833  10.464  7.2920  8.8450 -10.022  10.464  7.2920  8.8450  0.8367  3403.6  31.920  29.136  27.620  40.133 
  3404.500 -15.667  10.998  7.8600  9.2790 -10.854  10.998  7.8600  9.2790  0.8371  3404.1  31.785  29.142  27.624  40.140 
  3405.000 -17.500  11.633  8.4940  9.7130 -12.686  11.633  8.4940  9.7130  0.8375  3404.6  31.650  29.148  27.628  40.147 
  3405.500 -22.167  12.067  8.9950  9.9800 -17.352  12.067  8.9950  9.9800  0.8379  3405.1  31.515  29.155  27.632  40.154 
  3406.000 -24.833  12.802  9.5290  10.214 -20.017  12.802  9.5290  10.214  0.8383  3405.6  31.380  29.161  27.636  40.161 
  3406.500 -27.667  13.336  9.9970  10.347 -22.850  13.336  9.9970  10.347  0.8387  3406.1  31.245  29.167  27.640  40.168 
  3407.000 -37.167  13.803  10.398  10.481 -32.349  13.803  10.398  10.481  0.8392  3406.6  31.110  29.173  27.643  40.176 
  3407.500 -38.833  14.104  10.631  10.565 -34.014  14.104  10.631  10.565  0.8396  3407.1  30.975  29.180  27.647  40.183 
  3408.000 -41.167  14.304  10.865  10.648 -36.346  14.304  10.865  10.648  0.8400  3407.6  30.840  29.186  27.651  40.190 
  3408.500 -43.000  14.671  10.965  10.782 -38.178  14.671  10.965  10.782  0.8404  3408.1  30.705  29.192  27.655  40.197 
  3409.000 -44.833  15.506  11.166  10.949 -40.010  15.506  11.166  10.949  0.8408  3408.6  30.570  29.199  27.658  40.204 
  3409.500 -46.333  16.374  11.333  11.216 -41.509  16.374  11.333  11.216  0.8412  3409.1  30.435  29.205  27.662  40.211 
  3410.000 -47.333  17.142  11.466  11.550 -42.508  17.142  11.466  11.550  0.8417  3409.6  30.300  29.211  27.666  40.218 
  3410.500 -47.667  17.643  11.600  11.917 -42.841  17.643  11.600  11.917  0.8421  3410.1  30.165  29.218  27.669  40.225 
  3411.000 -47.000  18.778  11.800  12.351 -42.173  18.778  11.800  12.351  0.8425  3410.6  30.030  29.224  27.673  40.232 
  3411.500 -45.833  18.778  11.717  12.585 -41.004  18.778  11.717  12.585  0.8429  3411.1  29.895  29.230  27.677  40.240 
  3412.000 -45.667  18.712  11.633  12.818 -40.837  18.712  11.633  12.818  0.8433  3411.6  29.760  29.237  27.680  40.247 
  3412.500 -45.500  18.645  11.600  12.985 -40.669  18.645  11.600  12.985  0.8437  3412.1  29.625  29.243  27.684  40.254 
  3413.000 -45.333  17.743  11.867  13.052 -40.501  17.743  11.867  13.052  0.8442  3412.6  29.490  29.250  27.688  40.261 
  3413.500 -44.167  15.440  12.234  12.952 -39.334  15.440  12.234  12.952  0.8446  3413.1  29.355  29.256  27.691  40.268 
  3414.000 -43.667  14.972  12.568  12.852 -38.833  14.972  12.568  12.852  0.8450  3413.6  29.220  29.262  27.695  40.275 
  3414.500 -42.333  12.435  12.802  12.451 -37.498  12.435  12.802  12.451  0.8454  3414.1  29.085  29.269  27.699  40.282 
