~Version Information
VERS.                     2.0: CWLS log ASCII Standard Version 2.00
WRAP.                      NO: One line per depth step
~Well Information Block
#MNEM.UNIT                               Data Type  Information
#---------                               ---------  -----------
STRT.FT                                   360.0000:
STOP.FT                                  6850.0000:
STEP.FT                                     0.5000:
NULL.                 -999.25                     :
COMP.                                             :COMPANY            
WELL.     SAN EMIDIO A #17-20                     :WELL               
FLD .                                             :FIELD              
CTRY.                                             :COUNTRY            
STAT.                                             :STATE              
LOC .                                             :LOCATION           
UWI .                                             :UNIQUE WELL ID     
SRVC.                                             :Service company    
DATE.                                             :LOG DATE           
~Curve Information
#MNEM.UNIT           API CODE  Curve Description
#---------           --------  -----------------
DEPT.FT                      :   1 DEPTH
SP  .MV                      :   2
2Z18.OHMM                    :   3
31Z9.OHMM                    :   4
31Z1.OHMM                    :   5
SBL .MV                      :   6
RS  .OHMM                    :   7
RM  .OHMM                    :   8
RD  .OHMM                    :   9
DEVI.DEG                     :  10
TVD .FT                      :  11
AZIM.DEG                     :  12
NORT.FT                      :  13
EAST.FT                      :  14
OFFS.FT                      :  15
~A
   360.000 -20.167 -999.25  0.3350 -999.25 -7.1670 -999.25  0.3350 -999.25  0.4333  360.00  64.200  1.6272  0.2120  1.3006 
   360.500 -21.501 -999.25  0.6130 -999.25 -8.5010 -999.25  0.6130 -999.25  0.4342  360.50  64.735  1.6288  0.2155  1.3041 
   361.000 -21.835 -999.25  0.8920 -999.25 -8.8350 -999.25  0.8920 -999.25  0.4350  361.00  65.270  1.6304  0.2189  1.3077 
   361.500 -22.003 -999.25  1.1710 -999.25 -9.0030 -999.25  1.1710 -999.25  0.4358  361.50  65.805  1.6320  0.2224  1.3112 
   362.000 -22.003 -999.25  3.2780 -999.25 -9.0030 -999.25  3.2780 -999.25  0.4367  362.00  66.340  1.6335  0.2259  1.3148 
   362.500 -21.838 -999.25  5.6580 -999.25 -8.8380 -999.25  5.6580 -999.25  0.4375  362.50  66.875  1.6350  0.2294  1.3183 
   363.000 -21.338 -999.25  8.0390 -999.25 -8.3380 -999.25  8.0390 -999.25  0.4383  363.00  67.410  1.6365  0.2329  1.3219 
   363.500 -21.172 -999.25  10.419 -999.25 -8.1720 -999.25  10.419 -999.25  0.4392  363.50  67.945  1.6379  0.2365  1.3254 
   364.000 -21.007 -999.25  12.799 -999.25 -8.0070 -999.25  12.799 -999.25  0.4400  364.00  68.480  1.6393  0.2400  1.3289 
   364.500 -21.008 -999.25  15.179 -999.25 -8.0080 -999.25  15.179 -999.25  0.4408  364.50  69.015  1.6407  0.2436  1.3324 
   365.000 -21.258 -999.25  17.559 -999.25 -8.2580 -999.25  17.559 -999.25  0.4417  365.00  69.550  1.6420  0.2473  1.3359 
   365.500 -21.509 -999.25  19.940 -999.25 -8.5090 -999.25  19.940 -999.25  0.4425  365.50  70.085  1.6434  0.2509  1.3394 
   366.000 -22.177 -999.25  19.705 -999.25 -9.1770 -999.25  19.705 -999.25  0.4433  366.00  70.620  1.6446  0.2545  1.3429 
   366.500 -22.844 -999.25 -999.25 -999.25 -9.8440 -999.25  19.939 -999.25  0.4442  366.50  71.155  1.6459  0.2582  1.3464 
   367.000 -24.178 -999.25 -999.25 -999.25 -11.178 -999.25  19.939 -999.25  0.4450  367.00  71.690  1.6471  0.2619  1.3499 
   367.500 -27.679 -999.25 -999.25 -999.25 -14.679 -999.25  19.905 -999.25  0.4458  367.50  72.225  1.6483  0.2656  1.3533 
   368.000 -29.180 -999.25 -999.25 -999.25 -16.180 -999.25  19.905 -999.25  0.4467  368.00  72.760  1.6495  0.2693  1.3568 
   368.500 -29.514 -999.25 -999.25 -999.25 -16.514 -999.25  19.939 -999.25  0.4475  368.50  73.295  1.6506  0.2731  1.3602 
   369.000 -29.265 -999.25 -999.25 -999.25 -16.265 -999.25  19.938 -999.25  0.4483  369.00  73.830  1.6517  0.2768  1.3636 
   369.500 -29.016 -999.25 -999.25 -999.25 -16.016 -999.25  19.938 -999.25  0.4492  369.50  74.365  1.6527  0.2806  1.3671 
   370.000 -28.350 -999.25 -999.25 -999.25 -15.350 -999.25  19.938 -999.25  0.4500  370.00  74.900  1.6538  0.2844  1.3705 
   370.500 -27.851 -999.25 -999.25 -999.25 -14.851 -999.25  19.938 -999.25  0.4508  370.50  75.435  1.6547  0.2882  1.3739 
   371.000 -27.518 -999.25 -999.25 -999.25 -14.518 -999.25  19.938 -999.25  0.4517  371.00  75.970  1.6557  0.2920  1.3772 
   371.500 -27.186 -999.25 -999.25 -999.25 -14.186 -999.25  19.954 -999.25  0.4525  371.50  76.505  1.6566  0.2958  1.3806 
   372.000 -26.687 -999.25 -999.25 -999.25 -13.687 -999.25  19.971 -999.25  0.4533  372.00  77.040  1.6575  0.2997  1.3840 
   372.500 -26.688 -999.25 -999.25 -999.25 -13.688 -999.25  19.971 -999.25  0.4542  372.50  77.575  1.6584  0.3036  1.3873 
   373.000 -26.688  19.870 -999.25 -999.25 -13.688  19.870  19.971 -999.25  0.4550  373.00  78.110  1.6592  0.3075  1.3906 
   373.500 -27.189  18.967 -999.25 -999.25 -14.189  18.967  19.970 -999.25  0.4558  373.50  78.645  1.6600  0.3114  1.3939 
   374.000 -27.857  18.431 -999.25 -999.25 -14.857  18.431  19.970 -999.25  0.4567  374.00  79.180  1.6607  0.3153  1.3972 
   374.500 -28.191  17.762 -999.25 -999.25 -15.191  17.762  19.953 -999.25  0.4575  374.50  79.715  1.6614  0.3192  1.4005 
   375.000 -28.192  16.524 -999.25 -999.25 -15.192  16.524  19.936 -999.25  0.4583  375.00  80.250  1.6621  0.3231  1.4038 
   375.500 -28.193  15.520 -999.25 -999.25 -15.193  15.520  19.936 -999.25  0.4592  375.49  80.785  1.6627  0.3271  1.4070 
   376.000 -27.360  13.880 -999.25 -999.25 -14.360  13.880  19.903 -999.25  0.4600  375.99  81.320  1.6633  0.3311  1.4103 
   376.500 -26.694  13.278 -999.25 -999.25 -13.694  13.278  19.902 -999.25  0.4608  376.49  81.855  1.6639  0.3350  1.4135 
   377.000 -26.195  10.433 -999.25 -999.25 -13.195  10.433  19.902 -999.25  0.4617  376.99  82.390  1.6644  0.3390  1.4167 
   377.500 -25.196  9.6300 -999.25  19.916 -12.196  9.6300  19.869  19.916  0.4625  377.49  82.925  1.6649  0.3430  1.4199 
   378.000 -24.697  9.3960  19.868  19.280 -11.697  9.3960  19.868  19.280  0.4633  377.99  83.460  1.6654  0.3471  1.4230 
   378.500 -24.198  8.8270  18.363  18.176 -11.198  8.8270  18.363  18.176  0.4642  378.49  83.995  1.6658  0.3511  1.4262 
   379.000 -23.698  8.0240  17.158  17.305 -10.698  8.0240  17.158  17.305  0.4650  378.99  84.530  1.6662  0.3551  1.4293 
   379.500 -22.699  7.9570  16.188  13.792 -9.6990  7.9570  16.188  13.792  0.4658  379.49  85.065  1.6666  0.3592  1.4324 
   380.000 -22.033  7.8560  14.180  12.788 -9.0330  7.8560  14.180  12.788  0.4667  379.99  85.600  1.6669  0.3632  1.4355 
   380.500 -21.534  7.9560  13.243  9.8430 -8.5340  7.9560  13.243  9.8430  0.4675  380.49  86.135  1.6672  0.3673  1.4386 
   381.000 -20.868  8.0570  10.499  9.1740 -7.8680  8.0570  10.499  9.1740  0.4683  380.99  86.670  1.6674  0.3714  1.4416 
   381.500 -20.869  8.1570  9.9300  9.2410 -7.8690  8.1570  9.9300  9.2410  0.4692  381.49  87.205  1.6676  0.3755  1.4447 
   382.000 -21.703  8.3910  9.1270  9.4080 -8.7030  8.3910  9.1270  9.4080  0.4700  381.99  87.740  1.6678  0.3796  1.4477 
   382.500 -22.204  8.6250  8.6920  10.077 -9.2040  8.6250  8.6920  10.077  0.4708  382.49  88.275  1.6679  0.3837  1.4507 
   383.000 -22.705  9.0260  8.6250  11.448 -9.7050  9.0260  8.6250  11.448  0.4717  382.99  88.810  1.6680  0.3878  1.4536 
   383.500 -24.206  10.465  8.7920  12.318 -11.206  10.465  8.7920  12.318  0.4725  383.49  89.345  1.6680  0.3919  1.4566 
   384.000 -24.707  9.8960  8.9250  12.652 -11.707  9.8960  8.9250  12.652  0.4733  383.99  89.880  1.6680  0.3961  1.4595 
   384.500 -25.207  10.381  9.3940  13.890 -12.207  10.381  9.3940  13.890  0.4742  384.49  90.415  1.6680  0.4002  1.4624 
   385.000 -26.708  10.866  9.6280  14.592 -13.708  10.866  9.6280  14.592  0.4750  384.99  90.950  1.6679  0.4043  1.4653 
   385.500 -29.043  13.141  10.397  15.328 -16.043  13.141  10.397  15.328  0.4758  385.49  91.485  1.6678  0.4085  1.4682 
   386.000 -29.710  14.011  10.798  16.633 -16.710  14.011  10.798  16.633  0.4767  385.99  92.020  1.6677  0.4126  1.4710 
   386.500 -31.044  14.847  11.401  17.268 -18.044  14.847  11.401  17.268  0.4775  386.49  92.555  1.6675  0.4168  1.4738 
   387.000 -31.545  19.062  12.103  17.870 -18.545  19.062  12.103  17.870  0.4783  386.99  93.090  1.6673  0.4210  1.4766 
   387.500 -32.046  19.999  12.672  18.472 -19.046  19.999  12.672  18.472  0.4792  387.49  93.625  1.6670  0.4251  1.4794 
   388.000 -32.547 -999.25  13.140  19.643 -19.547 -999.25  13.140  19.643  0.4800  387.99  94.160  1.6667  0.4293  1.4821 
   388.500 -33.048 -999.25  13.508  19.910 -20.048 -999.25  13.508  19.910  0.4808  388.49  94.695  1.6663  0.4335  1.4848 
   389.000 -33.382 -999.25  14.177  19.944 -20.382 -999.25  14.177  19.944  0.4817  388.99  95.230  1.6660  0.4377  1.4875 
   389.500 -33.549 -999.25  14.511  19.943 -20.549 -999.25  14.511  19.943  0.4825  389.49  95.765  1.6655  0.4419  1.4902 
   390.000 -33.717 -999.25  15.180  19.943 -20.717 -999.25  15.180  19.943  0.4833  389.99  96.300  1.6651  0.4461  1.4928 
   390.500 -34.384 -999.25  15.648  19.943 -21.384 -999.25  15.648  19.943  0.4842  390.49  96.835  1.6646  0.4503  1.4954 
   391.000 -34.718 -999.25  16.050  19.943 -21.718 -999.25  16.050  19.943  0.4850  390.99  97.370  1.6640  0.4545  1.4980 
   391.500 -35.053 -999.25  16.384  19.942 -22.053 -999.25  16.384  19.942  0.4858  391.49  97.905  1.6634  0.4587  1.5006 
   392.000 -34.720 -999.25  17.622  19.942 -21.720 -999.25  17.622  19.942  0.4867  391.99  98.440  1.6628  0.4629  1.5031 
