~Version Information
VERS.                     2.0: CWLS log ASCII Standard Version 2.00
WRAP.                      NO: One line per depth step
~Well Information Block
#MNEM.UNIT                               Data Type  Information
#---------                               ---------  -----------
STRT.FT                                   660.0000:
STOP.FT                                  9080.0000:
STEP.FT                                     0.5000:
NULL.                 -999.25                     :
COMP.                                             :COMPANY            
WELL.     SAN EMIDIO #27-21                       :WELL               
FLD .                                             :FIELD              
CTRY.                                             :COUNTRY            
STAT.                                             :STATE              
LOC .                                             :LOCATION           
UWI .                                             :UNIQUE WELL ID     
SRVC.                                             :Service company    
DATE.                                             :LOG DATE           
~Curve Information
#MNEM.UNIT           API CODE  Curve Description
#---------           --------  -----------------
DEPT.FT                      :   1 DEPTH
SP  .MV                      :   2
AM16.OHMM                    :   3
AO10.OHMM                    :   4
AO19.OHMM                    :   5
SBL .MV                      :   6
RS  .OHMM                    :   7
RM  .OHMM                    :   8
RD  .OHMM                    :   9
DEVI.DEG                     :  10
TVD .FT                      :  11
AZIM.DEG                     :  12
NORT.FT                      :  13
EAST.FT                      :  14
OFFS.FT                      :  15
~A
# ...
  1212.500 -32.432  11.315  27.367  18.641 -10.432  11.315  27.367  18.641  0.4687  1212.5  81.501  4.8305  2.3731  5.0937 
  1213.000 -31.978  10.418  26.652  18.498 -9.9780  10.418  26.652  18.498  0.4675  1213.0  81.641  4.8310  2.3772  5.0970 
  1213.500 -31.525  9.7720  25.579  17.637 -9.5250  9.7720  25.579  17.637  0.4662  1213.5  81.781  4.8316  2.3812  5.1002 
  1214.000 -30.079  9.1620  21.994  17.404 -8.0790  9.1620  21.994  17.404  0.4650  1214.0  81.921  4.8322  2.3852  5.1035 
  1214.500 -28.634  8.6960 -999.25  17.171 -6.6340  8.6960 -999.25  17.171  0.4637  1214.5  82.061  4.8328  2.3892  5.1067 
  1215.000 -28.270  8.0140 -999.25  12.004 -6.2700  8.0140 -999.25  12.004  0.4625  1215.0  82.201  4.8333  2.3932  5.1099 
  1215.500 -28.086  7.7100  19.930  11.251 -6.0860  7.7100  19.930  11.251  0.4612  1215.5  82.341  4.8338  2.3972  5.1131 
  1216.000 -27.182  7.4050  18.782  10.067 -5.1820  7.4050  18.782  10.067  0.4600  1216.0  82.481  4.8344  2.4012  5.1163 
  1216.500 -26.097  6.8310  14.871  9.2780 -4.0970  6.8310  14.871  9.2780  0.4587  1216.5  82.621  4.8349  2.4052  5.1195 
  1217.000 -26.634  6.6520  13.687  9.0450 -4.6340  6.6520  13.687  9.0450  0.4575  1217.0  82.761  4.8354  2.4091  5.1226 
  1217.500 -27.531  6.5090  11.318  8.8120 -5.5310  6.5090  11.318  8.8120  0.4562  1217.5  82.901  4.8359  2.4131  5.1258 
  1218.000 -27.708  6.4010  11.247  8.9560 -5.7080  6.4010  11.247  8.9560  0.4550  1218.0  83.041  4.8364  2.4170  5.1289 
  1218.500 -28.245  6.4020  11.714  9.3160 -6.2450  6.4020  11.714  9.3160  0.4537  1218.5  83.181  4.8368  2.4210  5.1320 
  1219.000 -29.142  6.3660  12.109  10.070 -7.1420  6.3660  12.109  10.070  0.4525  1219.0  83.321  4.8373  2.4249  5.1351 
  1219.500 -29.499  6.3490  12.360  10.824 -7.4990  6.3490  12.360  10.824  0.4512  1219.5  83.461  4.8377  2.4288  5.1382 
  1220.000 -30.036  6.3310  12.433  11.112 -8.0360  6.3310  12.433  11.112  0.4500  1220.0  83.601  4.8382  2.4327  5.1413 
  1220.500 -30.032  6.2960  12.361  11.148 -8.0320  6.2960  12.361  11.148  0.4487  1220.5  83.741  4.8386  2.4366  5.1443 
  1221.000 -29.398  6.2240  12.074  11.185 -7.3980  6.2240  12.074  11.185  0.4475  1221.0  83.881  4.8390  2.4405  5.1474 
  1221.500 -28.765  6.0810  11.644  10.826 -6.7650  6.0810  11.644  10.826  0.4462  1221.5  84.021  4.8394  2.4443  5.1504 
  1222.000 -26.778  5.9920  11.142  10.540 -4.7780  5.9920  11.142  10.540  0.4450  1222.0  84.161  4.8398  2.4482  5.1534 
  1222.500 -26.414  5.9020  10.748  10.038 -4.4140  5.9020  10.748  10.038  0.4437  1222.5  84.301  4.8402  2.4521  5.1564 
  1223.000 -25.509  5.6510  9.9940  9.7150 -3.5090  5.6510  9.9940  9.7150  0.4425  1223.0  84.441  4.8406  2.4559  5.1594 
  1223.500 -25.145  5.5440  9.4560  9.3210 -3.1450  5.5440  9.4560  9.3210  0.4412  1223.5  84.581  4.8409  2.4597  5.1624 
  1224.000 -24.962  5.4010  8.9540  9.2140 -2.9620  5.4010  8.9540  9.2140  0.4400  1224.0  84.721  4.8413  2.4636  5.1653 
  1224.500 -24.958  5.3290  8.6670  9.1430 -2.9580  5.3290  8.6670  9.1430  0.4387  1224.5  84.861  4.8416  2.4674  5.1682 
  1225.000 -24.774  5.2760  8.4160  9.0710 -2.7740  5.2760  8.4160  9.0710  0.4375  1225.0  85.001  4.8420  2.4712  5.1712 
  1225.500 -24.230  5.2220  7.9500  9.0360 -2.2300  5.2220  7.9500  9.0360  0.4362  1225.5  85.141  4.8423  2.4750  5.1741 
  1226.000 -23.686  5.1150  7.5560  8.9650 -1.6860  5.1150  7.5560  8.9650  0.4350  1226.0  85.281  4.8426  2.4787  5.1770 
  1226.500 -23.682  5.0800  7.2330  8.9290 -1.6820  5.0800  7.2330  8.9290  0.4337  1226.5  85.421  4.8429  2.4825  5.1799 
  1227.000 -23.949  5.2590  6.9820  8.8940 -1.9490  5.2590  6.9820  8.8940  0.4325  1227.0  85.561  4.8432  2.4863  5.1827 
  1227.500 -24.216  5.4390  6.8030  8.8950 -2.2160  5.4390  6.8030  8.8950  0.4312  1227.5  85.701  4.8435  2.4900  5.1856 
  1228.000 -25.473  5.7630  6.6600  9.2900 -3.4730  5.7630  6.6600  9.2900  0.4300  1228.0  85.840  4.8438  2.4938  5.1884 
  1228.500 -26.911  5.9780  6.6960  10.044 -4.9110  5.9780  6.6960  10.044  0.4287  1228.5  85.980  4.8440  2.4975  5.1912 
  1229.000 -28.169  6.0510  6.8760  10.619 -6.1690  6.0510  6.8760  10.619  0.4275  1229.0  86.120  4.8443  2.5012  5.1941 
  1229.500 -28.886  6.1940  7.4870  11.014 -6.8860  6.1940  7.4870  11.014  0.4262  1229.5  86.260  4.8445  2.5049  5.1968 
  1230.000 -28.882  6.3020  8.2050  11.194 -6.8820  6.3020  8.2050  11.194  0.4250  1230.0  86.400  4.8447  2.5086  5.1996 
  1230.500 -28.699  6.3030  8.4920  11.303 -6.6990  6.3030  8.4920  11.303  0.4237  1230.5  86.540  4.8450  2.5123  5.2024 
  1231.000 -28.515  6.3030  8.4920  11.195 -6.5150  6.3030  8.4920  11.195  0.4225  1231.0  86.680  4.8452  2.5160  5.2052 
  1231.500 -27.430  6.2680  8.4570  10.981 -5.4300  6.2680  8.4570  10.981  0.4212  1231.5  86.820  4.8454  2.5197  5.2079 
  1232.000 -25.985  6.2680  8.2060  10.084 -3.9850  6.2680  8.2060  10.084  0.4200  1232.0  86.960  4.8456  2.5233  5.2106 
  1232.500 -25.441  6.3760  7.9190  9.7610 -3.4410  6.3760  7.9190  9.7610  0.4187  1232.5  87.100  4.8458  2.5270  5.2133 
  1233.000 -25.257  6.4300  7.3450  9.5470 -3.2570  6.4300  7.3450  9.5470  0.4175  1233.0  87.240  4.8459  2.5306  5.2160 
  1233.500 -25.434  6.4840  6.8790  9.7620 -3.4340  6.4840  6.8790  9.7620  0.4162  1233.5  87.380  4.8461  2.5343  5.2187 
  1234.000 -26.151  6.5920  6.9150  10.265 -4.1510  6.5920  6.9150  10.265  0.4150  1234.0  87.520  4.8463  2.5379  5.2214 
  1234.500 -27.769  6.5570  7.2750  10.768 -5.7690  6.5570  7.2750  10.768  0.4137  1234.5  87.660  4.8464  2.5415  5.2240 
  1235.000 -28.666  6.5210  7.9210  10.841 -6.6660  6.5210  7.9210  10.841  0.4125  1235.0  87.800  4.8465  2.5451  5.2267 
  1235.500 -28.482  6.4860  8.1010  10.698 -6.4820  6.4860  8.1010  10.698  0.4112  1235.5  87.940  4.8467  2.5487  5.2293 
  1236.000 -26.677  6.4140  8.0650  10.591 -4.6770  6.4140  8.0650  10.591  0.4100  1236.0  88.080  4.8468  2.5522  5.2319 
  1236.500 -26.133  6.3790 -999.25  10.232 -4.1330  6.3790 -999.25  10.232  0.4087  1236.5  88.220  4.8469  2.5558  5.2345 
  1237.000 -26.129  6.3790  7.8510  9.4790 -4.1290  6.3790  7.8510  9.4790  0.4075  1237.0  88.360  4.8470  2.5594  5.2371 
  1237.500 -26.306  6.4510  6.7390  8.8340 -4.3060  6.4510  6.7390  8.8340  0.4062  1237.5  88.500  4.8471  2.5629  5.2397 
  1238.000 -26.663  6.5590  6.3440  8.1880 -4.6630  6.5590  6.3440  8.1880  0.4050  1238.0  88.640  4.8472  2.5664  5.2422 
  1238.500 -27.200  6.8110 -999.25  8.1170 -5.2000  6.8110 -999.25  8.1170  0.4037  1238.5  88.780  4.8473  2.5700  5.2448 
  1239.000 -27.917  6.9550  6.0930  8.2970 -5.9170  6.9550  6.0930  8.2970  0.4025  1239.0  88.920  4.8473  2.5735  5.2473 
  1239.500 -28.814  7.1710  6.0940  8.5130 -6.8140  7.1710  6.0940  8.5130  0.4012  1239.5  89.060  4.8474  2.5770  5.2498 
  1240.000 -29.171  7.3860  6.3100  8.6210 -7.1710  7.3860  6.3100  8.6210  0.4000  1240.0  89.200  4.8474  2.5805  5.2523 
  1240.500 -29.888  7.5660  6.6690  8.9090 -7.8880  7.5660  6.6690  8.9090  0.3987  1240.5  89.340  4.8475  2.5839  5.2548 
  1241.000 -30.425  7.7100  7.4590  9.2320 -8.4250  7.7100  7.4590  9.2320  0.3975  1241.0  89.480  4.8475  2.5874  5.2573 
  1241.500 -30.782  7.8540  7.9970  9.6990 -8.7820  7.8540  7.9970  9.6990  0.3962  1241.5  89.620  4.8475  2.5909  5.2597 
  1242.000 -30.778  8.0700  8.0340  9.7360 -8.7780  8.0700  8.0340  9.7360  0.3950  1242.0  89.760  4.8475  2.5943  5.2622 
  1242.500 -30.414  8.2140  8.0340  9.7360 -8.4140  8.2140  8.0340  9.7360  0.3937  1242.5  89.900  4.8475  2.5978  5.2646 
  1243.000 -29.510  8.2320  8.0350  9.6650 -7.5100  8.2320  8.0350  9.6650  0.3925  1243.0  90.040  4.8475  2.6012  5.2670 
  1243.500 -29.146  8.2500  8.0710  9.6300 -7.1460  8.2500  8.0710  9.6300  0.3912  1243.5  90.180  4.8475  2.6046  5.2695 
  1244.000 -28.602  8.2150  8.1070  9.4870 -6.6020  8.2150  8.1070  9.4870  0.3900  1244.0  90.320  4.8475  2.6080  5.2718 
  1244.500 -28.057  8.1790  8.2510  9.4870 -6.0570  8.1790  8.2510  9.4870  0.3887  1244.5  90.460  4.8475  2.6114  5.2742 
