~Version Information
VERS.                     2.0: CWLS log ASCII Standard Version 2.00
WRAP.                      NO: One line per depth step
~Well Information Block
#MNEM.UNIT                               Data Type  Information
#---------                               ---------  -----------
STRT.FT                                   660.0000:
STOP.FT                                  9080.0000:
STEP.FT                                     0.5000:
NULL.                 -999.25                     :
COMP.                                             :COMPANY            
WELL.     SAN EMIDIO #27-21                       :WELL               
FLD .                                             :FIELD              
CTRY.                                             :COUNTRY            
STAT.                                             :STATE              
LOC .                                             :LOCATION           
UWI .                                             :UNIQUE WELL ID     
SRVC.                                             :Service company    
DATE.                                             :LOG DATE           
~Curve Information
#MNEM.UNIT           API CODE  Curve Description
#---------           --------  -----------------
DEPT.FT                      :   1 DEPTH
SP  .MV                      :   2
AM16.OHMM                    :   3
AO10.OHMM                    :   4
AO19.OHMM                    :   5
SBL .MV                      :   6
RS  .OHMM                    :   7
RM  .OHMM                    :   8
RD  .OHMM                    :   9
DEVI.DEG                     :  10
TVD .FT                      :  11
AZIM.DEG                     :  12
NORT.FT                      :  13
EAST.FT                      :  14
OFFS.FT                      :  15
~A
# ...
  2902.500 -20.155  3.3410  4.2750  4.2740 -4.4782  3.3410  4.2750  4.2740  1.0000  2902.4  350.85  10.727  14.617  17.921 
  2903.000 -19.795  3.3230  4.2030  4.2740 -4.1178  3.3230  4.2030  4.2740  1.0000  2902.9  350.82  10.735  14.616  17.926 
  2903.500 -19.614  3.3050  4.1320  4.3820 -3.9363  3.3050  4.1320  4.3820  1.0000  2903.4  350.79  10.744  14.614  17.931 
  2904.000 -19.973  3.2700  4.0600  4.5620 -4.2948  3.2700  4.0600  4.5620  1.0000  2903.9  350.76  10.753  14.613  17.936 
  2904.500 -20.332  3.2700  3.9880  4.7410 -4.6533  3.2700  3.9880  4.7410  1.0000  2904.4  350.73  10.761  14.612  17.941 
  2905.000 -20.331  3.2700  3.7730  4.7410 -4.6518  3.2700  3.7730  4.7410  1.0000  2904.9  350.70  10.770  14.610  17.946 
  2905.500 -20.330  3.2700  3.7010  4.6870 -4.6504  3.2700  3.7010  4.6870  1.0000  2905.4  350.67  10.778  14.609  17.951 
  2906.000 -20.330  3.2700  3.5220  4.6330 -4.6499  3.2700  3.5220  4.6330  1.0000  2905.9  350.64  10.787  14.607  17.957 
  2906.500 -20.329  3.2700  3.4140  4.3810 -4.6484  3.2700  3.4140  4.3810  1.0000  2906.4  350.61  10.796  14.606  17.962 
  2907.000 -20.507  3.2700  3.3420  4.2380 -4.8259  3.2700  3.3420  4.2380  1.0000  2906.9  350.58  10.804  14.604  17.967 
  2907.500 -20.506  3.3240  3.3420  4.0580 -4.8244  3.3240  3.3420  4.0580  1.0000  2907.4  350.55  10.813  14.603  17.972 
  2908.000 -21.046  3.3780  3.3420  3.9140 -5.3640  3.3780  3.3420  3.9140  1.0000  2907.9  350.52  10.821  14.602  17.977 
  2908.500 -21.225  3.5940  3.4140  4.0580 -5.5425  3.5940  3.4140  4.0580  1.0000  2908.4  350.49  10.830  14.600  17.982 
  2909.000 -22.124  3.7020  3.5580  4.1300 -6.4410  3.7020  3.5580  4.1300  1.0000  2908.9  350.46  10.839  14.599  17.987 
  2909.500 -23.203  4.0250  3.7380  4.4530 -7.5195  4.0250  3.7380  4.4530  1.0000  2909.4  350.43  10.847  14.597  17.992 
  2910.000 -24.642  4.3840  3.8100  4.6320 -8.9580  4.3840  3.8100  4.6320  1.0000  2909.9  350.40  10.856  14.596  17.997 
  2910.500 -26.261  4.6000  4.1690  4.9550 -10.577  4.6000  4.1690  4.9550  1.0000  2910.4  350.37  10.864  14.594  18.002 
  2911.000 -27.340  4.8160  4.4210  5.2430 -11.655  4.8160  4.4210  5.2430  1.0000  2910.9  350.34  10.873  14.593  18.007 
  2911.500 -30.759  5.0310  4.6000  5.4400 -15.074  5.0310  4.6000  5.4400  1.0000  2911.4  350.31  10.882  14.591  18.012 
  2912.000 -32.558  5.1750  4.8160  5.6380 -16.872  5.1750  4.8160  5.6380  1.0000  2911.9  350.28  10.890  14.590  18.017 
  2912.500 -33.457  5.2830  5.1750  5.9970 -17.771  5.2830  5.1750  5.9970  1.0000  2912.4  350.25  10.899  14.588  18.022 
  2913.000 -33.996  5.3910  5.4270  6.1050 -18.309  5.3910  5.4270  6.1050  1.0000  2912.9  350.22  10.907  14.587  18.027 
  2913.500 -34.535  5.4810  5.4270  6.1410 -18.848  5.4810  5.4270  6.1410  1.0000  2913.4  350.19  10.916  14.586  18.032 
  2914.000 -34.175  5.5700  5.4270  6.1760 -18.487  5.5700  5.4270  6.1760  1.0000  2913.9  350.16  10.925  14.584  18.037 
  2914.500 -33.814  5.6780  5.3370  6.0680 -18.126  5.6780  5.3370  6.0680  1.0000  2914.4  350.13  10.933  14.583  18.042 
  2915.000 -32.553  5.6790  5.2470  5.9610 -16.864  5.6790  5.2470  5.9610  1.0000  2914.9  350.10  10.942  14.581  18.047 
  2915.500 -32.192  5.7860  5.1940  5.7450 -16.503  5.7860  5.1940  5.7450  1.0000  2915.4  350.07  10.950  14.580  18.052 
  2916.000 -33.451  5.8940  5.1400  5.6010 -17.761  5.8940  5.1400  5.6010  1.0000  2915.9  350.04  10.959  14.578  18.057 
  2916.500 -34.170  5.9660  5.1400  5.6370 -18.480  5.9660  5.1400  5.6370  1.0000  2916.4  350.01  10.968  14.577  18.062 
  2917.000 -34.890  6.3260  5.1760  5.8170 -19.199  6.3260  5.1760  5.8170  1.0000  2916.9  349.98  10.976  14.575  18.067 
  2917.500 -36.508  6.4510  5.2120  5.9600 -20.817  6.4510  5.2120  5.9600  1.0000  2917.4  349.95  10.985  14.573  18.072 
  2918.000 -36.867  6.5770  5.2480  6.2120 -21.175  6.5770  5.2480  6.2120  1.0000  2917.9  349.92  10.993  14.572  18.077 
  2918.500 -36.866  6.5770  5.2840  6.3550 -21.174  6.5770  5.2840  6.3550  1.0000  2918.4  349.89  11.002  14.570  18.082 
  2919.000 -36.686  6.3620  5.5000  6.6060 -20.993  6.3620  5.5000  6.6060  1.0000  2918.9  349.86  11.011  14.569  18.087 
  2919.500 -36.505  6.2180  5.7510  6.7860 -20.812  6.2180  5.7510  6.7860  1.0000  2919.4  349.83  11.019  14.567  18.092 
  2920.000 -33.264  5.7870  5.9310  6.8220 -17.570  5.7870  5.9310  6.8220  1.0000  2919.9  349.80  11.028  14.566  18.097 
  2920.500 -30.563  5.0690  5.9310  6.7140 -14.869  5.0690  5.9310  6.7140  1.0000  2920.4  349.77  11.036  14.564  18.102 
  2921.000 -25.881  4.7820  5.7160  6.5700 -10.186  4.7820  5.7160  6.5700  1.0000  2920.9  349.74  11.045  14.563  18.107 
  2921.500 -25.340  4.6020  5.5360  5.9950 -9.6450  4.6020  5.5360  5.9950  1.0000  2921.4  349.71  11.054  14.561  18.112 
  2922.000 -25.880  4.5300  4.9260  5.3130 -10.184  4.5300  4.9260  5.3130  1.0000  2921.9  349.68  11.062  14.560  18.117 
  2922.500 -26.420  4.4950  4.5300  4.8460 -10.724  4.4950  4.5300  4.8460  1.0000  2922.4  349.65  11.071  14.558  18.122 
  2923.000 -27.678  4.5310  4.4230  4.3780 -11.982  4.5310  4.4230  4.3780  1.0000  2922.9  349.62  11.079  14.556  18.127 
  2923.500 -28.397  4.5310  4.4230  4.2170 -12.700  4.5310  4.4230  4.2170  1.0000  2923.4  349.59  11.088  14.555  18.132 
  2924.000 -28.756  4.5310  4.5310  4.0550 -13.059  4.5310  4.5310  4.0550  1.0000  2923.9  349.56  11.096  14.553  18.137 
  2924.500 -29.116  4.4230  4.6390  4.2710 -13.418  4.4230  4.6390  4.2710  1.0000  2924.4  349.53  11.105  14.552  18.142 
  2925.000 -29.474  4.3510  4.9260  4.5220 -13.776  4.3510  4.9260  4.5220  1.0000  2924.9  349.50  11.114  14.550  18.147 
  2925.500 -28.753  4.2430  5.5010  4.7010 -13.054  4.2430  5.5010  4.7010  1.0000  2925.4  349.47  11.122  14.548  18.152 
  2926.000 -26.952  4.1000  5.7170  5.0250 -11.253  4.1000  5.7170  5.0250  1.0000  2925.9  349.44  11.131  14.547  18.157 
  2926.500 -24.612  3.9560  5.7880  4.9890 -8.9122  3.9560  5.7880  4.9890  1.0000  2926.4  349.41  11.139  14.545  18.162 
  2927.000 -22.451  3.7770  5.7530  4.9520 -6.7507  3.7770  5.7530  4.9520  1.0000  2926.9  349.38  11.148  14.544  18.167 
  2927.500 -21.910  3.6330  5.7170  4.6110 -6.2092  3.6330  5.7170  4.6110  1.0000  2927.4  349.35  11.156  14.542  18.172 
  2928.000 -21.729  3.4890  5.5730  4.2700 -6.0277  3.4890  5.5730  4.2700  1.0000  2927.9  349.32  11.165  14.540  18.177 
  2928.500 -21.188  3.4000  5.2140  3.9110 -5.4862  3.4000  5.2140  3.9110  1.0000  2928.4  349.29  11.174  14.539  18.181 
  2929.000 -20.737  3.3100  5.0340  3.5870 -5.0348  3.3100  5.0340  3.5870  1.0000  2928.9  349.26  11.182  14.537  18.186 
  2929.500 -20.286  3.2380  4.8550  3.5330 -4.5833  3.2380  4.8550  3.5330  1.0000  2929.4  349.23  11.191  14.536  18.191 
  2930.000 -20.106  3.1670  4.5680  3.4790 -4.4028  3.1670  4.5680  3.4790  1.0000  2929.9  349.20  11.199  14.534  18.196 
  2930.500 -19.925  3.1670  4.3160  3.4070 -4.2213  3.1670  4.3160  3.4070  1.0000  2930.4  349.17  11.208  14.532  18.201 
  2931.000 -20.284  3.2030  4.1730  3.3350 -4.5798  3.2030  4.1730  3.3350  1.0000  2930.9  349.14  11.216  14.531  18.206 
  2931.500 -20.823  3.2210  4.0650  3.1920 -5.1184  3.2210  4.0650  3.1920  1.0000  2931.4  349.11  11.225  14.529  18.211 
  2932.000 -21.722  3.2390  3.9570  3.1200 -6.0169  3.2390  3.9570  3.1200  1.0000  2931.9  349.08  11.234  14.527  18.216 
  2932.500 -22.441  3.2750  3.8500  3.4070 -6.7354  3.2750  3.8500  3.4070  1.0000  2932.4  349.05  11.242  14.526  18.221 
  2933.000 -22.440  3.3470  3.9030  3.5680 -6.7339  3.3470  3.9030  3.5680  1.0000  2932.9  349.02  11.251  14.524  18.226 
  2933.500 -22.440  3.4190  3.9570  3.7300 -6.7334  3.4190  3.9570  3.7300  1.0000  2933.4  348.99  11.259  14.522  18.230 
  2934.000 -22.258  3.5270  3.9580  3.9100 -6.5510  3.5270  3.9580  3.9100  1.0000  2933.9  348.96  11.268  14.521  18.235 
  2934.500 -22.437  3.7060  3.9940  3.9450 -6.7295  3.7060  3.9940  3.9450  1.0000  2934.4  348.93  11.276  14.519  18.240 
