~Version Information
VERS.                     2.0: CWLS log ASCII Standard Version 2.00
WRAP.                      NO: One line per depth step
~Well Information Block
#MNEM.UNIT                               Data Type  Information
#---------                               ---------  -----------
STRT.FT                                   660.0000:
STOP.FT                                  9080.0000:
STEP.FT                                     0.5000:
NULL.                 -999.25                     :
COMP.                                             :COMPANY            
WELL.     SAN EMIDIO #27-21                       :WELL               
FLD .                                             :FIELD              
CTRY.                                             :COUNTRY            
STAT.                                             :STATE              
LOC .                                             :LOCATION           
UWI .                                             :UNIQUE WELL ID     
SRVC.                                             :Service company    
DATE.                                             :LOG DATE           
~Curve Information
#MNEM.UNIT           API CODE  Curve Description
#---------           --------  -----------------
DEPT.FT                      :   1 DEPTH
SP  .MV                      :   2
AM16.OHMM                    :   3
AO10.OHMM                    :   4
AO19.OHMM                    :   5
SBL .MV                      :   6
RS  .OHMM                    :   7
RM  .OHMM                    :   8
RD  .OHMM                    :   9
DEVI.DEG                     :  10
TVD .FT                      :  11
AZIM.DEG                     :  12
NORT.FT                      :  13
EAST.FT                      :  14
OFFS.FT                      :  15
~A
   660.000 -21.643  7.1780 -999.25 -999.25  0.3570  7.1780 -999.25 -999.25  0.2167  659.99  22.800  4.1230  0.0415  2.9448 
   660.500 -26.151  7.6090 -999.25 -999.25 -4.1510  7.6090 -999.25 -999.25  0.2171  660.49  22.990  4.1248  0.0422  2.9465 
   661.000 -27.232  8.0760 -999.25 -999.25 -5.2320  8.0760 -999.25 -999.25  0.2175  660.99  23.180  4.1265  0.0430  2.9483 
   661.500 -27.592  8.2560  0.5390 -999.25 -5.5920  8.2560  0.5390 -999.25  0.2179  661.49  23.370  4.1283  0.0437  2.9500 
   662.000 -27.411  8.2560  0.5220 -999.25 -5.4110  8.2560  0.5220 -999.25  0.2183  661.99  23.560  4.1300  0.0445  2.9518 
   662.500 -26.869  8.2210  0.5040 -999.25 -4.8690  8.2210  0.5040 -999.25  0.2188  662.49  23.750  4.1318  0.0452  2.9536 
   663.000 -26.688  8.1490  0.4870 -999.25 -4.6880  8.1490  0.4870 -999.25  0.2192  662.99  23.940  4.1335  0.0460  2.9554 
   663.500 -26.326  8.0780  0.4690 -999.25 -4.3260  8.0780  0.4690 -999.25  0.2196  663.49  24.130  4.1353  0.0468  2.9572 
   664.000 -26.145  8.1140  0.4340 -999.25 -4.1450  8.1140  0.4340 -999.25  0.2200  663.99  24.320  4.1370  0.0476  2.9590 
   664.500 -26.054  8.1500  0.4340 -999.25 -4.0540  8.1500  0.4340 -999.25  0.2204  664.49  24.510  4.1388  0.0484  2.9608 
   665.000 -25.963  8.2940  0.4340 -999.25 -3.9630  8.2940  0.4340 -999.25  0.2208  664.99  24.700  4.1405  0.0492  2.9626 
   665.500 -25.782  8.2950  0.4350 -999.25 -3.7820  8.2950  0.4350 -999.25  0.2213  665.49  24.890  4.1423  0.0500  2.9644 
   666.000 -25.601  8.3310  0.4350 -999.25 -3.6010  8.3310  0.4350 -999.25  0.2217  665.99  25.080  4.1440  0.0508  2.9662 
   666.500 -25.599  8.2950  0.4350 -999.25 -3.5990  8.2950  0.4350 -999.25  0.2221  666.49  25.270  4.1458  0.0517  2.9680 
   667.000 -25.779  8.2960  0.4360 -999.25 -3.7790  8.2960  0.4360 -999.25  0.2225  666.99  25.460  4.1475  0.0525  2.9699 
   667.500 -26.139  8.3320  0.4360 -999.25 -4.1390  8.3320  0.4360 -999.25  0.2229  667.49  25.650  4.1493  0.0533  2.9717 
   668.000 -26.318  8.3680  0.4720 -999.25 -4.3180  8.3680  0.4720 -999.25  0.2233  667.99  25.840  4.1510  0.0542  2.9735 
   668.500 -26.678  8.5120  0.5800 -999.25 -4.6780  8.5120  0.5800 -999.25  0.2238  668.49  26.030  4.1528  0.0550  2.9754 
   669.000 -27.038  8.6560  0.9040 -999.25 -5.0380  8.6560  0.9040 -999.25  0.2242  668.99  26.220  4.1545  0.0559  2.9772 
   669.500 -27.398  9.0510  1.3350 -999.25 -5.3980  9.0510  1.3350 -999.25  0.2246  669.49  26.410  4.1563  0.0568  2.9791 
   670.000 -27.577  9.9130  3.6320 -999.25 -5.5770  9.9130  3.6320 -999.25  0.2250  669.99  26.600  4.1580  0.0577  2.9810 
   670.500 -27.937  10.882  7.1500 -999.25 -5.9370  10.882  7.1500 -999.25  0.2254  670.49  26.790  4.1598  0.0586  2.9828 
   671.000 -28.477  11.457  7.4010 -999.25 -6.4770  11.457  7.4010 -999.25  0.2258  670.99  26.980  4.1616  0.0594  2.9847 
   671.500 -28.837  11.780  7.6170 -999.25 -6.8370  11.780  7.6170 -999.25  0.2263  671.49  27.170  4.1633  0.0603  2.9866 
   672.000 -29.918  13.109  8.4070 -999.25 -7.9180  13.109  8.4070 -999.25  0.2267  671.99  27.360  4.1651  0.0613  2.9885 
   672.500 -31.180  14.616  8.8740 -999.25 -9.1800  14.616  8.8740 -999.25  0.2271  672.49  27.550  4.1668  0.0622  2.9904 
   673.000 -31.900  14.976  9.4490 -999.25 -9.9000  14.976  9.4490 -999.25  0.2275  672.99  27.740  4.1686  0.0631  2.9922 
   673.500 -32.801  15.227  9.8800 -999.25 -10.801  15.227  9.8800 -999.25  0.2279  673.49  27.930  4.1703  0.0640  2.9941 
   674.000 -32.981  15.335  10.131 -999.25 -10.981  15.335  10.131 -999.25  0.2283  673.99  28.120  4.1721  0.0650  2.9961 
   674.500 -33.340  15.336  11.388 -999.25 -11.340  15.336  11.388 -999.25  0.2288  674.49  28.310  4.1739  0.0659  2.9980 
   675.000 -33.159  15.228  11.819 -999.25 -11.159  15.228  11.819 -999.25  0.2292  674.99  28.500  4.1756  0.0669  2.9999 
   675.500 -32.978  15.121  12.393 -999.25 -10.978  15.121  12.393 -999.25  0.2296  675.49  28.690  4.1774  0.0678  3.0018 
   676.000 -32.436  14.870  12.932 -999.25 -10.436  14.870  12.932 -999.25  0.2300  675.99  28.880  4.1791  0.0688  3.0037 
   676.500 -32.074  14.727  13.220 -999.25 -10.074  14.727  13.220 -999.25  0.2304  676.49  29.070  4.1809  0.0698  3.0057 
   677.000 -31.712  14.476  13.220 -999.25 -9.7120  14.476  13.220 -999.25  0.2308  676.99  29.260  4.1826  0.0708  3.0076 
   677.500 -31.531  14.476  13.184 -999.25 -9.5310  14.476  13.184 -999.25  0.2313  677.49  29.450  4.1844  0.0718  3.0096 
   678.000 -31.530  14.692  13.077 -999.25 -9.5300  14.692  13.077 -999.25  0.2317  677.99  29.640  4.1862  0.0728  3.0115 
   678.500 -32.070  15.123  12.970 -999.25 -10.070  15.123  12.970 -999.25  0.2321  678.49  29.830  4.1879  0.0738  3.0135 
   679.000 -32.791  15.518  12.827 -999.25 -10.791  15.518  12.827 -999.25  0.2325  678.99  30.020  4.1897  0.0748  3.0154 
   679.500 -33.692  15.806  13.437 -999.25 -11.692  15.806  13.437 -999.25  0.2329  679.49  30.210  4.1914  0.0758  3.0174 
   680.000 -34.773  15.986  14.155 -999.25 -12.773  15.986  14.155 -999.25  0.2333  679.99  30.400  4.1932  0.0768  3.0194 
   680.500 -35.854  15.986  14.981 -999.25 -13.854  15.986  14.981 -999.25  0.2338  680.49  30.590  4.1949  0.0779  3.0213 
   681.000 -36.935  15.843  15.627 -999.25 -14.935  15.843  15.627 -999.25  0.2342  680.99  30.780  4.1967  0.0789  3.0233 
   681.500 -37.656  15.592  16.346 -999.25 -15.656  15.592  16.346 -999.25  0.2346  681.49  30.970  4.1985  0.0800  3.0253 
   682.000 -37.836  15.233  17.925 -999.25 -15.836  15.233  17.925 -999.25  0.2350  681.99  31.160  4.2002  0.0810  3.0273 
   682.500 -38.556  14.767  18.643 -999.25 -16.556  14.767  18.643 -999.25  0.2354  682.49  31.350  4.2020  0.0821  3.0293 
   683.000 -38.736  14.445  18.895 -999.25 -16.736  14.445  18.895 -999.25  0.2358  682.99  31.540  4.2037  0.0832  3.0313 
   683.500 -38.735  14.265  19.111 -999.25 -16.735  14.265  19.111 -999.25  0.2363  683.49  31.730  4.2055  0.0843  3.0333 
   684.000 -38.373  14.050  19.255 -999.25 -16.373  14.050  19.255 -999.25  0.2367  683.99  31.920  4.2072  0.0853  3.0353 
   684.500 -37.651  13.871  19.470 -999.25 -15.651  13.871  19.470 -999.25  0.2371  684.49  32.110  4.2090  0.0864  3.0373 
   685.000 -35.305  13.692  19.614 -999.25 -13.305  13.692  19.614 -999.25  0.2375  684.99  32.300  4.2107  0.0875  3.0393 
   685.500 -34.763  13.477  19.722 -999.25 -12.763  13.477  19.722 -999.25  0.2379  685.49  32.490  4.2125  0.0887  3.0414 
   686.000 -34.402  13.298  19.794 -999.25 -12.402  13.298  19.794 -999.25  0.2383  685.99  32.680  4.2142  0.0898  3.0434 
   686.500 -34.131  13.155  19.866 -999.25 -12.131  13.155  19.866 -999.25  0.2387  686.49  32.870  4.2160  0.0909  3.0454 
   687.000 -33.859  13.012  19.903 -999.25 -11.859  13.012  19.903 -999.25  0.2392  686.99  33.060  4.2177  0.0921  3.0475 
   687.500 -32.415  12.546  19.921 -999.25 -10.415  12.546  19.921 -999.25  0.2396  687.49  33.250  4.2195  0.0932  3.0495 
   688.000 -31.693  12.043  19.939 -999.25 -9.6930  12.043  19.939 -999.25  0.2400  687.99  33.440  4.2212  0.0944  3.0516 
   688.500 -31.331  11.505  19.940 -999.25 -9.3310  11.505  19.940 -999.25  0.2404  688.49  33.630  4.2230  0.0955  3.0536 
   689.000 -30.609  10.932  19.904 -999.25 -8.6090  10.932  19.904 -999.25  0.2408  688.99  33.820  4.2247  0.0967  3.0557 
   689.500 -29.886  10.358  19.905 -999.25 -7.8860  10.358  19.905 -999.25  0.2412  689.49  34.010  4.2265  0.0979  3.0578 
   690.000 -29.705  9.7840  19.833 -999.25 -7.7050  9.7840  19.833 -999.25  0.2417  689.99  34.200  4.2282  0.0991  3.0598 
   690.500 -29.524  9.3180  19.654 -999.25 -7.5240  9.3180  19.654 -999.25  0.2421  690.49  34.390  4.2299  0.1002  3.0619 
   691.000 -29.343  9.1740  19.295 -999.25 -7.3430  9.1740  19.295 -999.25  0.2425  690.99  34.580  4.2317  0.1014  3.0640 
   691.500 -28.981  9.0670  16.030 -999.25 -6.9810  9.0670  16.030 -999.25  0.2429  691.49  34.770  4.2334  0.1027  3.0661 
   692.000 -28.800  9.0850  15.097 -999.25 -6.8000  9.0850  15.097 -999.25  0.2433  691.99  34.960  4.2352  0.1039  3.0682 
