~Version Information
VERS.                     2.0: CWLS log ASCII Standard Version 2.00
WRAP.                      NO: One line per depth step
~Well Information Block
#MNEM.UNIT                               Data Type  Information
#---------                               ---------  -----------
STRT.FT                                   660.0000:
STOP.FT                                  9080.0000:
STEP.FT                                     0.5000:
NULL.                 -999.25                     :
COMP.                                             :COMPANY            
WELL.     SAN EMIDIO #27-21                       :WELL               
FLD .                                             :FIELD              
CTRY.                                             :COUNTRY            
STAT.                                             :STATE              
LOC .                                             :LOCATION           
UWI .                                             :UNIQUE WELL ID     
SRVC.                                             :Service company    
DATE.                                             :LOG DATE           
~Curve Information
#MNEM.UNIT           API CODE  Curve Description
#---------           --------  -----------------
DEPT.FT                      :   1 DEPTH
SP  .MV                      :   2
AM16.OHMM                    :   3
AO10.OHMM                    :   4
AO19.OHMM                    :   5
SBL .MV                      :   6
RS  .OHMM                    :   7
RM  .OHMM                    :   8
RD  .OHMM                    :   9
DEVI.DEG                     :  10
TVD .FT                      :  11
AZIM.DEG                     :  12
NORT.FT                      :  13
EAST.FT                      :  14
OFFS.FT                      :  15
~A
# ...
  7940.000 -15.696  1.9720  2.2960  2.1020 -1.5274  1.9720  2.2960  2.1020  1.4000  7939.4  158.80  0.7249  43.418  31.214 
  7940.500 -15.694  1.9720  2.2600  2.0660 -1.5239  1.9720  2.2600  2.0660  1.4008  7939.9  158.81  0.7135  43.423  31.209 
  7941.000 -15.693  1.9720  2.2240  2.0660 -1.5214  1.9720  2.2240  2.0660  1.4016  7940.4  158.82  0.7021  43.427  31.204 
  7941.500 -15.690  1.9720  2.2060  2.0660 -1.5169  1.9720  2.2060  2.0660  1.4025  7940.9  158.83  0.6907  43.432  31.199 
  7942.000 -15.687  1.9720  2.1880  2.0310 -1.5124  1.9720  2.1880  2.0310  1.4033  7941.4  158.84  0.6793  43.436  31.194 
  7942.500 -15.686  1.9720  2.1700  2.0310 -1.5100  1.9720  2.1700  2.0310  1.4041  7941.9  158.85  0.6678  43.440  31.189 
  7943.000 -15.684  1.9710  2.1520  2.0310 -1.5065  1.9710  2.1520  2.0310  1.4050  7942.4  158.86  0.6564  43.445  31.184 
  7943.500 -15.682  1.9710  2.1520  2.0310 -1.5030  1.9710  2.1520  2.0310  1.4058  7942.9  158.87  0.6450  43.449  31.179 
  7944.000 -15.680  1.9720  2.1510  2.0310 -1.4995  1.9720  2.1510  2.0310  1.4066  7943.4  158.88  0.6335  43.454  31.174 
  7944.500 -15.678  1.9710  2.1510  2.0490 -1.4960  1.9710  2.1510  2.0490  1.4075  7943.9  158.89  0.6221  43.458  31.169 
  7945.000 -15.677  1.9710  2.1870  2.0670 -1.4936  1.9710  2.1870  2.0670  1.4083  7944.4  158.90  0.6106  43.463  31.164 
  7945.500 -15.676  1.9710  2.1870  2.0860 -1.4911  1.9710  2.1870  2.0860  1.4091  7944.9  158.91  0.5991  43.467  31.159 
  7946.000 -15.493  1.9710  2.2050  2.1040 -1.3066  1.9710  2.2050  2.1040  1.4100  7945.4  158.92  0.5876  43.471  31.154 
  7946.500 -15.492  1.9710  2.2230  2.1040 -1.3041  1.9710  2.2230  2.1040  1.4108  7945.9  158.93  0.5762  43.476  31.149 
  7947.000 -15.491  1.9710  2.2230  2.1040 -1.3017  1.9710  2.2230  2.1040  1.4116  7946.4  158.94  0.5647  43.480  31.144 
  7947.500 -15.488  1.9710  2.2410  2.1040 -1.2972  1.9710  2.2410  2.1040  1.4125  7946.9  158.95  0.5532  43.485  31.139 
  7948.000 -15.487  1.9890  2.2580  2.1040 -1.2947  1.9890  2.2580  2.1040  1.4133  7947.4  158.96  0.5416  43.489  31.134 
  7948.500 -15.486  2.0070  2.2760  2.1050 -1.2922  2.0070  2.2760  2.1050  1.4141  7947.9  158.97  0.5301  43.494  31.129 
  7949.000 -15.573  2.0060  2.2940  2.0690 -1.3777  2.0060  2.2940  2.0690  1.4150  7948.4  158.98  0.5186  43.498  31.124 
  7949.500 -15.660  2.0060  2.3300  2.0690 -1.4633  2.0060  2.3300  2.0690  1.4158  7948.9  158.99  0.5071  43.502  31.119 
  7950.000 -15.659  2.0060  2.3660  2.0700 -1.4608  2.0060  2.3660  2.0700  1.4166  7949.4  159.00  0.4955  43.507  31.114 
  7950.500 -15.657  2.0060  2.3660  2.0700 -1.4573  2.0060  2.3660  2.0700  1.4175  7949.9  159.01  0.4840  43.511  31.109 
  7951.000 -15.835  2.0420  2.3840  2.0700 -1.6338  2.0420  2.3840  2.0700  1.4183  7950.4  159.02  0.4724  43.516  31.104 
  7951.500 -15.653  2.0420  2.4020  2.0700 -1.4503  2.0420  2.4020  2.0700  1.4191  7950.9  159.03  0.4609  43.520  31.099 
  7952.000 -15.652  2.0420  2.4020  2.0700 -1.4479  2.0420  2.4020  2.0700  1.4200  7951.4  159.04  0.4493  43.525  31.094 
  7952.500 -15.741  2.0780  2.4020  2.0880 -1.5354  2.0780  2.4020  2.0880  1.4208  7951.9  159.05  0.4377  43.529  31.089 
  7953.000 -15.830  2.0780  2.4020  2.1070 -1.6229  2.0780  2.4020  2.1070  1.4216  7952.4  159.06  0.4261  43.533  31.084 
  7953.500 -15.826  2.0770  2.3840  2.1070 -1.6174  2.0770  2.3840  2.1070  1.4225  7952.9  159.07  0.4145  43.538  31.079 
  7954.000 -15.915  2.1140  2.3650  2.1070 -1.7049  2.1140  2.3650  2.1070  1.4233  7953.4  159.08  0.4029  43.542  31.074 
  7954.500 -16.004  2.1310  2.3470  2.1070 -1.7925  2.1310  2.3470  2.1070  1.4241  7953.9  159.09  0.3913  43.547  31.069 
  7955.000 -16.361  2.1490  2.3290  2.0890 -2.1480  2.1490  2.3290  2.0890  1.4250  7954.4  159.10  0.3797  43.551  31.064 
  7955.500 -16.450  2.2210  2.3290  2.0710 -2.2355  2.2210  2.3290  2.0710  1.4258  7954.9  159.11  0.3681  43.556  31.059 
  7956.000 -16.539  2.2390  2.3110  2.0360 -2.3230  2.2390  2.3110  2.0360  1.4266  7955.4  159.12  0.3565  43.560  31.054 
  7956.500 -16.895  2.2570  2.2930  2.0360 -2.6775  2.2570  2.2930  2.0360  1.4275  7955.9  159.13  0.3448  43.564  31.049 
  7957.000 -16.894  2.3290  2.3110  2.0360 -2.6751  2.3290  2.3110  2.0360  1.4283  7956.4  159.14  0.3332  43.569  31.043 
  7957.500 -17.252  2.3650  2.3290  2.0000 -3.0316  2.3650  2.3290  2.0000  1.4291  7956.9  159.15  0.3215  43.573  31.038 
  7958.000 -17.370  2.3650  2.3290  2.0000 -3.1481  2.3650  2.3290  2.0000  1.4300  7957.4  159.16  0.3099  43.578  31.033 
  7958.500 -17.489  2.3650  2.3290  1.9650 -3.2656  2.3650  2.3290  1.9650  1.4308  7957.9  159.17  0.2982  43.582  31.028 
  7959.000 -17.608  2.3650  2.3280  1.9830 -3.3831  2.3650  2.3280  1.9830  1.4316  7958.4  159.18  0.2865  43.587  31.023 
  7959.500 -17.964  2.3640  2.3650  2.0010 -3.7377  2.3640  2.3650  2.0010  1.4325  7958.9  159.19  0.2748  43.591  31.018 
  7960.000 -17.873  2.3640  2.3640  2.0190 -3.6452  2.3640  2.3640  2.0190  1.4333  7959.4  159.20  0.2631  43.596  31.013 
  7960.500 -17.783  2.3640  2.3640  2.0370 -3.5537  2.3640  2.3640  2.0370  1.4341  7959.9  159.21  0.2514  43.600  31.008 
  7961.000 -17.599  2.3640  2.3640  2.0370 -3.3682  2.3640  2.3640  2.0370  1.4350  7960.4  159.22  0.2397  43.604  31.003 
  7961.500 -17.508  2.3640  2.3820  2.0370 -3.2758  2.3640  2.3820  2.0370  1.4358  7960.9  159.23  0.2280  43.609  30.997 
  7962.000 -17.417  2.3640  2.4000  2.0550 -3.1833  2.3640  2.4000  2.0550  1.4366  7961.4  159.24  0.2163  43.613  30.992 
  7962.500 -17.325  2.3640  2.4000  2.0740 -3.0898  2.3640  2.4000  2.0740  1.4375  7961.9  159.25  0.2046  43.618  30.987 
  7963.000 -17.234  2.3460  2.4000  2.0740 -2.9973  2.3460  2.4000  2.0740  1.4383  7962.4  159.26  0.1928  43.622  30.982 
  7963.500 -17.050  2.3280  2.4000  2.0740 -2.8118  2.3280  2.4000  2.0740  1.4391  7962.9  159.27  0.1811  43.627  30.977 
  7964.000 -16.959  2.3280  2.4000  2.0740 -2.7194  2.3280  2.4000  2.0740  1.4400  7963.4  159.28  0.1693  43.631  30.972 
  7964.500 -16.868  2.3280  2.4000  2.0920 -2.6269  2.3280  2.4000  2.0920  1.4408  7963.9  159.29  0.1576  43.636  30.966 
  7965.000 -16.686  2.3270  2.4000  2.1110 -2.4434  2.3270  2.4000  2.1110  1.4416  7964.4  159.30  0.1458  43.640  30.961 
  7965.500 -16.505  2.3270  2.4000  2.1290 -2.2609  2.3270  2.4000  2.1290  1.4425  7964.9  159.31  0.1340  43.644  30.956 
  7966.000 -16.323  2.3090  2.3990  2.1470 -2.0774  2.3090  2.3990  2.1470  1.4433  7965.4  159.32  0.1222  43.649  30.951 
  7966.500 -16.141  2.2910  2.3990  2.1470 -1.8940  2.2910  2.3990  2.1470  1.4441  7965.9  159.33  0.1105  43.653  30.946 
  7967.000 -16.138  2.2910  2.3990  2.1480 -1.8895  2.2910  2.3990  2.1480  1.4450  7966.4  159.34  0.0987  43.658  30.940 
  7967.500 -16.136  2.2910  2.4350  2.1660 -1.8860  2.2910  2.4350  2.1660  1.4458  7966.9  159.35  0.0869  43.662  30.935 
  7968.000 -16.134  2.2910  2.4530  2.1840 -1.8825  2.2910  2.4530  2.1840  1.4466  7967.4  159.36  0.0750  43.667  30.930 
  7968.500 -15.952  2.2910  2.4710  2.2020 -1.6990  2.2910  2.4710  2.2020  1.4475  7967.9  159.37  0.0632  43.671  30.925 
  7969.000 -16.131  2.2910  2.5070  2.2200 -1.8766  2.2910  2.5070  2.2200  1.4483  7968.4  159.38  0.0514  43.676  30.920 
  7969.500 -16.129  2.2910  2.5070  2.2200 -1.8731  2.2910  2.5070  2.2200  1.4491  7968.9  159.39  0.0396  43.680  30.914 
  7970.000 -16.128  2.2730  2.5240  2.2200 -1.8706  2.2730  2.5240  2.2200  1.4500  7969.4  159.40  0.0277  43.684  30.909 
  7970.500 -16.127  2.2550  2.5420  2.2200 -1.8681  2.2550  2.5420  2.2200  1.4508  7969.9  159.41  0.0159  43.689  30.904 
  7971.000 -16.215  2.2550  2.5420  2.2210 -1.9546  2.2550  2.5420  2.2210  1.4516  7970.4  159.42  0.0040  43.693  30.899 
  7971.500 -16.303  2.2540  2.5420  2.2210 -2.0412  2.2540  2.5420  2.2210  1.4525  7970.9  159.43 -0.0079  43.698  30.893 
  7972.000 -16.840  2.2540  2.5420  2.2210 -2.5767  2.2540  2.5420  2.2210  1.4533  7971.4  159.44 -0.0197  43.702  30.888 
