~Version Information
VERS.                     2.0: CWLS log ASCII Standard Version 2.00
WRAP.                      NO: One line per depth step
~Well Information Block
#MNEM.UNIT                               Data Type  Information
#---------                               ---------  -----------
STRT.FT                                   660.0000:
STOP.FT                                  9080.0000:
STEP.FT                                     0.5000:
NULL.                 -999.25                     :
COMP.                                             :COMPANY            
WELL.     SAN EMIDIO #27-21                       :WELL               
FLD .                                             :FIELD              
CTRY.                                             :COUNTRY            
STAT.                                             :STATE              
LOC .                                             :LOCATION           
UWI .                                             :UNIQUE WELL ID     
SRVC.                                             :Service company    
DATE.                                             :LOG DATE           
~Curve Information
#MNEM.UNIT           API CODE  Curve Description
#---------           --------  -----------------
DEPT.FT                      :   1 DEPTH
SP  .MV                      :   2
AM16.OHMM                    :   3
AO10.OHMM                    :   4
AO19.OHMM                    :   5
SBL .MV                      :   6
RS  .OHMM                    :   7
RM  .OHMM                    :   8
RD  .OHMM                    :   9
DEVI.DEG                     :  10
TVD .FT                      :  11
AZIM.DEG                     :  12
NORT.FT                      :  13
EAST.FT                      :  14
OFFS.FT                      :  15
~A
# ...
  6802.500 -24.002  4.4940  3.5780  3.0210 -15.925  4.4940  3.5780  3.0210  0.7479  6802.2  149.53  21.576  31.932  37.835 
  6803.000 -22.742  4.4400  3.4880  3.0210 -14.666  4.4400  3.4880  3.0210  0.7475  6802.7  149.43  21.570  31.935  37.834 
  6803.500 -20.763  4.3870  3.4880  3.0930 -12.689  4.3870  3.4880  3.0930  0.7471  6803.2  149.34  21.564  31.938  37.832 
  6804.000 -18.065  4.2790  3.4880  3.1300 -9.9919  4.2790  3.4880  3.1300  0.7467  6803.7  149.24  21.559  31.942  37.830 
  6804.500 -15.726  4.0630  3.5950  3.1660 -7.6544  4.0630  3.5950  3.1660  0.7462  6804.2  149.15  21.553  31.945  37.829 
  6805.000 -15.006  3.8470  3.6310  3.2020 -6.9358  3.8470  3.6310  3.2020  0.7458  6804.7  149.05  21.548  31.948  37.827 
  6805.500 -14.376  3.7210  3.6310  3.2380 -6.3072  3.7210  3.6310  3.2380  0.7454  6805.2  148.96  21.542  31.952  37.826 
  6806.000 -13.745  3.5960  3.5950  3.2380 -5.6776  3.5960  3.5950  3.2380  0.7450  6805.7  148.86  21.536  31.955  37.824 
  6806.500 -13.025  3.4520  3.5950  3.2380 -4.9590  3.4520  3.5950  3.2380  0.7446  6806.2  148.77  21.531  31.958  37.823 
  6807.000 -12.305  3.3080  3.5240  3.1670 -4.2404  3.3080  3.5240  3.1670  0.7442  6806.7  148.67  21.525  31.962  37.821 
  6807.500 -11.046  3.2000  3.4880  3.1310 -2.9828  3.2000  3.4880  3.1310  0.7437  6807.2  148.58  21.520  31.965  37.820 
  6808.000 -10.325  3.1280  3.4880  3.1670 -2.2632  3.1280  3.4880  3.1670  0.7433  6807.7  148.48  21.514  31.969  37.818 
  6808.500 -10.235  3.0560  3.5240  3.1850 -2.1746  3.0560  3.5240  3.1850  0.7429  6808.2  148.39  21.509  31.972  37.817 
  6809.000 -10.144  2.9840  3.5600  3.2030 -2.0850  2.9840  3.5600  3.2030  0.7425  6808.7  148.29  21.503  31.975  37.815 
  6809.500 -10.143  2.8760  3.5420  3.3110 -2.0854  2.8760  3.5420  3.3110  0.7421  6809.2  148.20  21.498  31.979  37.814 
  6810.000 -10.142  2.8400  3.5240  3.2940 -2.0858  2.8400  3.5240  3.2940  0.7417  6809.7  148.10  21.492  31.982  37.812 
  6810.500 -10.141  2.8040  3.4520  3.2760 -2.0862  2.8040  3.4520  3.2760  0.7412  6810.2  148.01  21.487  31.986  37.811 
  6811.000 -10.230  2.8400  3.3800  3.2220 -2.1766  2.8400  3.3800  3.2220  0.7408  6810.7  147.91  21.481  31.989  37.809 
  6811.500 -10.319  2.8760  3.3080  3.1680 -2.2670  2.8760  3.3080  3.1680  0.7404  6811.2  147.82  21.476  31.993  37.808 
  6812.000 -10.498  2.9480  3.1640  3.0610 -2.4474  2.9480  3.1640  3.0610  0.7400  6811.7  147.72  21.470  31.996  37.806 
  6812.500 -10.677  3.0200  3.1640  2.9530 -2.6278  3.0200  3.1640  2.9530  0.7396  6812.2  147.63  21.465  31.999  37.805 
  6813.000 -10.856  3.0920  3.1460  2.7370 -2.8082  3.0920  3.1460  2.7370  0.7392  6812.7  147.53  21.459  32.003  37.804 
  6813.500 -11.215  3.1640  3.1280  2.7550 -3.1686  3.1640  3.1280  2.7550  0.7387  6813.2  147.44  21.454  32.006  37.802 
  6814.000 -11.573  3.2720  3.0920  2.7740 -3.5280  3.2720  3.0920  2.7740  0.7383  6813.7  147.34  21.449  32.010  37.801 
  6814.500 -11.932  3.3800  3.0560  2.8100 -3.8884  3.3800  3.0560  2.8100  0.7379  6814.2  147.25  21.443  32.013  37.799 
  6815.000 -12.651  3.4160  3.0200  2.8460 -4.6089  3.4160  3.0200  2.8460  0.7375  6814.7  147.15  21.438  32.017  37.798 
  6815.500 -13.189  3.5950  2.9840  2.7920 -5.1483  3.5950  2.9840  2.7920  0.7371  6815.2  147.06  21.432  32.020  37.797 
  6816.000 -14.447  3.7210  2.8760  2.7380 -6.4077  3.7210  2.8760  2.7380  0.7367  6815.7  146.96  21.427  32.024  37.795 
  6816.500 -16.604  3.8470  2.8760  2.5230 -8.5661  3.8470  2.8760  2.5230  0.7363  6816.2  146.87  21.422  32.027  37.794 
  6817.000 -19.660  4.3150  2.9480  2.4870 -11.623  4.3150  2.9480  2.4870  0.7358  6816.7  146.77  21.416  32.031  37.793 
  6817.500 -26.672  4.5660  3.0200  2.6310 -18.637  4.5660  3.0200  2.6310  0.7354  6817.2  146.68  21.411  32.034  37.791 
  6818.000 -31.526  4.7640  3.0380  2.8470 -23.492  4.7640  3.0380  2.8470  0.7350  6817.7  146.58  21.405  32.038  37.790 
  6818.500 -34.043  4.9620  3.0560  2.9190 -26.011  4.9620  3.0560  2.9190  0.7346  6818.2  146.49  21.400  32.041  37.789 
  6819.000 -36.739  5.2490  3.2360  3.0270 -28.708  5.2490  3.2360  3.0270  0.7342  6818.7  146.39  21.395  32.045  37.788 
  6819.500 -38.896  5.5010  3.4160  3.0630 -30.866  5.5010  3.4160  3.0630  0.7338  6819.2  146.30  21.389  32.049  37.786 
  6820.000 -40.514  5.6810  3.4340  3.0990 -32.486  5.6810  3.4340  3.0990  0.7333  6819.7  146.20  21.384  32.052  37.785 
  6820.500 -42.131  5.8250  3.4520  3.0640 -34.104  5.8250  3.4520  3.0640  0.7329  6820.2  146.11  21.379  32.056  37.784 
  6821.000 -43.389  5.9330  3.4340  3.0280 -35.364  5.9330  3.4340  3.0280  0.7325  6820.7  146.01  21.374  32.059  37.783 
  6821.500 -43.748  5.9330  3.4160  2.9920 -35.724  5.9330  3.4160  2.9920  0.7321  6821.2  145.92  21.368  32.063  37.781 
  6822.000 -44.106  5.8790  3.3800  2.9920 -36.084  5.8790  3.3800  2.9920  0.7317  6821.7  145.82  21.363  32.066  37.780 
  6822.500 -43.926  5.8250  3.3440  2.9920 -35.905  5.8250  3.3440  2.9920  0.7313  6822.2  145.73  21.358  32.070  37.779 
  6823.000 -42.666  5.7170  3.3260  2.9750 -34.646  5.7170  3.3260  2.9750  0.7308  6822.7  145.63  21.352  32.074  37.778 
  6823.500 -40.867  5.6090  3.3080  2.9570 -32.849  5.6090  3.3080  2.9570  0.7304  6823.2  145.54  21.347  32.077  37.777 
  6824.000 -39.428  5.5730  3.2720  2.9390 -31.411  5.5730  3.2720  2.9390  0.7300  6823.7  145.44  21.342  32.081  37.776 
  6824.500 -38.887  5.6450  3.2000  2.9210 -30.872  5.6450  3.2000  2.9210  0.7296  6824.2  145.35  21.337  32.084  37.774 
  6825.000 -38.346  5.7890  3.1640  2.9210 -30.332  5.7890  3.1640  2.9210  0.7292  6824.7  145.25  21.331  32.088  37.773 
  6825.500 -38.705  5.9680  3.1280  2.8860 -30.692  5.9680  3.1280  2.8860  0.7288  6825.2  145.16  21.326  32.092  37.772 
  6826.000 -39.064  6.2560  2.9840  2.8860 -31.053  6.2560  2.9840  2.8860  0.7283  6825.7  145.06  21.321  32.095  37.771 
  6826.500 -41.940  6.4180  2.9480  2.8500 -33.930  6.4180  2.9480  2.8500  0.7279  6826.2  144.97  21.316  32.099  37.770 
  6827.000 -44.997  6.5800  2.9480  2.8500 -36.989  6.5800  2.9480  2.8500  0.7275  6826.7  144.87  21.311  32.103  37.769 
  6827.500 -46.254  6.9390  2.9480  2.8860 -38.247  6.9390  2.9480  2.8860  0.7271  6827.2  144.78  21.305  32.106  37.768 
  6828.000 -49.850  6.7950  3.0200  2.9220 -41.844  6.7950  3.0200  2.9220  0.7267  6827.7  144.68  21.300  32.110  37.767 
  6828.500 -50.928  6.6520  3.0920  3.0300 -42.924  6.6520  3.0920  3.0300  0.7263  6828.2  144.59  21.295  32.114  37.766 
  6829.000 -50.837  6.4720  3.1640  3.0490 -42.834  6.4720  3.1640  3.0490  0.7258  6828.7  144.49  21.290  32.117  37.765 
  6829.500 -50.746  6.4720  3.2360  3.0670 -42.745  6.4720  3.2360  3.0670  0.7254  6829.2  144.40  21.285  32.121  37.764 
  6830.000 -50.386  6.4720  3.2180  3.0670 -42.386  6.4720  3.2180  3.0670  0.7250  6829.7  144.30  21.280  32.125  37.763 
  6830.500 -49.845  6.5440  3.2000  3.0670 -41.845  6.5440  3.2000  3.0670  0.7246  6830.2  144.21  21.275  32.128  37.762 
  6831.000 -49.665  6.7950  3.2000  3.0310 -41.665  6.7950  3.2000  3.0310  0.7242  6830.7  144.11  21.269  32.132  37.761 
  6831.500 -49.304  7.0110  3.2000  2.9960 -41.304  7.0110  3.2000  2.9960  0.7238  6831.2  144.02  21.264  32.136  37.760 
  6832.000 -49.213  7.0650  3.2000  2.9960 -41.213  7.0650  3.2000  2.9960  0.7233  6831.7  143.92  21.259  32.140  37.759 
  6832.500 -49.122  7.1190  3.2000  2.9960 -41.122  7.1190  3.2000  2.9960  0.7229  6832.2  143.83  21.254  32.143  37.758 
  6833.000 -48.582  7.2090  3.2000  3.0140 -40.582  7.2090  3.2000  3.0140  0.7225  6832.7  143.73  21.249  32.147  37.757 
  6833.500 -48.401  7.2990  3.2360  3.0320 -40.401  7.2990  3.2360  3.0320  0.7221  6833.2  143.64  21.244  32.151  37.756 
  6834.000 -48.041  7.2990  3.3080  3.1040 -40.041  7.2990  3.3080  3.1040  0.7217  6833.7  143.54  21.239  32.154  37.755 
  6834.500 -47.860  7.2630  3.3800  3.1400 -39.860  7.2630  3.3800  3.1400  0.7213  6834.2  143.45  21.234  32.158  37.754 
