~Version Information
VERS.                     2.0: CWLS log ASCII Standard Version 2.00
WRAP.                      NO: One line per depth step
~Well Information Block
#MNEM.UNIT                               Data Type  Information
#---------                               ---------  -----------
STRT.FT                                   660.0000:
STOP.FT                                  9080.0000:
STEP.FT                                     0.5000:
NULL.                 -999.25                     :
COMP.                                             :COMPANY            
WELL.     SAN EMIDIO #27-21                       :WELL               
FLD .                                             :FIELD              
CTRY.                                             :COUNTRY            
STAT.                                             :STATE              
LOC .                                             :LOCATION           
UWI .                                             :UNIQUE WELL ID     
SRVC.                                             :Service company    
DATE.                                             :LOG DATE           
~Curve Information
#MNEM.UNIT           API CODE  Curve Description
#---------           --------  -----------------
DEPT.FT                      :   1 DEPTH
SP  .MV                      :   2
AM16.OHMM                    :   3
AO10.OHMM                    :   4
AO19.OHMM                    :   5
SBL .MV                      :   6
RS  .OHMM                    :   7
RM  .OHMM                    :   8
RD  .OHMM                    :   9
DEVI.DEG                     :  10
TVD .FT                      :  11
AZIM.DEG                     :  12
NORT.FT                      :  13
EAST.FT                      :  14
OFFS.FT                      :  15
~A
# ...
  2350.000 -33.840  5.3880  6.2150  7.0950 -18.694  5.3880  6.2150  7.0950  0.2916  2349.9  30.000  6.6392  14.589  15.011 
  2350.500 -32.038  5.0300  6.1790  7.0050 -16.892  5.0300  6.1790  7.0050  0.2912  2350.4  30.080  6.6414  14.590  15.013 
  2351.000 -30.776  4.9400  6.0720  6.9340 -15.629  4.9400  6.0720  6.9340  0.2908  2350.9  30.160  6.6436  14.592  15.016 
  2351.500 -28.974  4.8510  5.8210  6.7550 -13.827  4.8510  5.8210  6.7550  0.2904  2351.4  30.240  6.6458  14.593  15.018 
  2352.000 -28.883  4.7430  5.3900  6.6470 -13.735  4.7430  5.3900  6.6470  0.2900  2351.9  30.320  6.6480  14.594  15.020 
  2352.500 -28.792  4.6360  4.6360  5.8210 -13.644  4.6360  4.6360  5.8210  0.2896  2352.4  30.400  6.6502  14.595  15.023 
  2353.000 -28.249  4.6000  4.5280  5.2470 -13.100  4.6000  4.5280  5.2470  0.2891  2352.9  30.480  6.6523  14.597  15.025 
  2353.500 -28.247  4.5650  4.5290  4.6010 -13.098  4.5650  4.5290  4.6010  0.2887  2353.4  30.560  6.6545  14.598  15.028 
  2354.000 -28.606  4.5290  4.5290  4.6520 -13.457  4.5290  4.5290  4.6520  0.2883  2353.9  30.640  6.6567  14.599  15.030 
  2354.500 -28.964  4.5470  4.6010  4.7040 -13.814  4.5470  4.6010  4.7040  0.2879  2354.4  30.720  6.6588  14.601  15.033 
  2355.000 -30.042  4.5660  4.7100  4.7560 -14.892  4.5660  4.7100  4.7560  0.2875  2354.9  30.800  6.6610  14.602  15.035 
  2355.500 -30.040  4.6740  5.1410  4.8070 -14.889  4.6740  5.1410  4.8070  0.2871  2355.4  30.880  6.6631  14.603  15.037 
  2356.000 -28.778  4.7280  5.2130  4.8590 -13.627  4.7280  5.2130  4.8590  0.2866  2355.9  30.960  6.6653  14.604  15.040 
  2356.500 -28.687  4.7820  5.3210  4.9110 -13.535  4.7820  5.3210  4.9110  0.2862  2356.4  31.040  6.6674  14.606  15.042 
  2357.000 -28.595  4.8190  5.4290  4.9620 -13.443  4.8190  5.4290  4.9620  0.2858  2356.9  31.120  6.6696  14.607  15.045 
  2357.500 -28.954  4.9270  5.5380  5.1780 -13.801  4.9270  5.5380  5.1780  0.2854  2357.4  31.200  6.6717  14.608  15.047 
  2358.000 -29.312  4.9990  5.6460  5.4300 -14.159  4.9990  5.6460  5.4300  0.2850  2357.9  31.280  6.6738  14.610  15.050 
  2358.500 -30.569  5.0710  5.7540  5.6460 -15.415  5.0710  5.7540  5.6460  0.2846  2358.4  31.360  6.6759  14.611  15.052 
  2359.000 -32.007  5.1430  6.1850  5.8620 -16.853  5.1430  6.1850  5.8620  0.2841  2358.9  31.440  6.6781  14.612  15.054 
  2359.500 -33.085  5.3230  6.6880  6.1500 -17.930  5.3230  6.6880  6.1500  0.2837  2359.4  31.520  6.6802  14.613  15.057 
  2360.000 -33.444  5.4320  7.3000  6.3660 -18.289  5.4320  7.3000  6.3660  0.2833  2359.9  31.600  6.6823  14.615  15.059 
  2360.500 -33.803  5.4680  7.4970  6.5460 -18.647  5.4680  7.4970  6.5460  0.2829  2360.4  31.680  6.6844  14.616  15.062 
  2361.000 -34.160  5.4680  7.6950  6.6180 -19.004  5.4680  7.6950  6.6180  0.2825  2360.9  31.760  6.6865  14.617  15.064 
  2361.500 -34.338  5.3250  7.5880  6.6540 -19.181  5.3250  7.5880  6.6540  0.2821  2361.4  31.840  6.6886  14.619  15.066 
  2362.000 -32.716  5.1820  7.3730  6.6180 -17.559  5.1820  7.3730  6.6180  0.2816  2361.9  31.920  6.6906  14.620  15.069 
  2362.500 -31.815  4.9300  6.7990  6.5110 -16.657  4.9300  6.7990  6.5110  0.2812  2362.4  32.000  6.6927  14.621  15.071 
  2363.000 -30.913  4.7510  6.3320  6.4040 -15.755  4.7510  6.3320  6.4040  0.2808  2362.9  32.080  6.6948  14.623  15.074 
  2363.500 -30.461  4.5720  6.1880  6.2240 -15.302  4.5720  6.1880  6.2240  0.2804  2363.4  32.160  6.6969  14.624  15.076 
  2364.000 -30.010  4.4290  5.7580  5.8300 -14.851  4.4290  5.7580  5.8300  0.2800  2363.9  32.240  6.6989  14.625  15.078 
  2364.500 -29.288  4.3210  5.4350  5.6140 -14.128  4.3210  5.4350  5.6140  0.2796  2364.4  32.320  6.7010  14.626  15.081 
  2365.000 -28.567  4.2860  5.0760  5.4350 -13.407  4.2860  5.0760  5.4350  0.2791  2364.9  32.400  6.7031  14.628  15.083 
  2365.500 -27.664  4.1780  4.7890  5.1480 -12.503  4.1780  4.7890  5.1480  0.2787  2365.4  32.480  6.7051  14.629  15.086 
  2366.000 -27.482  4.1430  4.7530  4.8970 -12.321  4.1430  4.7530  4.8970  0.2783  2365.9  32.560  6.7072  14.630  15.088 
  2366.500 -28.200  4.1070  4.7540  4.9150 -13.039  4.1070  4.7540  4.9150  0.2779  2366.4  32.640  6.7092  14.632  15.090 
  2367.000 -29.458  4.0720  4.7540  4.9340 -14.296  4.0720  4.7540  4.9340  0.2775  2366.9  32.720  6.7112  14.633  15.093 
  2367.500 -28.557  4.0720  4.7540  5.0780 -13.395  4.0720  4.7540  5.0780  0.2771  2367.4  32.800  6.7133  14.634  15.095 
  2368.000 -27.475  4.0720  4.7190  5.1500 -12.312  4.0720  4.7190  5.1500  0.2766  2367.9  32.880  6.7153  14.636  15.097 
  2368.500 -26.393  4.1090  4.6110  5.1500 -11.230  4.1090  4.6110  5.1500  0.2762  2368.4  32.960  6.7173  14.637  15.100 
  2369.000 -26.031  4.1450  4.5400  5.0790 -10.867  4.1450  4.5400  5.0790  0.2758  2368.9  33.040  6.7193  14.638  15.102 
  2369.500 -25.490  4.1810  4.4680  4.9350 -10.326  4.1810  4.4680  4.9350  0.2754  2369.4  33.120  6.7213  14.640  15.104 
  2370.000 -25.398  4.1810  4.4150  4.8640 -10.233  4.1810  4.4150  4.8640  0.2750  2369.9  33.200  6.7234  14.641  15.107 
  2370.500 -25.307  4.2180  4.3610  4.8280 -10.142  4.2180  4.3610  4.8280  0.2746  2370.4  33.280  6.7254  14.642  15.109 
  2371.000 -25.844  4.2900  4.4340  4.8650 -10.678  4.2900  4.4340  4.8650  0.2741  2370.9  33.360  6.7274  14.643  15.111 
  2371.500 -26.922  4.4700  4.7570  5.0810 -11.756  4.4700  4.7570  5.0810  0.2737  2371.4  33.440  6.7294  14.645  15.114 
  2372.000 -27.640  4.6860  5.1530  5.3680 -12.473  4.6860  5.1530  5.3680  0.2733  2371.9  33.520  6.7313  14.646  15.116 
  2372.500 -28.359  5.1170  5.5120  5.6200 -13.192  5.1170  5.5120  5.6200  0.2729  2372.4  33.600  6.7333  14.647  15.118 
  2373.000 -28.897  5.4050  6.0520  5.8360 -13.729  5.4050  6.0520  5.8360  0.2725  2372.9  33.680  6.7353  14.649  15.121 
  2373.500 -29.435  5.5490  6.6630  6.2320 -14.267  5.5490  6.6630  6.2320  0.2721  2373.4  33.760  6.7373  14.650  15.123 
  2374.000 -29.613  5.5490  7.0940  6.6630 -14.444  5.5490  7.0940  6.6630  0.2716  2373.9  33.840  6.7392  14.651  15.125 
  2374.500 -29.971  5.4060  7.4540  8.2080 -14.802  5.4060  7.4540  8.2080  0.2712  2374.4  33.920  6.7412  14.653  15.128 
  2375.000 -28.890  5.0830  8.2800  8.7470 -13.720  5.0830  8.2800  8.7470  0.2708  2374.9  34.000  6.7432  14.654  15.130 
  2375.500 -27.268  4.7960  8.5680  9.1430 -12.098  4.7960  8.5680  9.1430  0.2704  2375.4  34.080  6.7451  14.655  15.132 
  2376.000 -26.547  4.5810  8.4970  9.2510 -11.376  4.5810  8.4970  9.2510  0.2700  2375.9  34.160  6.7471  14.657  15.135 
  2376.500 -25.825  4.4740  8.4070  9.0360 -10.654  4.4740  8.4070  9.0360  0.2696  2376.4  34.240  6.7490  14.658  15.137 
  2377.000 -23.843  4.3300  8.3170  8.7130 -8.6714  4.3300  8.3170  8.7130  0.2692  2376.9  34.320  6.7510  14.659  15.139 
  2377.500 -22.761  4.2950  7.8150  7.3840 -7.5889  4.2950  7.8150  7.3840  0.2687  2377.4  34.400  6.7529  14.661  15.142 
  2378.000 -22.039  4.2230  7.1690  6.0190 -6.8664  4.2230  7.1690  6.0190  0.2683  2377.9  34.480  6.7548  14.662  15.144 
  2378.500 -21.677  4.1160  4.8340  4.9420 -6.5040  4.1160  4.8340  4.9420  0.2679  2378.4  34.560  6.7567  14.663  15.146 
  2379.000 -21.495  4.0800  4.1880  4.4030 -6.3215  4.0800  4.1880  4.4030  0.2675  2378.9  34.640  6.7587  14.665  15.149 
  2379.500 -21.674  4.0810  3.8290  4.0090 -6.5000  4.0810  3.8290  4.0090  0.2671  2379.4  34.720  6.7606  14.666  15.151 
  2380.000 -21.853  4.0810  3.7220  4.0270 -6.6785  4.0810  3.7220  4.0270  0.2667  2379.9  34.800  6.7625  14.667  15.153 
  2380.500 -22.210  4.1170  3.7220  4.0450 -7.0350  4.1170  3.7220  4.0450  0.2662  2380.4  34.880  6.7644  14.669  15.155 
  2381.000 -22.569  4.1530  3.7220  4.1530 -7.3936  4.1530  3.7220  4.1530  0.2658  2380.9  34.960  6.7663  14.670  15.158 
  2381.500 -22.927  4.1900  3.7590  4.3690 -7.7511  4.1900  3.7590  4.3690  0.2654  2381.4  35.040  6.7682  14.671  15.160 
  2382.000 -24.005  4.3340  3.8310  4.4770 -8.8286  4.3340  3.8310  4.4770  0.2650  2381.9  35.120  6.7701  14.673  15.162 
