~Version Information
VERS.                     2.0: CWLS log ASCII Standard Version 2.00
WRAP.                      NO: One line per depth step
~Well Information Block
#MNEM.UNIT                               Data Type  Information
#---------                               ---------  -----------
STRT.FT                                   660.0000:
STOP.FT                                  9080.0000:
STEP.FT                                     0.5000:
NULL.                 -999.25                     :
COMP.                                             :COMPANY            
WELL.     SAN EMIDIO #27-21                       :WELL               
FLD .                                             :FIELD              
CTRY.                                             :COUNTRY            
STAT.                                             :STATE              
LOC .                                             :LOCATION           
UWI .                                             :UNIQUE WELL ID     
SRVC.                                             :Service company    
DATE.                                             :LOG DATE           
~Curve Information
#MNEM.UNIT           API CODE  Curve Description
#---------           --------  -----------------
DEPT.FT                      :   1 DEPTH
SP  .MV                      :   2
AM16.OHMM                    :   3
AO10.OHMM                    :   4
AO19.OHMM                    :   5
SBL .MV                      :   6
RS  .OHMM                    :   7
RM  .OHMM                    :   8
RD  .OHMM                    :   9
DEVI.DEG                     :  10
TVD .FT                      :  11
AZIM.DEG                     :  12
NORT.FT                      :  13
EAST.FT                      :  14
OFFS.FT                      :  15
~A
# ...
  4007.500 -48.198  11.813  14.291  14.830 -31.459  11.813  14.291  14.830  0.5062  4007.3  48.372  19.841  14.434  24.236 
  4008.000 -47.837  11.562  14.470  14.973 -31.098  11.562  14.470  14.973  0.5067  4007.8  48.397  19.844  14.437  24.240 
  4008.500 -47.837  11.311  14.506  15.045 -31.097  11.311  14.506  15.045  0.5071  4008.3  48.422  19.847  14.440  24.245 
  4009.000 -47.928  10.988  14.399  15.117 -31.188  10.988  14.399  15.117  0.5075  4008.8  48.447  19.850  14.444  24.249 
  4009.500 -48.018  10.808  14.040  15.009 -31.277  10.808  14.040  15.009  0.5079  4009.3  48.472  19.853  14.447  24.254 
  4010.000 -48.378  10.700  13.465  14.758 -31.637  10.700  13.465  14.758  0.5083  4009.8  48.497  19.856  14.450  24.258 
  4010.500 -46.576  10.808  13.106  14.435 -29.834  10.808  13.106  14.435  0.5087  4010.3  48.522  19.859  14.454  24.262 
  4011.000 -46.576  10.916  12.783  14.255 -29.834  10.916  12.783  14.255  0.5092  4010.8  48.547  19.862  14.457  24.267 
  4011.500 -46.576  10.952  12.460  14.004 -29.833  10.952  12.460  14.004  0.5096  4011.3  48.572  19.865  14.460  24.271 
  4012.000 -46.576  10.952  12.316  13.860 -29.833  10.952  12.316  13.860  0.5100  4011.8  48.597  19.868  14.464  24.276 
  4012.500 -46.577  10.880  12.280  14.147 -29.833  10.880  12.280  14.147  0.5104  4012.3  48.622  19.870  14.467  24.280 
  4013.000 -46.396  10.772  12.424  14.255 -29.652  10.772  12.424  14.255  0.5108  4012.8  48.647  19.873  14.470  24.285 
  4013.500 -46.035  10.521  12.855  14.578 -29.290  10.521  12.855  14.578  0.5112  4013.3  48.672  19.876  14.474  24.289 
  4014.000 -45.315  10.305  13.429  14.686 -28.570  10.305  13.429  14.686  0.5117  4013.8  48.697  19.879  14.477  24.294 
  4014.500 -45.135  9.8030  13.465  14.686 -28.389  9.8030  13.465  14.686  0.5121  4014.3  48.722  19.882  14.480  24.298 
  4015.000 -43.513  9.4440  13.429  14.506 -26.767  9.4440  13.429  14.506  0.5125  4014.8  48.747  19.885  14.484  24.303 
  4015.500 -39.009  9.2640  13.070  13.860 -22.262  9.2640  13.070  13.860  0.5129  4015.3  48.772  19.888  14.487  24.307 
  4016.000 -37.928  9.4080  12.819  13.286 -21.181  9.4080  12.819  13.286  0.5133  4015.8  48.797  19.891  14.490  24.311 
  4016.500 -38.108  9.6230  12.639  12.962 -21.360  9.6230  12.639  12.962  0.5137  4016.3  48.822  19.894  14.494  24.316 
  4017.000 -38.648  10.198  12.352  12.567 -21.900  10.198  12.352  12.567  0.5142  4016.8  48.847  19.897  14.497  24.320 
  4017.500 -40.090  10.700  11.777  12.496 -23.341  10.700  11.777  12.496  0.5146  4017.3  48.872  19.900  14.501  24.325 
  4018.000 -41.351  11.167  11.813  12.675 -24.602  11.167  11.813  12.675  0.5150  4017.8  48.897  19.903  14.504  24.329 
  4018.500 -43.153  11.598  11.957  12.908 -26.403  11.598  11.957  12.908  0.5154  4018.3  48.922  19.906  14.507  24.334 
  4019.000 -44.774  11.849  12.424  13.142 -28.024  11.849  12.424  13.142  0.5158  4018.8  48.947  19.909  14.511  24.338 
  4019.500 -46.216  12.101  13.214  13.609 -29.465  12.101  13.214  13.609  0.5162  4019.3  48.972  19.912  14.514  24.343 
  4020.000 -47.477  12.352  13.573  13.896 -30.726  12.352  13.573  13.896  0.5167  4019.8  48.997  19.915  14.518  24.347 
  4020.500 -48.378  12.388  13.968  14.435 -31.626  12.388  13.968  14.435  0.5171  4020.3  49.022  19.918  14.521  24.352 
  4021.000 -48.378  12.316  14.542  14.937 -31.626  12.316  14.542  14.937  0.5175  4020.8  49.047  19.921  14.524  24.356 
  4021.500 -47.477  12.172  14.722  15.368 -30.725  12.172  14.722  15.368  0.5179  4021.3  49.072  19.924  14.528  24.361 
  4022.000 -45.855  11.957  15.225  15.619 -29.102  11.957  15.225  15.619  0.5183  4021.8  49.097  19.927  14.531  24.365 
  4022.500 -44.414  11.275  15.584  15.763 -27.661  11.275  15.584  15.763  0.5187  4022.3  49.122  19.930  14.535  24.370 
  4023.000 -41.531  10.377  15.907  15.978 -24.777  10.377  15.907  15.978  0.5192  4022.8  49.147  19.933  14.538  24.374 
  4023.500 -39.549  9.7670  16.122  16.014 -22.795  9.7670  16.122  16.014  0.5196  4023.3  49.172  19.935  14.542  24.379 
  4024.000 -35.405  9.4430  15.943  15.763 -18.650  9.4430  15.943  15.763  0.5200  4023.8  49.197  19.938  14.545  24.383 
  4024.500 -33.784  9.1560  15.332  14.650 -17.029  9.1560  15.332  14.650  0.5204  4024.3  49.222  19.941  14.548  24.388 
  4025.000 -31.621  8.8330  14.722  14.506 -14.865  8.8330  14.722  14.506  0.5208  4024.8  49.247  19.944  14.552  24.392 
  4025.500 -32.883  8.5820  14.111  14.578 -16.127  8.5820  14.111  14.578  0.5212  4025.3  49.272  19.947  14.555  24.397 
  4026.000 -35.045  8.4380  14.650  15.260 -18.288  8.4380  14.650  15.260  0.5217  4025.8  49.297  19.950  14.559  24.402 
  4026.500 -35.585  8.2230  15.009  16.122 -18.828  8.2230  15.009  16.122  0.5221  4026.3  49.322  19.953  14.562  24.406 
  4027.000 -34.144  8.1150  15.476  18.636 -17.386  8.1150  15.476  18.636  0.5225  4026.8  49.347  19.956  14.566  24.411 
  4027.500 -32.703  7.5400  15.979  18.923 -15.945  7.5400  15.979  18.923  0.5229  4027.3  49.372  19.959  14.569  24.415 
  4028.000 -29.640  7.1100  16.266  18.707 -12.881  7.1100  16.266  18.707  0.5233  4027.8  49.397  19.962  14.573  24.420 
  4028.500 -27.477  6.4990  16.086  18.097 -10.718  6.4990  16.086  18.097  0.5237  4028.3  49.422  19.965  14.576  24.424 
  4029.000 -26.216  6.0320  15.081  17.020 -9.4563  6.0320  15.081  17.020  0.5242  4028.8  49.447  19.968  14.580  24.429 
  4029.500 -25.495  5.7810  11.813  13.860 -8.7348  5.7810  11.813  13.860  0.5246  4029.3  49.472  19.971  14.583  24.433 
  4030.000 -24.594  5.5300  11.382  12.891 -7.8334  5.5300  11.382  12.891  0.5250  4029.8  49.497  19.974  14.586  24.438 
  4030.500 -23.513  5.3860  10.772  11.131 -6.7519  5.3860  10.772  11.131  0.5254  4030.3  49.522  19.977  14.590  24.443 
  4031.000 -21.891  5.3140  9.9460  10.233 -5.1294  5.3140  9.9460  10.233  0.5258  4030.8  49.547  19.980  14.593  24.447 
  4031.500 -21.531  5.2780  9.1920  8.9770 -4.7689  5.2780  9.1920  8.9770  0.5262  4031.3  49.572  19.983  14.597  24.452 
  4032.000 -21.891  5.2420  8.7610  8.8870 -5.1284  5.2420  8.7610  8.8870  0.5267  4031.8  49.597  19.986  14.600  24.456 
  4032.500 -22.432  5.1350  8.7250  8.7970 -5.6690  5.1350  8.7250  8.7970  0.5271  4032.3  49.622  19.989  14.604  24.461 
  4033.000 -22.972  5.0630  8.6710  8.7430 -6.2085  5.0630  8.6710  8.7430  0.5275  4032.8  49.647  19.992  14.607  24.465 
  4033.500 -23.333  5.0270  8.6170  8.6890 -6.5690  5.0270  8.6170  8.6890  0.5279  4033.3  49.672  19.995  14.611  24.470 
  4034.000 -23.333  4.9910  8.5100  8.6540 -6.5685  4.9910  8.5100  8.6540  0.5283  4033.8  49.697  19.998  14.614  24.475 
  4034.500 -23.333  4.9730  8.4740  8.6360 -6.5680  4.9730  8.4740  8.6360  0.5287  4034.3  49.722  20.001  14.618  24.479 
  4035.000 -23.513  4.9550  8.3300  8.6180 -6.7476  4.9550  8.3300  8.6180  0.5292  4034.8  49.747  20.004  14.622  24.484 
  4035.500 -23.873  4.9190  8.2230  8.5100 -7.1071  4.9190  8.2230  8.5100  0.5296  4035.3  49.772  20.007  14.625  24.488 
  4036.000 -24.414  4.8830  8.1330  8.3840 -7.6476  4.8830  8.1330  8.3840  0.5300  4035.8  49.797  20.010  14.629  24.493 
  4036.500 -23.873  4.5240  8.0430  8.2580 -7.1061  4.5240  8.0430  8.2580  0.5304  4036.3  49.822  20.013  14.632  24.498 
  4037.000 -23.513  4.4520  7.8640  7.9710 -6.7456  4.4520  7.8640  7.9710  0.5308  4036.8  49.847  20.016  14.636  24.502 
  4037.500 -23.513  4.4520  7.7200  7.6840 -6.7452  4.4520  7.7200  7.6840  0.5312  4037.3  49.872  20.019  14.639  24.507 
  4038.000 -23.153  4.4520  7.5050  7.3970 -6.3847  4.4520  7.5050  7.3970  0.5317  4037.8  49.897  20.022  14.643  24.512 
  4038.500 -22.972  4.4700  7.3250  7.2530 -6.2032  4.4700  7.3250  7.2530  0.5321  4038.3  49.922  20.025  14.646  24.516 
  4039.000 -23.333  4.4880  6.9660  7.0380 -6.5637  4.4880  6.9660  7.0380  0.5325  4038.8  49.947  20.028  14.650  24.521 
  4039.500 -23.873  4.5780  6.7500  6.9660 -7.1032  4.5780  6.7500  6.9660  0.5329  4039.3  49.972  20.031  14.653  24.525 
