~Version Information
VERS.                     2.0: CWLS log ASCII Standard Version 2.00
WRAP.                      NO: One line per depth step
~Well Information Block
#MNEM.UNIT                               Data Type  Information
#---------                               ---------  -----------
STRT.FT                                   660.0000:
STOP.FT                                  9080.0000:
STEP.FT                                     0.5000:
NULL.                 -999.25                     :
COMP.                                             :COMPANY            
WELL.     SAN EMIDIO #27-21                       :WELL               
FLD .                                             :FIELD              
CTRY.                                             :COUNTRY            
STAT.                                             :STATE              
LOC .                                             :LOCATION           
UWI .                                             :UNIQUE WELL ID     
SRVC.                                             :Service company    
DATE.                                             :LOG DATE           
~Curve Information
#MNEM.UNIT           API CODE  Curve Description
#---------           --------  -----------------
DEPT.FT                      :   1 DEPTH
SP  .MV                      :   2
AM16.OHMM                    :   3
AO10.OHMM                    :   4
AO19.OHMM                    :   5
SBL .MV                      :   6
RS  .OHMM                    :   7
RM  .OHMM                    :   8
RD  .OHMM                    :   9
DEVI.DEG                     :  10
TVD .FT                      :  11
AZIM.DEG                     :  12
NORT.FT                      :  13
EAST.FT                      :  14
OFFS.FT                      :  15
~A
# ...
  4560.000 -48.342  9.2500  9.0700  7.0090 -32.799  9.2500  9.0700  7.0090  0.7000  4559.8  38.597  22.727  17.300  28.303 
  4560.500 -49.421  8.8550  9.2140  7.1890 -33.880  8.8550  9.2140  7.1890  0.7017  4560.3  38.602  22.732  17.303  28.309 
  4561.000 -49.600  8.4960  9.2860  7.6200 -34.062  8.4960  9.2860  7.6200  0.7033  4560.8  38.607  22.736  17.307  28.315 
  4561.500 -49.598  8.3530  9.3040  7.8360 -34.063  8.3530  9.3040  7.8360  0.7050  4561.3  38.612  22.741  17.311  28.321 
  4562.000 -49.597  8.0650  9.3220  7.9800 -34.064  8.0650  9.3220  7.9800  0.7066  4561.8  38.617  22.746  17.315  28.327 
  4562.500 -47.973  7.7070  9.3220  8.2320 -32.443  7.7070  9.3220  8.2320  0.7083  4562.3  38.622  22.751  17.319  28.334 
  4563.000 -46.529  7.3840  9.2150  8.3760 -31.001  7.3840  9.2150  8.3760  0.7100  4562.8  38.627  22.756  17.323  28.340 
  4563.500 -44.366  6.9890  9.1070  8.4840 -28.841  6.9890  9.1070  8.4840  0.7116  4563.3  38.632  22.761  17.327  28.346 
  4564.000 -36.796  6.5220  9.0000  8.4120 -21.274  6.5220  9.0000  8.4120  0.7133  4563.8  38.637  22.766  17.330  28.352 
  4564.500 -33.731  6.3070  8.2100  8.3410 -18.211  6.3070  8.2100  8.3410  0.7150  4564.3  38.642  22.770  17.334  28.358 
  4565.000 -31.748  5.4810  7.6000  8.0180 -16.231  5.4810  7.6000  8.0180  0.7166  4564.8  38.647  22.775  17.338  28.365 
  4565.500 -30.305  4.8350  7.3130  7.5160 -14.790  4.8350  7.3130  7.5160  0.7183  4565.3  38.652  22.780  17.342  28.371 
  4566.000 -29.041  4.4760  6.8820  7.1570 -13.529  4.4760  6.8820  7.1570  0.7200  4565.8  38.657  22.785  17.346  28.377 
  4566.500 -26.877  4.1890  6.7030  6.6910 -11.368  4.1890  6.7030  6.6910  0.7216  4566.3  38.662  22.790  17.350  28.383 
  4567.000 -25.253  4.1170  6.4160  6.1160 -9.7462  4.1170  6.4160  6.1160  0.7233  4566.8  38.667  22.795  17.354  28.390 
  4567.500 -23.810  4.0100  5.9130  5.6140 -8.3058  4.0100  5.9130  5.6140  0.7250  4567.3  38.672  22.800  17.358  28.396 
  4568.000 -22.908  4.0100  5.6980  5.1840 -7.4064  4.0100  5.6980  5.1840  0.7266  4567.8  38.677  22.805  17.362  28.402 
  4568.500 -22.185  4.0100  5.5900  5.0040 -6.6860  4.0100  5.5900  5.0040  0.7283  4568.3  38.682  22.810  17.366  28.408 
  4569.000 -21.643  3.9750  5.4110  4.7890 -6.1466  3.9750  5.4110  4.7890  0.7300  4568.8  38.687  22.815  17.370  28.415 
  4569.500 -21.281  3.9930  5.3570  4.7180 -5.7872  3.9930  5.3570  4.7180  0.7316  4569.3  38.692  22.820  17.374  28.421 
  4570.000 -21.099  4.0110  5.3030  4.7180 -5.6077  4.0110  5.3030  4.7180  0.7333  4569.8  38.697  22.825  17.378  28.428 
  4570.500 -20.556  4.0830  5.1960  4.7900 -5.0673  4.0830  5.1960  4.7900  0.7350  4570.3  38.702  22.830  17.382  28.434 
  4571.000 -20.374  4.1550  5.3040  4.8980 -4.8879  4.1550  5.3040  4.8980  0.7366  4570.8  38.707  22.835  17.386  28.440 
  4571.500 -20.012  4.1550  5.4840  4.9350 -4.5285  4.1550  5.4840  4.9350  0.7383  4571.3  38.712  22.840  17.390  28.447 
  4572.000 -19.651  4.0470  5.5560  4.9710 -4.1701  4.0470  5.5560  4.9710  0.7400  4571.8  38.717  22.845  17.394  28.453 
  4572.500 -19.198  3.9580  5.6450  5.0070 -3.7197  3.9580  5.6450  5.0070  0.7416  4572.3  38.722  22.850  17.398  28.460 
  4573.000 -18.746  3.8680  5.7350  4.9720 -3.2703  3.8680  5.7350  4.9720  0.7433  4572.8  38.727  22.855  17.402  28.466 
  4573.500 -17.843  3.7610  5.7720  4.9360 -2.3699  3.7610  5.7720  4.9360  0.7450  4573.3  38.732  22.860  17.406  28.472 
  4574.000 -18.201  3.7070  5.7180  4.8830 -2.7305  3.7070  5.7180  4.8830  0.7466  4573.8  38.737  22.865  17.410  28.479 
  4574.500 -18.740  3.6530  5.6640  4.8290 -3.2721  3.6530  5.6640  4.8290  0.7483  4574.3  38.742  22.870  17.414  28.485 
  4575.000 -19.819  3.5100  5.5570  4.7580 -4.3537  3.5100  5.5570  4.7580  0.7500  4574.8  38.747  22.875  17.418  28.492 
  4575.500 -21.079  3.4380  5.2700  4.7400 -5.6163  3.4380  5.2700  4.7400  0.7516  4575.3  38.752  22.880  17.423  28.498 
  4576.000 -21.257  3.4030  4.7670  4.7220 -5.7969  3.4030  4.7670  4.7220  0.7533  4575.8  38.757  22.886  17.427  28.505 
  4576.500 -21.075  3.4030  4.5520  4.6510 -5.6175  3.4030  4.5520  4.6510  0.7550  4576.3  38.762  22.891  17.431  28.512 
  4577.000 -20.713  3.4030  4.2290  4.5800 -5.2580  3.4030  4.2290  4.5800  0.7566  4576.8  38.767  22.896  17.435  28.518 
  4577.500 -20.711  3.4750  4.1570  4.5080 -5.2586  3.4750  4.1570  4.5080  0.7583  4577.3  38.772  22.901  17.439  28.525 
  4578.000 -20.529  3.5290  4.0140  4.5800 -5.0792  3.5290  4.0140  4.5800  0.7600  4577.8  38.777  22.906  17.443  28.531 
  4578.500 -20.527  3.5830  4.0500  4.7240 -5.0798  3.5830  4.0500  4.7240  0.7616  4578.3  38.782  22.911  17.447  28.538 
  4579.000 -20.526  3.7630  4.1220  4.9040 -5.0814  3.7630  4.1220  4.9040  0.7633  4578.8  38.787  22.916  17.452  28.544 
  4579.500 -20.614  3.9070  4.2300  5.0480 -5.1720  3.9070  4.2300  5.0480  0.7650  4579.3  38.792  22.922  17.456  28.551 
  4580.000 -20.703  4.0500  4.2840  5.2640 -5.2636  4.0500  4.2840  5.2640  0.7666  4579.8  38.797  22.927  17.460  28.558 
  4580.500 -21.061  4.1220  4.3380  5.3360 -5.6242  4.1220  4.3380  5.3360  0.7683  4580.3  38.802  22.932  17.464  28.564 
  4581.000 -21.419  4.1940  4.3740  5.4440 -5.9848  4.1940  4.3740  5.4440  0.7700  4580.8  38.807  22.937  17.468  28.571 
  4581.500 -22.499  4.3740  4.4100  5.4800 -7.0674  4.3740  4.4100  5.4800  0.7716  4581.3  38.812  22.943  17.473  28.578 
  4582.000 -24.479  4.4280  4.3020  5.4990 -9.0500  4.4280  4.3020  5.4990  0.7733  4581.8  38.817  22.948  17.477  28.585 
  4582.500 -28.261  4.4820  4.2310  5.5170 -12.835  4.4820  4.2310  5.5170  0.7750  4582.3  38.822  22.953  17.481  28.591 
  4583.000 -30.241  4.6440  4.3030  5.7330 -14.817  4.6440  4.3030  5.7330  0.7766  4582.8  38.827  22.958  17.485  28.598 
  4583.500 -33.843  4.8060  4.3750  6.0210 -18.422  4.8060  4.3750  6.0210  0.7783  4583.3  38.832  22.964  17.489  28.605 
  4584.000 -37.084  5.3090  4.5190  6.2360 -21.665  5.3090  4.5190  6.2360  0.7800  4583.8  38.837  22.969  17.494  28.612 
  4584.500 -38.074  5.7750  4.6980  6.5240 -22.658  5.7750  4.6980  6.5240  0.7816  4584.3  38.842  22.974  17.498  28.618 
  4585.000 -39.064  6.3140  5.0220  6.8470 -23.651  6.3140  5.0220  6.8470  0.7833  4584.8  38.847  22.980  17.502  28.625 
  4585.500 -41.764  7.0680  5.2730  7.0270 -26.353  7.0680  5.2730  7.0270  0.7850  4585.3  38.852  22.985  17.507  28.632 
  4586.000 -43.384  7.5350  5.6680  7.2070 -27.976  7.5350  5.6680  7.2070  0.7866  4585.8  38.857  22.990  17.511  28.639 
  4586.500 -44.103  8.4690  5.8840  7.6030 -28.697  8.4690  5.8840  7.6030  0.7883  4586.3  38.862  22.996  17.515  28.646 
  4587.000 -44.461  8.9360  5.9920  7.7820 -29.058  8.9360  5.9920  7.7820  0.7900  4586.8  38.867  23.001  17.520  28.652 
  4587.500 -44.099  8.9360  6.0100  7.7830 -28.698  8.9360  6.0100  7.7830  0.7916  4587.3  38.872  23.006  17.524  28.659 
  4588.000 -44.638  9.1880  6.0280  7.7110 -29.240  9.1880  6.0280  7.7110  0.7933  4587.8  38.877  23.012  17.528  28.666 
  4588.500 -45.897  9.2600  6.0280  7.5320 -30.502  9.2600  6.0280  7.5320  0.7950  4588.3  38.882  23.017  17.533  28.673 
  4589.000 -46.796  9.2600  6.0280  7.4250 -31.403  9.2600  6.0280  7.4250  0.7966  4588.8  38.887  23.023  17.537  28.680 
  4589.500 -46.975  9.2960  6.0290  7.3530 -31.585  9.2960  6.0290  7.3530  0.7983  4589.3  38.892  23.028  17.541  28.687 
  4590.000 -47.154  9.2960  6.1010  7.2820 -31.766  9.2960  6.1010  7.2820  0.8000  4589.8  38.897  23.033  17.546  28.694 
  4590.500 -46.250  9.3320  6.1370  7.2460 -30.865  9.3320  6.1370  7.2460  0.8016  4590.3  38.902  23.039  17.550  28.701 
  4591.000 -46.249  9.4760  6.1730  7.2470 -30.867  9.4760  6.1730  7.2470  0.8033  4590.8  38.907  23.044  17.555  28.708 
  4591.500 -46.967  9.5840  6.1910  7.2470 -31.587  9.5840  6.1910  7.2470  0.8050  4591.3  38.912  23.050  17.559  28.715 
  4592.000 -48.047  9.5840  6.2090  7.2470 -32.670  9.5840  6.2090  7.2470  0.8066  4591.8  38.917  23.055  17.563  28.722 
