~Version Information
VERS.                     2.0: CWLS log ASCII Standard Version 2.00
WRAP.                      NO: One line per depth step
~Well Information Block
#MNEM.UNIT                               Data Type  Information
#---------                               ---------  -----------
STRT.FT                                   660.0000:
STOP.FT                                  9080.0000:
STEP.FT                                     0.5000:
NULL.                 -999.25                     :
COMP.                                             :COMPANY            
WELL.     SAN EMIDIO #27-21                       :WELL               
FLD .                                             :FIELD              
CTRY.                                             :COUNTRY            
STAT.                                             :STATE              
LOC .                                             :LOCATION           
UWI .                                             :UNIQUE WELL ID     
SRVC.                                             :Service company    
DATE.                                             :LOG DATE           
~Curve Information
#MNEM.UNIT           API CODE  Curve Description
#---------           --------  -----------------
DEPT.FT                      :   1 DEPTH
SP  .MV                      :   2
AM16.OHMM                    :   3
AO10.OHMM                    :   4
AO19.OHMM                    :   5
SBL .MV                      :   6
RS  .OHMM                    :   7
RM  .OHMM                    :   8
RD  .OHMM                    :   9
DEVI.DEG                     :  10
TVD .FT                      :  11
AZIM.DEG                     :  12
NORT.FT                      :  13
EAST.FT                      :  14
OFFS.FT                      :  15
~A
# ...
  9045.000 -69.252  21.222  61.150  10.316 -63.252  21.222  61.150  10.316  1.3752  9044.1  136.81 -22.438  52.469  21.235 
  9045.500 -69.253  21.942  57.193  10.226 -63.253  21.942  57.193  10.226  1.3793  9044.6  136.84 -22.446  52.477  21.235 
  9046.000 -70.516  23.021  51.798  10.046 -64.516  23.021  51.798  10.046  1.3835  9045.1  136.88 -22.455  52.485  21.235 
  9046.500 -72.860  24.820  46.042  9.9750 -66.860  24.820  46.042  9.9750  1.3877  9045.6  136.91 -22.464  52.494  21.234 
  9047.000 -76.105  26.978  42.445  9.9030 -70.105  26.978  42.445  9.9030  1.3918  9046.1  136.94 -22.473  52.502  21.234 
  9047.500 -77.908  29.856  38.129  10.047 -71.908  29.856  38.129  10.047  1.3960  9046.6  136.97 -22.482  52.510  21.233 
  9048.000 -82.955  32.374  37.050  10.263 -76.955  32.374  37.050  10.263  1.4002  9047.1  137.00 -22.491  52.519  21.233 
  9048.500 -90.165  34.893  37.769  11.126 -84.165  34.893  37.769  11.126  1.4044  9047.6  137.03 -22.500  52.527  21.233 
  9049.000 -96.292  41.367  43.884  11.522 -90.292  41.367  43.884  11.522  1.4085  9048.1  137.06 -22.509  52.535  21.232 
  9049.500 -99.177  46.402  47.482  11.954 -93.177  46.402  47.482  11.954  1.4127  9048.6  137.09 -22.518  52.544  21.232 
  9050.000 -101.16  50.719  48.920  12.313 -95.160  50.719  48.920  12.313  1.4169  9049.1  137.13 -22.527  52.552  21.231 
  9050.500 -102.60  52.518  49.280  12.997 -96.603  52.518  49.280  12.997  1.4210  9049.6  137.16 -22.536  52.561  21.231 
  9051.000 -103.69  54.316  48.201  17.741 -97.686  54.316  48.201  17.741  1.4252  9050.1  137.19 -22.545  52.569  21.230 
  9051.500 -104.95  55.036  45.324  19.270 -98.949  55.036  45.324  19.270  1.4294  9050.6  137.22 -22.554  52.578  21.230 
  9052.000 -105.49  55.755  42.445  20.800 -99.491  55.755  42.445  20.800  1.4335  9051.1  137.25 -22.563  52.586  21.229 
  9052.500 -105.13  55.756  40.646  22.329 -99.133  55.756  40.646  22.329  1.4377  9051.6  137.28 -22.573  52.595  21.229 
  9053.000 -103.87  55.757  39.567  23.859 -97.873  55.757  39.567  23.859  1.4419  9052.1  137.31 -22.582  52.603  21.228 
  9053.500 -101.71  55.394  38.128  24.939 -95.713  55.394  38.128  24.939  1.4460  9052.6  137.34 -22.591  52.612  21.228 
  9054.000 -100.99  55.035  38.128  26.019 -94.994  55.035  38.128  26.019  1.4502  9053.1  137.38 -22.600  52.620  21.227 
  9054.500 -100.36  54.675  38.488  26.561 -94.364  54.675  38.488  26.561  1.4544  9053.6  137.41 -22.610  52.629  21.227 
  9055.000 -99.735  53.596  40.647  27.102 -93.735  53.596  40.647  27.102  1.4585  9054.1  137.44 -22.619  52.637  21.226 
  9055.500 -98.296  52.877  42.085  28.900 -92.296  52.877  42.085  28.900  1.4627  9054.6  137.47 -22.629  52.646  21.226 
  9056.000 -97.486  52.158  57.913  29.621 -91.486  52.158  57.913  29.621  1.4669  9055.1  137.50 -22.638  52.655  21.225 
  9056.500 -96.677  51.439  67.625  29.982 -90.677  51.439  67.625  29.982  1.4711  9055.6  137.53 -22.647  52.663  21.224 
  9057.000 -94.517  49.640  73.380  30.344 -88.517  49.640  73.380  30.344  1.4752  9056.1  137.56 -22.657  52.672  21.224 
  9057.500 -93.438  48.560  84.531  30.884 -87.438  48.560  84.531  30.884  1.4794  9056.6  137.59 -22.666  52.681  21.223 
  9058.000 -90.737  45.683  89.567  31.424 -84.737  45.683  89.567  31.424  1.4836  9057.1  137.63 -22.676  52.689  21.223 
  9058.500 -88.937  43.525  94.243  32.145 -82.937  43.525  94.243  32.145  1.4877  9057.6  137.66 -22.686  52.698  21.222 
  9059.000 -84.434  41.007  99.999  32.865 -78.434  41.007  99.999  32.865  1.4919  9058.1  137.69 -22.695  52.707  21.222 
  9059.500 -78.850  38.489  111.15  33.226 -72.850  38.489  111.15  33.226  1.4961  9058.6  137.72 -22.705  52.716  21.221 
  9060.000 -73.987  31.653  112.95  33.947 -67.987  31.653  112.95  33.947  1.5002  9059.1  137.75 -22.715  52.725  21.220 
  9060.500 -70.565  28.515  113.31  34.307 -64.565  28.515  113.31  34.307  1.5044  9059.6  137.78 -22.724  52.733  21.220 
  9061.000 -68.045  25.377  112.23  33.589 -62.045  25.377  112.23  33.589  1.5086  9060.1  137.81 -22.734  52.742  21.219 
  9061.500 -66.605  22.239  108.63  31.792 -60.605  22.239  108.63  31.792  1.5127  9060.6  137.84 -22.744  52.751  21.218 
  9062.000 -62.462  19.101  104.68  29.635 -56.462  19.101  104.68  29.635  1.5169  9061.1  137.88 -22.754  52.760  21.218 
  9062.500 -60.302  15.468  95.323  27.478 -54.302  15.468  95.323  27.478  1.5211  9061.6  137.91 -22.763  52.769  21.217 
  9063.000 -59.223  14.568  90.647  23.522 -53.223  14.568  90.647  23.522  1.5252  9062.1  137.94 -22.773  52.778  21.216 
  9063.500 -59.224  13.993  78.057  22.084 -53.224  13.993  78.057  22.084  1.5294  9062.6  137.97 -22.783  52.787  21.216 
  9064.000 -59.766  8.3810  52.157  20.288 -53.766  8.3810  52.157  20.288  1.5336  9063.1  138.00 -22.793  52.796  21.215 
  9064.500 -59.047  7.9860  40.647  19.799 -53.047  7.9860  40.647  19.799  1.5378  9063.6  138.03 -22.803  52.805  21.214 
  9065.000 -57.968  7.5540  35.970  16.238 -51.968  7.5540  35.970  16.238  1.5419  9064.1  138.06 -22.813  52.814  21.213 
  9065.500 -54.186  7.5540  30.935  14.295 -48.186  7.5540  30.935  14.295  1.5461  9064.6  138.09 -22.823  52.823  21.213 
  9066.000 -52.565  7.5900  27.338  12.892 -46.565  7.5900  27.338  12.892  1.5503  9065.1  138.13 -22.833  52.832  21.212 
  9066.500 -47.522  7.9500  25.180  12.461 -41.522  7.9500  25.180  12.461  1.5544  9065.6  138.16 -22.843  52.841  21.211 
  9067.000 -47.884  8.3450  21.583  12.317 -41.884  8.3450  21.583  12.317  1.5586  9066.1  138.19 -22.854  52.850  21.211 
  9067.500 -49.147  8.6690  21.237  12.173 -43.147  8.6690  21.237  12.173  1.5628  9066.6  138.22 -22.864  52.859  21.210 
  9068.000 -61.582  9.0290  20.892  12.749 -55.582  9.0290  20.892  12.749  1.5669  9067.1  138.25 -22.874  52.868  21.209 
  9068.500 -63.025  9.2090  20.547  13.037 -57.025  9.2090  20.547  13.037  1.5711  9067.6  138.28 -22.884  52.877  21.208 
  9069.000 -63.207  9.2440  20.201  13.397 -57.207  9.2440  20.201  13.397  1.5753  9068.1  138.31 -22.894  52.886  21.207 
  9069.500 -56.542  9.2450  19.856  13.559 -50.542  9.2450  19.856  13.559  1.5794  9068.6  138.34 -22.905  52.895  21.207 
  9070.000 -54.201  8.9570  17.374  13.721 -48.201  8.9570  17.374  13.721  1.5836  9069.1  138.38 -22.915  52.905  21.206 
  9070.500 -54.923  8.3450  16.223  13.865 -48.923  8.3450  16.223  13.865  1.5878  9069.6  138.41 -22.925  52.914  21.205 
  9071.000 -56.547  8.0570  14.784  13.901 -50.547  8.0570  14.784  13.901  1.5919  9070.1  138.44 -22.936  52.923  21.204 
  9071.500 -57.089  6.7630  13.489  13.829 -51.089  6.7630  13.489  13.829  1.5961  9070.6  138.47 -22.946  52.932  21.203 
  9072.000 -53.847  6.5110  10.468  13.649 -47.847  6.5110  10.468  13.649  1.6003  9071.1  138.50 -22.957  52.941  21.202 
  9072.500 -50.786  6.3310  9.6760  13.110 -44.786  6.3310  9.6760  13.110  1.6045  9071.6  138.53 -22.967  52.951  21.202 
  9073.000 -48.265  6.4030  9.0650  12.283 -42.265  6.4030  9.0650  12.283  1.6086  9072.1  138.56 -22.978  52.960  21.201 
  9073.500 -46.105  6.4750  8.6330  11.563 -40.105  6.4750  8.6330  11.563  1.6128  9072.6  138.59 -22.988  52.969  21.200 
  9074.000 -43.764  6.5830  8.4170  11.060 -37.764  6.5830  8.4170  11.060  1.6170  9073.1  138.63 -22.999  52.979  21.199 
  9074.500 -43.045  6.5830  8.3090  10.880 -37.045  6.5830  8.3090  10.880  1.6211  9073.6  138.66 -23.009  52.988  21.198 
  9075.000 -41.065  6.6190  8.2730  10.736 -35.065  6.6190  8.2730  10.736  1.6253  9074.1  138.69 -23.020  52.997  21.197 
  9075.500 -39.085  6.6010  8.2370  10.628 -33.085  6.6010  8.2370  10.628  1.6295  9074.6  138.72 -23.031  53.007  21.196 
  9076.000 -39.266  6.5830  8.2010  10.593 -33.266  6.5830  8.2010  10.593  1.6336  9075.1  138.75 -23.042  53.016  21.195 
  9076.500 -40.349  6.5470  8.1480  10.593 -34.349  6.5470  8.1480  10.593  1.6378  9075.6  138.78 -23.052  53.026  21.194 
  9077.000 -39.810  6.5110  8.0940  10.629 -33.810  6.5110  8.0940  10.629  1.6420  9076.1  138.81 -23.063  53.035  21.193 
