~Version Information
VERS.                     2.0: CWLS log ASCII Standard Version 2.00
WRAP.                      NO: One line per depth step
~Well Information Block
#MNEM.UNIT                               Data Type  Information
#---------                               ---------  -----------
STRT.FT                                   660.0000:
STOP.FT                                  9080.0000:
STEP.FT                                     0.5000:
NULL.                 -999.25                     :
COMP.                                             :COMPANY            
WELL.     SAN EMIDIO #27-21                       :WELL               
FLD .                                             :FIELD              
CTRY.                                             :COUNTRY            
STAT.                                             :STATE              
LOC .                                             :LOCATION           
UWI .                                             :UNIQUE WELL ID     
SRVC.                                             :Service company    
DATE.                                             :LOG DATE           
~Curve Information
#MNEM.UNIT           API CODE  Curve Description
#---------           --------  -----------------
DEPT.FT                      :   1 DEPTH
SP  .MV                      :   2
AM16.OHMM                    :   3
AO10.OHMM                    :   4
AO19.OHMM                    :   5
SBL .MV                      :   6
RS  .OHMM                    :   7
RM  .OHMM                    :   8
RD  .OHMM                    :   9
DEVI.DEG                     :  10
TVD .FT                      :  11
AZIM.DEG                     :  12
NORT.FT                      :  13
EAST.FT                      :  14
OFFS.FT                      :  15
~A
# ...
  8492.500 -15.185  2.5620  2.4180  2.9220 -3.5415  2.5620  2.4180  2.9220  1.3083  8491.7  167.50 -12.560  47.696  24.845 
  8493.000 -15.188  2.5250  2.4360  2.9210 -3.5506  2.5250  2.4360  2.9210  1.3100  8492.2  167.60 -12.571  47.699  24.839 
  8493.500 -15.190  2.5250  2.4530  2.8490 -3.5588  2.5250  2.4530  2.8490  1.3116  8492.7  167.70 -12.582  47.701  24.833 
  8494.000 -15.374  2.4880  2.4520  2.7760 -3.7490  2.4880  2.4520  2.7760  1.3133  8493.2  167.80 -12.593  47.704  24.827 
  8494.500 -15.376  2.4760  2.4520  2.7040 -3.7572  2.4760  2.4520  2.7040  1.3150  8493.7  167.90 -12.605  47.706  24.820 
  8495.000 -15.379  2.4630  2.4330  2.7030 -3.7664  2.4630  2.4330  2.7030  1.3166  8494.2  168.00 -12.616  47.708  24.814 
  8495.500 -15.381  2.4510  2.4150  2.6850 -3.7745  2.4510  2.4150  2.6850  1.3183  8494.7  168.10 -12.627  47.711  24.808 
  8496.000 -15.565  2.4140  2.4140  2.6660 -3.9647  2.4140  2.4140  2.6660  1.3200  8495.2  168.20 -12.638  47.713  24.802 
  8496.500 -15.567  2.4320  2.4140  2.6300 -3.9729  2.4320  2.4140  2.6300  1.3216  8495.7  168.30 -12.650  47.716  24.795 
  8497.000 -15.569  2.4490  2.4130  2.6290 -3.9811  2.4490  2.4130  2.6290  1.3233  8496.2  168.40 -12.661  47.718  24.789 
  8497.500 -15.572  2.4490  2.4130  2.6290 -3.9903  2.4490  2.4130  2.6290  1.3250  8496.7  168.50 -12.672  47.720  24.783 
  8498.000 -15.575  2.4480  2.4120  2.6100 -3.9995  2.4480  2.4120  2.6100  1.3266  8497.2  168.60 -12.684  47.722  24.776 
  8498.500 -15.578  2.4480  2.4120  2.5920 -4.0086  2.4480  2.4120  2.5920  1.3283  8497.7  168.70 -12.695  47.725  24.770 
  8499.000 -15.581  2.4470  2.4110  2.5910 -4.0178  2.4470  2.4110  2.5910  1.3300  8498.2  168.80 -12.706  47.727  24.763 
  8499.500 -15.313  2.4470  2.4110  2.6440 -3.7560  2.4470  2.4110  2.6440  1.3316  8498.7  168.90 -12.718  47.729  24.757 
  8500.000 -15.045  2.4460  2.4100  2.6980 -3.4942  2.4460  2.4100  2.6980  1.3333  8499.2  169.00 -12.729  47.731  24.750 
  8500.500 -14.328  2.4100  2.4100  2.6970 -2.7834  2.4100  2.4100  2.6970  1.3329  8499.7  168.98 -12.741  47.734  24.744 
  8501.000 -13.790  2.4100  2.4100  2.6970 -2.2515  2.4100  2.4100  2.6970  1.3325  8500.2  168.95 -12.752  47.736  24.737 
  8501.500 -13.522  2.4100  2.4100  2.7330 -1.9897  2.4100  2.4100  2.7330  1.3320  8500.7  168.93 -12.764  47.738  24.731 
  8502.000 -13.254  2.4090  2.4090  2.7320 -1.7279  2.4090  2.4090  2.7320  1.3316  8501.2  168.90 -12.775  47.740  24.724 
  8502.500 -13.257  2.4090  2.4270  2.7320 -1.7371  2.4090  2.4270  2.7320  1.3312  8501.7  168.88 -12.786  47.743  24.718 
  8503.000 -13.440  2.4090  2.4450  2.6960 -1.9263  2.4090  2.4450  2.6960  1.3308  8502.2  168.85 -12.798  47.745  24.711 
  8503.500 -13.623  2.4450  2.4450  2.6950 -2.1154  2.4450  2.4450  2.6950  1.3304  8502.7  168.83 -12.809  47.747  24.705 
  8504.000 -13.986  2.5160  2.4450  2.6950 -2.4846  2.5160  2.4450  2.6950  1.3300  8503.2  168.80 -12.820  47.749  24.698 
  8504.500 -13.989  2.5880  2.4440  2.6950 -2.4938  2.5880  2.4440  2.6950  1.3295  8503.7  168.78 -12.832  47.752  24.692 
  8505.000 -13.991  2.6600  2.4440  2.6940 -2.5020  2.6600  2.4440  2.6940  1.3291  8504.2  168.75 -12.843  47.754  24.686 
  8505.500 -13.994  2.5520  2.4080  2.6940 -2.5112  2.5520  2.4080  2.6940  1.3287  8504.7  168.73 -12.855  47.756  24.679 
  8506.000 -14.086  2.6600  2.4260  2.6930 -2.6094  2.6600  2.4260  2.6930  1.3283  8505.2  168.70 -12.866  47.758  24.673 
  8506.500 -14.179  2.7310  2.4440  2.6930 -2.7085  2.7310  2.4440  2.6930  1.3279  8505.7  168.68 -12.877  47.761  24.666 
  8507.000 -14.363  2.8030  2.4790  2.7110 -2.8987  2.8030  2.4790  2.7110  1.3275  8506.2  168.65 -12.889  47.763  24.660 
  8507.500 -14.726  3.0190  2.5150  2.7290 -3.2679  3.0190  2.5150  2.7290  1.3270  8506.7  168.63 -12.900  47.765  24.653 
  8508.000 -15.088  3.1630  2.5510  2.8360 -3.6361  3.1630  2.5510  2.8360  1.3266  8507.2  168.60 -12.911  47.768  24.647 
  8508.500 -15.812  3.2700  2.6590  2.9440 -4.3663  3.2700  2.6590  2.9440  1.3262  8507.7  168.58 -12.923  47.770  24.641 
  8509.000 -16.716  3.4140  2.7660  3.0870 -5.2764  3.4140  2.7660  3.0870  1.3258  8508.2  168.55 -12.934  47.772  24.634 
  8509.500 -16.538  3.5220  2.8200  3.2310 -5.1046  3.5220  2.8200  3.2310  1.3254  8508.7  168.53 -12.945  47.774  24.628 
  8510.000 -16.271  3.4140  2.8740  3.3380 -4.8438  3.4140  2.8740  3.3380  1.3250  8509.2  168.50 -12.957  47.777  24.621 
  8510.500 -16.003  3.3770  2.9640  3.4100 -4.5820  3.3770  2.9640  3.4100  1.3245  8509.7  168.48 -12.968  47.779  24.615 
  8511.000 -15.285  3.3770  3.0540  3.4810 -3.8702  3.3770  3.0540  3.4810  1.3241  8510.2  168.45 -12.979  47.781  24.609 
  8511.500 -14.748  3.3770  3.1610  3.5170 -3.3393  3.3770  3.1610  3.5170  1.3237  8510.7  168.43 -12.991  47.784  24.602 
  8512.000 -14.570  3.4130  3.1610  3.5530 -3.1675  3.4130  3.1610  3.5530  1.3233  8511.2  168.40 -13.002  47.786  24.596 
  8512.500 -14.392  3.4490  3.1250  3.4800 -2.9957  3.4490  3.1250  3.4800  1.3229  8511.7  168.38 -13.013  47.788  24.590 
  8513.000 -13.855  3.5560  3.0170  3.3720 -2.4649  3.5560  3.0170  3.3720  1.3225  8512.2  168.35 -13.025  47.791  24.583 
  8513.500 -14.758  3.6640  2.9090  3.2640 -3.3741  3.6640  2.9090  3.2640  1.3220  8512.7  168.33 -13.036  47.793  24.577 
  8514.000 -15.842  3.7720  2.8370  3.1910 -4.4643  3.7720  2.8370  3.1910  1.3216  8513.2  168.30 -13.047  47.795  24.571 
  8514.500 -17.286  3.9160  2.7650  3.1190 -5.9144  3.9160  2.7650  3.1190  1.3212  8513.7  168.28 -13.058  47.798  24.564 
  8515.000 -18.911  4.0950  2.8000  3.0470 -7.5456  4.0950  2.8000  3.0470  1.3208  8514.2  168.25 -13.070  47.800  24.558 
  8515.500 -20.895  4.2030  2.9440  3.0820 -9.5358  4.2030  2.9440  3.0820  1.3204  8514.7  168.23 -13.081  47.802  24.552 
  8516.000 -21.979  4.4190  3.0880  3.2260 -10.626  4.4190  3.0880  3.2260  1.3200  8515.2  168.20 -13.092  47.805  24.545 
  8516.500 -22.883  4.4900  3.2670  3.5130 -11.536  4.4900  3.2670  3.5130  1.3195  8515.7  168.18 -13.104  47.807  24.539 
  8517.000 -21.084  4.5620  3.3030  3.5850 -9.7433  4.5620  3.3030  3.5850  1.3191  8516.2  168.15 -13.115  47.809  24.533 
  8517.500 -19.825  4.5260  3.2670  3.4770 -8.4905  4.5260  3.2670  3.4770  1.3187  8516.7  168.13 -13.126  47.812  24.526 
  8518.000 -19.107  4.4900  3.1590  3.4040 -7.7787  4.4900  3.1590  3.4040  1.3183  8517.2  168.10 -13.137  47.814  24.520 
  8518.500 -17.848  4.4540  3.0510  3.2960 -6.5259  4.4540  3.0510  3.2960  1.3179  8517.7  168.08 -13.149  47.817  24.514 
  8519.000 -18.211  4.3460  2.9430  3.1880 -6.8951  4.3460  2.9430  3.1880  1.3175  8518.2  168.05 -13.160  47.819  24.508 
  8519.500 -18.575  4.3810  2.9430  3.0440 -7.2652  4.3810  2.9430  3.0440  1.3171  8518.7  168.03 -13.171  47.821  24.501 
  8520.000 -19.118  4.4170  2.9780  2.9710 -7.8144  4.4170  2.9780  2.9710  1.3166  8519.2  168.00 -13.182  47.824  24.495 
  8520.500 -20.742  4.4530  3.0500  2.9350 -9.4446  4.4530  3.0500  2.9350  1.3162  8519.7  167.98 -13.194  47.826  24.489 
  8521.000 -21.646  4.5610  3.1220  2.9350 -10.355  4.5610  3.1220  2.9350  1.3158  8520.2  167.95 -13.205  47.828  24.483 
  8521.500 -21.829  4.5610  3.4450  2.9340 -10.544  4.5610  3.4450  2.9340  1.3154  8520.7  167.93 -13.216  47.831  24.476 
  8522.000 -21.111  4.5600  3.5170  3.0420 -9.8322  4.5600  3.5170  3.0420  1.3150  8521.2  167.90 -13.227  47.833  24.470 
  8522.500 -20.393  4.4880  3.5890  3.1850 -9.1203  4.4880  3.5890  3.1850  1.3146  8521.7  167.88 -13.238  47.836  24.464 
  8523.000 -19.675  4.4520  3.6970  3.2570 -8.4085  4.4520  3.6970  3.2570  1.3141  8522.2  167.85 -13.250  47.838  24.458 
  8523.500 -18.596  4.3080  3.6790  3.2200 -7.3357  4.3080  3.6790  3.2200  1.3137  8522.7  167.83 -13.261  47.841  24.452 
  8524.000 -17.698  4.0560  3.6600  3.2020 -6.4439  4.0560  3.6600  3.2020  1.3133  8523.2  167.80 -13.272  47.843  24.445 
  8524.500 -17.160  3.8760  3.6600  3.1840 -5.9121  3.8760  3.6600  3.1840  1.3129  8523.7  167.78 -13.283  47.845  24.439 
