~Version Information
VERS.                     2.0: CWLS log ASCII Standard Version 2.00
WRAP.                      NO: One line per depth step
~Well Information Block
#MNEM.UNIT                               Data Type  Information
#---------                               ---------  -----------
STRT.FT                                   660.0000:
STOP.FT                                  9080.0000:
STEP.FT                                     0.5000:
NULL.                 -999.25                     :
COMP.                                             :COMPANY            
WELL.     SAN EMIDIO #27-21                       :WELL               
FLD .                                             :FIELD              
CTRY.                                             :COUNTRY            
STAT.                                             :STATE              
LOC .                                             :LOCATION           
UWI .                                             :UNIQUE WELL ID     
SRVC.                                             :Service company    
DATE.                                             :LOG DATE           
~Curve Information
#MNEM.UNIT           API CODE  Curve Description
#---------           --------  -----------------
DEPT.FT                      :   1 DEPTH
SP  .MV                      :   2
AM16.OHMM                    :   3
AO10.OHMM                    :   4
AO19.OHMM                    :   5
SBL .MV                      :   6
RS  .OHMM                    :   7
RM  .OHMM                    :   8
RD  .OHMM                    :   9
DEVI.DEG                     :  10
TVD .FT                      :  11
AZIM.DEG                     :  12
NORT.FT                      :  13
EAST.FT                      :  14
OFFS.FT                      :  15
~A
# ...
  1765.000 -38.171  11.580  10.503  9.9290 -18.053  11.580  10.503  9.9290  0.9500  1764.9  78.349  5.2414  9.1723  10.192 
  1765.500 -38.350  12.801  10.611  10.396 -18.262  12.801  10.611  10.396  0.9483  1765.4  78.244  5.2430  9.1804  10.199 
  1766.000 -38.349  13.196  10.827  10.755 -18.290  13.196  10.827  10.755  0.9466  1765.9  78.139  5.2447  9.1885  10.206 
  1766.500 -38.528  13.591  11.186  11.114 -18.499  13.591  11.186  11.114  0.9450  1766.4  78.034  5.2465  9.1966  10.213 
  1767.000 -38.528  13.806  11.545  11.581 -18.528  13.806  11.545  11.581  0.9433  1766.9  77.928  5.2482  9.2046  10.220 
  1767.500 -38.527  13.842  12.119  11.832 -18.556  13.842  12.119  11.832  0.9416  1767.4  77.823  5.2499  9.2127  10.227 
  1768.000 -38.526  13.878  12.694  12.658 -18.585  13.878  12.694  12.658  0.9400  1767.9  77.718  5.2517  9.2207  10.233 
  1768.500 -38.525  13.699  13.555  12.981 -18.613  13.699  13.555  12.981  0.9383  1768.4  77.613  5.2534  9.2287  10.240 
  1769.000 -38.344  12.443  13.879  13.089 -18.462  12.443  13.879  13.089  0.9366  1768.9  77.508  5.2552  9.2367  10.247 
  1769.500 -38.253  11.833  14.094  13.125 -18.400  11.833  14.094  13.125  0.9350  1769.4  77.403  5.2570  9.2446  10.254 
  1770.000 -38.162  11.295  14.561  13.018 -18.338  11.295  14.561  13.018  0.9333  1769.9  77.298  5.2587  9.2526  10.261 
  1770.500 -37.440  11.008  14.705  12.874 -17.646  11.008  14.705  12.874  0.9316  1770.4  77.193  5.2605  9.2605  10.268 
  1771.000 -37.259  10.541  14.633  12.013 -17.494  10.541  14.633  12.013  0.9300  1770.9  77.088  5.2624  9.2684  10.275 
  1771.500 -37.078  10.255  14.454  11.618 -17.343  10.255  14.454  11.618  0.9283  1771.4  76.983  5.2642  9.2763  10.282 
  1772.000 -36.897  9.7880  14.095  10.865 -17.191  9.7880  14.095  10.865  0.9266  1771.9  76.878  5.2660  9.2842  10.289 
  1772.500 -37.436  9.3580  11.511  10.075 -17.760  9.3580  11.511  10.075  0.9250  1772.4  76.773  5.2679  9.2920  10.295 
  1773.000 -38.156  9.1420  11.152  9.5010 -18.509  9.1420  11.152  9.5010  0.9233  1772.9  76.668  5.2697  9.2999  10.302 
  1773.500 -38.696  8.7480  10.901  9.1430 -19.078  8.7480  10.901  9.1430  0.9216  1773.4  76.563  5.2716  9.3077  10.309 
  1774.000 -38.695  8.4250  10.686  9.1070 -19.107  8.4250  10.686  9.1070  0.9200  1773.9  76.458  5.2735  9.3155  10.316 
  1774.500 -38.604  8.2100  10.686  9.1790 -19.045  8.2100  10.686  9.1790  0.9183  1774.4  76.353  5.2754  9.3233  10.323 
  1775.000 -38.514  8.1380  10.686  9.2150 -18.985  8.1380  10.686  9.2150  0.9166  1774.9  76.248  5.2773  9.3311  10.330 
  1775.500 -38.333  8.0490  10.687  9.2150 -18.833  8.0490  10.687  9.2150  0.9150  1775.4  76.143  5.2792  9.3388  10.336 
  1776.000 -38.152  7.9590  10.830  9.2510 -18.681  7.9590  10.830  9.2510  0.9133  1775.9  76.038  5.2811  9.3465  10.343 
  1776.500 -37.970  7.8520  11.046  9.2510 -18.529  7.8520  11.046  9.2510  0.9116  1776.4  75.933  5.2830  9.3543  10.350 
  1777.000 -37.609  7.7440  11.154  9.2870 -18.197  7.7440  11.154  9.2870  0.9100  1776.9  75.828  5.2850  9.3620  10.357 
  1777.500 -37.067  7.6010  11.297  9.2880 -17.685  7.6010  11.297  9.2880  0.9083  1777.4  75.723  5.2869  9.3696  10.364 
  1778.000 -36.886  7.4570  11.405  9.2880 -17.533  7.4570  11.405  9.2880  0.9066  1777.9  75.618  5.2889  9.3773  10.371 
  1778.500 -36.615  7.4220  11.406  9.2520 -17.291  7.4220  11.406  9.2520  0.9050  1778.4  75.513  5.2909  9.3849  10.377 
  1779.000 -36.344  7.3140  11.370  9.2160 -17.050  7.3140  11.370  9.2160  0.9033  1778.9  75.408  5.2929  9.3926  10.384 
  1779.500 -35.802  7.2790  11.298  9.1990 -16.537  7.2790  11.298  9.1990  0.9016  1779.4  75.303  5.2949  9.4002  10.391 
  1780.000 -35.621  7.2070 -999.25  9.1810 -16.386  7.2070 -999.25  9.1810  0.9000  1779.9  75.198  5.2969  9.4078  10.398 
  1780.500 -35.440  7.0990  11.083  9.1450 -16.234  7.0990  11.083  9.1450  0.8983  1780.4  75.093  5.2989  9.4154  10.405 
  1781.000 -35.079  6.9920  10.653  9.1090 -15.903  6.9920  10.653  9.1090  0.8966  1780.9  74.988  5.3009  9.4229  10.411 
  1781.500 -34.988  6.9740  10.294  9.1450 -15.841  6.9740  10.294  9.1450  0.8950  1781.4  74.883  5.3029  9.4305  10.418 
  1782.000 -34.898  6.9560  10.043  9.1990 -15.780  6.9560  10.043  9.1990  0.8933  1781.9  74.778  5.3050  9.4380  10.425 
  1782.500 -35.076  6.9570  9.7560  9.2530 -15.988  6.9570  9.7560  9.2530  0.8916  1782.4  74.673  5.3070  9.4455  10.432 
  1783.000 -36.156  6.9930  9.5770  9.4690 -17.097  6.9930  9.5770  9.4690  0.8900  1782.9  74.568  5.3091  9.4530  10.438 
  1783.500 -36.876  7.0650  9.5050  9.6850 -17.847  7.0650  9.5050  9.6850  0.8883  1783.4  74.463  5.3112  9.4604  10.445 
  1784.000 -36.876  7.1360  9.4690  9.9000 -17.876  7.1360  9.4690  9.9000  0.8866  1783.9  74.358  5.3133  9.4679  10.452 
  1784.500 -36.875  7.3160  9.4700  10.044 -17.904  7.3160  9.4700  10.044  0.8850  1784.4  74.253  5.3154  9.4753  10.459 
  1785.000 -36.693  7.3880  9.5420  10.187 -17.752  7.3880  9.5420  10.187  0.8833  1784.9  74.148  5.3175  9.4827  10.465 
  1785.500 -35.972  7.4600  9.7210  11.265 -17.060  7.4600  9.7210  11.265  0.8816  1785.4  74.043  5.3196  9.4901  10.472 
  1786.000 -35.430  7.4600  10.224  11.803 -16.548  7.4600  10.224  11.803  0.8800  1785.9  73.938  5.3217  9.4975  10.479 
  1786.500 -34.619  7.3890  11.229  13.885 -15.766  7.3890  11.229  13.885  0.8783  1786.4  73.833  5.3238  9.5049  10.485 
  1787.000 -33.808  7.2810  11.588  14.459 -14.984  7.2810  11.588  14.459  0.8766  1786.9  73.728  5.3260  9.5122  10.492 
  1787.500 -32.365  7.1020  11.660  14.603 -13.571  7.1020  11.660  14.603  0.8750  1787.4  73.623  5.3281  9.5195  10.499 
  1788.000 -30.202  6.9230  11.552  14.603 -11.437  6.9230  11.552  14.603  0.8733  1787.9  73.518  5.3303  9.5268  10.506 
  1788.500 -29.300  6.7070  11.266  14.460 -10.565  6.7070  11.266  14.460  0.8716  1788.4  73.413  5.3325  9.5341  10.512 
  1789.000 -29.029  6.4920  10.835  13.993 -10.323  6.4920  10.835  13.993  0.8700  1788.9  73.308  5.3347  9.5414  10.519 
  1789.500 -28.758  6.3850  10.333  11.230 -10.082  6.3850  10.333  11.230  0.8683  1789.4  73.203  5.3368  9.5487  10.526 
  1790.000 -28.757  5.9900  9.2200  10.441 -10.110  5.9900  9.2200  10.441  0.8666  1789.9  73.098  5.3390  9.5559  10.532 
  1790.500 -28.576  5.8830  8.7540  9.9380 -9.9584  5.8830  8.7540  9.9380  0.8650  1790.4  72.993  5.3413  9.5631  10.539 
  1791.000 -28.395  5.6320  8.2160  9.6870 -9.8068  5.6320  8.2160  9.6870  0.8633  1790.9  72.888  5.3435  9.5703  10.546 
  1791.500 -28.394  5.4880  7.9290  9.3280 -9.8352  5.4880  7.9290  9.3280  0.8616  1791.4  72.783  5.3457  9.5775  10.552 
  1792.000 -28.933  5.3630  7.6420  8.9340 -10.404  5.3630  7.6420  8.9340  0.8600  1791.9  72.678  5.3479  9.5847  10.559 
  1792.500 -29.293  5.2370  7.3910  8.6470 -10.793  5.2370  7.3910  8.6470  0.8583  1792.4  72.573  5.3502  9.5918  10.566 
  1793.000 -30.193  5.0580  7.1400  8.2520 -11.722  5.0580  7.1400  8.2520  0.8566  1792.9  72.468  5.3524  9.5989  10.572 
  1793.500 -29.471  4.8790  6.8170  7.7500 -11.030  4.8790  6.8170  7.7500  0.8550  1793.4  72.363  5.3547  9.6060  10.579 
  1794.000 -28.389  4.5560 -999.25  7.3550 -9.9772  4.5560 -999.25  7.3550  0.8533  1793.9  72.258  5.3570  9.6131  10.585 
  1794.500 -27.847  4.4840  6.2430  7.2120 -9.4646  4.4840  6.2430  7.2120  0.8516  1794.4  72.153  5.3592  9.6202  10.592 
  1795.000 -27.306  4.3770  5.9920  7.0690 -8.9531  4.3770  5.9920  7.0690  0.8500  1794.9  72.048  5.3615  9.6273  10.599 
  1795.500 -26.764  4.3410  5.9560  7.0330 -8.4405  4.3410  5.9560  7.0330  0.8483  1795.4  71.943  5.3638  9.6343  10.605 
  1796.000 -26.583  4.3050  5.9560  7.0330 -8.2889  4.3050  5.9560  7.0330  0.8466  1795.9  71.838  5.3661  9.6413  10.612 
  1796.500 -26.312  4.2340  5.9930  6.9620 -8.0473  4.2340  5.9930  6.9620  0.8450  1796.4  71.733  5.3684  9.6483  10.618 
  1797.000 -26.042  4.2160  6.0290  6.8180 -7.8067  4.2160  6.0290  6.8180  0.8433  1796.9  71.628  5.3707  9.6553  10.625 
