~Version Information
VERS.                     2.0: CWLS log ASCII Standard Version 2.00
WRAP.                      NO: One line per depth step
~Well Information Block
#MNEM.UNIT                               Data Type  Information
#---------                               ---------  -----------
STRT.FT                                   660.0000:
STOP.FT                                  9080.0000:
STEP.FT                                     0.5000:
NULL.                 -999.25                     :
COMP.                                             :COMPANY            
WELL.     SAN EMIDIO #27-21                       :WELL               
FLD .                                             :FIELD              
CTRY.                                             :COUNTRY            
STAT.                                             :STATE              
LOC .                                             :LOCATION           
UWI .                                             :UNIQUE WELL ID     
SRVC.                                             :Service company    
DATE.                                             :LOG DATE           
~Curve Information
#MNEM.UNIT           API CODE  Curve Description
#---------           --------  -----------------
DEPT.FT                      :   1 DEPTH
SP  .MV                      :   2
AM16.OHMM                    :   3
AO10.OHMM                    :   4
AO19.OHMM                    :   5
SBL .MV                      :   6
RS  .OHMM                    :   7
RM  .OHMM                    :   8
RD  .OHMM                    :   9
DEVI.DEG                     :  10
TVD .FT                      :  11
AZIM.DEG                     :  12
NORT.FT                      :  13
EAST.FT                      :  14
OFFS.FT                      :  15
~A
# ...
  7355.000 -15.993  1.6990  2.0220  1.6460 -3.5551  1.6990  2.0220  1.6460  1.5333  7354.6  148.65  14.972  36.951  36.716 
  7355.500 -15.902  1.6990  2.0230  1.6290 -3.4627  1.6990  2.0230  1.6290  1.5366  7355.1  148.67  14.961  36.958  36.712 
  7356.000 -15.988  1.7000  2.0240  1.6120 -3.5472  1.7000  2.0240  1.6120  1.5400  7355.6  148.68  14.950  36.965  36.709 
  7356.500 -16.075  1.7370  2.0240  1.6490 -3.6327  1.7370  2.0240  1.6490  1.5433  7356.1  148.70  14.938  36.972  36.706 
  7357.000 -16.163  1.7370  2.0250  1.6500 -3.7192  1.7370  2.0250  1.6500  1.5466  7356.6  148.71  14.926  36.979  36.703 
  7357.500 -16.251  1.7380  2.0080  1.6690 -3.8057  1.7380  2.0080  1.6690  1.5500  7357.1  148.73  14.915  36.986  36.700 
  7358.000 -16.247  1.7390  1.9900  1.6880 -3.8003  1.7390  1.9900  1.6880  1.5533  7357.6  148.74  14.903  36.993  36.696 
  7358.500 -16.244  1.7400  1.9920  1.6890 -3.7958  1.7400  1.9920  1.6890  1.5566  7358.1  148.76  14.892  37.000  36.693 
  7359.000 -16.242  1.7400  1.9920  1.6900 -3.7923  1.7400  1.9920  1.6900  1.5600  7358.6  148.77  14.880  37.007  36.690 
  7359.500 -16.240  1.7410  1.9930  1.6550 -3.7888  1.7410  1.9930  1.6550  1.5633  7359.1  148.79  14.868  37.014  36.687 
  7360.000 -16.056  1.7420  1.9940  1.6200 -3.6033  1.7420  1.9940  1.6200  1.5666  7359.6  148.80  14.857  37.022  36.683 
  7360.500 -16.053  1.7420  1.9950  1.6200 -3.5989  1.7420  1.9950  1.6200  1.5700  7360.1  148.82  14.845  37.029  36.680 
  7361.000 -16.050  1.7430  1.9950  1.6210 -3.5944  1.7430  1.9950  1.6210  1.5733  7360.6  148.83  14.833  37.036  36.677 
  7361.500 -16.049  1.7440  1.9960  1.6220 -3.5919  1.7440  1.9960  1.6220  1.5766  7361.1  148.85  14.821  37.043  36.674 
  7362.000 -16.047  1.7440  1.9970  1.6230 -3.5884  1.7440  1.9970  1.6230  1.5800  7361.6  148.86  14.810  37.050  36.670 
  7362.500 -15.862  1.7450  1.9970  1.6240 -3.4019  1.7450  1.9970  1.6240  1.5833  7362.1  148.88  14.798  37.057  36.667 
  7363.000 -15.860  1.7280  1.9620  1.6610 -3.3985  1.7280  1.9620  1.6610  1.5866  7362.6  148.89  14.786  37.064  36.664 
  7363.500 -15.857  1.7110  1.9630  1.6980 -3.3940  1.7110  1.9630  1.6980  1.5900  7363.1  148.91  14.774  37.071  36.660 
  7364.000 -15.854  1.7110  1.9630  1.7710 -3.3895  1.7110  1.9630  1.7710  1.5933  7363.6  148.92  14.762  37.079  36.657 
  7364.500 -15.852  1.7120  1.9640  1.7720 -3.3860  1.7120  1.9640  1.7720  1.5966  7364.1  148.94  14.750  37.086  36.654 
  7365.000 -15.850  1.7130  2.0010  1.7720 -3.3825  1.7130  2.0010  1.7720  1.6000  7364.6  148.95  14.738  37.093  36.650 
  7365.500 -15.848  1.7130  2.0020  1.7370 -3.3791  1.7130  2.0020  1.7370  1.6033  7365.1  148.97  14.726  37.100  36.647 
  7366.000 -15.844  1.7140  2.0020  1.7020 -3.3736  1.7140  2.0020  1.7020  1.6066  7365.6  148.98  14.714  37.107  36.644 
  7366.500 -15.841  1.7150  2.0030  1.6310 -3.3691  1.7150  2.0030  1.6310  1.6100  7366.1  149.00  14.702  37.115  36.640 
  7367.000 -16.197  1.7160  2.0040  1.6320 -3.7236  1.7160  2.0040  1.6320  1.6133  7366.6  149.01  14.690  37.122  36.637 
  7367.500 -16.374  1.7170  2.0040  1.6330 -3.8991  1.7170  2.0040  1.6330  1.6166  7367.1  149.03  14.678  37.129  36.633 
  7368.000 -16.462  1.7180  2.0410  1.6340 -3.9857  1.7180  2.0410  1.6340  1.6200  7367.6  149.04  14.666  37.136  36.630 
  7368.500 -16.550  1.7180  2.0420  1.6350 -4.0722  1.7180  2.0420  1.6350  1.6233  7368.1  149.06  14.654  37.144  36.626 
  7369.000 -16.637  1.7190  2.0430  1.6000 -4.1577  1.7190  2.0430  1.6000  1.6266  7368.6  149.07  14.642  37.151  36.623 
  7369.500 -16.725  1.7200  2.0440  1.6180 -4.2442  1.7200  2.0440  1.6180  1.6300  7369.1  149.09  14.629  37.158  36.620 
  7370.000 -16.901  1.7200  2.0440  1.6370 -4.4188  1.7200  2.0440  1.6370  1.6333  7369.6  149.10  14.617  37.166  36.616 
  7370.500 -17.078  1.7210  2.0450  1.6380 -4.5943  1.7210  2.0450  1.6380  1.6366  7370.1  149.12  14.605  37.173  36.613 
  7371.000 -17.076  1.7040  2.0450  1.6390 -4.5908  1.7040  2.0450  1.6390  1.6400  7370.6  149.13  14.593  37.180  36.609 
  7371.500 -17.074  1.6870  2.0460  1.6400 -4.5873  1.6870  2.0460  1.6400  1.6433  7371.1  149.15  14.580  37.188  36.606 
  7372.000 -17.070  1.6870  2.0470  1.6410 -4.5818  1.6870  2.0470  1.6410  1.6466  7371.6  149.16  14.568  37.195  36.602 
  7372.500 -17.247  1.6880  2.0480  1.6240 -4.7574  1.6880  2.0480  1.6240  1.6500  7372.1  149.18  14.556  37.202  36.599 
  7373.000 -17.244  1.6710  2.0310  1.6070 -4.7529  1.6710  2.0310  1.6070  1.6533  7372.6  149.19  14.543  37.210  36.595 
  7373.500 -17.242  1.6540  2.0130  1.6080 -4.7494  1.6540  2.0130  1.6080  1.6566  7373.1  149.21  14.531  37.217  36.591 
  7374.000 -17.239  1.6360  2.0140  1.6080 -4.7449  1.6360  2.0140  1.6080  1.6600  7373.6  149.22  14.518  37.225  36.588 
  7374.500 -17.237  1.6190  2.0150  1.6090 -4.7414  1.6190  2.0150  1.6090  1.6633  7374.1  149.24  14.506  37.232  36.584 
  7375.000 -17.235  1.6020  2.0160  1.6100 -4.7380  1.6020  2.0160  1.6100  1.6666  7374.6  149.25  14.493  37.240  36.581 
  7375.500 -17.051  1.5840  2.0160  1.6110 -4.5525  1.5840  2.0160  1.6110  1.6700  7375.1  149.27  14.481  37.247  36.577 
  7376.000 -16.868  1.5850  2.0170  1.6120 -4.3680  1.5850  2.0170  1.6120  1.6733  7375.6  149.28  14.468  37.254  36.574 
  7376.500 -16.686  1.5860  1.9820  1.6130 -4.1845  1.5860  1.9820  1.6130  1.6766  7376.1  149.30  14.456  37.262  36.570 
  7377.000 -16.503  1.5860  1.9820  1.6500 -4.0000  1.5860  1.9820  1.6500  1.6800  7376.6  149.31  14.443  37.269  36.566 
  7377.500 -16.500  1.5870  1.9830  1.6510 -3.9956  1.5870  1.9830  1.6510  1.6833  7377.1  149.33  14.431  37.277  36.563 
  7378.000 -16.318  1.5880  1.9840  1.6520 -3.8121  1.5880  1.9840  1.6520  1.6866  7377.6  149.34  14.418  37.284  36.559 
  7378.500 -16.315  1.5880  1.9850  1.6890 -3.8076  1.5880  1.9850  1.6890  1.6900  7378.1  149.36  14.405  37.292  36.555 
  7379.000 -16.403  1.5890  1.9850  1.6890 -3.8941  1.5890  1.9850  1.6890  1.6933  7378.6  149.37  14.393  37.299  36.552 
  7379.500 -16.491  1.5900  1.9860  1.6900 -3.9806  1.5900  1.9860  1.6900  1.6966  7379.1  149.39  14.380  37.307  36.548 
  7380.000 -16.578  1.5910  1.9870  1.7270 -4.0662  1.5910  1.9870  1.7270  1.7000  7379.6  149.40  14.367  37.314  36.544 
  7380.500 -16.666  1.5910  1.9690  1.7290 -4.1527  1.5910  1.9690  1.7290  1.7033  7380.1  149.42  14.354  37.322  36.541 
  7381.000 -16.753  1.5920  1.9520  1.7290 -4.2382  1.5920  1.9520  1.7290  1.7066  7380.6  149.43  14.341  37.330  36.537 
  7381.500 -16.840  1.5930  1.9530  1.7300 -4.3237  1.5930  1.9530  1.7300  1.7100  7381.1  149.45  14.329  37.337  36.533 
  7382.000 -16.928  1.5930  1.9530  1.6950 -4.4102  1.5930  1.9530  1.6950  1.7133  7381.6  149.46  14.316  37.345  36.529 
  7382.500 -17.015  1.6300  1.9360  1.6600 -4.4958  1.6300  1.9360  1.6600  1.7166  7382.1  149.48  14.303  37.352  36.526 
  7383.000 -16.831  1.6310  1.9190  1.6250 -4.3103  1.6310  1.9190  1.6250  1.7200  7382.6  149.49  14.290  37.360  36.522 
  7383.500 -16.739  1.6320  1.9190  1.6260 -4.2168  1.6320  1.9190  1.6260  1.7233  7383.1  149.51  14.277  37.368  36.518 
  7384.000 -16.647  1.6320  1.9200  1.6810 -4.1233  1.6320  1.9200  1.6810  1.7266  7383.6  149.52  14.264  37.375  36.514 
  7384.500 -16.463  1.6330  1.9210  1.7360 -3.9379  1.6330  1.9210  1.7360  1.7300  7384.1  149.54  14.251  37.383  36.511 
  7385.000 -16.280  1.6160  1.9040  1.7550 -3.7534  1.6160  1.9040  1.7550  1.7333  7384.6  149.55  14.238  37.391  36.507 
  7385.500 -16.097  1.5980  1.8860  1.7730 -3.5689  1.5980  1.8860  1.7730  1.7366  7385.1  149.57  14.225  37.398  36.503 
  7386.000 -16.005  1.6000  1.8870  1.7740 -3.4754  1.6000  1.8870  1.7740  1.7400  7385.6  149.58  14.212  37.406  36.499 
  7386.500 -15.914  1.6000  1.8880  1.7750 -3.3829  1.6000  1.8880  1.7750  1.7433  7386.1  149.60  14.199  37.414  36.495 
  7387.000 -15.909  1.6010  1.8890  1.7760 -3.3765  1.6010  1.8890  1.7760  1.7466  7386.6  149.61  14.185  37.421  36.492 
