~Version Information
VERS.                     2.0: CWLS log ASCII Standard Version 2.00
WRAP.                      NO: One line per depth step
~Well Information Block
#MNEM.UNIT                               Data Type  Information
#---------                               ---------  -----------
STRT.FT                                   660.0000:
STOP.FT                                  9080.0000:
STEP.FT                                     0.5000:
NULL.                 -999.25                     :
COMP.                                             :COMPANY            
WELL.     SAN EMIDIO #27-21                       :WELL               
FLD .                                             :FIELD              
CTRY.                                             :COUNTRY            
STAT.                                             :STATE              
LOC .                                             :LOCATION           
UWI .                                             :UNIQUE WELL ID     
SRVC.                                             :Service company    
DATE.                                             :LOG DATE           
~Curve Information
#MNEM.UNIT           API CODE  Curve Description
#---------           --------  -----------------
DEPT.FT                      :   1 DEPTH
SP  .MV                      :   2
AM16.OHMM                    :   3
AO10.OHMM                    :   4
AO19.OHMM                    :   5
SBL .MV                      :   6
RS  .OHMM                    :   7
RM  .OHMM                    :   8
RD  .OHMM                    :   9
DEVI.DEG                     :  10
TVD .FT                      :  11
AZIM.DEG                     :  12
NORT.FT                      :  13
EAST.FT                      :  14
OFFS.FT                      :  15
~A
# ...
  6250.000 -17.083  2.8220  3.0740  2.2470 -7.4533  2.8220  3.0740  2.2470  0.7083  6249.7  105.50  26.509  28.052  38.580 
  6250.500 -17.264  2.8940  3.1460  2.3010 -7.6357  2.8940  3.1460  2.3010  0.7088  6250.2  105.57  26.507  28.057  38.583 
  6251.000 -17.265  2.9660  3.2180  2.3910 -7.6381  2.9660  3.2180  2.3910  0.7092  6250.7  105.65  26.505  28.063  38.586 
  6251.500 -17.445  3.1100  3.4690  2.4810 -7.8195  3.1100  3.4690  2.4810  0.7096  6251.2  105.72  26.504  28.069  38.589 
  6252.000 -17.446  3.1810  3.9720  2.5530 -7.8219  3.1810  3.9720  2.5530  0.7100  6251.7  105.80  26.502  28.075  38.592 
  6252.500 -16.908  3.2530  4.3320  2.6250 -7.2854  3.2530  4.3320  2.6250  0.7104  6252.2  105.87  26.500  28.081  38.595 
  6253.000 -17.178  3.2530  4.4750  2.6970 -7.5568  3.2530  4.4750  2.6970  0.7108  6252.7  105.95  26.499  28.087  38.598 
  6253.500 -17.449  3.2350  4.6190  2.7510 -7.8292  3.2350  4.6190  2.7510  0.7113  6253.2  106.02  26.497  28.093  38.601 
  6254.000 -17.450  3.2170  4.5830  2.8050 -7.8316  3.2170  4.5830  2.8050  0.7117  6253.7  106.10  26.495  28.099  38.604 
  6254.500 -16.911  3.2520  4.5470  2.8400 -7.2940  3.2520  4.5470  2.8400  0.7121  6254.2  106.17  26.493  28.105  38.607 
  6255.000 -16.553  3.2880  4.3670  2.8760 -6.9374  3.2880  4.3670  2.8760  0.7125  6254.7  106.25  26.492  28.111  38.610 
  6255.500 -16.194  3.3600  4.1870  2.9480 -6.5798  3.3600  4.1870  2.9480  0.7129  6255.2  106.32  26.490  28.117  38.613 
  6256.000 -16.914  3.3960  3.8990  2.9480 -7.3012  3.3960  3.8990  2.9480  0.7133  6255.7  106.40  26.488  28.123  38.616 
  6256.500 -18.174  3.4670  3.7550  2.9840 -8.5626  3.4670  3.7550  2.9840  0.7138  6256.2  106.47  26.486  28.129  38.619 
  6257.000 -21.052  3.6110  3.6110  3.0200 -11.442  3.6110  3.6110  3.0200  0.7142  6256.7  106.55  26.485  28.135  38.622 
  6257.500 -24.829  3.7190  3.4850  3.0920 -15.220  3.7190  3.4850  3.0920  0.7146  6257.2  106.62  26.483  28.141  38.625 
  6258.000 -27.167  3.9700  3.3590  3.1640 -17.560  3.9700  3.3590  3.1640  0.7150  6257.7  106.70  26.481  28.147  38.628 
  6258.500 -30.225  4.1140  3.3230  3.3440 -20.619  4.1140  3.3230  3.3440  0.7154  6258.2  106.77  26.479  28.153  38.631 
  6259.000 -34.002  4.5450  3.3770  3.4520 -24.398  4.5450  3.3770  3.4520  0.7158  6258.7  106.85  26.477  28.159  38.634 
  6259.500 -38.499  5.1200  3.4300  3.7030 -28.896  5.1200  3.4300  3.7030  0.7163  6259.2  106.92  26.476  28.165  38.637 
  6260.000 -41.736  5.6590  3.4660  3.8830 -32.134  5.6590  3.4660  3.8830  0.7167  6259.7  107.00  26.474  28.171  38.640 
  6260.500 -46.053  6.5580  3.6100  4.0630 -36.453  6.5580  3.6100  4.0630  0.7171  6260.2  107.07  26.472  28.177  38.643 
  6261.000 -56.483  7.2410  3.6810  4.5660 -46.884  7.2410  3.6810  4.5660  0.7175  6260.7  107.15  26.470  28.183  38.646 
  6261.500 -58.642  7.6720  3.7530  4.8900 -49.045  7.6720  3.7530  4.8900  0.7179  6261.2  107.22  26.468  28.189  38.648 
  6262.000 -60.441  8.3190  3.8610  5.1770 -50.845  8.3190  3.8610  5.1770  0.7183  6261.7  107.30  26.466  28.195  38.651 
  6262.500 -60.892  8.4990  3.9690  5.5730 -51.297  8.4990  3.9690  5.5730  0.7188  6262.2  107.37  26.465  28.201  38.654 
  6263.000 -61.342  8.4630  4.1480  5.7170 -51.749  8.4630  4.1480  5.7170  0.7192  6262.7  107.45  26.463  28.207  38.657 
  6263.500 -61.703  8.3910  4.3280  5.7890 -52.111  8.3910  4.3280  5.7890  0.7196  6263.2  107.52  26.461  28.213  38.660 
  6264.000 -61.704  8.2830  4.4890  5.8610 -52.114  8.2830  4.4890  5.8610  0.7200  6263.7  107.60  26.459  28.219  38.663 
  6264.500 -61.345  8.2460  4.6510  5.9330 -51.756  8.2460  4.6510  5.9330  0.7204  6264.2  107.67  26.457  28.225  38.666 
  6265.000 -60.986  8.2100  4.7230  5.7530 -51.398  8.2100  4.7230  5.7530  0.7208  6264.7  107.75  26.455  28.231  38.669 
  6265.500 -60.807  8.3180  4.6510  5.5010 -51.221  8.3180  4.6510  5.5010  0.7213  6265.2  107.82  26.453  28.237  38.672 
  6266.000 -60.448  8.6770  4.5430  5.2490 -50.863  8.6770  4.5430  5.2490  0.7217  6265.7  107.90  26.451  28.243  38.674 
  6266.500 -60.270  9.2160  4.3630  5.0340 -50.687  9.2160  4.3630  5.0340  0.7221  6266.2  107.97  26.449  28.249  38.677 
  6267.000 -59.371  9.7200  4.0390  4.9980 -49.789  9.7200  4.0390  4.9980  0.7225  6266.7  108.05  26.447  28.255  38.680 
  6267.500 -58.293  10.331  4.0750  5.0700 -48.712  10.331  4.0750  5.0700  0.7229  6267.2  108.12  26.445  28.261  38.683 
  6268.000 -57.575  10.582  4.1100  5.2850 -47.996  10.582  4.1100  5.2850  0.7233  6267.7  108.20  26.443  28.267  38.686 
  6268.500 -54.699  10.474  4.1460  5.3570 -45.121  10.474  4.1460  5.3570  0.7238  6268.2  108.27  26.441  28.273  38.689 
  6269.000 -52.002  10.330  4.3260  5.4290 -42.426  10.330  4.3260  5.4290  0.7242  6268.7  108.35  26.439  28.279  38.692 
  6269.500 -49.845  10.186  4.5410  5.4290 -40.270  10.186  4.5410  5.4290  0.7246  6269.2  108.42  26.437  28.285  38.694 
  6270.000 -47.688  9.9160  4.9370  5.3750 -38.115  9.9160  4.9370  5.3750  0.7250  6269.7  108.50  26.435  28.291  38.697 
  6270.500 -45.711  9.6470  5.4040  5.3210 -36.139  9.6470  5.4040  5.3210  0.7254  6270.2  108.57  26.433  28.297  38.700 
  6271.000 -42.835  8.8910  5.4580  4.9980 -33.264  8.8910  5.4580  4.9980  0.7258  6270.7  108.65  26.431  28.303  38.703 
  6271.500 -40.858  8.3160  5.5110  4.7100 -31.289  8.3160  5.5110  4.7100  0.7263  6271.2  108.72  26.429  28.309  38.706 
  6272.000 -39.600  7.4890  5.4750  4.4220 -30.032  7.4890  5.4750  4.4220  0.7267  6271.7  108.80  26.427  28.315  38.708 
  6272.500 -37.084  6.5180  5.2230  4.1710 -27.518  6.5180  5.2230  4.1710  0.7271  6272.2  108.87  26.425  28.321  38.711 
  6273.000 -36.725  5.9780  5.0790  4.0810 -27.160  5.9780  5.0790  4.0810  0.7275  6272.7  108.95  26.423  28.327  38.714 
  6273.500 -37.625  5.6900  4.8990  3.9910 -28.061  5.6900  4.8990  3.9910  0.7279  6273.2  109.02  26.421  28.333  38.717 
  6274.000 -38.165  5.5460  5.0070  3.9010 -28.603  5.5460  5.0070  3.9010  0.7283  6273.7  109.10  26.419  28.339  38.720 
  6274.500 -38.705  5.3660  5.1510  3.8110 -29.144  5.3660  5.1510  3.8110  0.7288  6274.2  109.17  26.417  28.345  38.722 
  6275.000 -31.514  5.0430  5.2220  3.6310 -21.955  5.0430  5.2220  3.6310  0.7292  6274.7  109.25  26.415  28.351  38.725 
  6275.500 -25.041  4.6470  5.2220  3.5240 -15.483  4.6470  5.2220  3.5240  0.7296  6275.2  109.32  26.413  28.357  38.728 
  6276.000 -23.064  4.2510  5.2220  3.3440 -13.507  4.2510  5.2220  3.3440  0.7300  6275.7  109.40  26.411  28.363  38.731 
  6276.500 -21.446  3.8560  5.1140  3.2000 -11.891  3.8560  5.1140  3.2000  0.7304  6276.2  109.47  26.408  28.369  38.733 
  6277.000 -21.807  3.7120  4.2150  3.0560 -12.253  3.7120  4.2150  3.0560  0.7308  6276.7  109.55  26.406  28.375  38.736 
  6277.500 -22.887  3.7110  3.7470  2.5890 -13.335  3.7110  3.7470  2.5890  0.7313  6277.2  109.62  26.404  28.381  38.739 
  6278.000 -24.506  3.7650  3.6030  2.5530 -14.955  3.7650  3.6030  2.5530  0.7317  6277.7  109.70  26.402  28.387  38.742 
  6278.500 -27.384  3.8190  3.6210  2.6970 -17.834  3.8190  3.6210  2.6970  0.7321  6278.2  109.77  26.400  28.393  38.744 
  6279.000 -30.262  4.1060  3.6390  2.8760 -20.714  4.1060  3.6390  2.8760  0.7325  6278.7  109.85  26.398  28.399  38.747 
  6279.500 -32.601  4.4120  3.7470  3.2360 -23.054  4.4120  3.7470  3.2360  0.7329  6279.2  109.92  26.395  28.405  38.750 
  6280.000 -37.097  4.7170  4.0700  3.3440 -27.552  4.7170  4.0700  3.3440  0.7333  6279.7  110.00  26.393  28.411  38.752 
  6280.500 -39.795  5.7240  4.3940  3.5600 -30.251  5.7240  4.3940  3.5600  0.7338  6280.2  110.07  26.391  28.417  38.755 
  6281.000 -42.493  6.0110  4.7890  3.6670 -32.950  6.0110  4.7890  3.6670  0.7342  6280.7  110.15  26.389  28.423  38.758 
  6281.500 -45.371  6.3710  4.8430  3.7750 -35.830  6.3710  4.8430  3.7750  0.7346  6281.2  110.22  26.387  28.429  38.760 
  6282.000 -47.710  6.6220  4.8960  4.0990 -38.170  6.6220  4.8960  4.0990  0.7350  6281.7  110.30  26.384  28.435  38.763 
