~Version Information
VERS.                     2.0: CWLS log ASCII Standard Version 2.00
WRAP.                      NO: One line per depth step
~Well Information Block
#MNEM.UNIT                               Data Type  Information
#---------                               ---------  -----------
STRT.FT                                   660.0000:
STOP.FT                                  9080.0000:
STEP.FT                                     0.5000:
NULL.                 -999.25                     :
COMP.                                             :COMPANY            
WELL.     SAN EMIDIO #27-21                       :WELL               
FLD .                                             :FIELD              
CTRY.                                             :COUNTRY            
STAT.                                             :STATE              
LOC .                                             :LOCATION           
UWI .                                             :UNIQUE WELL ID     
SRVC.                                             :Service company    
DATE.                                             :LOG DATE           
~Curve Information
#MNEM.UNIT           API CODE  Curve Description
#---------           --------  -----------------
DEPT.FT                      :   1 DEPTH
SP  .MV                      :   2
AM16.OHMM                    :   3
AO10.OHMM                    :   4
AO19.OHMM                    :   5
SBL .MV                      :   6
RS  .OHMM                    :   7
RM  .OHMM                    :   8
RD  .OHMM                    :   9
DEVI.DEG                     :  10
TVD .FT                      :  11
AZIM.DEG                     :  12
NORT.FT                      :  13
EAST.FT                      :  14
OFFS.FT                      :  15
~A
# ...
  5697.500 -20.168  3.6030  4.5890  4.0150 -8.9859  3.6030  4.5890  4.0150  0.5000  5697.3  95.723  28.079  23.376  36.384 
  5698.000 -19.086  3.5130  4.3020  3.9080 -7.9053  3.5130  4.3020  3.9080  0.5000  5697.8  95.778  28.079  23.381  36.387 
  5698.500 -18.185  3.4240  3.9800  3.8010 -7.0057  3.4240  3.9800  3.8010  0.5000  5698.3  95.833  28.078  23.385  36.390 
  5699.000 -18.003  3.3350  3.8720  3.6570 -6.8251  3.3350  3.8720  3.6570  0.5000  5698.8  95.888  28.078  23.389  36.393 
  5699.500 -18.721  3.3170  3.7650  3.5140 -7.5445  3.3170  3.7650  3.5140  0.5000  5699.3  95.943  28.077  23.394  36.396 
  5700.000 -19.259  3.2990  3.5500  3.4420 -8.0840  3.2990  3.5500  3.4420  0.5000  5699.8  95.998  28.077  23.398  36.398 
  5700.500 -19.258  3.1920  3.5270  3.4790 -8.0844  3.1920  3.5270  3.4790  0.5008  5700.3  96.098  28.076  23.402  36.401 
  5701.000 -18.537  3.1930  3.5030  3.5150 -7.3648  3.1930  3.5030  3.5150  0.5017  5700.8  96.198  28.076  23.407  36.404 
  5701.500 -17.637  3.1570  3.4800  3.5510 -6.4662  3.1570  3.4800  3.5510  0.5025  5701.3  96.298  28.076  23.411  36.406 
  5702.000 -16.016  3.1220  3.4450  3.5870 -4.8466  3.1220  3.4450  3.5870  0.5033  5701.8  96.398  28.075  23.415  36.409 
  5702.500 -14.215  3.0870  3.4270  3.6060 -3.0470  3.0870  3.4270  3.6060  0.5042  5702.3  96.498  28.075  23.420  36.412 
  5703.000 -13.314  3.0510  3.4100  3.6240 -2.1474  3.0510  3.4100  3.6240  0.5050  5702.8  96.598  28.074  23.424  36.415 
  5703.500 -13.673  3.0160  3.3750  3.6240 -2.5078  3.0160  3.3750  3.6240  0.5058  5703.3  96.698  28.073  23.429  36.417 
  5704.000 -14.392  3.0160  3.3750  3.5890 -3.2282  3.0160  3.3750  3.5890  0.5067  5703.8  96.798  28.073  23.433  36.420 
  5704.500 -14.751  3.0170  3.3400  3.5530 -3.5886  3.0170  3.3400  3.5530  0.5075  5704.3  96.898  28.072  23.437  36.423 
  5705.000 -15.471  3.0350  3.3220  3.5180 -4.3100  3.0350  3.3220  3.5180  0.5083  5704.8  96.998  28.072  23.442  36.426 
  5705.500 -16.191  3.0540  3.3050  3.4820 -5.0314  3.0540  3.3050  3.4820  0.5092  5705.3  97.098  28.071  23.446  36.428 
  5706.000 -18.529  3.1620  3.3230  3.4110 -7.3708  3.1620  3.3230  3.4110  0.5100  5705.8  97.198  28.071  23.451  36.431 
  5706.500 -20.688  3.2340  3.3420  3.3750 -9.5312  3.2340  3.3420  3.3750  0.5108  5706.3  97.298  28.070  23.455  36.434 
  5707.000 -22.847  3.3420  3.3600  3.3760 -11.692  3.3420  3.3600  3.3760  0.5117  5706.8  97.398  28.070  23.459  36.437 
  5707.500 -25.366  3.5220  3.3790  3.4120 -14.212  3.5220  3.3790  3.4120  0.5125  5707.3  97.498  28.069  23.464  36.439 
  5708.000 -26.085  3.6480  3.4330  3.4480 -14.932  3.6480  3.4330  3.4480  0.5133  5707.8  97.598  28.068  23.468  36.442 
  5708.500 -27.074  3.7740  3.4870  3.5560 -15.923  3.7740  3.4870  3.5560  0.5142  5708.3  97.698  28.068  23.473  36.445 
  5709.000 -28.064  4.0620  3.7030  3.7360 -16.914  4.0620  3.7030  3.7360  0.5150  5708.8  97.798  28.067  23.477  36.447 
  5709.500 -29.322  4.1340  4.0620  3.8800 -18.174  4.1340  4.0620  3.8800  0.5158  5709.3  97.898  28.067  23.482  36.450 
  5710.000 -29.321  4.0630  4.1700  4.0950 -18.174  4.0630  4.1700  4.0950  0.5167  5709.8  97.998  28.066  23.486  36.453 
  5710.500 -26.080  3.9560  4.2430  4.2390 -14.934  3.9560  4.2430  4.2390  0.5175  5710.3  98.098  28.065  23.491  36.456 
  5711.000 -24.819  3.8130  4.2790  4.1850 -13.675  3.8130  4.2790  4.1850  0.5183  5710.8  98.198  28.065  23.495  36.458 
  5711.500 -22.479  3.5620  4.2440  4.1320 -11.336  3.5620  4.2440  4.1320  0.5192  5711.3  98.298  28.064  23.500  36.461 
  5712.000 -20.138  3.4190  4.2080  3.9890 -8.9967  3.4190  4.2080  3.9890  0.5200  5711.8  98.398  28.063  23.504  36.464 
  5712.500 -19.237  3.1690  4.1730  3.7740 -8.0971  3.1690  4.1730  3.7740  0.5208  5712.3  98.498  28.063  23.509  36.466 
  5713.000 -18.696  2.9190  3.9940  3.5590 -7.5575  2.9190  3.9940  3.5590  0.5217  5712.8  98.598  28.062  23.513  36.469 
  5713.500 -19.055  2.7040  3.7800  3.3090 -7.9179  2.7040  3.7800  3.3090  0.5225  5713.3  98.698  28.061  23.518  36.472 
  5714.000 -18.874  2.6150  3.4220  2.9860 -7.7383  2.6150  3.4220  2.9860  0.5233  5713.8  98.798  28.061  23.522  36.474 
  5714.500 -18.424  2.5260  3.0990  2.8070 -7.2897  2.5260  3.0990  2.8070  0.5242  5714.3  98.898  28.060  23.527  36.477 
  5715.000 -17.973  2.4720  2.8490  2.5930 -6.8401  2.4720  2.8490  2.5930  0.5250  5714.8  98.998  28.059  23.531  36.480 
  5715.500 -16.712  2.4190  2.5990  2.4850 -5.5805  2.4190  2.5990  2.4850  0.5258  5715.3  99.098  28.059  23.536  36.483 
  5716.000 -17.431  2.4200  2.4910  2.4860 -6.3009  2.4200  2.4910  2.4860  0.5267  5715.8  99.198  28.058  23.540  36.485 
  5716.500 -17.970  2.4560  2.4920  2.5220 -6.8413  2.4560  2.4920  2.5220  0.5275  5716.3  99.298  28.057  23.545  36.488 
  5717.000 -18.149  2.4920  2.4920  2.6300 -7.0217  2.4920  2.4920  2.6300  0.5283  5716.8  99.398  28.056  23.549  36.491 
  5717.500 -18.329  2.5470  2.5290  2.7380 -7.2031  2.5470  2.5290  2.7380  0.5292  5717.3  99.498  28.056  23.554  36.493 
  5718.000 -18.867  2.6010  2.5830  2.8820 -7.7425  2.6010  2.5830  2.8820  0.5300  5717.8  99.598  28.055  23.558  36.496 
  5718.500 -19.046  2.7450  2.6370  3.0970 -7.9229  2.7450  2.6370  3.0970  0.5308  5718.3  99.698  28.054  23.563  36.499 
  5719.000 -19.225  2.8530  2.7820  3.1690 -8.1033  2.8530  2.7820  3.1690  0.5317  5718.8  99.798  28.053  23.567  36.501 
  5719.500 -19.584  3.0330  2.8720  3.2050 -8.4637  3.0330  2.8720  3.2050  0.5325  5719.3  99.898  28.052  23.572  36.504 
  5720.000 -19.134  3.1410  2.9620  3.2410 -8.0151  3.1410  2.9620  3.2410  0.5333  5719.8  99.998  28.052  23.577  36.507 
  5720.500 -18.684  3.3210  3.0520  3.2420 -7.5666  3.3210  3.0520  3.2420  0.5342  5720.3  100.10  28.051  23.581  36.509 
  5721.000 -17.062  3.3930  3.1420  3.2070 -5.9460  3.3930  3.1420  3.2070  0.5350  5720.8  100.20  28.050  23.586  36.512 
  5721.500 -16.341  3.4650  3.3580  3.2070 -5.2264  3.4650  3.3580  3.2070  0.5358  5721.3  100.30  28.049  23.590  36.515 
  5722.000 -15.621  3.7890  3.5380  3.2430 -4.5078  3.7890  3.5380  3.2430  0.5367  5721.8  100.40  28.048  23.595  36.517 
  5722.500 -16.879  3.8610  3.6460  3.2790 -5.7672  3.8610  3.6460  3.2790  0.5375  5722.3  100.50  28.047  23.600  36.520 
  5723.000 -17.418  4.0770  3.7000  3.4590 -6.3076  4.0770  3.7000  3.4590  0.5383  5722.8  100.60  28.047  23.604  36.523 
  5723.500 -18.317  4.1850  3.7550  3.5310 -7.2080  4.1850  3.7550  3.5310  0.5392  5723.3  100.70  28.046  23.609  36.525 
  5724.000 -19.036  4.2930  3.7550  3.5670 -7.9284  4.2930  3.7550  3.5670  0.5400  5723.8  100.80  28.045  23.614  36.528 
  5724.500 -19.575  4.4370  3.6840  3.5320 -8.4688  4.4370  3.6840  3.5320  0.5408  5724.3  100.90  28.044  23.618  36.531 
  5725.000 -24.974  4.6890  3.5770  3.4250 -13.869  4.6890  3.5770  3.4250  0.5417  5724.8  101.00  28.043  23.623  36.533 
  5725.500 -26.773  4.8330  3.3980  3.2460 -15.670  4.8330  3.3980  3.2460  0.5425  5725.3  101.10  28.042  23.627  36.536 
  5726.000 -30.012  5.0840  3.1480  3.1380 -18.910  5.0840  3.1480  3.1380  0.5433  5725.8  101.20  28.041  23.632  36.539 
  5726.500 -31.631  5.3360  3.1130  3.1390 -20.530  5.3360  3.1130  3.1390  0.5442  5726.3  101.30  28.040  23.637  36.541 
  5727.000 -34.510  5.7310  3.1670  3.2470 -23.411  5.7310  3.1670  3.2470  0.5450  5726.8  101.40  28.039  23.641  36.544 
  5727.500 -37.569  6.1970  3.2210  3.4260 -26.471  6.1970  3.2210  3.4260  0.5458  5727.3  101.50  28.038  23.646  36.546 
  5728.000 -38.470  6.3770  3.4370  3.7850 -27.374  6.3770  3.4370  3.7850  0.5467  5727.8  101.60  28.037  23.651  36.549 
  5728.500 -40.449  6.7360  3.6530  4.0010 -29.354  6.7360  3.6530  4.0010  0.5475  5728.3  101.70  28.036  23.655  36.552 
  5729.000 -41.348  6.9520  3.9040  4.2520 -30.254  6.9520  3.9040  4.2520  0.5483  5728.8  101.80  28.035  23.660  36.554 
  5729.500 -41.527  7.0240  4.2630  4.4320 -30.435  7.0240  4.2630  4.4320  0.5492  5729.3  101.90  28.034  23.665  36.557 
