~Version Information
VERS.                     2.0: CWLS log ASCII Standard Version 2.00
WRAP.                      NO: One line per depth step
~Well Information Block
#MNEM.UNIT                               Data Type  Information
#---------                               ---------  -----------
STRT.FT                                   660.0000:
STOP.FT                                  9080.0000:
STEP.FT                                     0.5000:
NULL.                 -999.25                     :
COMP.                                             :COMPANY            
WELL.     SAN EMIDIO #27-21                       :WELL               
FLD .                                             :FIELD              
CTRY.                                             :COUNTRY            
STAT.                                             :STATE              
LOC .                                             :LOCATION           
UWI .                                             :UNIQUE WELL ID     
SRVC.                                             :Service company    
DATE.                                             :LOG DATE           
~Curve Information
#MNEM.UNIT           API CODE  Curve Description
#---------           --------  -----------------
DEPT.FT                      :   1 DEPTH
SP  .MV                      :   2
AM16.OHMM                    :   3
AO10.OHMM                    :   4
AO19.OHMM                    :   5
SBL .MV                      :   6
RS  .OHMM                    :   7
RM  .OHMM                    :   8
RD  .OHMM                    :   9
DEVI.DEG                     :  10
TVD .FT                      :  11
AZIM.DEG                     :  12
NORT.FT                      :  13
EAST.FT                      :  14
OFFS.FT                      :  15
~A
# ...
  3455.000 -34.126  5.2310  5.0510  5.3230 -17.918  5.2310  5.0510  5.3230  0.5292  3454.8  332.84  17.562  12.883  21.528 
  3455.500 -35.385  5.4110  5.4470  6.0420 -19.177  5.4110  5.4470  6.0420  0.5279  3455.3  332.78  17.566  12.881  21.529 
  3456.000 -35.204  5.3750  5.8780  6.5090 -18.995  5.3750  5.8780  6.5090  0.5267  3455.8  332.71  17.570  12.879  21.531 
  3456.500 -35.022  5.3030  5.9500  6.7610 -18.813  5.3030  5.9500  6.7610  0.5254  3456.3  332.65  17.574  12.877  21.532 
  3457.000 -34.659  5.1240  5.8430  6.7790 -18.449  5.1240  5.8430  6.7790  0.5242  3456.8  332.58  17.579  12.875  21.534 
  3457.500 -34.117  4.8370  5.7350  6.7980 -17.907  4.8370  5.7350  6.7980  0.5229  3457.3  332.52  17.583  12.872  21.535 
  3458.000 -33.395  4.4770  5.4120  6.6900 -17.184  4.4770  5.4120  6.6900  0.5217  3457.8  332.45  17.587  12.870  21.536 
  3458.500 -29.969  4.3340  5.1960  6.5110 -13.758  4.3340  5.1960  6.5110  0.5204  3458.3  332.39  17.591  12.868  21.538 
  3459.000 -26.904  4.1180  4.9090  6.3680 -10.692  4.1180  4.9090  6.3680  0.5192  3458.8  332.32  17.595  12.866  21.539 
  3459.500 -24.920  3.9390  4.6580  6.2240 -8.7078  3.9390  4.6580  6.2240  0.5179  3459.3  332.26  17.599  12.864  21.540 
  3460.000 -23.657  3.7230  4.0830  5.5060 -7.4443  3.7230  4.0830  5.5060  0.5167  3459.8  332.19  17.603  12.862  21.542 
  3460.500 -21.854  3.6340  3.7950  4.7870 -5.6408  3.6340  3.7950  4.7870  0.5154  3460.3  332.13  17.607  12.860  21.543 
  3461.000 -20.771  3.5440  3.6880  4.5360 -4.5573  3.5440  3.6880  4.5360  0.5142  3460.8  332.06  17.611  12.858  21.544 
  3461.500 -20.228  3.2930  3.5800  4.1410 -4.0139  3.2930  3.5800  4.1410  0.5129  3461.3  332.00  17.615  12.856  21.546 
  3462.000 -19.686  3.2570  3.4010  3.8540 -3.4714  3.2570  3.4010  3.8540  0.5117  3461.8  331.93  17.618  12.854  21.547 
  3462.500 -19.685  3.1850  3.3290  3.6390 -3.4699  3.1850  3.3290  3.6390  0.5104  3462.3  331.87  17.622  12.851  21.548 
  3463.000 -19.683  3.2210  3.2930  3.5310 -3.4674  3.2210  3.2930  3.5310  0.5092  3462.8  331.80  17.626  12.849  21.550 
  3463.500 -19.861  3.2750  3.2210  3.4780 -3.6449  3.2750  3.2210  3.4780  0.5079  3463.3  331.74  17.630  12.847  21.551 
  3464.000 -20.219  3.3290  3.2220  3.4240 -4.0025  3.3290  3.2220  3.4240  0.5067  3463.8  331.67  17.634  12.845  21.552 
  3464.500 -20.578  3.4010  3.2580  3.6400 -4.3610  3.4010  3.2580  3.6400  0.5054  3464.3  331.61  17.638  12.843  21.553 
  3465.000 -20.667  3.4380  3.2940  3.6770 -4.4495  3.4380  3.2940  3.6770  0.5042  3464.8  331.54  17.642  12.841  21.555 
  3465.500 -20.755  3.4380  3.6890  3.7850 -4.5370  3.4380  3.6890  3.7850  0.5029  3465.3  331.48  17.646  12.839  21.556 
  3466.000 -20.663  3.4380  3.9770  3.8210 -4.4445  3.4380  3.9770  3.8210  0.5017  3465.8  331.41  17.650  12.837  21.557 
  3466.500 -20.571  3.4020  4.2650  3.8030 -4.3521  3.4020  4.2650  3.8030  0.5004  3466.3  331.35  17.653  12.835  21.558 
  3467.000 -20.480  3.3840  4.3730  3.7860 -4.2606  3.3840  4.3730  3.7860  0.4992  3466.8  331.28  17.657  12.833  21.560 
  3467.500 -20.388  3.3670  4.4810  3.7500 -4.1681  3.3670  4.4810  3.7500  0.4979  3467.3  331.22  17.661  12.830  21.561 
  3468.000 -20.206  3.3490  4.6610  3.7150 -3.9856  3.3490  4.6610  3.7150  0.4967  3467.8  331.15  17.665  12.828  21.562 
  3468.500 -20.024  3.3310  4.6250  3.6970 -3.8031  3.3310  4.6250  3.6970  0.4954  3468.3  331.09  17.669  12.826  21.563 
  3469.000 -20.021  3.3130  4.5890  3.6790 -3.7997  3.3130  4.5890  3.6790  0.4942  3468.8  331.02  17.672  12.824  21.564 
  3469.500 -20.019  3.2950  4.4630  3.6620 -3.7972  3.2950  4.4630  3.6620  0.4929  3469.3  330.96  17.676  12.822  21.566 
  3470.000 -20.018  3.2960  4.3380  3.6440 -3.7957  3.2960  4.3380  3.6440  0.4917  3469.8  330.89  17.680  12.820  21.567 
  3470.500 -20.106  3.3140  4.1760  3.5910 -3.8832  3.3140  4.1760  3.5910  0.4904  3470.3  330.83  17.684  12.818  21.568 
  3471.000 -20.194  3.3320  4.0150  3.5370 -3.9707  3.3320  4.0150  3.5370  0.4892  3470.8  330.76  17.687  12.816  21.569 
  3471.500 -20.373  3.3680  3.9070  3.5370 -4.1493  3.3680  3.9070  3.5370  0.4879  3471.3  330.70  17.691  12.814  21.570 
  3472.000 -20.371  3.4040  3.8710  3.5200 -4.1468  3.4040  3.8710  3.5200  0.4867  3471.8  330.63  17.695  12.812  21.571 
  3472.500 -20.189  3.4400  3.8360  3.5020 -3.9643  3.4400  3.8360  3.5020  0.4854  3472.3  330.57  17.698  12.810  21.572 
  3473.000 -20.187  3.4760  3.7640  3.4310 -3.9618  3.4760  3.7640  3.4310  0.4842  3472.8  330.50  17.702  12.808  21.574 
  3473.500 -20.906  3.5480  3.6920  3.3950 -4.6803  3.5480  3.6920  3.3950  0.4829  3473.3  330.44  17.706  12.805  21.575 
  3474.000 -21.625  3.6560  3.6210  3.3600 -5.3989  3.6560  3.6210  3.3600  0.4817  3473.8  330.37  17.709  12.803  21.576 
  3474.500 -22.524  3.7640  3.6930  3.4680 -6.2974  3.7640  3.6930  3.4680  0.4804  3474.3  330.31  17.713  12.801  21.577 
  3475.000 -23.243  3.8720  3.8010  3.6120 -7.0159  3.8720  3.8010  3.6120  0.4792  3474.8  330.24  17.717  12.799  21.578 
  3475.500 -24.683  4.0160  3.9090  3.7920 -8.4554  4.0160  3.9090  3.7920  0.4779  3475.3  330.18  17.720  12.797  21.579 
  3476.000 -25.221  4.0880  4.0520  4.0800 -8.9929  4.0880  4.0520  4.0800  0.4767  3475.8  330.11  17.724  12.795  21.580 
  3476.500 -25.760  4.1600  4.2680  4.5110 -9.5314  4.1600  4.2680  4.5110  0.4754  3476.3  330.05  17.728  12.793  21.581 
  3477.000 -26.119  4.1970  4.3040  4.6910 -9.8900  4.1970  4.3040  4.6910  0.4742  3476.8  329.98  17.731  12.791  21.582 
  3477.500 -26.207  4.1790  4.3400  4.8360 -9.9775  4.1790  4.3400  4.8360  0.4729  3477.3  329.92  17.735  12.789  21.583 
  3478.000 -26.296  4.1610  4.3590  4.8000 -10.066  4.1610  4.3590  4.8000  0.4717  3477.8  329.85  17.738  12.787  21.584 
  3478.500 -26.114  4.1610  4.3770  4.6930 -9.8835  4.1610  4.3770  4.6930  0.4704  3478.3  329.79  17.742  12.785  21.586 
  3479.000 -25.932  4.1610  4.3410  4.5850 -9.7010  4.1610  4.3410  4.5850  0.4692  3478.8  329.72  17.745  12.783  21.587 
  3479.500 -25.389  4.1970  4.1620  4.4420 -9.1576  4.1970  4.1620  4.4420  0.4679  3479.3  329.66  17.749  12.781  21.588 
  3480.000 -25.748  4.3420  4.0540  4.3700 -9.5161  4.3420  4.0540  4.3700  0.4667  3479.8  329.59  17.752  12.779  21.589 
  3480.500 -26.107  4.4850  3.9820  4.3350 -9.8746  4.4850  3.9820  4.3350  0.4654  3480.3  329.53  17.756  12.776  21.590 
  3481.000 -27.546  4.7010  3.9100  4.3350 -11.313  4.7010  3.9100  4.3350  0.4642  3480.8  329.46  17.759  12.774  21.591 
  3481.500 -29.886  4.8450  3.9110  4.3350 -13.653  4.8450  3.9110  4.3350  0.4629  3481.3  329.40  17.763  12.772  21.592 
  3482.000 -33.128  5.0610  4.0190  4.5150 -16.894  5.0610  4.0190  4.5150  0.4617  3481.8  329.33  17.766  12.770  21.593 
  3482.500 -34.747  5.1690  4.1990  4.7310 -18.513  5.1690  4.1990  4.7310  0.4604  3482.3  329.27  17.770  12.768  21.594 
  3483.000 -35.827  5.2770  4.3790  4.8400 -19.592  5.2770  4.3790  4.8400  0.4592  3482.8  329.20  17.773  12.766  21.595 
  3483.500 -35.284  5.4570  4.5580  4.8580 -19.049  5.4570  4.5580  4.8580  0.4579  3483.3  329.14  17.777  12.764  21.596 
  3484.000 -33.661  5.6010  4.6300  4.8760 -17.425  5.6010  4.6300  4.8760  0.4567  3483.8  329.07  17.780  12.762  21.597 
  3484.500 -32.038  5.6010  4.6490  4.8410 -15.802  5.6010  4.6490  4.8410  0.4554  3484.3  329.01  17.783  12.760  21.598 
  3485.000 -31.135  5.6550  4.6670  4.8050 -14.898  5.6550  4.6670  4.8050  0.4542  3484.8  328.94  17.787  12.758  21.598 
  3485.500 -30.773  5.7090  4.5950  4.7690 -14.536  5.7090  4.5950  4.7690  0.4529  3485.3  328.88  17.790  12.756  21.599 
  3486.000 -32.032  5.7630  4.6670  4.7340 -15.794  5.7630  4.6670  4.7340  0.4517  3485.8  328.81  17.794  12.754  21.600 
  3486.500 -34.012  5.8170  4.7390  4.8420 -17.774  5.8170  4.7390  4.8420  0.4504  3486.3  328.75  17.797  12.752  21.601 
  3487.000 -36.533  5.9610  4.8110  4.9500 -20.294  5.9610  4.8110  4.9500  0.4492  3486.8  328.68  17.800  12.750  21.602 
