~Version Information
VERS.                     2.0: CWLS log ASCII Standard Version 2.00
WRAP.                      NO: One line per depth step
~Well Information Block
#MNEM.UNIT                               Data Type  Information
#---------                               ---------  -----------
STRT.FT                                   660.0000:
STOP.FT                                  9080.0000:
STEP.FT                                     0.5000:
NULL.                 -999.25                     :
COMP.                                             :COMPANY            
WELL.     SAN EMIDIO #27-21                       :WELL               
FLD .                                             :FIELD              
CTRY.                                             :COUNTRY            
STAT.                                             :STATE              
LOC .                                             :LOCATION           
UWI .                                             :UNIQUE WELL ID     
SRVC.                                             :Service company    
DATE.                                             :LOG DATE           
~Curve Information
#MNEM.UNIT           API CODE  Curve Description
#---------           --------  -----------------
DEPT.FT                      :   1 DEPTH
SP  .MV                      :   2
AM16.OHMM                    :   3
AO10.OHMM                    :   4
AO19.OHMM                    :   5
SBL .MV                      :   6
RS  .OHMM                    :   7
RM  .OHMM                    :   8
RD  .OHMM                    :   9
DEVI.DEG                     :  10
TVD .FT                      :  11
AZIM.DEG                     :  12
NORT.FT                      :  13
EAST.FT                      :  14
OFFS.FT                      :  15
~A
# ...
  5145.000 -36.738  5.8380  4.9050  5.1400 -24.004  5.8380  4.9050  5.1400  0.4542  5144.8  17.147  26.190  18.770  31.791 
  5145.500 -38.356  5.9100  4.9240  5.1410 -25.623  5.9100  4.9240  5.1410  0.4546  5145.3  17.282  26.194  18.771  31.795 
  5146.000 -39.614  5.9470  4.9430  5.1770 -26.882  5.9470  4.9430  5.1770  0.4550  5145.8  17.417  26.198  18.772  31.798 
  5146.500 -39.793  5.9830  4.9790  5.1780 -27.063  5.9830  4.9790  5.1780  0.4554  5146.3  17.552  26.202  18.773  31.802 
  5147.000 -39.791  5.9660  5.0160  5.2140 -27.062  5.9660  5.0160  5.2140  0.4558  5146.8  17.687  26.205  18.774  31.805 
  5147.500 -39.789  5.9490  5.1240  5.2150 -27.062  5.9490  5.1240  5.2150  0.4563  5147.3  17.822  26.209  18.776  31.809 
  5148.000 -37.986  5.8600  5.2330  5.2690 -25.260  5.8600  5.2330  5.2690  0.4567  5147.8  17.957  26.213  18.777  31.813 
  5148.500 -36.005  5.7710  5.3410  5.3230 -23.280  5.7710  5.3410  5.3230  0.4571  5148.3  18.092  26.217  18.778  31.816 
  5149.000 -32.943  5.5570  5.5570  5.2520 -20.220  5.5570  5.5570  5.2520  0.4575  5148.8  18.227  26.220  18.779  31.820 
  5149.500 -30.241  5.2710  5.6290  5.1450 -17.519  5.2710  5.6290  5.1450  0.4579  5149.3  18.362  26.224  18.781  31.823 
  5150.000 -27.899  4.9130  5.6300  4.9310 -15.179  4.9130  5.6300  4.9310  0.4583  5149.8  18.497  26.228  18.782  31.827 
  5150.500 -26.098  4.6620  5.5590  4.7160 -13.379  4.6620  5.5590  4.7160  0.4588  5150.3  18.632  26.232  18.783  31.830 
  5151.000 -22.496  4.2330  5.4160  4.5010 -9.7784  4.2330  5.4160  4.5010  0.4592  5150.8  18.767  26.236  18.784  31.834 
  5151.500 -20.874  3.9470  5.2020  4.1790 -8.1578  3.9470  5.2020  4.1790  0.4596  5151.3  18.902  26.239  18.786  31.838 
  5152.000 -18.533  3.6610  4.9510  3.7850 -5.8182  3.6610  4.9510  3.7850  0.4600  5151.8  19.037  26.243  18.787  31.841 
  5152.500 -17.451  3.5900  4.4500  3.6070 -4.7376  3.5900  4.4500  3.6070  0.4604  5152.3  19.172  26.247  18.788  31.845 
  5153.000 -17.809  3.5900  4.2720  3.5000 -5.0970  3.5900  4.2720  3.5000  0.4608  5152.8  19.307  26.251  18.790  31.848 
  5153.500 -17.987  3.5910  4.0570  3.5000 -5.2764  3.5910  4.0570  3.5000  0.4613  5153.3  19.442  26.255  18.791  31.852 
  5154.000 -18.525  3.6280  4.0580  3.5370 -5.8158  3.6280  4.0580  3.5370  0.4617  5153.8  19.577  26.258  18.792  31.856 
  5154.500 -18.164  3.6640  4.0940  3.6090 -5.4562  3.6640  4.0940  3.6090  0.4621  5154.3  19.712  26.262  18.794  31.859 
  5155.000 -17.262  3.7540  4.2390  3.6810 -4.5556  3.7540  4.2390  3.6810  0.4625  5154.8  19.847  26.266  18.795  31.863 
  5155.500 -16.000  3.8450  4.2390  3.7530 -3.2950  3.8450  4.2390  3.7530  0.4629  5155.3  19.982  26.270  18.797  31.867 
  5156.000 -15.458  3.9530  4.2940  3.7900 -2.7544  3.9530  4.2940  3.7900  0.4633  5155.8  20.117  26.274  18.798  31.870 
  5156.500 -15.817  4.0970  4.3480  3.7900 -3.1148  4.0970  4.3480  3.7900  0.4638  5156.3  20.252  26.277  18.799  31.874 
  5157.000 -16.176  4.1880  4.4030  3.7910 -3.4752  4.1880  4.4030  3.7910  0.4642  5156.8  20.387  26.281  18.801  31.878 
  5157.500 -17.433  4.2780  4.4570  3.8630 -4.7336  4.2780  4.4570  3.8630  0.4646  5157.3  20.522  26.285  18.802  31.881 
  5158.000 -17.971  4.3320  4.4940  3.9350 -5.2731  4.3320  4.4940  3.9350  0.4650  5157.8  20.657  26.289  18.804  31.885 
  5158.500 -17.789  4.3870  4.5300  4.0070 -5.0925  4.3870  4.5300  4.0070  0.4654  5158.3  20.792  26.293  18.805  31.889 
  5159.000 -17.968  4.5130  4.6390  4.1870 -5.2729  4.5130  4.6390  4.1870  0.4658  5158.8  20.927  26.296  18.806  31.893 
  5159.500 -19.406  4.6390  4.8550  4.4030 -6.7123  4.6390  4.8550  4.4030  0.4663  5159.3  21.062  26.300  18.808  31.896 
  5160.000 -21.924  5.0700  5.0350  4.6190 -9.2317  5.0700  5.0350  4.6190  0.4667  5159.8  21.197  26.304  18.809  31.900 
  5160.500 -26.062  5.2860  5.2150  4.9060 -13.371  5.2860  5.2150  4.9060  0.4671  5160.3  21.332  26.308  18.811  31.904 
  5161.000 -31.640  5.3950  5.3950  5.1930 -18.950  5.3950  5.3950  5.1930  0.4675  5160.8  21.467  26.312  18.812  31.907 
  5161.500 -35.598  5.6100  5.7180  5.3020 -22.910  5.6100  5.7180  5.3020  0.4679  5161.3  21.602  26.315  18.814  31.911 
  5162.000 -37.396  5.7550  5.7370  5.5170 -24.709  5.7550  5.7370  5.5170  0.4683  5161.8  21.737  26.319  18.815  31.915 
  5162.500 -38.025  5.8270  5.7550  5.5540 -25.340  5.8270  5.7550  5.5540  0.4688  5162.3  21.872  26.323  18.817  31.919 
  5163.000 -38.654  5.8990  5.7380  5.5540 -25.970  5.8990  5.7380  5.5540  0.4692  5162.8  22.007  26.327  18.818  31.923 
  5163.500 -39.281  5.9360  5.7210  5.5540 -26.599  5.9360  5.7210  5.5540  0.4696  5163.3  22.142  26.331  18.820  31.926 
  5164.000 -39.909  5.9720  5.5060  5.5190 -27.228  5.9720  5.5060  5.5190  0.4700  5163.8  22.277  26.334  18.822  31.930 
  5164.500 -40.087  6.0810  5.3640  5.6450 -27.407  6.0810  5.3640  5.6450  0.4704  5164.3  22.412  26.338  18.823  31.934 
  5165.000 -40.446  6.2250  5.2930  5.7710 -27.768  6.2250  5.2930  5.7710  0.4708  5164.8  22.547  26.342  18.825  31.938 
  5165.500 -40.444  6.2980  5.2930  5.8800 -27.767  6.2980  5.2930  5.8800  0.4713  5165.3  22.682  26.346  18.826  31.941 
  5166.000 -40.443  6.3700  5.3660  6.0240 -27.768  6.3700  5.3660  6.0240  0.4717  5165.8  22.817  26.350  18.828  31.945 
  5166.500 -39.900  6.4780  5.4740  6.1680 -27.226  6.4780  5.4740  6.1680  0.4721  5166.3  22.952  26.353  18.829  31.949 
  5167.000 -38.098  6.4430  5.5110  6.2040 -25.425  6.4430  5.5110  6.2040  0.4725  5166.8  23.087  26.357  18.831  31.953 
  5167.500 -37.017  6.4080  5.5650  6.2400 -24.346  6.4080  5.5650  6.2400  0.4729  5167.3  23.222  26.361  18.833  31.957 
  5168.000 -35.936  6.4090  5.6200  6.2590 -23.266  6.4090  5.6200  6.2590  0.4733  5167.8  23.357  26.365  18.834  31.961 
  5168.500 -36.113  6.4270  5.6210  6.2770 -23.445  6.4270  5.6210  6.2770  0.4738  5168.3  23.492  26.369  18.836  31.964 
  5169.000 -36.471  6.4460  5.6210  6.3140 -23.804  6.4460  5.6210  6.3140  0.4742  5168.8  23.627  26.372  18.838  31.968 
  5169.500 -36.650  6.5180  5.6040  6.3500 -23.984  6.5180  5.6040  6.3500  0.4746  5169.3  23.762  26.376  18.839  31.972 
  5170.000 -35.928  6.5910  5.5870  6.4220 -23.264  6.5910  5.5870  6.4220  0.4750  5169.8  23.897  26.380  18.841  31.976 
  5170.500 -35.746  6.9500  5.6590  6.4950 -23.083  6.9500  5.6590  6.4950  0.4754  5170.3  24.032  26.384  18.843  31.980 
  5171.000 -36.464  7.2740  5.8390  6.6390 -23.803  7.2740  5.8390  6.6390  0.4758  5170.8  24.167  26.387  18.844  31.984 
  5171.500 -38.442  7.4900  5.9120  6.9260 -25.782  7.4900  5.9120  6.9260  0.4763  5171.3  24.302  26.391  18.846  31.988 
  5172.000 -41.860  7.4900  6.2710  7.1780 -29.201  7.4900  6.2710  7.1780  0.4767  5171.8  24.437  26.395  18.848  31.992 
  5172.500 -41.319  7.4910  6.4870  7.6080 -28.662  7.4910  6.4870  7.6080  0.4771  5172.3  24.572  26.399  18.850  31.995 
  5173.000 -39.697  7.4200  7.2410  7.6270 -27.041  7.4200  7.2410  7.6270  0.4775  5172.8  24.707  26.403  18.851  31.999 
  5173.500 -36.275  7.3490  7.6000  7.6450 -23.621  7.3490  7.6000  7.6450  0.4779  5173.3  24.842  26.406  18.853  32.003 
  5174.000 -32.674  6.8840  7.9590  7.5740 -20.021  6.8840  7.9590  7.5740  0.4783  5173.8  24.977  26.410  18.855  32.007 
  5174.500 -26.011  4.5890  8.0680  7.5030 -13.359  4.5890  8.0680  7.5030  0.4788  5174.3  25.112  26.414  18.857  32.011 
  5175.000 -22.229  4.1600  7.9610  7.0370 -9.5788  4.1600  7.9610  7.0370  0.4792  5174.8  25.247  26.418  18.858  32.015 
  5175.500 -19.528  3.5870  7.4950  5.7830 -6.8792  3.5870  7.4950  5.7830  0.4796  5175.3  25.382  26.422  18.860  32.019 
  5176.000 -18.986  3.4440  6.8150  4.6360 -6.3386  3.4440  6.8150  4.6360  0.4800  5175.8  25.517  26.425  18.862  32.023 
  5176.500 -18.445  3.2650  5.9550  3.6680 -5.7990  3.2650  5.9550  3.6680  0.4804  5176.3  25.652  26.429  18.864  32.027 
  5177.000 -18.262  3.1940  3.9830  3.3100 -5.6174  3.1940  3.9830  3.3100  0.4808  5176.8  25.787  26.433  18.866  32.031 
