~Version Information
VERS.                     2.0: CWLS log ASCII Standard Version 2.00
WRAP.                      NO: One line per depth step
~Well Information Block
#MNEM.UNIT                               Data Type  Information
#---------                               ---------  -----------
STRT.FT                                   720.0000:
STOP.FT                                  7270.0000:
STEP.FT                                     0.5000:
NULL.                 -999.25                     :
COMP.                                             :COMPANY            
WELL.     SAN EMIDIO A #34-27                     :WELL               
FLD .                                             :FIELD              
CTRY.                                             :COUNTRY            
STAT.                                             :STATE              
LOC .                                             :LOCATION           
UWI .                                             :UNIQUE WELL ID     
SRVC.                                             :Service company    
DATE.                                             :LOG DATE           
~Curve Information
#MNEM.UNIT           API CODE  Curve Description
#---------           --------  -----------------
DEPT.FT                      :   1 DEPTH
SP  .MV                      :   2
AM10.OHMM                    :   3
AO10.OHMM                    :   4
AO19.OHMM                    :   5
SBL .MV                      :   6
RS  .OHMM                    :   7
RM  .OHMM                    :   8
RD  .OHMM                    :   9
DEVI.DEG                     :  10
TVD .FT                      :  11
AZIM.DEG                     :  12
NORT.FT                      :  13
EAST.FT                      :  14
OFFS.FT                      :  15
~A
# ...
  1597.500 -55.877  2.4830  4.4930  5.8240 -5.0753  2.4830  4.4930  5.8240  0.0000  1597.5  0.0000  0.0000  0.0000  0.0000 
  1598.000 -54.805  2.2660  4.3850  5.6790 -4.0119  2.2660  4.3850  5.6790  0.0000  1598.0  0.0000  0.0000  0.0000  0.0000 
  1598.500 -54.810  2.1570  4.2760  5.5340 -4.0255  2.1570  4.2760  5.5340  0.0000  1598.5  0.0000  0.0000  0.0000  0.0000 
  1599.000 -54.814  2.1200  4.1310  5.5330 -4.0381  2.1200  4.1310  5.5330  0.0000  1599.0  0.0000  0.0000  0.0000  0.0000 
  1599.500 -55.719  2.1190  4.0220  5.5310 -4.9518  2.1190  4.0220  5.5310  0.0000  1599.5  0.0000  0.0000  0.0000  0.0000 
  1600.000 -55.903  2.1190  4.0210  5.6200 -5.1444  2.1190  4.0210  5.6200  0.0000  1600.0  0.0000  0.0000  0.0000  0.0000 
  1600.500 -54.472  2.1530  4.1280  5.7090 -3.7220  2.1530  4.1280  5.7090  0.0000  1600.5  0.0000  0.0000  0.0000  0.0000 
  1601.000 -54.565  2.2240  4.1630  5.7980 -3.8236  2.2240  4.1630  5.7980  0.0000  1601.0  0.0000  0.0000  0.0000  0.0000 
  1601.500 -54.658  2.2410  4.1990  5.8870 -3.9252  2.2410  4.1990  5.8870  0.0000  1601.5  0.0000  0.0000  0.0000  0.0000 
  1602.000 -53.768  2.2590  4.2340  6.1010 -3.0439  2.2590  4.2340  6.1010  0.0000  1602.0  0.0000  0.0000  0.0000  0.0000 
  1602.500 -52.875  2.2940  4.2690  6.1000 -2.1595  2.2940  4.2690  6.1000  0.0000  1602.5  0.0000  0.0000  0.0000  0.0000 
  1603.000 -53.058  2.3290  4.3040  6.0460 -2.3511  2.3290  4.3040  6.0460  0.0000  1603.0  0.0000  0.0000  0.0000  0.0000 
  1603.500 -53.241  2.3990  4.3390  5.9920 -2.5427  2.3990  4.3390  5.9920  0.0000  1603.5  0.0000  0.0000  0.0000  0.0000 
  1604.000 -53.425  2.4520  4.1940  5.8830 -2.7353  2.4520  4.1940  5.8830  0.0000  1604.0  0.0000  0.0000  0.0000  0.0000 
  1604.500 -53.609  2.5050  4.0850  5.8290 -2.9280  2.5050  4.0850  5.8290  0.0000  1604.5  0.0000  0.0000  0.0000  0.0000 
  1605.000 -54.692  2.4680  4.0300  5.7740 -4.0196  2.4680  4.0300  5.7740  0.0000  1605.0  0.0000  0.0000  0.0000  0.0000 
  1605.500 -55.594  2.4310  3.9760  5.6290 -4.9302  2.4310  3.9760  5.6290  0.0000  1605.5  0.0000  0.0000  0.0000  0.0000 
  1606.000 -56.495  2.3770  3.8670  5.5210 -5.8398  2.3770  3.8670  5.5210  0.0000  1606.0  0.0000  0.0000  0.0000  0.0000 
  1606.500 -56.679  2.3220  3.8300  5.3760 -6.0324  2.3220  3.8300  5.3760  0.0000  1606.5  0.0000  0.0000  0.0000  0.0000 
  1607.000 -55.966  2.3030  3.7930  5.3040 -5.3281  2.3030  3.7930  5.3040  0.0000  1607.0  0.0000  0.0000  0.0000  0.0000 
  1607.500 -56.509  2.2840  3.7570  5.2320 -5.8797  2.2840  3.7570  5.2320  0.0000  1607.5  0.0000  0.0000  0.0000  0.0000 
  1608.000 -57.410  2.3010  3.7200  5.1050 -6.7893  2.3010  3.7200  5.1050  0.0000  1608.0  0.0000  0.0000  0.0000  0.0000 
  1608.500 -58.671  2.3190  3.6830  4.9780 -8.0589  2.3190  3.6830  4.9780  0.0000  1608.5  0.0000  0.0000  0.0000  0.0000 
  1609.000 -59.572  2.3720  3.6290  4.8700 -8.9686  2.3720  3.6290  4.8700  0.0000  1609.0  0.0000  0.0000  0.0000  0.0000 
  1609.500 -60.474  2.4250  3.5740  4.7620 -9.8792  2.4250  3.5740  4.7620  0.0000  1609.5  0.0000  0.0000  0.0000  0.0000 
  1610.000 -60.209  2.4950  3.3570  4.6530 -9.6228  2.4950  3.3570  4.6530  0.0000  1610.0  0.0000  0.0000  0.0000  0.0000 
  1610.500 -59.945  2.4580  3.2130  4.5090 -9.3674  2.4580  3.2130  4.5090  0.0000  1610.5  0.0000  0.0000  0.0000  0.0000 
  1611.000 -61.746  2.4220  3.1580  4.4010 -11.177  2.4220  3.1580  4.4010  0.0000  1611.0  0.0000  0.0000  0.0000  0.0000 
  1611.500 -64.083  2.4030  3.1040  4.2560 -13.523  2.4030  3.1040  4.2560  0.0000  1611.5  0.0000  0.0000  0.0000  0.0000 
  1612.000 -65.523  2.3840  3.0490  4.1480 -14.971  2.3840  3.0490  4.1480  0.0000  1612.0  0.0000  0.0000  0.0000  0.0000 
  1612.500 -67.321  2.3830  2.9940  4.0400 -16.778  2.3830  2.9940  4.0400  0.0000  1612.5  0.0000  0.0000  0.0000  0.0000 
  1613.000 -68.223  2.3820  3.2440  4.2370 -17.689  2.3820  3.2440  4.2370  0.0000  1613.0  0.0000  0.0000  0.0000  0.0000 
  1613.500 -69.125  2.3810  3.4590  4.4330 -18.599  2.3810  3.4590  4.4330  0.0000  1613.5  0.0000  0.0000  0.0000  0.0000 
  1614.000 -70.385  2.5240  3.6010  4.9350 -19.868  2.5240  3.6010  4.9350  0.0000  1614.0  0.0000  0.0000  0.0000  0.0000 
  1614.500 -72.904  2.6670  3.7440  5.1850 -22.395  2.6670  3.7440  5.1850  0.0000  1614.5  0.0000  0.0000  0.0000  0.0000 
  1615.000 -73.806  3.2400  4.8560  5.6150 -23.306  3.2400  4.8560  5.6150  0.0000  1615.0  0.0000  0.0000  0.0000  0.0000 
  1615.500 -74.437  3.4190  5.0350  6.0640 -23.946  3.4190  5.0350  6.0640  0.0000  1615.5  0.0000  0.0000  0.0000  0.0000 
  1616.000 -75.068  3.5980  5.2140  6.5130 -24.585  3.5980  5.2140  6.5130  0.0000  1616.0  0.0000  0.0000  0.0000  0.0000 
  1616.500 -77.408  4.6740  5.3030  6.9420 -26.934  4.6740  5.3030  6.9420  0.0000  1616.5  0.0000  0.0000  0.0000  0.0000 
  1617.000 -82.077  4.8880  5.3920  7.0490 -31.611  4.8880  5.3920  7.0490  0.0000  1617.0  0.0000  0.0000  0.0000  0.0000 
  1617.500 -82.979  5.2470  5.4260  7.1200 -32.522  5.2470  5.4260  7.1200  0.0000  1617.5  0.0000  0.0000  0.0000  0.0000 
  1618.000 -83.881  6.5020  5.4250  6.9760 -33.433  6.5020  5.4250  6.9760  0.0000  1618.0  0.0000  0.0000  0.0000  0.0000 
  1618.500 -84.426  7.6500  5.4250  6.6870 -33.986  7.6500  5.4250  6.6870  0.0000  1618.5  0.0000  0.0000  0.0000  0.0000 
  1619.000 -84.610  7.7940  5.4240  6.6330 -34.179  7.7940  5.4240  6.6330  0.0000  1619.0  0.0000  0.0000  0.0000  0.0000 
  1619.500 -84.973  7.6670  5.4230  6.5790 -34.551  7.6670  5.4230  6.5790  0.0000  1619.5  0.0000  0.0000  0.0000  0.0000 
  1620.000 -86.054  7.5400  5.4220  6.6140 -35.640  7.5400  5.4220  6.6140  0.0000  1620.0  0.0000  0.0000  0.0000  0.0000 
  1620.500 -86.238  7.1800  5.4210  6.6490 -35.833  7.1800  5.4210  6.6490  0.0000  1620.5  0.0000  0.0000  0.0000  0.0000 
  1621.000 -86.601  7.0000  5.4200  6.6840 -36.204  7.0000  5.4200  6.6840  0.0000  1621.0  0.0000  0.0000  0.0000  0.0000 
  1621.500 -86.785  6.8550  5.4200  6.7550 -36.397  6.8550  5.4200  6.7550  0.0000  1621.5  0.0000  0.0000  0.0000  0.0000 
  1622.000 -86.789  6.7110  5.6340  6.8620 -36.410  6.7110  5.6340  6.8620  0.0000  1622.0  0.0000  0.0000  0.0000  0.0000 
  1622.500 -88.229  6.5660  5.7050  6.9150 -37.858  6.5660  5.7050  6.9150  0.0000  1622.5  0.0000  0.0000  0.0000  0.0000 
  1623.000 -89.490  6.6010  5.7760  6.9690 -39.128  6.6010  5.7760  6.9690  0.0000  1623.0  0.0000  0.0000  0.0000  0.0000 
  1623.500 -90.212  6.6720  5.9190  7.1120 -39.859  6.6720  5.9190  7.1120  0.0000  1623.5  0.0000  0.0000  0.0000  0.0000 
  1624.000 -90.574  6.7430  6.0610  7.2550 -40.229  6.7430  6.0610  7.2550  0.0000  1624.0  0.0000  0.0000  0.0000  0.0000 
  1624.500 -90.936  6.8140  6.5270  7.5410 -40.600  6.8140  6.5270  7.5410  0.0000  1624.5  0.0000  0.0000  0.0000  0.0000 
  1625.000 -91.123  7.2440  7.7460  7.9350 -40.795  7.2440  7.7460  7.9350  0.0000  1625.0  0.0000  0.0000  0.0000  0.0000 
  1625.500 -91.307  7.6020  8.4640  8.3650 -40.988  7.6020  8.4640  8.3650  0.0000  1625.5  0.0000  0.0000  0.0000  0.0000 
  1626.000 -91.311  7.8170  8.6780  8.5440 -41.001  7.8170  8.6780  8.5440  0.0000  1626.0  0.0000  0.0000  0.0000  0.0000 
  1626.500 -91.315  8.1750  10.149  8.4360 -41.013  8.1750  10.149  8.4360  0.0000  1626.5  0.0000  0.0000  0.0000  0.0000 
  1627.000 -91.320  8.3180  10.275  8.2550 -41.027  8.3180  10.275  8.2550  0.0000  1627.0  0.0000  0.0000  0.0000  0.0000 
  1627.500 -91.324  8.3530  10.400  8.1830 -41.040  8.3530  10.400  8.1830  0.0000  1627.5  0.0000  0.0000  0.0000  0.0000 
  1628.000 -91.329  8.3880  10.829  7.9310 -41.053  8.3880  10.829  7.9310  0.0000  1628.0  0.0000  0.0000  0.0000  0.0000 
  1628.500 -91.333  8.2070  11.008  7.7870 -41.066  8.2070  11.008  7.7870  0.0000  1628.5  0.0000  0.0000  0.0000  0.0000 
  1629.000 -91.248  8.1710  11.079  7.3910 -40.989  8.1710  11.079  7.3910  0.0000  1629.0  0.0000  0.0000  0.0000  0.0000 
  1629.500 -91.163  7.5600  11.114  6.9950 -40.913  7.5600  11.114  6.9950  0.0000  1629.5  0.0000  0.0000  0.0000  0.0000 
