~Version Information
VERS.                     2.0: CWLS log ASCII Standard Version 2.00
WRAP.                      NO: One line per depth step
~Well Information Block
#MNEM.UNIT                               Data Type  Information
#---------                               ---------  -----------
STRT.FT                                   720.0000:
STOP.FT                                  7270.0000:
STEP.FT                                     0.5000:
NULL.                 -999.25                     :
COMP.                                             :COMPANY            
WELL.     SAN EMIDIO A #34-27                     :WELL               
FLD .                                             :FIELD              
CTRY.                                             :COUNTRY            
STAT.                                             :STATE              
LOC .                                             :LOCATION           
UWI .                                             :UNIQUE WELL ID     
SRVC.                                             :Service company    
DATE.                                             :LOG DATE           
~Curve Information
#MNEM.UNIT           API CODE  Curve Description
#---------           --------  -----------------
DEPT.FT                      :   1 DEPTH
SP  .MV                      :   2
AM10.OHMM                    :   3
AO10.OHMM                    :   4
AO19.OHMM                    :   5
SBL .MV                      :   6
RS  .OHMM                    :   7
RM  .OHMM                    :   8
RD  .OHMM                    :   9
DEVI.DEG                     :  10
TVD .FT                      :  11
AZIM.DEG                     :  12
NORT.FT                      :  13
EAST.FT                      :  14
OFFS.FT                      :  15
~A
# ...
  6830.000 -35.737  2.4270  3.2510  3.0970 -15.737  2.4270  3.2510  3.0970  18.000  6768.3  157.99 -411.61  141.02 -191.33 
  6830.500 -36.457  2.4620  3.2510  3.0970 -16.457  2.4620  3.2510  3.0970  18.000  6768.8  157.99 -411.75  141.08 -191.39 
  6831.000 -36.995  2.5340  3.2510  3.0960 -16.995  2.5340  3.2510  3.0960  18.000  6769.2  157.99 -411.90  141.14 -191.45 
  6831.500 -37.894  2.6050  3.2500  3.0960 -17.894  2.6050  3.2500  3.0960  18.000  6769.7  157.99 -412.04  141.20 -191.51 
  6832.000 -38.972  2.9270  3.2860  3.1140 -18.972  2.9270  3.2860  3.1140  18.000  6770.2  157.99 -412.18  141.26 -191.57 
  6832.500 -39.870  3.0350  3.2860  3.1310 -19.870  3.0350  3.2860  3.1310  18.000  6770.7  157.99 -412.33  141.31 -191.63 
  6833.000 -40.768  3.1430  3.4650  3.2380 -20.768  3.1430  3.4650  3.2380  18.000  6771.2  157.99 -412.47  141.37 -191.69 
  6833.500 -40.947  3.5010  3.6080  3.4890 -20.947  3.5010  3.6080  3.4890  18.000  6771.6  157.99 -412.61  141.43 -191.76 
  6834.000 -41.306  4.0020  3.8230  3.6320 -21.306  4.0020  3.8230  3.6320  18.000  6772.1  157.99 -412.76  141.49 -191.82 
  6834.500 -41.485  4.3960  3.8590  3.8820 -21.485  4.3960  3.8590  3.8820  18.000  6772.6  157.99 -412.90  141.54 -191.88 
  6835.000 -41.484  4.5040  3.8580  3.6670 -21.484  4.5040  3.8580  3.6670  18.000  6773.1  157.99 -413.04  141.60 -191.94 
  6835.500 -41.483  4.4680  3.8580  3.5590 -21.483  4.4680  3.8580  3.5590  18.000  6773.5  157.99 -413.19  141.66 -192.00 
  6836.000 -41.482  4.3420  3.7150  3.3430 -21.482  4.3420  3.7150  3.3430  18.000  6774.0  157.99 -413.33  141.72 -192.06 
  6836.500 -40.942  4.2170  3.6430  3.2350 -20.942  4.2170  3.6430  3.2350  18.000  6774.5  157.99 -413.47  141.78 -192.12 
  6837.000 -40.401  3.9290  3.6070  3.1630 -20.401  3.9290  3.6070  3.1630  18.000  6775.0  157.99 -413.61  141.83 -192.18 
  6837.500 -39.681  3.6780  3.3560  3.0910 -19.681  3.6780  3.3560  3.0910  18.000  6775.4  157.99 -413.76  141.89 -192.24 
  6838.000 -38.781  3.2840  3.2120  2.9830 -18.781  3.2840  3.2120  2.9830  18.000  6775.9  157.99 -413.90  141.95 -192.30 
  6838.500 -38.061  3.1760  3.0330  3.0550 -18.061  3.1760  3.0330  3.0550  18.000  6776.4  157.99 -414.04  142.01 -192.36 
  6839.000 -37.340  3.0500  2.9250  3.0900 -17.340  3.0500  2.9250  3.0900  18.000  6776.9  157.99 -414.19  142.07 -192.42 
  6839.500 -36.980  2.9250  2.8710  3.1440 -16.980  2.9250  2.8710  3.1440  18.000  6777.3  157.99 -414.33  142.12 -192.48 
  6840.000 -36.079  2.7990  2.8170  3.1970 -16.079  2.7990  2.8170  3.1970  18.000  6777.8  157.99 -414.47  142.18 -192.54 
  6840.500 -35.539  2.6730  2.7630  3.1970 -15.539  2.6730  2.7630  3.1970  18.000  6778.3  157.99 -414.62  142.24 -192.60 
  6841.000 -35.178  2.6020  2.7090  3.1960 -15.178  2.6020  2.7090  3.1960  18.000  6778.8  157.99 -414.76  142.30 -192.66 
  6841.500 -34.817  2.5300  2.7090  3.1780 -14.817  2.5300  2.7090  3.1780  18.000  6779.2  157.99 -414.90  142.36 -192.72 
  6842.000 -34.817  2.4580  2.6910  3.1600 -14.817  2.4580  2.6910  3.1600  18.000  6779.7  157.99 -415.05  142.41 -192.78 
  6842.500 -34.996  2.3860  2.6730  3.0880 -14.996  2.3860  2.6730  3.0880  18.000  6780.2  157.99 -415.19  142.47 -192.84 
  6843.000 -35.534  2.3860  2.6730  3.0690 -15.534  2.3860  2.6730  3.0690  18.000  6780.7  157.99 -415.33  142.53 -192.90 
  6843.500 -36.073  2.3860  2.7440  3.0510 -16.073  2.3860  2.7440  3.0510  18.000  6781.1  157.99 -415.48  142.59 -192.96 
  6844.000 -36.612  2.4750  2.8160  3.0150 -16.612  2.4750  2.8160  3.0150  18.000  6781.6  157.99 -415.62  142.64 -193.02 
  6844.500 -36.611  2.5650  2.9950  2.9970 -16.611  2.5650  2.9950  2.9970  18.000  6782.1  157.99 -415.76  142.70 -193.08 
  6845.000 -36.430  2.6720  3.1740  2.9790 -16.430  2.6720  3.1740  2.9790  18.000  6782.6  157.99 -415.91  142.76 -193.14 
  6845.500 -36.429  2.7260  3.2450  2.9420 -16.429  2.7260  3.2450  2.9420  18.000  6783.0  157.99 -416.05  142.82 -193.20 
  6846.000 -36.158  2.7790  3.2090  2.9420 -16.158  2.7790  3.2090  2.9420  18.000  6783.5  157.99 -416.19  142.88 -193.26 
  6846.500 -35.886  2.8150  3.2090  2.9410 -15.886  2.8150  3.2090  2.9410  18.000  6784.0  157.99 -416.34  142.93 -193.32 
  6847.000 -35.527  2.7250  3.1010  2.9410 -15.527  2.7250  3.1010  2.9410  18.000  6784.5  157.99 -416.48  142.99 -193.38 
  6847.500 -34.987  2.6350  2.9940  2.9410 -14.987  2.6350  2.9940  2.9410  18.000  6784.9  157.99 -416.62  143.05 -193.45 
  6848.000 -34.626  2.5630  2.9580  2.9410 -14.626  2.5630  2.9580  2.9410  18.000  6785.4  157.99 -416.77  143.11 -193.51 
  6848.500 -34.626  2.5090  2.9220  2.9400 -14.626  2.5090  2.9220  2.9400  18.000  6785.9  157.99 -416.91  143.17 -193.57 
  6849.000 -34.805  2.4560  2.8500  2.9220 -14.805  2.4560  2.8500  2.9220  18.000  6786.4  157.99 -417.05  143.22 -193.63 
  6849.500 -34.984  2.4560  2.8500  2.9040 -14.984  2.4560  2.8500  2.9040  18.000  6786.8  157.99 -417.20  143.28 -193.69 
  6850.000 -35.162  2.4550  2.8500  2.8670 -15.162  2.4550  2.8500  2.8670  18.000  6787.3  157.99 -417.34  143.34 -193.75 
  6850.500 -35.341  2.5620  2.9030  2.8670 -15.341  2.5620  2.9030  2.8670  18.000  6787.8  157.99 -417.48  143.40 -193.81 
  6851.000 -35.520  2.5980  2.9570  2.8670 -15.520  2.5980  2.9570  2.8670  18.000  6788.3  157.99 -417.63  143.46 -193.87 
  6851.500 -35.880  2.6880  3.0100  2.8660 -15.880  2.6880  3.0100  2.8660  18.000  6788.7  157.99 -417.77  143.51 -193.93 
  6852.000 -36.058  2.7770  3.0640  2.9020 -16.058  2.7770  3.0640  2.9020  18.000  6789.2  157.99 -417.91  143.57 -193.99 
  6852.500 -36.236  2.9200  3.0990  2.9370 -16.236  2.9200  3.0990  2.9370  18.000  6789.7  157.99 -418.06  143.63 -194.05 
  6853.000 -35.877  3.0100  3.0990  2.9550 -15.877  3.0100  3.0990  2.9550  18.000  6790.2  157.99 -418.20  143.69 -194.11 
  6853.500 -35.696  3.0990  3.0990  2.9730 -15.696  3.0990  3.0990  2.9730  18.000  6790.6  157.99 -418.34  143.74 -194.17 
  6854.000 -34.976  2.9910  3.0990  3.0260 -14.976  2.9910  3.0990  3.0260  18.000  6791.1  157.99 -418.49  143.80 -194.23 
  6854.500 -34.256  2.9550  3.0450  3.0790 -14.256  2.9550  3.0450  3.0790  18.000  6791.6  157.99 -418.63  143.86 -194.29 
  6855.000 -33.804  2.9010  2.9910  3.1510 -13.804  2.9010  2.9910  3.1510  18.000  6792.1  157.99 -418.77  143.92 -194.35 
  6855.500 -33.353  2.8470  2.9550  3.2220 -13.353  2.8470  2.9550  3.2220  18.000  6792.5  157.99 -418.92  143.98 -194.41 
  6856.000 -32.634  2.8110  2.8830  3.2570 -12.634  2.8110  2.8830  3.2570  18.000  6793.0  157.99 -419.06  144.03 -194.47 
  6856.500 -32.543  2.8110  2.8830  3.2930 -12.543  2.8110  2.8830  3.2930  18.000  6793.5  157.99 -419.20  144.09 -194.53 
  6857.000 -32.451  2.8110  2.8830  3.3280 -12.451  2.8110  2.8830  3.3280  18.000  6794.0  157.99 -419.34  144.15 -194.59 
  6857.500 -32.092  2.8470  2.9540  3.3460 -12.092  2.8470  2.9540  3.3460  18.000  6794.5  157.99 -419.49  144.21 -194.65 
  6858.000 -31.911  2.9540  2.9900  3.3630 -11.911  2.9540  2.9900  3.3630  18.000  6794.9  157.99 -419.63  144.27 -194.71 
  6858.500 -31.910  3.0080  3.0260  3.3630 -11.910  3.0080  3.0260  3.3630  18.000  6795.4  157.99 -419.77  144.32 -194.77 
  6859.000 -31.909  3.0610  3.0970  3.3980 -11.909  3.0610  3.0970  3.3980  18.000  6795.9  157.99 -419.92  144.38 -194.83 
  6859.500 -31.907  3.2400  3.0790  3.4160 -11.907  3.2400  3.0790  3.4160  18.000  6796.4  157.99 -420.06  144.44 -194.89 
  6860.000 -31.728  3.2400  3.0610  3.4340 -11.728  3.2400  3.0610  3.4340  18.000  6796.8  157.99 -420.20  144.50 -194.95 
  6860.500 -31.547  3.2220  3.0250  3.4510 -11.547  3.2220  3.0250  3.4510  18.000  6797.3  157.99 -420.35  144.56 -195.01 
  6861.000 -31.366  3.2040  2.9890  3.4690 -11.366  3.2040  2.9890  3.4690  18.000  6797.8  157.99 -420.49  144.61 -195.07 
  6861.500 -31.184  3.1680  2.9710  3.4690 -11.184  3.1680  2.9710  3.4690  18.000  6798.3  157.99 -420.63  144.67 -195.14 
  6862.000 -30.645  3.1500  2.9530  3.4680 -10.645  3.1500  2.9530  3.4680  18.000  6798.7  157.99 -420.78  144.73 -195.20 
