~Version Information
VERS.                     2.0: CWLS log ASCII Standard Version 2.00
WRAP.                      NO: One line per depth step
~Well Information Block
#MNEM.UNIT                               Data Type  Information
#---------                               ---------  -----------
STRT.FT                                   720.0000:
STOP.FT                                  7270.0000:
STEP.FT                                     0.5000:
NULL.                 -999.25                     :
COMP.                                             :COMPANY            
WELL.     SAN EMIDIO A #34-27                     :WELL               
FLD .                                             :FIELD              
CTRY.                                             :COUNTRY            
STAT.                                             :STATE              
LOC .                                             :LOCATION           
UWI .                                             :UNIQUE WELL ID     
SRVC.                                             :Service company    
DATE.                                             :LOG DATE           
~Curve Information
#MNEM.UNIT           API CODE  Curve Description
#---------           --------  -----------------
DEPT.FT                      :   1 DEPTH
SP  .MV                      :   2
AM10.OHMM                    :   3
AO10.OHMM                    :   4
AO19.OHMM                    :   5
SBL .MV                      :   6
RS  .OHMM                    :   7
RM  .OHMM                    :   8
RD  .OHMM                    :   9
DEVI.DEG                     :  10
TVD .FT                      :  11
AZIM.DEG                     :  12
NORT.FT                      :  13
EAST.FT                      :  14
OFFS.FT                      :  15
~A
   720.000 -71.659 -999.25 -999.25 -0.0720  6.3410 -999.25 -999.25 -0.0720  0.0000  720.00  0.0000  0.0000  0.0000  0.0000 
   720.500 -72.525  4.3480  7.3310  0.0180  5.4750  4.3480  7.3310  0.0180  0.0000  720.50  0.0000  0.0000  0.0000  0.0000 
   721.000 -73.392  4.2390  7.8690  0.1090  4.6080  4.2390  7.8690  0.1090  0.0000  721.00  0.0000  0.0000  0.0000  0.0000 
   721.500 -74.259  4.2380  8.1190  0.1990  3.7410  4.2380  8.1190  0.1990  0.0000  721.50  0.0000  0.0000  0.0000  0.0000 
   722.000 -75.125  4.2730  8.3340  0.2900  2.8750  4.2730  8.3340  0.2900  0.0000  722.00  0.0000  0.0000  0.0000  0.0000 
   722.500 -75.992  4.3800  8.6570  0.3800  2.0080  4.3800  8.6570  0.3800  0.0000  722.50  0.0000  0.0000  0.0000  0.0000 
   723.000 -76.896  4.5230  8.9430  0.4700  1.1040  4.5230  8.9430  0.4700  0.0000  723.00  0.0000  0.0000  0.0000  0.0000 
   723.500 -76.900  4.7370  9.1220  0.5610  1.1000  4.7370  9.1220  0.5610  0.0000  723.50  0.0000  0.0000  0.0000  0.0000 
   724.000 -76.543  5.0600  9.3010  0.6510  1.4570  5.0600  9.3010  0.6510  0.0000  724.00  0.0000  0.0000  0.0000  0.0000 
   724.500 -76.186  5.2030  9.6950  0.7410  1.8140  5.2030  9.6950  0.7410  0.0000  724.50  0.0000  0.0000  0.0000  0.0000 
   725.000 -74.034  5.3460  9.7120  0.8320  3.9660  5.3460  9.7120  0.8320  0.0000  725.00  0.0000  0.0000  0.0000  0.0000 
   725.500 -74.126  5.3810  9.7300  0.9220  3.8740  5.3810  9.7300  0.9220  0.0000  725.50  0.0000  0.0000  0.0000  0.0000 
   726.000 -74.219  5.3800  9.7640  1.1010  3.7810  5.3800  9.7640  1.1010  0.0000  726.00  0.0000  0.0000  0.0000  0.0000 
   726.500 -74.764  5.3430  9.6560  1.4590  3.2360  5.3430  9.6560  1.4590  0.0000  726.50  0.0000  0.0000  0.0000  0.0000 
   727.000 -75.036  5.3420  9.4390  2.0690  2.9640  5.3420  9.4390  2.0690  0.0000  727.00  0.0000  0.0000  0.0000  0.0000 
   727.500 -75.308  5.2330  9.2590  2.7150  2.6920  5.2330  9.2590  2.7150  0.0000  727.50  0.0000  0.0000  0.0000  0.0000 
   728.000 -75.851  5.1610  9.0780  3.6120  2.1490  5.1610  9.0780  3.6120  0.0000  728.00  0.0000  0.0000  0.0000  0.0000 
   728.500 -76.394  5.0880  8.2510  4.8690  1.6060  5.0880  8.2510  4.8690  0.0000  728.50  0.0000  0.0000  0.0000  0.0000 
   729.000 -76.040  4.9080  7.7110  5.5150  1.9600  4.9080  7.7110  5.5150  0.0000  729.00  0.0000  0.0000  0.0000  0.0000 
   729.500 -75.504  4.7270  7.2780  6.1790  2.4960  4.7270  7.2780  6.1790  0.0000  729.50  0.0000  0.0000  0.0000  0.0000 
   730.000 -74.609  4.4030  7.0260  6.8430  3.3910  4.4030  7.0260  6.8430  0.0000  730.00  0.0000  0.0000  0.0000  0.0000 
   730.500 -73.893  3.7540  6.9170  6.7700  4.1070  3.7540  6.9170  6.7700  0.0000  730.50  0.0000  0.0000  0.0000  0.0000 
   731.000 -73.806  3.3220  6.7720  6.8050  4.1940  3.3220  6.7720  6.8050  0.0000  731.00  0.0000  0.0000  0.0000  0.0000 
   731.500 -73.718  3.1420  6.7000  6.8390  4.2820  3.1420  6.7000  6.8390  0.0000  731.50  0.0000  0.0000  0.0000  0.0000 
   732.000 -74.263  3.0690  6.5550  7.0180  3.7370  3.0690  6.5550  7.0180  0.0000  732.00  0.0000  0.0000  0.0000  0.0000 
   732.500 -74.625  3.1220  6.5180  7.1970  3.3750  3.1220  6.5180  7.1970  0.0000  732.50  0.0000  0.0000  0.0000  0.0000 
   733.000 -74.987  3.1750  6.6610  7.3760  3.0130  3.1750  6.6610  7.3760  0.0000  733.00  0.0000  0.0000  0.0000  0.0000 
   733.500 -76.072  3.3540  6.8400  7.7330  1.9280  3.3540  6.8400  7.7330  0.0000  733.50  0.0000  0.0000  0.0000  0.0000 
   734.000 -77.154  3.4250  6.8750  7.7680  0.8460  3.4250  6.8750  7.7680  0.0000  734.00  0.0000  0.0000  0.0000  0.0000 
   734.500 -78.596  3.6040  6.8740  7.8040 -0.5960  3.6040  6.8740  7.8040  0.0000  734.50  0.0000  0.0000  0.0000  0.0000 
   735.000 -78.600  3.6390  6.8730  7.8560 -0.6000  3.6390  6.8730  7.8560  0.0000  735.00  0.0000  0.0000  0.0000  0.0000 
   735.500 -78.422  3.7100  6.8720  7.9090 -0.4220  3.7100  6.8720  7.9090  0.0000  735.50  0.0000  0.0000  0.0000  0.0000 
   736.000 -78.245  3.7450  6.8720  8.0160 -0.2450  3.7450  6.8720  8.0160  0.0000  736.00  0.0000  0.0000  0.0000  0.0000 
   736.500 -77.532  3.8160  6.8710  8.0860  0.4680  3.8160  6.8710  8.0860  0.0000  736.50  0.0000  0.0000  0.0000  0.0000 
   737.000 -77.355  3.9220  6.8700  8.1390  0.6450  3.9220  6.8700  8.1390  0.0000  737.00  0.0000  0.0000  0.0000  0.0000 
   737.500 -77.358  3.9580  6.9410  8.1920  0.6420  3.9580  6.9410  8.1920  0.0000  737.50  0.0000  0.0000  0.0000  0.0000 
   738.000 -77.360  3.9930  7.0120  8.4070  0.6400  3.9930  7.0120  8.4070  0.0000  738.00  0.0000  0.0000  0.0000  0.0000 
   738.500 -77.546  3.9920  7.1180  8.5130  0.4540  3.9920  7.1180  8.5130  0.0000  738.50  0.0000  0.0000  0.0000  0.0000 
   739.000 -78.089  4.0450  7.1900  8.7640 -0.0890  4.0450  7.1900  8.7640  0.0000  739.00  0.0000  0.0000  0.0000  0.0000 
   739.500 -80.252  4.0980  7.2610  8.9420 -2.2797  4.0980  7.2610  8.9420  0.0000  739.50  0.0000  0.0000  0.0000  0.0000 
   740.000 -81.334  4.3480  7.4750  9.2290 -3.3894  4.3480  7.4750  9.2290  0.0000  740.00  0.0000  0.0000  0.0000  0.0000 
   740.500 -82.596  4.5270  7.6180  9.4440 -4.6791  4.5270  7.6180  9.4440  0.0000  740.50  0.0000  0.0000  0.0000  0.0000 
   741.000 -83.139  4.8500  7.7250  9.6580 -5.2498  4.8500  7.7250  9.6580  0.0000  741.00  0.0000  0.0000  0.0000  0.0000 
   741.500 -83.323  4.8310  7.8680  9.5850 -5.4615  4.8310  7.8680  9.5850  0.0000  741.50  0.0000  0.0000  0.0000  0.0000 
   742.000 -83.235  4.8120  7.6870  9.3690 -5.4012  4.8120  7.6870  9.3690  0.0000  742.00  0.0000  0.0000  0.0000  0.0000 
   742.500 -83.148  4.6500  7.3270  8.9360 -5.3418  4.6500  7.3270  8.9360  0.0000  742.50  0.0000  0.0000  0.0000  0.0000 
   743.000 -82.614  4.4870  7.1460  8.7190 -4.8355  4.4870  7.1460  8.7190  0.0000  743.00  0.0000  0.0000  0.0000  0.0000 
   743.500 -81.899  4.2700  6.8940  8.2150 -4.1482  4.2700  6.8940  8.2150  0.0000  743.50  0.0000  0.0000  0.0000  0.0000 
   744.000 -81.183  4.1620  6.7670  7.9620 -3.4599  4.1620  6.7670  7.9620  0.0000  744.00  0.0000  0.0000  0.0000  0.0000 
   744.500 -80.736  4.0530  6.6410  7.7820 -3.0406  4.0530  6.6410  7.7820  0.0000  744.50  0.0000  0.0000  0.0000  0.0000 
   745.000 -80.289  3.8000  6.4240  7.5650 -2.6213  3.8000  6.4240  7.5650  0.0000  745.00  0.0000  0.0000  0.0000  0.0000 
   745.500 -79.935  3.5840  6.1350  7.4740 -2.2950  3.5840  6.1350  7.4740  0.0000  745.50  0.0000  0.0000  0.0000  0.0000 
   746.000 -79.939  3.5110  6.1350  7.3840 -2.3267  3.5110  6.1350  7.3840  0.0000  746.00  0.0000  0.0000  0.0000  0.0000 
   746.500 -79.762  3.4390  6.1340  7.3100 -2.1774  3.4390  6.1340  7.3100  0.0000  746.50  0.0000  0.0000  0.0000  0.0000 
   747.000 -79.766  3.3660  6.3120  7.4350 -2.2091  3.3660  6.3120  7.4350  0.0000  747.00  0.0000  0.0000  0.0000  0.0000 
   747.500 -79.949  3.4370  6.4550  7.5600 -2.4198  3.4370  6.4550  7.5600  0.0000  747.50  0.0000  0.0000  0.0000  0.0000 
   748.000 -79.953  3.5080  6.5270  7.7570 -2.4515  3.5080  6.5270  7.7570  0.0000  748.00  0.0000  0.0000  0.0000  0.0000 
   748.500 -80.316  3.7580  6.5980  7.9530 -2.8422  3.7580  6.5980  7.9530  0.0000  748.50  0.0000  0.0000  0.0000  0.0000 
   749.000 -80.498  4.0090  6.8840  8.1670 -3.0518  4.0090  6.8840  8.1670  0.0000  749.00  0.0000  0.0000  0.0000  0.0000 
   749.500 -80.681  4.1880  7.0630  8.5260 -3.2625  4.1880  7.0630  8.5260  0.0000  749.50  0.0000  0.0000  0.0000  0.0000 
   750.000 -81.046  4.3670  7.0800  8.2730 -3.6552  4.3670  7.0800  8.2730  0.0000  750.00  0.0000  0.0000  0.0000  0.0000 
   750.500 -81.138  4.4370  7.0970  7.9130 -3.7749  4.4370  7.0970  7.9130  0.0000  750.50  0.0000  0.0000  0.0000  0.0000 
   751.000 -81.231  4.3110  6.9520  7.6960 -3.8956  4.3110  6.9520  7.6960  0.0000  751.00  0.0000  0.0000  0.0000  0.0000 
   751.500 -81.236  4.1850  6.8070  7.4790 -3.9283  4.1850  6.8070  7.4790  0.0000  751.50  0.0000  0.0000  0.0000  0.0000 
   752.000 -81.239  3.8590  6.6990  7.2980 -3.9590  3.8590  6.6990  7.2980  0.0000  752.00  0.0000  0.0000  0.0000  0.0000 
