~Version Information
VERS.                     2.0: CWLS log ASCII Standard Version 2.00
WRAP.                      NO: One line per depth step
~Well Information Block
#MNEM.UNIT                               Data Type  Information
#---------                               ---------  -----------
STRT.FT                                   720.0000:
STOP.FT                                  7270.0000:
STEP.FT                                     0.5000:
NULL.                 -999.25                     :
COMP.                                             :COMPANY            
WELL.     SAN EMIDIO A #34-27                     :WELL               
FLD .                                             :FIELD              
CTRY.                                             :COUNTRY            
STAT.                                             :STATE              
LOC .                                             :LOCATION           
UWI .                                             :UNIQUE WELL ID     
SRVC.                                             :Service company    
DATE.                                             :LOG DATE           
~Curve Information
#MNEM.UNIT           API CODE  Curve Description
#---------           --------  -----------------
DEPT.FT                      :   1 DEPTH
SP  .MV                      :   2
AM10.OHMM                    :   3
AO10.OHMM                    :   4
AO19.OHMM                    :   5
SBL .MV                      :   6
RS  .OHMM                    :   7
RM  .OHMM                    :   8
RD  .OHMM                    :   9
DEVI.DEG                     :  10
TVD .FT                      :  11
AZIM.DEG                     :  12
NORT.FT                      :  13
EAST.FT                      :  14
OFFS.FT                      :  15
~A
# ...
  6375.000 -25.899  1.5770  2.1140  1.4340 -5.8990  1.5770  2.1140  1.4340  20.250  6336.9  156.24 -278.21  85.564 -136.22 
  6375.500 -25.992  1.5400  2.0780  1.3970 -5.9920  1.5400  2.0780  1.3970  20.250  6337.4  156.21 -278.37  85.634 -136.29 
  6376.000 -26.085  1.5040  2.0420  1.4320 -6.0850  1.5040  2.0420  1.4320  20.250  6337.8  156.18 -278.53  85.704 -136.35 
  6376.500 -26.090  1.4670  1.9870  1.4850 -6.0900  1.4670  1.9870  1.4850  20.250  6338.3  156.16 -278.69  85.774 -136.41 
  6377.000 -26.094  1.3950  1.9330  1.5380 -6.0940  1.3950  1.9330  1.5380  20.250  6338.8  156.13 -278.85  85.844 -136.47 
  6377.500 -25.917  1.3760  1.9500  1.7520 -5.9170  1.3760  1.9500  1.7520  20.250  6339.2  156.10 -279.00  85.914 -136.54 
  6378.000 -25.741  1.3580  1.9670  2.0030 -5.7410  1.3580  1.9670  2.0030  20.250  6339.7  156.07 -279.16  85.984 -136.60 
  6378.500 -25.565  1.3570  2.0380  2.2530 -5.5650  1.3570  2.0380  2.2530  20.250  6340.2  156.04 -279.32  86.054 -136.66 
  6379.000 -25.388  1.3560  2.0370  2.5030 -5.3880  1.3560  2.0370  2.5030  20.250  6340.6  156.01 -279.48  86.125 -136.72 
  6379.500 -25.211  1.3550  2.0720  2.5380 -5.2110  1.3550  2.0720  2.5380  20.250  6341.1  155.99 -279.64  86.195 -136.78 
  6380.000 -25.035  1.3550  2.0710  2.5730 -5.0350  1.3550  2.0710  2.5730  20.250  6341.6  155.96 -279.80  86.266 -136.85 
  6380.500 -24.859  1.3540  2.0710  2.5370 -4.8590  1.3540  2.0710  2.5370  20.250  6342.0  155.93 -279.95  86.336 -136.91 
  6381.000 -24.952  1.3530  2.0700  2.5360 -4.9520  1.3530  2.0700  2.5360  20.250  6342.5  155.90 -280.11  86.407 -136.97 
  6381.500 -25.046  1.3530  2.0690  2.4990 -5.0460  1.3530  2.0690  2.4990  20.250  6343.0  155.87 -280.27  86.478 -137.03 
  6382.000 -25.410  1.3520  2.0870  2.4630 -5.4100  1.3520  2.0870  2.4630  20.250  6343.5  155.84 -280.43  86.549 -137.09 
  6382.500 -25.594  1.3510  2.1040  2.4440 -5.5940  1.3510  2.1040  2.4440  20.250  6343.9  155.82 -280.58  86.619 -137.15 
  6383.000 -25.597  1.3510  2.1030  2.4260 -5.5970  1.3510  2.1030  2.4260  20.250  6344.4  155.79 -280.74  86.690 -137.22 
  6383.500 -25.601  1.3500  2.1020  2.3890 -5.6010  1.3500  2.1020  2.3890  20.250  6344.9  155.76 -280.90  86.761 -137.28 
  6384.000 -25.694  1.3490  2.1020  2.3530 -5.6940  1.3490  2.1020  2.3530  20.250  6345.3  155.73 -281.06  86.833 -137.34 
  6384.500 -25.787  1.3480  2.1010  2.3160 -5.7870  1.3480  2.1010  2.3160  20.250  6345.8  155.70 -281.22  86.904 -137.40 
  6385.000 -25.791  1.3480  2.1000  2.2790 -5.7910  1.3480  2.1000  2.2790  20.250  6346.3  155.67 -281.37  86.975 -137.46 
  6385.500 -25.794  1.3110  2.0640  2.2430 -5.7940  1.3110  2.0640  2.2430  20.250  6346.7  155.65 -281.53  87.046 -137.52 
  6386.000 -25.797  1.2740  1.9910  2.2060 -5.7970  1.2740  1.9910  2.2060  20.250  6347.2  155.62 -281.69  87.118 -137.58 
  6386.500 -25.802  1.2380  1.9550  2.1880 -5.8020  1.2380  1.9550  2.1880  20.250  6347.7  155.59 -281.85  87.189 -137.64 
  6387.000 -25.715  1.2010  1.9360  2.1690 -5.7150  1.2010  1.9360  2.1690  20.250  6348.1  155.56 -282.00  87.261 -137.70 
  6387.500 -25.628  1.1650  1.9180  2.1510 -5.6280  1.1650  1.9180  2.1510  20.250  6348.6  155.53 -282.16  87.333 -137.76 
  6388.000 -25.632  1.1640  1.8810  2.1320 -5.6320  1.1640  1.8810  2.1320  20.250  6349.1  155.51 -282.32  87.404 -137.83 
  6388.500 -25.635  1.1990  1.8450  2.0950 -5.6350  1.1990  1.8450  2.0950  20.250  6349.6  155.48 -282.48  87.476 -137.89 
  6389.000 -26.001  1.2340  1.7720  2.0590 -6.0010  1.2340  1.7720  2.0590  20.250  6350.0  155.45 -282.63  87.548 -137.95 
  6389.500 -26.185  1.2520  1.7710  2.0940 -6.1850  1.2520  1.7710  2.0940  20.250  6350.5  155.42 -282.79  87.620 -138.01 
  6390.000 -26.368  1.2690  1.7710  2.1290 -6.3680  1.2690  1.7710  2.1290  20.250  6351.0  155.39 -282.95  87.692 -138.07 
  6390.500 -26.552  1.3400  1.7340  2.2000 -6.5520  1.3400  1.7340  2.2000  20.250  6351.4  155.36 -283.11  87.764 -138.13 
  6391.000 -27.275  1.3750  1.6970  2.2170 -7.2750  1.3750  1.6970  2.2170  20.250  6351.9  155.34 -283.26  87.837 -138.19 
  6391.500 -27.818  1.4100  1.7150  2.2350 -7.8180  1.4100  1.7150  2.2350  20.250  6352.4  155.31 -283.42  87.909 -138.25 
  6392.000 -28.720  1.4450  1.7320  2.3770 -8.7200  1.4450  1.7320  2.3770  20.250  6352.8  155.28 -283.58  87.981 -138.31 
  6392.500 -30.163  1.4440  1.7310  2.4120 -10.163  1.4440  1.7310  2.4120  20.250  6353.3  155.25 -283.73  88.054 -138.37 
  6393.000 -32.504  1.5510  1.7840  2.5550 -12.504  1.5510  1.7840  2.5550  20.250  6353.8  155.22 -283.89  88.126 -138.43 
  6393.500 -34.846  1.7300  1.8370  2.6610 -14.846  1.7300  1.8370  2.6610  20.250  6354.2  155.19 -284.05  88.199 -138.49 
  6394.000 -38.267  2.0870  2.0510  2.7320 -18.267  2.0870  2.0510  2.7320  20.250  6354.7  155.17 -284.21  88.272 -138.55 
  6394.500 -42.946  2.2300  2.1940  2.9110 -22.946  2.2300  2.1940  2.9110  20.250  6355.2  155.14 -284.36  88.344 -138.61 
  6395.000 -52.303  2.8390  2.3010  3.0000 -32.303  2.8390  2.3010  3.0000  20.250  6355.6  155.11 -284.52  88.417 -138.67 
  6395.500 -72.630  4.1640  2.3720  3.0890 -52.630  4.1640  2.3720  3.0890  20.250  6356.1  155.08 -284.68  88.490 -138.73 
  6396.000 -84.504  4.7010  2.4430  3.2320 -64.504  4.7010  2.4430  3.2320  20.250  6356.6  155.05 -284.83  88.563 -138.78 
  6396.500 -89.724  5.1300  2.6570  3.3740 -69.724  5.1300  2.6570  3.3740  20.250  6357.1  155.02 -284.99  88.636 -138.84 
  6397.000 -94.043  5.9180  2.8000  3.4450 -74.043  5.9180  2.8000  3.4450  20.250  6357.5  155.00 -285.15  88.709 -138.90 
  6397.500 -94.946  7.5660  2.9070  3.5160 -74.946  7.5660  2.9070  3.5160  20.243  6358.0  155.02 -285.30  88.782 -138.96 
  6398.000 -94.950  7.9240  3.0130  3.5510 -74.950  7.9240  3.0130  3.5510  20.235  6358.5  155.03 -285.46  88.855 -139.02 
  6398.500 -94.234  7.9950  3.0840  3.5680 -74.234  7.9950  3.0840  3.5680  20.228  6358.9  155.05 -285.62  88.928 -139.08 
  6399.000 -92.619  7.9940  3.1200  3.5860 -72.619  7.9940  3.1200  3.5860  20.221  6359.4  155.07 -285.77  89.001 -139.14 
  6399.500 -90.465  7.8500  3.1550  3.5850 -70.465  7.8500  3.1550  3.5850  20.213  6359.9  155.09 -285.93  89.074 -139.20 
  6400.000 -87.051  7.5980  3.1540  3.5120 -67.051  7.5980  3.1540  3.5120  20.206  6360.3  155.11 -286.09  89.147 -139.26 
  6400.500 -82.739  6.8450  3.0820  3.4050 -62.739  6.8450  3.0820  3.4050  20.199  6360.8  155.13 -286.24  89.219 -139.32 
  6401.000 -76.809  6.5230  3.0460  3.3510 -56.809  6.5230  3.0460  3.3510  20.191  6361.3  155.15 -286.40  89.292 -139.38 
  6401.500 -74.114  5.7340  3.0100  3.2970 -54.114  5.7340  3.0100  3.2970  20.184  6361.7  155.17 -286.56  89.364 -139.44 
  6402.000 -71.421  5.1060  2.8300  3.0820 -51.421  5.1060  2.8300  3.0820  20.176  6362.2  155.19 -286.71  89.436 -139.50 
  6402.500 -49.124  4.4790  2.6150  2.7950 -29.124  4.4790  2.6150  2.7950  20.169  6362.7  155.21 -286.87  89.509 -139.56 
  6403.000 -48.049  3.6540  2.1480  2.5790 -28.049  3.6540  2.1480  2.5790  20.162  6363.2  155.23 -287.03  89.581 -139.62 
  6403.500 -42.658  3.3670  2.0400  2.2930 -22.658  3.3670  2.0400  2.2930  20.154  6363.6  155.25 -287.18  89.653 -139.68 
  6404.000 -39.245  3.1510  1.8610  2.0770 -19.245  3.1510  1.8610  2.0770  20.147  6364.1  155.27 -287.34  89.725 -139.73 
  6404.500 -36.012  2.8280  1.7530  1.9700 -16.012  2.8280  1.7530  1.9700  20.140  6364.6  155.29 -287.50  89.797 -139.79 
  6405.000 -28.643  2.5050  1.7530  1.8620 -8.6430  2.5050  1.7530  1.8620  20.132  6365.0  155.31 -287.65  89.869 -139.85 
  6405.500 -24.871  2.1110  1.7880  1.8260 -4.8710  2.1110  1.7880  1.8260  20.125  6365.5  155.33 -287.81  89.941 -139.91 
  6406.000 -24.156  1.8240  1.8060  1.7540 -4.1560  1.8240  1.8060  1.7540  20.118  6366.0  155.35 -287.97  90.012 -139.97 
  6406.500 -23.621  1.6080  1.8240  1.7180 -3.6210  1.6080  1.8240  1.7180  20.110  6366.4  155.37 -288.12  90.084 -140.03 
  6407.000 -23.266  1.5900  1.8590  1.7180 -3.2660  1.5900  1.8590  1.7180  20.103  6366.9  155.39 -288.28  90.156 -140.09 
