~Version Information
VERS.                     2.0: CWLS log ASCII Standard Version 2.00
WRAP.                      NO: One line per depth step
~Well Information Block
#MNEM.UNIT                               Data Type  Information
#---------                               ---------  -----------
STRT.FT                                   720.0000:
STOP.FT                                  7270.0000:
STEP.FT                                     0.5000:
NULL.                 -999.25                     :
COMP.                                             :COMPANY            
WELL.     SAN EMIDIO A #34-27                     :WELL               
FLD .                                             :FIELD              
CTRY.                                             :COUNTRY            
STAT.                                             :STATE              
LOC .                                             :LOCATION           
UWI .                                             :UNIQUE WELL ID     
SRVC.                                             :Service company    
DATE.                                             :LOG DATE           
~Curve Information
#MNEM.UNIT           API CODE  Curve Description
#---------           --------  -----------------
DEPT.FT                      :   1 DEPTH
SP  .MV                      :   2
AM10.OHMM                    :   3
AO10.OHMM                    :   4
AO19.OHMM                    :   5
SBL .MV                      :   6
RS  .OHMM                    :   7
RM  .OHMM                    :   8
RD  .OHMM                    :   9
DEVI.DEG                     :  10
TVD .FT                      :  11
AZIM.DEG                     :  12
NORT.FT                      :  13
EAST.FT                      :  14
OFFS.FT                      :  15
~A
# ...
  4197.500 -37.124  3.6840  4.5430  4.2920 -11.124  3.6840  4.5430  4.2920  0.0000  4197.5  0.0000  0.0000  0.0000  0.0000 
  4198.000 -34.788  3.5410  4.2560  4.0060 -8.7880  3.5410  4.2560  4.0060  0.0000  4198.0  0.0000  0.0000  0.0000  0.0000 
  4198.500 -33.172  3.3260  4.0770  3.7550 -7.1720  3.3260  4.0770  3.7550  0.0000  4198.5  0.0000  0.0000  0.0000  0.0000 
  4199.000 -32.275  3.1470  3.8620  3.6110 -6.2750  3.1470  3.8620  3.6110  0.0000  4199.0  0.0000  0.0000  0.0000  0.0000 
  4199.500 -32.456  3.0030  3.7900  3.7900 -6.4560  3.0030  3.7900  3.7900  0.0000  4199.5  0.0000  0.0000  0.0000  0.0000 
  4200.000 -32.997  2.9310  3.7180  3.9320 -6.9970  2.9310  3.7180  3.9320  0.0000  4200.0  0.0000  0.0000  0.0000  0.0000 
  4200.500 -34.257  2.8590  3.6810  3.9670 -8.2570  2.8590  3.6810  3.9670  0.0000  4200.5  0.0000  0.0000  0.0000  0.0000 
  4201.000 -35.337  3.0380  3.7170  4.0030 -9.3370  3.0380  3.7170  4.0030  0.0000  4201.0  0.0000  0.0000  0.0000  0.0000 
  4201.500 -36.237  3.1090  3.7160  4.1450 -10.237  3.1090  3.7160  4.1450  0.0000  4201.5  0.0000  0.0000  0.0000  0.0000 
  4202.000 -37.676  3.2340  3.7880  4.2340 -11.676  3.2340  3.7880  4.2340  0.0000  4202.0  0.0000  0.0000  0.0000  0.0000 
  4202.500 -39.295  3.3580  3.8590  4.3230 -13.295  3.3580  3.8590  4.3230  0.0000  4202.5  0.0000  0.0000  0.0000  0.0000 
  4203.000 -41.454  3.5720  3.8940  4.4290 -15.454  3.5720  3.8940  4.4290  0.0000  4203.0  0.0000  0.0000  0.0000  0.0000 
  4203.500 -42.714  3.7150  3.8940  4.4640 -16.714  3.7150  3.8940  4.4640  0.0000  4203.5  0.0000  0.0000  0.0000  0.0000 
  4204.000 -41.456  3.8580  3.8930  4.3750 -15.456  3.8580  3.8930  4.3750  0.0000  4204.0  0.0000  0.0000  0.0000  0.0000 
  4204.500 -40.198  4.2150  3.8750  4.2850 -14.198  4.2150  3.8750  4.2850  0.0000  4204.5  0.0000  0.0000  0.0000  0.0000 
  4205.000 -37.861  4.0710  3.8570  4.1410 -11.861  4.0710  3.8570  4.1410  0.0000  4205.0  0.0000  0.0000  0.0000  0.0000 
  4205.500 -36.604  3.9280  3.8570  4.0690 -10.604  3.9280  3.8570  4.0690  0.0000  4205.5  0.0000  0.0000  0.0000  0.0000 
  4206.000 -33.727  3.7130  3.8560  3.9970 -7.7270  3.7130  3.8560  3.9970  0.0000  4206.0  0.0000  0.0000  0.0000  0.0000 
  4206.500 -33.009  3.4980  3.8560  3.8540 -7.0090  3.4980  3.8560  3.8540  0.0000  4206.5  0.0000  0.0000  0.0000  0.0000 
  4207.000 -32.111  3.3370  3.8560  3.8530 -6.1110  3.3370  3.8560  3.8530  0.0000  4207.0  0.0000  0.0000  0.0000  0.0000 
  4207.500 -32.201  3.1760  3.8550  3.8530 -6.2010  3.1760  3.8550  3.8530  0.0000  4207.5  0.0000  0.0000  0.0000  0.0000 
  4208.000 -32.292  3.1040  3.8550  3.9590 -6.2920  3.1040  3.8550  3.9590  0.0000  4208.0  0.0000  0.0000  0.0000  0.0000 
  4208.500 -32.292  3.0320  3.8540  3.9230 -6.2920  3.0320  3.8540  3.9230  0.0000  4208.5  0.0000  0.0000  0.0000  0.0000 
  4209.000 -32.293  3.0140  3.8540  3.9050 -6.2930  3.0140  3.8540  3.9050  0.0000  4209.0  0.0000  0.0000  0.0000  0.0000 
  4209.500 -32.115  2.9960  3.8540  3.8860 -6.1150  2.9960  3.8540  3.8860  0.0000  4209.5  0.0000  0.0000  0.0000  0.0000 
  4210.000 -31.936  2.9600  3.8180  3.7780 -5.9360  2.9600  3.8180  3.7780  0.0000  4210.0  0.0000  0.0000  0.0000  0.0000 
  4210.500 -31.757  2.9240  3.8170  3.7060 -5.7570  2.9240  3.8170  3.7060  0.0000  4210.5  0.0000  0.0000  0.0000  0.0000 
  4211.000 -31.578  2.8520  3.8170  3.5630 -5.5780  2.8520  3.8170  3.5630  0.0000  4211.0  0.0000  0.0000  0.0000  0.0000 
  4211.500 -31.399  2.7800  3.8170  3.4910 -5.3990  2.7800  3.8170  3.4910  0.0000  4211.5  0.0000  0.0000  0.0000  0.0000 
  4212.000 -31.041  2.7080  3.8160  3.4900 -5.0410  2.7080  3.8160  3.4900  0.0000  4212.0  0.0000  0.0000  0.0000  0.0000 
  4212.500 -30.952  2.6190  3.8160  3.4900 -4.9520  2.6190  3.8160  3.4900  0.0000  4212.5  0.0000  0.0000  0.0000  0.0000 
  4213.000 -30.863  2.5290  3.8510  3.5790 -4.8630  2.5290  3.8510  3.5790  0.0000  4213.0  0.0000  0.0000  0.0000  0.0000 
  4213.500 -30.684  2.4570  3.8870  3.6680 -4.6840  2.4570  3.8870  3.6680  0.0000  4213.5  0.0000  0.0000  0.0000  0.0000 
  4214.000 -30.684  2.5640  3.9940  3.8100 -4.6840  2.5640  3.9940  3.8100  0.0000  4214.0  0.0000  0.0000  0.0000  0.0000 
  4214.500 -30.685  2.7420  4.1010  3.9170 -4.6850  2.7420  4.1010  3.9170  0.0000  4214.5  0.0000  0.0000  0.0000  0.0000 
  4215.000 -31.135  2.8490  4.1720  4.0230 -5.1350  2.8490  4.1720  4.0230  0.0000  4215.0  0.0000  0.0000  0.0000  0.0000 
  4215.500 -31.586  3.0990  4.2430  4.1120 -5.5860  3.0990  4.2430  4.1120  0.0000  4215.5  0.0000  0.0000  0.0000  0.0000 
  4216.000 -32.216  3.2770  4.3500  4.2010 -6.2160  3.2770  4.3500  4.2010  0.0000  4216.0  0.0000  0.0000  0.0000  0.0000 
  4216.500 -32.846  3.4560  4.4570  4.4150 -6.8460  3.4560  4.4570  4.4150  0.0000  4216.5  0.0000  0.0000  0.0000  0.0000 
  4217.000 -34.646  3.7050  4.4920  4.4680 -8.6460  3.7050  4.4920  4.4680  0.0000  4217.0  0.0000  0.0000  0.0000  0.0000 
  4217.500 -35.366  3.8480  4.5270  4.5210 -9.3660  3.8480  4.5270  4.5210  0.0000  4217.5  0.0000  0.0000  0.0000  0.0000 
  4218.000 -36.266  3.9910  4.4550  4.3770 -10.266  3.9910  4.4550  4.3770  0.0000  4218.0  0.0000  0.0000  0.0000  0.0000 
  4218.500 -37.166  3.9550  4.4190  4.3050 -11.166  3.9550  4.4190  4.3050  0.0000  4218.5  0.0000  0.0000  0.0000  0.0000 
  4219.000 -38.067  3.8110  4.3830  4.2330 -12.067  3.8110  4.3830  4.2330  0.0000  4219.0  0.0000  0.0000  0.0000  0.0000 
  4219.500 -35.909  3.6680  4.3470  4.0180 -9.9090  3.6680  4.3470  4.0180  0.0000  4219.5  0.0000  0.0000  0.0000  0.0000 
  4220.000 -34.112  3.4710  4.2930  3.9460 -8.1120  3.4710  4.2930  3.9460  0.0000  4220.0  0.0000  0.0000  0.0000  0.0000 
  4220.500 -33.214  3.2740  4.2390  3.9990 -7.2140  3.2740  4.2390  3.9990  0.0000  4220.5  0.0000  0.0000  0.0000  0.0000 
  4221.000 -34.114  2.9520  4.0960  4.0530 -8.1140  2.9520  4.0960  4.0530  0.0000  4221.0  0.0000  0.0000  0.0000  0.0000 
  4221.500 -36.453  2.8090  4.0240  4.2310 -10.453  2.8090  4.0240  4.2310  0.0000  4221.5  0.0000  0.0000  0.0000  0.0000 
  4222.000 -37.893  2.8800  3.9520  4.2120 -11.893  2.8800  3.9520  4.2120  0.0000  4222.0  0.0000  0.0000  0.0000  0.0000 
  4222.500 -39.692  3.0940  4.0230  4.1940 -13.692  3.0940  4.0230  4.1940  0.0000  4222.5  0.0000  0.0000  0.0000  0.0000 
  4223.000 -39.153  3.3440  4.0590  4.1220 -13.153  3.3440  4.0590  4.1220  0.0000  4223.0  0.0000  0.0000  0.0000  0.0000 
  4223.500 -38.435  3.4510  4.0230  4.0140 -12.435  3.4510  4.0230  4.0140  0.0000  4223.5  0.0000  0.0000  0.0000  0.0000 
  4224.000 -37.626  3.2360  3.9870  3.9420 -11.626  3.2360  3.9870  3.9420  0.0000  4224.0  0.0000  0.0000  0.0000  0.0000 
  4224.500 -36.817  3.1280  3.8070  3.9410 -10.817  3.1280  3.8070  3.9410  0.0000  4224.5  0.0000  0.0000  0.0000  0.0000 
  4225.000 -37.717  3.0380  3.8070  3.9410 -11.717  3.0380  3.8070  3.9410  0.0000  4225.0  0.0000  0.0000  0.0000  0.0000 
  4225.500 -38.617  2.9490  3.8070  4.0480 -12.617  2.9490  3.8070  4.0480  0.0000  4225.5  0.0000  0.0000  0.0000  0.0000 
  4226.000 -41.496  3.0910  3.9850  4.1540 -15.496  3.0910  3.9850  4.1540  0.0000  4226.0  0.0000  0.0000  0.0000  0.0000 
  4226.500 -43.834  3.3410  4.0560  4.1900 -17.834  3.3410  4.0560  4.1900  0.0000  4226.5  0.0000  0.0000  0.0000  0.0000 
  4227.000 -45.634  3.4480  4.0910  4.1000 -19.634  3.4480  4.0910  4.1000  0.0000  4227.0  0.0000  0.0000  0.0000  0.0000 
  4227.500 -44.915  3.5730  4.0730  4.0100 -18.915  3.5730  4.0730  4.0100  0.0000  4227.5  0.0000  0.0000  0.0000  0.0000 
  4228.000 -43.298  3.6980  4.0550  3.8840 -17.298  3.6980  4.0550  3.8840  0.0000  4228.0  0.0000  0.0000  0.0000  0.0000 
  4228.500 -41.321  3.5900  3.8940  3.7590 -15.321  3.5900  3.8940  3.7590  0.0000  4228.5  0.0000  0.0000  0.0000  0.0000 
  4229.000 -38.984  3.4830  3.7330  3.5080 -12.984  3.4830  3.7330  3.5080  0.0000  4229.0  0.0000  0.0000  0.0000  0.0000 
  4229.500 -37.187  3.0890  3.6070  3.4180 -11.187  3.0890  3.6070  3.4180  0.0000  4229.5  0.0000  0.0000  0.0000  0.0000 
