~Version Information
VERS.                     2.0: CWLS log ASCII Standard Version 2.00
WRAP.                      NO: One line per depth step
~Well Information Block
#MNEM.UNIT                               Data Type  Information
#---------                               ---------  -----------
STRT.FT                                   720.0000:
STOP.FT                                  7270.0000:
STEP.FT                                     0.5000:
NULL.                 -999.25                     :
COMP.                                             :COMPANY            
WELL.     SAN EMIDIO A #34-27                     :WELL               
FLD .                                             :FIELD              
CTRY.                                             :COUNTRY            
STAT.                                             :STATE              
LOC .                                             :LOCATION           
UWI .                                             :UNIQUE WELL ID     
SRVC.                                             :Service company    
DATE.                                             :LOG DATE           
~Curve Information
#MNEM.UNIT           API CODE  Curve Description
#---------           --------  -----------------
DEPT.FT                      :   1 DEPTH
SP  .MV                      :   2
AM10.OHMM                    :   3
AO10.OHMM                    :   4
AO19.OHMM                    :   5
SBL .MV                      :   6
RS  .OHMM                    :   7
RM  .OHMM                    :   8
RD  .OHMM                    :   9
DEVI.DEG                     :  10
TVD .FT                      :  11
AZIM.DEG                     :  12
NORT.FT                      :  13
EAST.FT                      :  14
OFFS.FT                      :  15
~A
# ...
  2020.000 -56.192  2.0490  3.6260  4.6500 -12.675  2.0490  3.6260  4.6500  0.0000  2020.0  0.0000  0.0000  0.0000  0.0000 
  2020.500 -56.369  2.0490  3.5900  4.6510 -12.860  2.0490  3.5900  4.6510  0.0000  2020.5  0.0000  0.0000  0.0000  0.0000 
  2021.000 -56.009  2.0500  3.4830  4.6870 -12.509  2.0500  3.4830  4.6870  0.0000  2021.0  0.0000  0.0000  0.0000  0.0000 
  2021.500 -54.931  2.0500  3.4110  4.6870 -11.440  2.0500  3.4110  4.6870  0.0000  2021.5  0.0000  0.0000  0.0000  0.0000 
  2022.000 -53.672  2.0320  3.3760  4.7590 -10.189  2.0320  3.3760  4.7590  0.0000  2022.0  0.0000  0.0000  0.0000  0.0000 
  2022.500 -52.953  2.0140  3.3760  4.9380 -9.4789  2.0140  3.3760  4.9380  0.0000  2022.5  0.0000  0.0000  0.0000  0.0000 
  2023.000 -52.952  2.0320  3.3760  5.0820 -9.4865  2.0320  3.3760  5.0820  0.0000  2023.0  0.0000  0.0000  0.0000  0.0000 
  2023.500 -53.131  2.0500  3.4660  5.2250 -9.6741  2.0500  3.4660  5.2250  0.0000  2023.5  0.0000  0.0000  0.0000  0.0000 
  2024.000 -53.489  2.0860  3.5550  5.4760 -10.041  2.0860  3.5550  5.4760  0.0000  2024.0  0.0000  0.0000  0.0000  0.0000 
  2024.500 -54.925  2.1220  3.6630  5.6560 -11.485  2.1220  3.6630  5.6560  0.0000  2024.5  0.0000  0.0000  0.0000  0.0000 
  2025.000 -55.643  2.2300  3.7710  5.7990 -12.212  2.2300  3.7710  5.7990  0.0000  2025.0  0.0000  0.0000  0.0000  0.0000 
  2025.500 -56.900  2.3380  3.9500  5.9430 -13.478  2.3380  3.9500  5.9430  0.0000  2025.5  0.0000  0.0000  0.0000  0.0000 
  2026.000 -57.617  2.5890  4.1290  6.0510 -14.203  2.5890  4.1290  6.0510  0.0000  2026.0  0.0000  0.0000  0.0000  0.0000 
  2026.500 -58.515  2.7320  4.2370  6.1230 -15.110  2.7320  4.2370  6.1230  0.0000  2026.5  0.0000  0.0000  0.0000  0.0000 
  2027.000 -59.412  2.8760  4.3810  6.1410 -16.015  2.8760  4.3810  6.1410  0.0000  2027.0  0.0000  0.0000  0.0000  0.0000 
  2027.500 -61.028  3.0190  4.4160  6.1590 -17.640  3.0190  4.4160  6.1590  0.0000  2027.5  0.0000  0.0000  0.0000  0.0000 
  2028.000 -61.745  3.1630  4.4520  6.1230 -18.366  3.1630  4.4520  6.1230  0.0000  2028.0  0.0000  0.0000  0.0000  0.0000 
  2028.500 -63.182  3.5930  4.4890  5.9800 -19.811  3.5930  4.4890  5.9800  0.0000  2028.5  0.0000  0.0000  0.0000  0.0000 
  2029.000 -62.103  3.6650  4.4890  5.9090 -18.741  3.6650  4.4890  5.9090  0.0000  2029.0  0.0000  0.0000  0.0000  0.0000 
  2029.500 -61.563  3.5570  4.2380  5.6940 -18.210  3.5570  4.2380  5.6940  0.0000  2029.5  0.0000  0.0000  0.0000  0.0000 
  2030.000 -60.305  3.4140  4.0230  5.4440 -16.960  3.4140  4.0230  5.4440  0.0000  2030.0  0.0000  0.0000  0.0000  0.0000 
  2030.500 -59.406  3.2710  3.9160  5.0500 -16.070  3.2710  3.9160  5.0500  0.0000  2030.5  0.0000  0.0000  0.0000  0.0000 
  2031.000 -58.507  2.9850  3.8090  4.7280 -15.179  2.9850  3.8090  4.7280  0.0000  2031.0  0.0000  0.0000  0.0000  0.0000 
  2031.500 -56.709  2.7340  3.2360  4.4060 -13.390  2.7340  3.2360  4.4060  0.0000  2031.5  0.0000  0.0000  0.0000  0.0000 
  2032.000 -53.295  2.5190  2.9850  3.9040 -9.9847  2.5190  2.9850  3.9040  0.0000  2032.0  0.0000  0.0000  0.0000  0.0000 
  2032.500 -51.319  2.3760  2.9500  3.7970 -8.0173  2.3760  2.9500  3.7970  0.0000  2032.5  0.0000  0.0000  0.0000  0.0000 
  2033.000 -52.396  2.1260  3.0210  3.8510 -9.1029  2.1260  3.0210  3.8510  0.0000  2033.0  0.0000  0.0000  0.0000  0.0000 
  2033.500 -52.934  2.0180  3.0930  3.9050 -9.6495  2.0180  3.0930  3.9050  0.0000  2033.5  0.0000  0.0000  0.0000  0.0000 
  2034.000 -53.472  2.0900  3.2010  4.1920 -10.196  2.0900  3.2010  4.1920  0.0000  2034.0  0.0000  0.0000  0.0000  0.0000 
  2034.500 -53.291  2.1260  3.3080  4.3000 -10.024  2.1260  3.3080  4.3000  0.0000  2034.5  0.0000  0.0000  0.0000  0.0000 
  2035.000 -52.751  2.1620  3.4880  4.4080 -9.4924  2.1620  3.4880  4.4080  0.0000  2035.0  0.0000  0.0000  0.0000  0.0000 
  2035.500 -51.673  2.3060  3.5240  4.4440 -8.4230  2.3060  3.5240  4.4440  0.0000  2035.5  0.0000  0.0000  0.0000  0.0000 
  2036.000 -51.312  2.4490  3.5600  4.3540 -8.0706  2.4490  3.5600  4.3540  0.0000  2036.0  0.0000  0.0000  0.0000  0.0000 
  2036.500 -50.773  2.5930  3.5600  4.2650 -7.5402  2.5930  3.5600  4.2650  0.0000  2036.5  0.0000  0.0000  0.0000  0.0000 
  2037.000 -51.670  2.6290  3.5600  4.1040 -8.4459  2.6290  3.5600  4.1040  0.0000  2037.0  0.0000  0.0000  0.0000  0.0000 
  2037.500 -55.082  2.5570  3.5420  3.9430 -11.866  2.5570  3.5420  3.9430  0.0000  2037.5  0.0000  0.0000  0.0000  0.0000 
  2038.000 -55.979  2.4860  3.5250  3.8360 -12.772  2.4860  3.5250  3.8360  0.0000  2038.0  0.0000  0.0000  0.0000  0.0000 
  2038.500 -56.158  2.1990  3.4890  3.7290 -12.960  2.1990  3.4890  3.7290  0.0000  2038.5  0.0000  0.0000  0.0000  0.0000 
  2039.000 -55.798  2.0920  3.4890  3.6570 -12.608  2.0920  3.4890  3.6570  0.0000  2039.0  0.0000  0.0000  0.0000  0.0000 
  2039.500 -54.359  1.9490  3.4710  3.6040 -11.178  1.9490  3.4710  3.6040  0.0000  2039.5  0.0000  0.0000  0.0000  0.0000 
  2040.000 -52.921  1.8770  3.4540  3.5510 -9.7486  1.8770  3.4540  3.5510  0.0000  2040.0  0.0000  0.0000  0.0000  0.0000 
  2040.500 -52.561  1.8060  3.4180  3.4790 -9.3972  1.8060  3.4180  3.4790  0.0000  2040.5  0.0000  0.0000  0.0000  0.0000 
  2041.000 -51.662  1.7700  3.4180  3.4440 -8.5068  1.7700  3.4180  3.4440  0.0000  2041.0  0.0000  0.0000  0.0000  0.0000 
  2041.500 -51.122  1.7350  3.4180  3.4440 -7.9755  1.7350  3.4180  3.4440  0.0000  2041.5  0.0000  0.0000  0.0000  0.0000 
  2042.000 -51.301  1.7350  3.4360  3.4440 -8.1631  1.7350  3.4360  3.4440  0.0000  2042.0  0.0000  0.0000  0.0000  0.0000 
  2042.500 -51.659  1.7350  3.4540  3.4800 -8.5297  1.7350  3.4540  3.4800  0.0000  2042.5  0.0000  0.0000  0.0000  0.0000 
  2043.000 -52.377  1.7350  3.4900  3.5880 -9.2563  1.7350  3.4900  3.5880  0.0000  2043.0  0.0000  0.0000  0.0000  0.0000 
  2043.500 -54.173  1.7710  3.5270  3.7310 -11.061  1.7710  3.5270  3.7310  0.0000  2043.5  0.0000  0.0000  0.0000  0.0000 
  2044.000 -55.609  1.8070  3.6340  3.8030 -12.506  1.8070  3.6340  3.8030  0.0000  2044.0  0.0000  0.0000  0.0000  0.0000 
  2044.500 -56.686  1.8430  3.7060  3.8750 -13.591  1.8430  3.7060  3.8750  0.0000  2044.5  0.0000  0.0000  0.0000  0.0000 
  2045.000 -55.966  1.9150  3.7780  4.0550 -12.880  1.9150  3.7780  4.0550  0.0000  2045.0  0.0000  0.0000  0.0000  0.0000 
  2045.500 -54.888  2.0590  3.8860  4.2340 -11.810  2.0590  3.8860  4.2340  0.0000  2045.5  0.0000  0.0000  0.0000  0.0000 
  2046.000 -56.144  2.2020  3.9580  4.5210 -13.075  2.2020  3.9580  4.5210  0.0000  2046.0  0.0000  0.0000  0.0000  0.0000 
  2046.500 -57.940  2.3100  3.9940  4.6650 -14.880  2.3100  3.9940  4.6650  0.0000  2046.5  0.0000  0.0000  0.0000  0.0000 
  2047.000 -59.196  2.4530  4.1010  4.8440 -16.144  2.4530  4.1010  4.8440  0.0000  2047.0  0.0000  0.0000  0.0000  0.0000 
  2047.500 -58.297  2.5250  4.1190  4.9160 -15.254  2.5250  4.1190  4.9160  0.0000  2047.5  0.0000  0.0000  0.0000  0.0000 
  2048.000 -57.757  2.5970  4.1370  4.9880 -14.723  2.5970  4.1370  4.9880  0.0000  2048.0  0.0000  0.0000  0.0000  0.0000 
  2048.500 -56.140  2.7400  4.2450  4.9880 -13.114  2.7400  4.2450  4.9880  0.0000  2048.5  0.0000  0.0000  0.0000  0.0000 
  2049.000 -55.420  2.8840  4.2450  4.9880 -12.403  2.8840  4.2450  4.9880  0.0000  2049.0  0.0000  0.0000  0.0000  0.0000 
  2049.500 -54.701  3.0630  4.2450  4.9170 -11.692  3.0630  4.2450  4.9170  0.0000  2049.5  0.0000  0.0000  0.0000  0.0000 
  2050.000 -56.317  3.2420  4.2450  4.9170 -13.317  3.2420  4.2450  4.9170  0.0000  2050.0  0.0000  0.0000  0.0000  0.0000 
  2050.500 -59.370  3.4930  4.2450  5.0070 -16.379  3.4930  4.2450  5.0070  0.0000  2050.5  0.0000  0.0000  0.0000  0.0000 
  2051.000 -60.806  3.7440  4.3170  5.0970 -17.823  3.7440  4.3170  5.0970  0.0000  2051.0  0.0000  0.0000  0.0000  0.0000 
  2051.500 -62.242  3.8520  4.3890  5.2050 -19.268  3.8520  4.3890  5.2050  0.0000  2051.5  0.0000  0.0000  0.0000  0.0000 
  2052.000 -62.960  3.9590  4.4610  5.3120 -19.994  3.9590  4.4610  5.3120  0.0000  2052.0  0.0000  0.0000  0.0000  0.0000 
