~Version Information
VERS.                     2.0: CWLS log ASCII Standard Version 2.00
WRAP.                      NO: One line per depth step
~Well Information Block
#MNEM.UNIT                               Data Type  Information
#---------                               ---------  -----------
STRT.FT                                   720.0000:
STOP.FT                                  7270.0000:
STEP.FT                                     0.5000:
NULL.                 -999.25                     :
COMP.                                             :COMPANY            
WELL.     SAN EMIDIO A #34-27                     :WELL               
FLD .                                             :FIELD              
CTRY.                                             :COUNTRY            
STAT.                                             :STATE              
LOC .                                             :LOCATION           
UWI .                                             :UNIQUE WELL ID     
SRVC.                                             :Service company    
DATE.                                             :LOG DATE           
~Curve Information
#MNEM.UNIT           API CODE  Curve Description
#---------           --------  -----------------
DEPT.FT                      :   1 DEPTH
SP  .MV                      :   2
AM10.OHMM                    :   3
AO10.OHMM                    :   4
AO19.OHMM                    :   5
SBL .MV                      :   6
RS  .OHMM                    :   7
RM  .OHMM                    :   8
RD  .OHMM                    :   9
DEVI.DEG                     :  10
TVD .FT                      :  11
AZIM.DEG                     :  12
NORT.FT                      :  13
EAST.FT                      :  14
OFFS.FT                      :  15
~A
# ...
  3775.000 -43.071  2.1470  3.2560  3.9630 -17.071  2.1470  3.2560  3.9630  0.0000  3775.0  0.0000  0.0000  0.0000  0.0000 
  3775.500 -44.062  2.3960  3.3630  4.1050 -18.062  2.3960  3.3630  4.1050  0.0000  3775.5  0.0000  0.0000  0.0000  0.0000 
  3776.000 -45.053  2.7530  3.5760  4.2480 -19.053  2.7530  3.5760  4.2480  0.0000  3776.0  0.0000  0.0000  0.0000  0.0000 
  3776.500 -48.293  3.4680  3.7900  4.3900 -22.293  3.4680  3.7900  4.3900  0.0000  3776.5  0.0000  0.0000  0.0000  0.0000 
  3777.000 -51.530  3.9680  3.9320  4.4610 -25.530  3.9680  3.9320  4.4610  0.0000  3777.0  0.0000  0.0000  0.0000  0.0000 
  3777.500 -55.127  4.2900  4.0030  4.4960 -29.127  4.2900  4.0030  4.4960  0.0000  3777.5  0.0000  0.0000  0.0000  0.0000 
  3778.000 -58.546  4.8610  4.0390  4.5670 -32.546  4.8610  4.0390  4.5670  0.0000  3778.0  0.0000  0.0000  0.0000  0.0000 
  3778.500 -63.580  5.3620  4.0740  4.6030 -37.580  5.3620  4.0740  4.6030  0.0000  3778.5  0.0000  0.0000  0.0000  0.0000 
  3779.000 -66.459  5.6830  4.0730  4.6380 -40.459  5.6830  4.0730  4.6380  0.0000  3779.0  0.0000  0.0000  0.0000  0.0000 
  3779.500 -67.182  5.9680  4.0000  4.6740 -41.182  5.9680  4.0000  4.6740  0.0000  3779.5  0.0000  0.0000  0.0000  0.0000 
  3780.000 -67.725  6.0750  3.9280  4.7090 -41.725  6.0750  3.9280  4.7090  0.0000  3780.0  0.0000  0.0000  0.0000  0.0000 
  3780.500 -67.908  6.0210  3.8200  4.6900 -41.908  6.0210  3.8200  4.6900  0.0000  3780.5  0.0000  0.0000  0.0000  0.0000 
  3781.000 -68.091  5.9670  3.7660  4.6720 -42.091  5.9670  3.7660  4.6720  0.0000  3781.0  0.0000  0.0000  0.0000  0.0000 
  3781.500 -68.277  5.9180  3.7110  4.4920 -42.277  5.9180  3.7110  4.4920  0.0000  3781.5  0.0000  0.0000  0.0000  0.0000 
  3782.000 -68.102  5.8700  3.6750  4.3130 -42.102  5.8700  3.6750  4.3130  0.0000  3782.0  0.0000  0.0000  0.0000  0.0000 
  3782.500 -67.388  5.8210  3.6380  4.1330 -41.388  5.8210  3.6380  4.1330  0.0000  3782.5  0.0000  0.0000  0.0000  0.0000 
  3783.000 -66.674  5.7490  3.5660  4.0790 -40.674  5.7490  3.5660  4.0790  0.0000  3783.0  0.0000  0.0000  0.0000  0.0000 
  3783.500 -65.241  5.6760  3.5650  4.0250 -39.241  5.6760  3.5650  4.0250  0.0000  3783.5  0.0000  0.0000  0.0000  0.0000 
  3784.000 -64.168  5.4970  3.6540  3.9880 -38.168  5.4970  3.6540  3.9880  0.0000  3784.0  0.0000  0.0000  0.0000  0.0000 
  3784.500 -63.274  5.3530  3.7430  3.9880 -37.274  5.3530  3.7430  3.9880  0.0000  3784.5  0.0000  0.0000  0.0000  0.0000 
  3785.000 -61.662  5.0660  3.8140  3.9870 -35.662  5.0660  3.8140  3.9870  0.0000  3785.0  0.0000  0.0000  0.0000  0.0000 
  3785.500 -60.948  5.0650  3.8850  4.0220 -34.948  5.0650  3.8850  4.0220  0.0000  3785.5  0.0000  0.0000  0.0000  0.0000 
  3786.000 -59.695  5.0470  3.9020  3.9500 -33.695  5.0470  3.9020  3.9500  0.0000  3786.0  0.0000  0.0000  0.0000  0.0000 
  3786.500 -58.443  5.0290  3.9190  3.9140 -32.443  5.0290  3.9190  3.9140  0.0000  3786.5  0.0000  0.0000  0.0000  0.0000 
  3787.000 -57.189  4.3830  3.6680  3.8060 -31.189  4.3830  3.6680  3.8060  0.0000  3787.0  0.0000  0.0000  0.0000  0.0000 
  3787.500 -55.935  3.6670  3.4880  3.6270 -29.935  3.6670  3.4880  3.6270  0.0000  3787.5  0.0000  0.0000  0.0000  0.0000 
  3788.000 -53.963  3.1300  3.3090  3.5010 -27.963  3.1300  3.3090  3.5010  0.0000  3788.0  0.0000  0.0000  0.0000  0.0000 
  3788.500 -51.992  2.8430  3.1470  3.3760 -25.992  2.8430  3.1470  3.3760  0.0000  3788.5  0.0000  0.0000  0.0000  0.0000 
  3789.000 -47.865  2.7350  2.9850  3.1960 -21.865  2.7350  2.9850  3.1960  0.0000  3789.0  0.0000  0.0000  0.0000  0.0000 
  3789.500 -42.302  2.5910  2.9670  3.0170 -16.302  2.5910  2.9670  3.0170  0.0000  3789.5  0.0000  0.0000  0.0000  0.0000 
  3790.000 -42.126  2.4480  2.9480  2.9800 -16.126  2.4480  2.9480  2.9800  0.0000  3790.0  0.0000  0.0000  0.0000  0.0000 
  3790.500 -44.107  2.4820  3.0190  3.0510 -18.107  2.4820  3.0190  3.0510  0.0000  3790.5  0.0000  0.0000  0.0000  0.0000 
  3791.000 -48.963  2.6960  3.0900  3.2300 -22.963  2.6960  3.0900  3.2300  0.0000  3791.0  0.0000  0.0000  0.0000  0.0000 
  3791.500 -53.458  3.2680  3.4470  3.3720 -27.458  3.2680  3.4470  3.3720  0.0000  3791.5  0.0000  0.0000  0.0000  0.0000 
  3792.000 -56.695  3.6250  3.7320  3.4790 -30.695  3.6250  3.7320  3.4790  0.0000  3792.0  0.0000  0.0000  0.0000  0.0000 
  3792.500 -59.214  4.5190  3.8030  3.5860 -33.214  4.5190  3.8030  3.5860  0.0000  3792.5  0.0000  0.0000  0.0000  0.0000 
  3793.000 -64.609  5.0900  3.8740  3.6570 -38.609  5.0900  3.8740  3.6570  0.0000  3793.0  0.0000  0.0000  0.0000  0.0000 
  3793.500 -66.590  5.3760  3.8020  3.6920 -40.590  5.3760  3.8020  3.6920  0.0000  3793.5  0.0000  0.0000  0.0000  0.0000 
  3794.000 -66.055  5.5180  3.7300  3.5840 -40.055  5.5180  3.7300  3.5840  0.0000  3794.0  0.0000  0.0000  0.0000  0.0000 
  3794.500 -63.904  5.6600  3.6580  3.5480 -37.904  5.6600  3.6580  3.5480  0.0000  3794.5  0.0000  0.0000  0.0000  0.0000 
  3795.000 -62.112  5.6600  3.5850  3.5120 -36.112  5.6600  3.5850  3.5120  0.0000  3795.0  0.0000  0.0000  0.0000  0.0000 
  3795.500 -60.319  5.0150  3.5130  3.5110 -34.319  5.0150  3.5130  3.5110  0.0000  3795.5  0.0000  0.0000  0.0000  0.0000 
  3796.000 -58.168  4.6930  3.4760  3.5100 -32.168  4.6930  3.4760  3.5100  0.0000  3796.0  0.0000  0.0000  0.0000  0.0000 
  3796.500 -56.556  4.3700  3.4400  3.5460 -30.556  4.3700  3.4400  3.5460  0.0000  3796.5  0.0000  0.0000  0.0000  0.0000 
  3797.000 -56.740  4.0470  3.4390  3.5990 -30.740  4.0470  3.4390  3.5990  0.0000  3797.0  0.0000  0.0000  0.0000  0.0000 
  3797.500 -61.237  4.0110  3.4390  3.6520 -35.237  4.0110  3.4390  3.6520  0.0000  3797.5  0.0000  0.0000  0.0000  0.0000 
  3798.000 -64.834  4.1000  3.4920  3.8130 -38.834  4.1000  3.4920  3.8130  0.0000  3798.0  0.0000  0.0000  0.0000  0.0000 
  3798.500 -67.712  4.1880  3.5450  3.9730 -41.712  4.1880  3.5450  3.9730  0.0000  3798.5  0.0000  0.0000  0.0000  0.0000 
  3799.000 -69.153  4.7240  3.7050  4.1870 -43.153  4.7240  3.7050  4.1870  0.0000  3799.0  0.0000  0.0000  0.0000  0.0000 
  3799.500 -69.876  4.9380  3.8650  4.2940 -43.876  4.9380  3.8650  4.2940  0.0000  3799.5  0.0000  0.0000  0.0000  0.0000 
  3800.000 -70.507  5.4020  4.0790  4.3830 -44.507  5.4020  4.0790  4.3830  0.0000  3800.0  0.0000  0.0000  0.0000  0.0000 
  3800.500 -71.138  5.8310  4.1850  4.4710 -45.138  5.8310  4.1850  4.4710  0.0000  3800.5  0.0000  0.0000  0.0000  0.0000 
  3801.000 -69.254  6.0800  4.2910  4.5420 -43.254  6.0800  4.2910  4.5420  0.0000  3801.0  0.0000  0.0000  0.0000  0.0000 
  3801.500 -67.369  5.5430  4.2910  4.5760 -41.369  5.5430  4.2910  4.5760  0.0000  3801.5  0.0000  0.0000  0.0000  0.0000 
  3802.000 -65.397  4.6470  4.2900  4.6110 -39.397  4.6470  4.2900  4.6110  0.0000  3802.0  0.0000  0.0000  0.0000  0.0000 
  3802.500 -55.159  4.1460  4.1460  4.5750 -29.159  4.1460  4.1460  4.5750  0.0000  3802.5  0.0000  0.0000  0.0000  0.0000 
  3803.000 -53.005  3.7510  4.0020  4.3050 -27.005  3.7510  4.0020  4.3050  0.0000  3803.0  0.0000  0.0000  0.0000  0.0000 
  3803.500 -50.851  3.2850  3.7500  4.0350 -24.851  3.2850  3.7500  4.0350  0.0000  3803.5  0.0000  0.0000  0.0000  0.0000 
  3804.000 -48.339  2.7120  3.6060  3.4970 -22.339  2.7120  3.6060  3.4970  0.0000  3804.0  0.0000  0.0000  0.0000  0.0000 
  3804.500 -40.078  2.4610  3.1040  3.2820 -14.078  2.4610  3.1040  3.2820  0.0000  3804.5  0.0000  0.0000  0.0000  0.0000 
  3805.000 -36.306  2.2090  2.5310  3.0300 -10.306  2.2090  2.5310  3.0300  0.0000  3805.0  0.0000  0.0000  0.0000  0.0000 
  3805.500 -34.332  1.9940  2.3510  2.8860 -8.3320  1.9940  2.3510  2.8860  0.0000  3805.5  0.0000  0.0000  0.0000  0.0000 
  3806.000 -33.704  1.7780  2.3500  2.7420 -7.7040  1.7780  2.3500  2.7420  0.0000  3806.0  0.0000  0.0000  0.0000  0.0000 
  3806.500 -33.076  1.6520  2.4570  2.6700 -7.0760  1.6520  2.4570  2.6700  0.0000  3806.5  0.0000  0.0000  0.0000  0.0000 
  3807.000 -33.257  1.5260  2.5640  2.5970 -7.2570  1.5260  2.5640  2.5970  0.0000  3807.0  0.0000  0.0000  0.0000  0.0000 
