~Version Information
VERS.                     2.0: CWLS log ASCII Standard Version 2.00
WRAP.                      NO: One line per depth step
~Well Information Block
#MNEM.UNIT                               Data Type  Information
#---------                               ---------  -----------
STRT.FT                                   720.0000:
STOP.FT                                  7270.0000:
STEP.FT                                     0.5000:
NULL.                 -999.25                     :
COMP.                                             :COMPANY            
WELL.     SAN EMIDIO A #34-27                     :WELL               
FLD .                                             :FIELD              
CTRY.                                             :COUNTRY            
STAT.                                             :STATE              
LOC .                                             :LOCATION           
UWI .                                             :UNIQUE WELL ID     
SRVC.                                             :Service company    
DATE.                                             :LOG DATE           
~Curve Information
#MNEM.UNIT           API CODE  Curve Description
#---------           --------  -----------------
DEPT.FT                      :   1 DEPTH
SP  .MV                      :   2
AM10.OHMM                    :   3
AO10.OHMM                    :   4
AO19.OHMM                    :   5
SBL .MV                      :   6
RS  .OHMM                    :   7
RM  .OHMM                    :   8
RD  .OHMM                    :   9
DEVI.DEG                     :  10
TVD .FT                      :  11
AZIM.DEG                     :  12
NORT.FT                      :  13
EAST.FT                      :  14
OFFS.FT                      :  15
~A
# ...
  1142.500 -70.282  3.1760  5.9040  6.9970 -11.635  3.1760  5.9040  6.9970  0.0000  1142.5  0.0000  0.0000  0.0000  0.0000 
  1143.000 -72.799  3.2830  6.2980  7.2120 -14.161  3.2830  6.2980  7.2120  0.0000  1143.0  0.0000  0.0000  0.0000  0.0000 
  1143.500 -75.318  3.4970  6.5490  7.6060 -16.689  3.4970  6.5490  7.6060  0.0000  1143.5  0.0000  0.0000  0.0000  0.0000 
  1144.000 -75.860  3.7110  6.7630  7.7490 -17.239  3.7110  6.7630  7.7490  0.0000  1144.0  0.0000  0.0000  0.0000  0.0000 
  1144.500 -75.685  3.8890  6.8340  7.8190 -17.073  3.8890  6.8340  7.8190  0.0000  1144.5  0.0000  0.0000  0.0000  0.0000 
  1145.000 -75.331  4.1400  6.7430  7.6930 -16.728  4.1400  6.7430  7.6930  0.0000  1145.0  0.0000  0.0000  0.0000  0.0000 
  1145.500 -74.438  4.2460  6.6520  7.5670 -15.843  4.2460  6.6520  7.5670  0.0000  1145.5  0.0000  0.0000  0.0000  0.0000 
  1146.000 -73.545  4.0660  6.4710  7.5660 -14.959  4.0660  6.4710  7.5660  0.0000  1146.0  0.0000  0.0000  0.0000  0.0000 
  1146.500 -72.832  3.8490  6.3270  7.5650 -14.254  3.8490  6.3270  7.5650  0.0000  1146.5  0.0000  0.0000  0.0000  0.0000 
  1147.000 -72.119  3.7400  6.2900  7.6000 -13.550  3.7400  6.2900  7.6000  0.0000  1147.0  0.0000  0.0000  0.0000  0.0000 
  1147.500 -72.482  3.6680  6.2350  7.6340 -13.922  3.6680  6.2350  7.6340  0.0000  1147.5  0.0000  0.0000  0.0000  0.0000 
  1148.000 -74.101  3.7740  6.1800  7.6690 -15.549  3.7740  6.1800  7.6690  0.0000  1148.0  0.0000  0.0000  0.0000  0.0000 
  1148.500 -75.362  3.8810  6.1790  7.7040 -16.819  3.8810  6.1790  7.7040  0.0000  1148.5  0.0000  0.0000  0.0000  0.0000 
  1149.000 -76.263  4.1310  6.1780  7.7400 -17.729  4.1310  6.1780  7.7400  0.0000  1149.0  0.0000  0.0000  0.0000  0.0000 
  1149.500 -77.345  4.3810  6.2490  7.8100 -18.819  4.3810  6.2490  7.8100  0.0000  1149.5  0.0000  0.0000  0.0000  0.0000 
  1150.000 -77.708  4.5600  6.2830  7.8450 -19.191  4.5600  6.2830  7.8450  0.0000  1150.0  0.0000  0.0000  0.0000  0.0000 
  1150.500 -78.071  4.8100  6.3180  7.8810 -19.562  4.8100  6.3180  7.8810  0.0000  1150.5  0.0000  0.0000  0.0000  0.0000 
  1151.000 -78.434  4.8810  6.3710  7.8980 -19.934  4.8810  6.3710  7.8980  0.0000  1151.0  0.0000  0.0000  0.0000  0.0000 
  1151.500 -78.080  4.8800  6.4240  7.9150 -19.589  4.8800  6.4240  7.9150  0.0000  1151.5  0.0000  0.0000  0.0000  0.0000 
  1152.000 -77.187  4.8430  6.4590  7.9500 -18.704  4.8430  6.4590  7.9500  0.0000  1152.0  0.0000  0.0000  0.0000  0.0000 
  1152.500 -75.756  4.8060  6.4940  7.9850 -17.282  4.8060  6.4940  7.9850  0.0000  1152.5  0.0000  0.0000  0.0000  0.0000 
  1153.000 -75.043  4.7330  6.5290  7.9830 -16.577  4.7330  6.5290  7.9830  0.0000  1153.0  0.0000  0.0000  0.0000  0.0000 
  1153.500 -74.330  4.6600  6.5990  7.9830 -15.873  4.6600  6.5990  7.9830  0.0000  1153.5  0.0000  0.0000  0.0000  0.0000 
  1154.000 -75.052  4.6050  6.6340  7.9820 -16.604  4.6050  6.6340  7.9820  0.0000  1154.0  0.0000  0.0000  0.0000  0.0000 
  1154.500 -75.594  4.5510  6.6510  7.9810 -17.154  4.5510  6.6510  7.9810  0.0000  1154.5  0.0000  0.0000  0.0000  0.0000 
  1155.000 -76.137  4.4770  6.6680  7.9800 -17.706  4.4770  6.6680  7.9800  0.0000  1155.0  0.0000  0.0000  0.0000  0.0000 
  1155.500 -76.321  4.4410  6.7380  7.9430 -17.899  4.4410  6.7380  7.9430  0.0000  1155.5  0.0000  0.0000  0.0000  0.0000 
  1156.000 -76.864  4.4040  6.7730  7.9070 -18.450  4.4040  6.7730  7.9070  0.0000  1156.0  0.0000  0.0000  0.0000  0.0000 
  1156.500 -75.612  4.2950  6.7720  7.6180 -17.207  4.2950  6.7720  7.6180  0.0000  1156.5  0.0000  0.0000  0.0000  0.0000 
  1157.000 -73.822  4.2220  6.8070  7.3300 -15.425  4.2220  6.8070  7.3300  0.0000  1157.0  0.0000  0.0000  0.0000  0.0000 
  1157.500 -71.494  4.0770  6.6810  7.0420 -13.106  4.0770  6.6810  7.0420  0.0000  1157.5  0.0000  0.0000  0.0000  0.0000 
  1158.000 -68.089  3.8970  6.5540  6.6460 -9.7097  3.8970  6.5540  6.6460  0.0000  1158.0  0.0000  0.0000  0.0000  0.0000 
  1158.500 -67.197  3.5720  6.1930  6.2500 -8.8263  3.5720  6.1930  6.2500  0.0000  1158.5  0.0000  0.0000  0.0000  0.0000 
  1159.000 -67.022  3.3200  6.0840  5.9620 -8.6599  3.3200  6.0840  5.9620  0.0000  1159.0  0.0000  0.0000  0.0000  0.0000 
  1159.500 -67.205  3.3180  5.9940  5.8170 -8.8516  3.3180  5.9940  5.8170  0.0000  1159.5  0.0000  0.0000  0.0000  0.0000 
  1160.000 -68.107  3.3000  5.9030  5.7270 -9.7622  3.3000  5.9030  5.7270  0.0000  1160.0  0.0000  0.0000  0.0000  0.0000 
  1160.500 -68.291  3.2810  5.7220  5.6370 -9.9548  3.2810  5.7220  5.6370  0.0000  1160.5  0.0000  0.0000  0.0000  0.0000 
  1161.000 -68.295  3.2080  5.6490  5.4920 -9.9674  3.2080  5.6490  5.4920  0.0000  1161.0  0.0000  0.0000  0.0000  0.0000 
  1161.500 -67.941  3.1350  5.5760  5.4550 -9.6220  3.1350  5.5760  5.4550  0.0000  1161.5  0.0000  0.0000  0.0000  0.0000 
  1162.000 -67.586  3.0620  5.5750  5.4540 -9.2757  3.0620  5.5750  5.4540  0.0000  1162.0  0.0000  0.0000  0.0000  0.0000 
  1162.500 -67.590  2.8810  5.6460  5.4540 -9.2883  2.8810  5.6460  5.4540  0.0000  1162.5  0.0000  0.0000  0.0000  0.0000 
  1163.000 -67.593  2.8440  5.6630  5.4880 -9.2999  2.8440  5.6630  5.4880  0.0000  1163.0  0.0000  0.0000  0.0000  0.0000 
  1163.500 -67.779  2.8790  5.6800  5.5410 -9.4945  2.8790  5.6800  5.5410  0.0000  1163.5  0.0000  0.0000  0.0000  0.0000 
  1164.000 -68.322  3.0220  5.7330  5.5940 -10.046  3.0220  5.7330  5.5940  0.0000  1164.0  0.0000  0.0000  0.0000  0.0000 
  1164.500 -68.685  3.1650  5.7860  5.7370 -10.418  3.1650  5.7860  5.7370  0.0000  1164.5  0.0000  0.0000  0.0000  0.0000 
  1165.000 -69.049  3.3430  5.7670  5.7720 -10.790  3.3430  5.7670  5.7720  0.0000  1165.0  0.0000  0.0000  0.0000  0.0000 
  1165.500 -69.053  3.3960  5.7480  5.8430 -10.803  3.3960  5.7480  5.8430  0.0000  1165.5  0.0000  0.0000  0.0000  0.0000 
  1166.000 -68.966  3.4490  5.6750  5.9320 -10.725  3.4490  5.6750  5.9320  0.0000  1166.0  0.0000  0.0000  0.0000  0.0000 
  1166.500 -68.880  3.4470  5.6380  6.0210 -10.647  3.4470  5.6380  6.0210  0.0000  1166.5  0.0000  0.0000  0.0000  0.0000 
  1167.000 -68.796  3.4100  5.6370  6.1270 -10.572  3.4100  5.6370  6.1270  0.0000  1167.0  0.0000  0.0000  0.0000  0.0000 
  1167.500 -68.712  3.3370  5.6360  6.2340 -10.496  3.3370  5.6360  6.2340  0.0000  1167.5  0.0000  0.0000  0.0000  0.0000 
  1168.000 -68.715  3.2650  5.6170  6.3050 -10.508  3.2650  5.6170  6.3050  0.0000  1168.0  0.0000  0.0000  0.0000  0.0000 
  1168.500 -68.718  3.2460  5.5980  6.3760 -10.520  3.2460  5.5980  6.3760  0.0000  1168.5  0.0000  0.0000  0.0000  0.0000 
  1169.000 -68.725  3.2270  5.5960  6.4830 -10.535  3.2270  5.5960  6.4830  0.0000  1169.0  0.0000  0.0000  0.0000  0.0000 
  1169.500 -68.909  3.2080  5.7750  6.6970 -10.728  3.2080  5.7750  6.6970  0.0000  1169.5  0.0000  0.0000  0.0000  0.0000 
  1170.000 -69.093  3.1880  5.8640  6.7680 -10.921  3.1880  5.8640  6.7680  0.0000  1170.0  0.0000  0.0000  0.0000  0.0000 
  1170.500 -69.458  3.2230  5.9530  7.0180 -11.294  3.2230  5.9530  7.0180  0.0000  1170.5  0.0000  0.0000  0.0000  0.0000 
  1171.000 -69.642  3.3660  6.2020  7.2330 -11.487  3.3660  6.2020  7.2330  0.0000  1171.0  0.0000  0.0000  0.0000  0.0000 
  1171.500 -70.903  3.6160  6.4170  7.5550 -12.756  3.6160  6.4170  7.5550  0.0000  1171.5  0.0000  0.0000  0.0000  0.0000 
  1172.000 -71.625  3.9020  6.5590  7.9140 -13.487  3.9020  6.5590  7.9140  0.0000  1172.0  0.0000  0.0000  0.0000  0.0000 
  1172.500 -72.885  4.3680  6.7020  8.3080 -14.756  4.3680  6.7020  8.3080  0.0000  1172.5  0.0000  0.0000  0.0000  0.0000 
  1173.000 -73.966  4.7620  6.9520  8.6300 -15.845  4.7620  6.9520  8.6300  0.0000  1173.0  0.0000  0.0000  0.0000  0.0000 
  1173.500 -74.150  5.0120  7.2380  9.0240 -16.038  5.0120  7.2380  9.0240  0.0000  1173.5  0.0000  0.0000  0.0000  0.0000 
  1174.000 -75.411  5.3700  7.3990  9.3460 -17.308  5.3700  7.3990  9.3460  0.0000  1174.0  0.0000  0.0000  0.0000  0.0000 
  1174.500 -76.133  5.6200  7.5600  9.4530 -18.038  5.6200  7.5600  9.4530  0.0000  1174.5  0.0000  0.0000  0.0000  0.0000 
