~Version Information
VERS.                     2.0: CWLS log ASCII Standard Version 2.00
WRAP.                      NO: One line per depth step
~Well Information Block
#MNEM.UNIT                               Data Type  Information
#---------                               ---------  -----------
STRT.FT                                   720.0000:
STOP.FT                                  7270.0000:
STEP.FT                                     0.5000:
NULL.                 -999.25                     :
COMP.                                             :COMPANY            
WELL.     SAN EMIDIO A #34-27                     :WELL               
FLD .                                             :FIELD              
CTRY.                                             :COUNTRY            
STAT.                                             :STATE              
LOC .                                             :LOCATION           
UWI .                                             :UNIQUE WELL ID     
SRVC.                                             :Service company    
DATE.                                             :LOG DATE           
~Curve Information
#MNEM.UNIT           API CODE  Curve Description
#---------           --------  -----------------
DEPT.FT                      :   1 DEPTH
SP  .MV                      :   2
AM10.OHMM                    :   3
AO10.OHMM                    :   4
AO19.OHMM                    :   5
SBL .MV                      :   6
RS  .OHMM                    :   7
RM  .OHMM                    :   8
RD  .OHMM                    :   9
DEVI.DEG                     :  10
TVD .FT                      :  11
AZIM.DEG                     :  12
NORT.FT                      :  13
EAST.FT                      :  14
OFFS.FT                      :  15
~A
# ...
  5497.500 -42.905  1.7530  1.9680  2.1850 -13.848  1.7530  1.9680  2.1850  9.7838  5494.5  168.09 -48.773  14.008 -24.583 
  5498.000 -43.620  1.7540  1.9690  2.2210 -14.565  1.7540  1.9690  2.2210  9.7876  5495.0  168.10 -48.856  14.025 -24.629 
  5498.500 -43.796  1.7360  2.0050  2.2570 -14.743  1.7360  2.0050  2.2570  9.7913  5495.5  168.11 -48.939  14.043 -24.676 
  5499.000 -43.973  1.7190  2.0060  2.2570 -14.922  1.7190  2.0060  2.2570  9.7951  5496.0  168.12 -49.023  14.060 -24.722 
  5499.500 -44.150  1.6840  2.0060  2.2220 -15.101  1.6840  2.0060  2.2220  9.7988  5496.5  168.13 -49.106  14.078 -24.769 
  5500.000 -43.786  1.6490  2.0430  2.2220 -14.739  1.6490  2.0430  2.2220  9.8026  5497.0  168.14 -49.189  14.095 -24.815 
  5500.500 -43.067  1.6670  2.0790  2.2050 -14.022  1.6670  2.0790  2.2050  9.8063  5497.5  168.15 -49.273  14.113 -24.862 
  5501.000 -42.529  1.6850  2.0790  2.1870 -13.486  1.6850  2.0790  2.1870  9.8101  5498.0  168.16 -49.356  14.130 -24.908 
  5501.500 -42.530  1.7210  2.1150  2.1870 -13.489  1.7210  2.1150  2.1870  9.8138  5498.5  168.17 -49.439  14.148 -24.955 
  5502.000 -42.441  1.7390  2.1330  2.1880 -13.402  1.7390  2.1330  2.1880  9.8176  5499.0  168.18 -49.523  14.165 -25.002 
  5502.500 -42.353  1.7570  2.1510  2.1880 -13.316  1.7570  2.1510  2.1880  9.8213  5499.5  168.19 -49.606  14.183 -25.048 
  5503.000 -42.174  1.8290  2.1690  2.2240 -13.139  1.8290  2.1690  2.2240  9.8251  5499.9  168.20 -49.690  14.200 -25.095 
  5503.500 -41.995  1.8650  2.1880  2.2430 -12.962  1.8650  2.1880  2.2430  9.8288  5500.4  168.21 -49.773  14.218 -25.142 
  5504.000 -41.906  1.9010  2.2600  2.2610 -12.875  1.9010  2.2600  2.2610  9.8326  5500.9  168.22 -49.857  14.235 -25.189 
  5504.500 -41.817  2.0090  2.2960  2.3330 -12.788  2.0090  2.2960  2.3330  9.8363  5501.4  168.23 -49.941  14.252 -25.235 
  5505.000 -42.177  2.1160  2.3310  2.4050 -13.150  2.1160  2.3310  2.4050  9.8401  5501.9  168.24 -50.024  14.270 -25.282 
  5505.500 -42.717  2.2600  2.4030  2.5130 -13.692  2.2600  2.4030  2.5130  9.8438  5502.4  168.25 -50.108  14.287 -25.329 
  5506.000 -43.257  2.3680  2.4750  2.5850 -14.234  2.3680  2.4750  2.5850  9.8476  5502.9  168.26 -50.192  14.305 -25.376 
  5506.500 -43.798  2.4400  2.5470  2.6210 -14.777  2.4400  2.5470  2.6210  9.8513  5503.4  168.27 -50.275  14.322 -25.423 
  5507.000 -44.338  2.4580  2.6190  2.6570 -15.319  2.4580  2.6190  2.6570  9.8551  5503.9  168.28 -50.359  14.339 -25.470 
  5507.500 -44.519  2.4760  2.5830  2.5500 -15.502  2.4760  2.5830  2.5500  9.8588  5504.4  168.29 -50.443  14.357 -25.517 
  5508.000 -44.700  2.4760  2.5480  2.4430 -15.685  2.4760  2.5480  2.4430  9.8626  5504.9  168.30 -50.527  14.374 -25.564 
  5508.500 -44.881  2.4400  2.5120  2.3000 -15.868  2.4400  2.5120  2.3000  9.8663  5505.4  168.31 -50.611  14.392 -25.611 
  5509.000 -45.062  2.4050  2.3330  2.2290 -16.051  2.4050  2.3330  2.2290  9.8701  5505.9  168.32 -50.695  14.409 -25.658 
  5509.500 -45.063  2.3690  2.2620  2.1570 -16.054  2.3690  2.2620  2.1570  9.8738  5506.4  168.33 -50.779  14.426 -25.705 
  5510.000 -45.064  2.3330  2.1900  2.0500 -16.057  2.3330  2.1900  2.0500  9.8776  5506.8  168.34 -50.863  14.444 -25.752 
  5510.500 -43.624  2.1900  2.1190  1.9970 -14.619  2.1900  2.1190  1.9970  9.8813  5507.3  168.35 -50.947  14.461 -25.799 
  5511.000 -43.895  2.1550  2.0470  1.9430 -14.892  2.1550  2.0470  1.9430  9.8851  5507.8  168.36 -51.031  14.478 -25.847 
  5511.500 -44.167  2.0830  2.0290  1.9080 -15.166  2.0830  2.0290  1.9080  9.8888  5508.3  168.37 -51.115  14.496 -25.894 
  5512.000 -45.066  2.0120  2.0110  1.8720 -16.067  2.0120  2.0110  1.8720  9.8926  5508.8  168.38 -51.199  14.513 -25.941 
  5512.500 -45.426  1.9400  1.9940  1.8010 -16.429  1.9400  1.9940  1.8010  9.8963  5509.3  168.39 -51.283  14.530 -25.988 
  5513.000 -45.787  1.9760  1.9760  1.7830 -16.792  1.9760  1.9760  1.7830  9.9001  5509.8  168.40 -51.367  14.547 -26.036 
  5513.500 -46.147  1.9760  2.0120  1.7660 -17.154  1.9760  2.0120  1.7660  9.9038  5510.3  168.41 -51.452  14.565 -26.083 
  5514.000 -46.328  1.9760  2.0120  1.7480 -17.337  1.9760  2.0120  1.7480  9.9076  5510.8  168.42 -51.536  14.582 -26.130 
  5514.500 -45.789  1.9760  2.0120  1.7310 -16.800  1.9760  2.0120  1.7310  9.9113  5511.3  168.43 -51.620  14.599 -26.178 
  5515.000 -45.251  1.9770  2.0840  1.7310 -16.264  1.9770  2.0840  1.7310  9.9151  5511.8  168.44 -51.705  14.617 -26.225 
  5515.500 -44.983  1.9770  2.1560  1.7310 -15.998  1.9770  2.1560  1.7310  9.9188  5512.3  168.45 -51.789  14.634 -26.273 
  5516.000 -44.714  1.9770  2.1920  1.7500 -15.731  1.9770  2.1920  1.7500  9.9226  5512.8  168.46 -51.873  14.651 -26.320 
  5516.500 -44.355  1.9410  2.2640  1.7680 -15.374  1.9410  2.2640  1.7680  9.9263  5513.2  168.47 -51.958  14.668 -26.368 
  5517.000 -44.086  1.9060  2.3360  1.8040 -15.107  1.9060  2.3360  1.8040  9.9301  5513.7  168.48 -52.042  14.685 -26.415 
  5517.500 -43.817  1.8700  2.4080  1.8400 -14.840  1.8700  2.4080  1.8400  9.9338  5514.2  168.49 -52.127  14.703 -26.463 
  5518.000 -43.998  1.8340  2.4790  2.0200 -15.023  1.8340  2.4790  2.0200  9.9376  5514.7  168.50 -52.211  14.720 -26.510 
  5518.500 -44.180  1.8700  2.7310  2.0920 -15.207  1.8700  2.7310  2.0920  9.9413  5515.2  168.51 -52.296  14.737 -26.558 
  5519.000 -44.420  1.9060  2.8030  2.1640 -15.449  1.9060  2.8030  2.1640  9.9451  5515.7  168.52 -52.381  14.754 -26.606 
  5519.500 -44.661  1.9420  2.8390  2.2360 -15.692  1.9420  2.8390  2.2360  9.9488  5516.2  168.53 -52.465  14.771 -26.654 
  5520.000 -44.902  2.0500  2.7670  2.2720 -15.935  2.0500  2.7670  2.2720  9.9526  5516.7  168.54 -52.550  14.789 -26.701 
  5520.500 -45.081  2.1580  2.5880  2.3090 -16.116  2.1580  2.5880  2.3090  9.9563  5517.2  168.55 -52.635  14.806 -26.749 
  5521.000 -44.543  2.1580  2.5170  2.2730 -15.580  2.1580  2.5170  2.2730  9.9601  5517.7  168.56 -52.719  14.823 -26.797 
  5521.500 -44.004  2.1580  2.4450  2.2380 -15.043  2.1580  2.4450  2.2380  9.9638  5518.2  168.57 -52.804  14.840 -26.845 
  5522.000 -43.376  2.1590  2.3380  2.2020 -14.417  2.1590  2.3380  2.2020  9.9676  5518.7  168.58 -52.889  14.857 -26.893 
  5522.500 -42.748  2.1230  2.3380  2.1670 -13.791  2.1230  2.3380  2.1670  9.9713  5519.2  168.59 -52.974  14.874 -26.940 
  5523.000 -41.130  2.0160  2.3380  2.1310 -12.175  2.0160  2.3380  2.1310  9.9751  5519.7  168.60 -53.059  14.891 -26.988 
  5523.500 -40.592  1.9080  2.3200  2.1320 -11.639  1.9080  2.3200  2.1320  9.9788  5520.1  168.61 -53.144  14.909 -27.036 
  5524.000 -40.054  1.8370  2.3030  2.0600 -11.103  1.8370  2.3030  2.0600  9.9826  5520.6  168.62 -53.229  14.926 -27.084 
  5524.500 -39.335  1.7650  2.3030  2.0610 -10.386  1.7650  2.3030  2.0610  9.9863  5521.1  168.63 -53.314  14.943 -27.132 
  5525.000 -39.336  1.6580  2.3030  2.1690 -10.389  1.6580  2.3030  2.1690  9.9901  5521.6  168.64 -53.399  14.960 -27.180 
  5525.500 -39.336  1.6400  2.3030  2.2410 -10.391  1.6400  2.3030  2.2410  9.9938  5522.1  168.65 -53.484  14.977 -27.228 
  5526.000 -39.068  1.6220  2.3030  2.2770 -10.125  1.6220  2.3030  2.2770  9.9976  5522.6  168.66 -53.569  14.994 -27.277 
  5526.500 -38.800  1.6400  2.3030  2.3130 -9.8589  1.6400  2.3030  2.3130  10.001  5523.1  168.67 -53.654  15.011 -27.325 
  5527.000 -38.350  1.6590  2.3040  2.3310 -9.4109  1.6590  2.3040  2.3310  10.005  5523.6  168.68 -53.739  15.028 -27.373 
  5527.500 -37.901  1.6410  2.2680  2.3490 -8.9639  1.6410  2.2680  2.3490  10.009  5524.1  168.69 -53.824  15.045 -27.421 
  5528.000 -37.632  1.6230  2.2500  2.3320 -8.6969  1.6230  2.2500  2.3320  10.013  5524.6  168.70 -53.910  15.062 -27.469 
  5528.500 -37.364  1.6230  2.2320  2.3150 -8.4309  1.6230  2.2320  2.3150  10.016  5525.1  168.71 -53.995  15.079 -27.518 
  5529.000 -36.825  1.6230  2.1970  2.3150 -7.8939  1.6230  2.1970  2.3150  10.020  5525.6  168.72 -54.080  15.096 -27.566 
  5529.500 -36.286  1.5880  2.1610  2.2790 -7.3569  1.5880  2.1610  2.2790  10.024  5526.1  168.73 -54.166  15.113 -27.614 
