~Version Information
VERS.                     2.0: CWLS log ASCII Standard Version 2.00
WRAP.                      NO: One line per depth step
~Well Information Block
#MNEM.UNIT                               Data Type  Information
#---------                               ---------  -----------
STRT.FT                                   720.0000:
STOP.FT                                  7270.0000:
STEP.FT                                     0.5000:
NULL.                 -999.25                     :
COMP.                                             :COMPANY            
WELL.     SAN EMIDIO A #34-27                     :WELL               
FLD .                                             :FIELD              
CTRY.                                             :COUNTRY            
STAT.                                             :STATE              
LOC .                                             :LOCATION           
UWI .                                             :UNIQUE WELL ID     
SRVC.                                             :Service company    
DATE.                                             :LOG DATE           
~Curve Information
#MNEM.UNIT           API CODE  Curve Description
#---------           --------  -----------------
DEPT.FT                      :   1 DEPTH
SP  .MV                      :   2
AM10.OHMM                    :   3
AO10.OHMM                    :   4
AO19.OHMM                    :   5
SBL .MV                      :   6
RS  .OHMM                    :   7
RM  .OHMM                    :   8
RD  .OHMM                    :   9
DEVI.DEG                     :  10
TVD .FT                      :  11
AZIM.DEG                     :  12
NORT.FT                      :  13
EAST.FT                      :  14
OFFS.FT                      :  15
~A
# ...
  3320.000 -38.516  3.0050  3.8280  3.6850 -12.516  3.0050  3.8280  3.6850  0.0000  3320.0  0.0000  0.0000  0.0000  0.0000 
  3320.500 -37.085  2.7180  3.4690  3.5410 -11.085  2.7180  3.4690  3.5410  0.0000  3320.5  0.0000  0.0000  0.0000  0.0000 
  3321.000 -37.451  2.3950  3.4330  3.5040 -11.451  2.3950  3.4330  3.5040  0.0000  3321.0  0.0000  0.0000  0.0000  0.0000 
  3321.500 -38.535  2.4480  3.6110  3.5390 -12.535  2.4480  3.6110  3.5390  0.0000  3321.5  0.0000  0.0000  0.0000  0.0000 
  3322.000 -39.080  2.5010  3.7000  3.6100 -13.080  2.5010  3.7000  3.6100  0.0000  3322.0  0.0000  0.0000  0.0000  0.0000 
  3322.500 -41.062  2.8220  3.7880  3.9310 -15.062  2.8220  3.7880  3.9310  0.0000  3322.5  0.0000  0.0000  0.0000  0.0000 
  3323.000 -43.044  2.8930  3.9300  4.0020 -17.044  2.8930  3.9300  4.0020  0.0000  3323.0  0.0000  0.0000  0.0000  0.0000 
  3323.500 -43.410  2.9640  3.8940  3.9290 -17.410  2.9640  3.8940  3.9290  0.0000  3323.5  0.0000  0.0000  0.0000  0.0000 
  3324.000 -41.620  2.7830  3.8570  3.8570 -15.620  2.7830  3.8570  3.8570  0.0000  3324.0  0.0000  0.0000  0.0000  0.0000 
  3324.500 -39.830  2.6750  3.7850  3.6770 -13.830  2.6750  3.7850  3.6770  0.0000  3324.5  0.0000  0.0000  0.0000  0.0000 
  3325.000 -38.579  2.5670  3.7120  3.4970 -12.579  2.5670  3.7120  3.4970  0.0000  3325.0  0.0000  0.0000  0.0000  0.0000 
  3325.500 -37.507  2.4950  3.6040  3.3180 -11.507  2.4950  3.6040  3.3180  0.0000  3325.5  0.0000  0.0000  0.0000  0.0000 
  3326.000 -38.052  2.4220  3.5670  3.4600 -12.052  2.4220  3.5670  3.4600  0.0000  3326.0  0.0000  0.0000  0.0000  0.0000 
  3326.500 -38.507  2.4930  3.6020  3.5310 -12.507  2.4930  3.6020  3.5310  0.0000  3326.5  0.0000  0.0000  0.0000  0.0000 
  3327.000 -38.961  2.5630  3.6370  3.6010 -12.961  2.5630  3.6370  3.6010  0.0000  3327.0  0.0000  0.0000  0.0000  0.0000 
  3327.500 -38.430  2.6160  3.6720  3.6720 -12.430  2.6160  3.6720  3.6720  0.0000  3327.5  0.0000  0.0000  0.0000  0.0000 
  3328.000 -37.898  2.6690  3.7070  3.7430 -11.898  2.6690  3.7070  3.7430  0.0000  3328.0  0.0000  0.0000  0.0000  0.0000 
  3328.500 -37.185  2.7040  3.5620  3.8310 -11.185  2.7040  3.5620  3.8310  0.0000  3328.5  0.0000  0.0000  0.0000  0.0000 
  3329.000 -35.395  2.7210  3.5260  3.9190 -9.3950  2.7210  3.5260  3.9190  0.0000  3329.0  0.0000  0.0000  0.0000  0.0000 
  3329.500 -34.863  2.7380  3.4710  3.9900 -8.8630  2.7380  3.4710  3.9900  0.0000  3329.5  0.0000  0.0000  0.0000  0.0000 
  3330.000 -34.869  2.7730  3.4170  4.0070 -8.8690  2.7730  3.4170  4.0070  0.0000  3330.0  0.0000  0.0000  0.0000  0.0000 
  3330.500 -35.235  2.8080  3.3800  4.0250 -9.2350  2.8080  3.3800  4.0250  0.0000  3330.5  0.0000  0.0000  0.0000  0.0000 
  3331.000 -35.689  2.9140  3.4150  4.1310 -9.6890  2.9140  3.4150  4.1310  0.0000  3331.0  0.0000  0.0000  0.0000  0.0000 
  3331.500 -36.143  2.9850  3.4500  4.2010 -10.143  2.9850  3.4500  4.2010  0.0000  3331.5  0.0000  0.0000  0.0000  0.0000 
  3332.000 -38.666  3.1270  3.5920  4.3080 -12.666  3.1270  3.5920  4.3080  0.0000  3332.0  0.0000  0.0000  0.0000  0.0000 
  3332.500 -40.648  3.3050  3.6980  4.4500 -14.648  3.3050  3.6980  4.4500  0.0000  3332.5  0.0000  0.0000  0.0000  0.0000 
  3333.000 -44.428  3.4470  3.8410  4.6280 -18.428  3.4470  3.8410  4.6280  0.0000  3333.0  0.0000  0.0000  0.0000  0.0000 
  3333.500 -46.770  3.6610  3.9830  4.7700 -20.770  3.6610  3.9830  4.7700  0.0000  3333.5  0.0000  0.0000  0.0000  0.0000 
  3334.000 -49.470  3.9820  4.2330  5.1270 -23.470  3.9820  4.2330  5.1270  0.0000  3334.0  0.0000  0.0000  0.0000  0.0000 
  3334.500 -52.530  4.2310  4.4460  5.3050 -26.530  4.2310  4.4460  5.3050  0.0000  3334.5  0.0000  0.0000  0.0000  0.0000 
  3335.000 -53.614  4.4100  4.4450  5.1970 -27.614  4.4100  4.4450  5.1970  0.0000  3335.0  0.0000  0.0000  0.0000  0.0000 
  3335.500 -49.669  4.5520  4.3010  5.0530 -23.669  4.5520  4.3010  5.0530  0.0000  3335.5  0.0000  0.0000  0.0000  0.0000 
  3336.000 -48.596  4.6230  4.1570  4.8010 -22.596  4.6230  4.1570  4.8010  0.0000  3336.0  0.0000  0.0000  0.0000  0.0000 
  3336.500 -47.524  4.2990  3.9060  4.2280 -21.524  4.2990  3.9060  4.2280  0.0000  3336.5  0.0000  0.0000  0.0000  0.0000 
  3337.000 -44.658  3.6190  3.6190  3.9050 -18.658  3.6190  3.6190  3.9050  0.0000  3337.0  0.0000  0.0000  0.0000  0.0000 
  3337.500 -41.611  2.5450  3.3670  3.6180 -15.611  2.5450  3.3670  3.6180  0.0000  3337.5  0.0000  0.0000  0.0000  0.0000 
  3338.000 -38.202  2.2930  3.0090  3.4020 -12.202  2.2930  3.0090  3.4020  0.0000  3338.0  0.0000  0.0000  0.0000  0.0000 
  3338.500 -38.568  2.4360  2.9360  3.4370 -12.568  2.4360  2.9360  3.4370  0.0000  3338.5  0.0000  0.0000  0.0000  0.0000 
  3339.000 -40.013  2.5420  2.9000  3.6510 -14.013  2.5420  2.9000  3.6510  0.0000  3339.0  0.0000  0.0000  0.0000  0.0000 
  3339.500 -46.845  2.7910  3.1850  3.9000 -20.845  2.7910  3.1850  3.9000  0.0000  3339.5  0.0000  0.0000  0.0000  0.0000 
  3340.000 -50.264  3.4700  3.4350  4.0780 -24.264  3.4700  3.4350  4.0780  0.0000  3340.0  0.0000  0.0000  0.0000  0.0000 
  3340.500 -56.918  3.9340  3.7560  4.1850 -30.918  3.9340  3.7560  4.1850  0.0000  3340.5  0.0000  0.0000  0.0000  0.0000 
  3341.000 -59.619  4.3630  3.8260  4.2920 -33.619  4.3630  3.8260  4.2920  0.0000  3341.0  0.0000  0.0000  0.0000  0.0000 
  3341.500 -62.858  4.6480  3.8790  4.3800 -36.858  4.6480  3.8790  4.3800  0.0000  3341.5  0.0000  0.0000  0.0000  0.0000 
  3342.000 -64.301  5.0770  3.9320  4.4680 -38.301  5.0770  3.9320  4.4680  0.0000  3342.0  0.0000  0.0000  0.0000  0.0000 
  3342.500 -65.924  5.3260  4.0380  4.4860 -39.924  5.3260  4.0380  4.4860  0.0000  3342.5  0.0000  0.0000  0.0000  0.0000 
  3343.000 -67.367  5.5400  4.1450  4.5030 -41.367  5.5400  4.1450  4.5030  0.0000  3343.0  0.0000  0.0000  0.0000  0.0000 
  3343.500 -68.092  5.6470  4.3230  4.5730 -42.092  5.6470  4.3230  4.5730  0.0000  3343.5  0.0000  0.0000  0.0000  0.0000 
  3344.000 -69.176  5.7540  4.5010  4.5720 -43.176  5.7540  4.5010  4.5720  0.0000  3344.0  0.0000  0.0000  0.0000  0.0000 
  3344.500 -70.801  5.8950  4.7140  4.5720 -44.801  5.8950  4.7140  4.5720  0.0000  3344.5  0.0000  0.0000  0.0000  0.0000 
  3345.000 -71.346  5.9840  4.7490  4.5710 -45.346  5.9840  4.7490  4.5710  0.0000  3345.0  0.0000  0.0000  0.0000  0.0000 
  3345.500 -72.250  6.0730  4.7850  4.5700 -46.250  6.0730  4.7850  4.5700  0.0000  3345.5  0.0000  0.0000  0.0000  0.0000 
  3346.000 -73.155  6.1610  4.7830  4.5870 -47.155  6.1610  4.7830  4.5870  0.0000  3346.0  0.0000  0.0000  0.0000  0.0000 
  3346.500 -73.700  6.2500  4.6750  4.6040 -47.700  6.2500  4.6750  4.6040  0.0000  3346.5  0.0000  0.0000  0.0000  0.0000 
  3347.000 -73.706  6.3560  4.6030  4.6030 -47.706  6.3560  4.6030  4.6030  0.0000  3347.0  0.0000  0.0000  0.0000  0.0000 
  3347.500 -73.532  6.3910  4.5840  4.6020 -47.532  6.3910  4.5840  4.6020  0.0000  3347.5  0.0000  0.0000  0.0000  0.0000 
  3348.000 -73.357  6.3900  4.5650  4.6010 -47.357  6.3900  4.5650  4.6010  0.0000  3348.0  0.0000  0.0000  0.0000  0.0000 
  3348.500 -71.929  6.3890  4.4570  4.5820 -45.929  6.3890  4.4570  4.5820  0.0000  3348.5  0.0000  0.0000  0.0000  0.0000 
  3349.000 -70.857  6.3700  4.4560  4.5640 -44.857  6.3700  4.4560  4.5640  0.0000  3349.0  0.0000  0.0000  0.0000  0.0000 
  3349.500 -68.169  6.3520  4.4560  4.5450 -42.169  6.3520  4.4560  4.5450  0.0000  3349.5  0.0000  0.0000  0.0000  0.0000 
  3350.000 -66.377  6.0640  4.4540  4.5260 -40.377  6.0640  4.4540  4.5260  0.0000  3350.0  0.0000  0.0000  0.0000  0.0000 
  3350.500 -63.509  5.5440  4.4710  4.4530 -37.509  5.5440  4.4710  4.4530  0.0000  3350.5  0.0000  0.0000  0.0000  0.0000 
  3351.000 -62.258  5.0250  4.4890  4.3990 -36.258  5.0250  4.4890  4.3990  0.0000  3351.0  0.0000  0.0000  0.0000  0.0000 
  3351.500 -61.367  4.9170  4.5230  4.3450 -35.367  4.9170  4.5230  4.3450  0.0000  3351.5  0.0000  0.0000  0.0000  0.0000 
  3352.000 -62.451  4.7010  4.5580  4.2720 -36.451  4.7010  4.5580  4.2720  0.0000  3352.0  0.0000  0.0000  0.0000  0.0000 
