~Version Information
VERS.                     2.0: CWLS log ASCII Standard Version 2.00
WRAP.                      NO: One line per depth step
~Well Information Block
#MNEM.UNIT                               Data Type  Information
#---------                               ---------  -----------
STRT.FT                                   720.0000:
STOP.FT                                  7270.0000:
STEP.FT                                     0.5000:
NULL.                 -999.25                     :
COMP.                                             :COMPANY            
WELL.     SAN EMIDIO A #34-27                     :WELL               
FLD .                                             :FIELD              
CTRY.                                             :COUNTRY            
STAT.                                             :STATE              
LOC .                                             :LOCATION           
UWI .                                             :UNIQUE WELL ID     
SRVC.                                             :Service company    
DATE.                                             :LOG DATE           
~Curve Information
#MNEM.UNIT           API CODE  Curve Description
#---------           --------  -----------------
DEPT.FT                      :   1 DEPTH
SP  .MV                      :   2
AM10.OHMM                    :   3
AO10.OHMM                    :   4
AO19.OHMM                    :   5
SBL .MV                      :   6
RS  .OHMM                    :   7
RM  .OHMM                    :   8
RD  .OHMM                    :   9
DEVI.DEG                     :  10
TVD .FT                      :  11
AZIM.DEG                     :  12
NORT.FT                      :  13
EAST.FT                      :  14
OFFS.FT                      :  15
~A
# ...
  4652.500 -40.752  2.4290  3.0010  3.4310 -13.060  2.4290  3.0010  3.4310  0.0000  4652.5  0.0000  0.0000  0.0000  0.0000 
  4653.000 -38.401  2.3210  2.9290  3.3960 -10.705  2.3210  2.9290  3.3960  0.0000  4653.0  0.0000  0.0000  0.0000  0.0000 
  4653.500 -37.758  2.2140  2.8570  3.3600 -10.057  2.2140  2.8570  3.3600  0.0000  4653.5  0.0000  0.0000  0.0000  0.0000 
  4654.000 -37.115  2.1060  2.8030  3.3240 -9.4102  2.1060  2.8030  3.3240  0.0000  4654.0  0.0000  0.0000  0.0000  0.0000 
  4654.500 -37.282  2.0220  2.7490  3.2890 -9.5731  2.0220  2.7490  3.2890  0.0000  4654.5  0.0000  0.0000  0.0000  0.0000 
  4655.000 -37.448  1.9390  2.6770  3.2350 -9.7349  1.9390  2.6770  3.2350  0.0000  4655.0  0.0000  0.0000  0.0000  0.0000 
  4655.500 -37.794  1.8550  2.6050  3.1810 -10.077  1.8550  2.6050  3.1810  0.0000  4655.5  0.0000  0.0000  0.0000  0.0000 
  4656.000 -38.140  1.8720  2.5690  3.1460 -10.419  1.8720  2.5690  3.1460  0.0000  4656.0  0.0000  0.0000  0.0000  0.0000 
  4656.500 -38.487  1.8900  2.5330  3.1100 -10.761  1.8900  2.5330  3.1100  0.0000  4656.5  0.0000  0.0000  0.0000  0.0000 
  4657.000 -38.832  1.9610  2.4970  3.0740 -11.102  1.9610  2.4970  3.0740  0.0000  4657.0  0.0000  0.0000  0.0000  0.0000 
  4657.500 -39.178  1.9960  2.4970  2.9670 -11.444  1.9960  2.4970  2.9670  0.0000  4657.5  0.0000  0.0000  0.0000  0.0000 
  4658.000 -39.885  2.0500  2.5320  2.9310 -12.147  2.0500  2.5320  2.9310  0.0000  4658.0  0.0000  0.0000  0.0000  0.0000 
  4658.500 -40.500  2.1030  2.5680  2.8950 -12.758  2.1030  2.5680  2.8950  0.0000  4658.5  0.0000  0.0000  0.0000  0.0000 
  4659.000 -41.115  2.2100  2.6030  2.8600 -13.369  2.2100  2.6030  2.8600  0.0000  4659.0  0.0000  0.0000  0.0000  0.0000 
  4659.500 -42.362  2.3170  2.7100  2.8240 -14.611  2.3170  2.7100  2.8240  0.0000  4659.5  0.0000  0.0000  0.0000  0.0000 
  4660.000 -42.887  2.5310  2.7450  2.7880 -15.132  2.5310  2.7450  2.7880  0.0000  4660.0  0.0000  0.0000  0.0000  0.0000 
  4660.500 -43.413  2.6730  2.8160  2.7700 -15.654  2.6730  2.8160  2.7700  0.0000  4660.5  0.0000  0.0000  0.0000  0.0000 
  4661.000 -44.298  2.7800  2.8870  2.7530 -16.535  2.7800  2.8870  2.7530  0.0000  4661.0  0.0000  0.0000  0.0000  0.0000 
  4661.500 -45.184  2.9590  2.9230  2.7170 -17.417  2.9590  2.9230  2.7170  0.0000  4661.5  0.0000  0.0000  0.0000  0.0000 
  4662.000 -47.509  3.1370  2.9580  2.7880 -19.738  3.1370  2.9580  2.7880  0.0000  4662.0  0.0000  0.0000  0.0000  0.0000 
  4662.500 -49.653  3.2620  3.0650  2.8240 -21.878  3.2620  3.0650  2.8240  0.0000  4662.5  0.0000  0.0000  0.0000  0.0000 
  4663.000 -56.833  3.3870  3.1180  2.8600 -29.053  3.3870  3.1180  2.8600  0.0000  4663.0  0.0000  0.0000  0.0000  0.0000 
  4663.500 -61.135  3.6010  3.1720  2.9310 -33.351  3.6010  3.1720  2.9310  0.0000  4663.5  0.0000  0.0000  0.0000  0.0000 
  4664.000 -62.650  3.8150  3.2070  2.9850 -34.862  3.8150  3.2070  2.9850  0.0000  4664.0  0.0000  0.0000  0.0000  0.0000 
  4664.500 -64.164  3.9040  3.2430  3.0390 -36.372  3.9040  3.2430  3.0390  0.0000  4664.5  0.0000  0.0000  0.0000  0.0000 
  4665.000 -64.152  3.9930  3.2780  3.0380 -36.356  3.9930  3.2780  3.0380  0.0000  4665.0  0.0000  0.0000  0.0000  0.0000 
  4665.500 -62.699  4.1000  3.2420  3.0030 -34.899  4.1000  3.2420  3.0030  0.0000  4665.5  0.0000  0.0000  0.0000  0.0000 
  4666.000 -61.068  4.2070  3.2060  2.9670 -33.263  4.2070  3.2060  2.9670  0.0000  4666.0  0.0000  0.0000  0.0000  0.0000 
  4666.500 -57.458  3.8490  3.0980  2.9130 -29.649  3.8490  3.0980  2.9130  0.0000  4666.5  0.0000  0.0000  0.0000  0.0000 
  4667.000 -52.050  3.7050  2.9910  2.8600 -24.237  3.7050  2.9910  2.8600  0.0000  4667.0  0.0000  0.0000  0.0000  0.0000 
  4667.500 -49.519  3.3480  2.8830  2.8240 -21.702  3.3480  2.8830  2.8240  0.0000  4667.5  0.0000  0.0000  0.0000  0.0000 
  4668.000 -48.246  3.1330  2.8110  2.7880 -20.425  3.1330  2.8110  2.7880  0.0000  4668.0  0.0000  0.0000  0.0000  0.0000 
  4668.500 -45.715  2.9180  2.7030  2.7350 -17.890  2.9180  2.7030  2.7350  0.0000  4668.5  0.0000  0.0000  0.0000  0.0000 
  4669.000 -44.442  2.7030  2.6500  2.6810 -16.612  2.7030  2.6500  2.6810  0.0000  4669.0  0.0000  0.0000  0.0000  0.0000 
  4669.500 -43.170  2.5600  2.5960  2.5740 -15.336  2.5600  2.5960  2.5740  0.0000  4669.5  0.0000  0.0000  0.0000  0.0000 
  4670.000 -42.886  2.4170  2.5590  2.5020 -15.048  2.4170  2.5590  2.5020  0.0000  4670.0  0.0000  0.0000  0.0000  0.0000 
  4670.500 -42.603  2.2020  2.5590  2.5020 -14.761  2.2020  2.5590  2.5020  0.0000  4670.5  0.0000  0.0000  0.0000  0.0000 
  4671.000 -43.849  2.1300  2.5590  2.5020 -16.003  2.1300  2.5590  2.5020  0.0000  4671.0  0.0000  0.0000  0.0000  0.0000 
  4671.500 -46.174  2.1470  2.6300  2.5380 -18.324  2.1470  2.6300  2.5380  0.0000  4671.5  0.0000  0.0000  0.0000  0.0000 
  4672.000 -47.599  2.1650  2.7010  2.5740 -19.745  2.1650  2.7010  2.5740  0.0000  4672.0  0.0000  0.0000  0.0000  0.0000 
  4672.500 -50.103  2.4680  2.7900  2.6810 -22.244  2.4680  2.7900  2.6810  0.0000  4672.5  0.0000  0.0000  0.0000  0.0000 
  4673.000 -53.866  2.7720  2.8790  2.7880 -26.003  2.7720  2.8790  2.7880  0.0000  4673.0  0.0000  0.0000  0.0000  0.0000 
  4673.500 -57.988  3.0040  3.1650  2.8600 -30.121  3.0040  3.1650  2.8600  0.0000  4673.5  0.0000  0.0000  0.0000  0.0000 
  4674.000 -59.593  3.2360  3.2000  2.9490 -31.722  3.2360  3.2000  2.9490  0.0000  4674.0  0.0000  0.0000  0.0000  0.0000 
  4674.500 -63.356  3.6290  3.2000  3.0390 -35.481  3.6290  3.2000  3.0390  0.0000  4674.5  0.0000  0.0000  0.0000  0.0000 
  4675.000 -66.039  3.9320  3.1990  3.0740 -38.160  3.9320  3.1990  3.0740  0.0000  4675.0  0.0000  0.0000  0.0000  0.0000 
  4675.500 -66.385  4.2360  3.2350  3.1460 -38.501  4.2360  3.2350  3.1460  0.0000  4675.5  0.0000  0.0000  0.0000  0.0000 
  4676.000 -65.832  4.6640  3.1990  3.1100 -37.944  4.6640  3.1990  3.1100  0.0000  4676.0  0.0000  0.0000  0.0000  0.0000 
  4676.500 -64.380  4.8780  3.1620  3.0740 -36.488  4.8780  3.1620  3.0740  0.0000  4676.5  0.0000  0.0000  0.0000  0.0000 
  4677.000 -62.928  5.0570  3.0910  3.0390 -35.032  5.0570  3.0910  3.0390  0.0000  4677.0  0.0000  0.0000  0.0000  0.0000 
  4677.500 -60.937  5.0920  2.9470  2.9130 -33.037  5.0920  2.9470  2.9130  0.0000  4677.5  0.0000  0.0000  0.0000  0.0000 
  4678.000 -61.013  4.8410  2.8400  2.7880 -33.109  4.8410  2.8400  2.7880  0.0000  4678.0  0.0000  0.0000  0.0000  0.0000 
  4678.500 -61.089  3.9470  2.5890  2.5380 -33.180  3.9470  2.5890  2.5380  0.0000  4678.5  0.0000  0.0000  0.0000  0.0000 
  4679.000 -62.515  3.5540  2.4460  2.3950 -34.602  3.5540  2.4460  2.3950  0.0000  4679.0  0.0000  0.0000  0.0000  0.0000 
  4679.500 -63.940  3.3390  2.4450  2.4310 -36.023  3.3390  2.4450  2.4310  0.0000  4679.5  0.0000  0.0000  0.0000  0.0000 
  4680.000 -65.545  3.4820  2.4810  2.5020 -37.624  3.4820  2.4810  2.5020  0.0000  4680.0  0.0000  0.0000  0.0000  0.0000 
  4680.500 -76.860  3.6240  2.5160  2.5740 -48.935  3.6240  2.5160  2.5740  0.0000  4680.5  0.0000  0.0000  0.0000  0.0000 
  4681.000 -76.936  3.9460  2.5510  2.6810 -49.007  3.9460  2.5510  2.6810  0.0000  4681.0  0.0000  0.0000  0.0000  0.0000 
  4681.500 -77.012  4.1960  2.5870  2.7880 -49.079  4.1960  2.5870  2.7880  0.0000  4681.5  0.0000  0.0000  0.0000  0.0000 
  4682.000 -76.640  4.4450  2.6220  2.8240 -48.702  4.4450  2.6220  2.8240  0.0000  4682.0  0.0000  0.0000  0.0000  0.0000 
  4682.500 -75.907  4.7310  2.6580  2.8600 -47.965  4.7310  2.6580  2.8600  0.0000  4682.5  0.0000  0.0000  0.0000  0.0000 
  4683.000 -75.174  4.7660  2.6930  2.8780 -47.228  4.7660  2.6930  2.8780  0.0000  4683.0  0.0000  0.0000  0.0000  0.0000 
  4683.500 -72.284  4.7120  2.6930  2.8950 -44.334  4.7120  2.6930  2.8950  0.0000  4683.5  0.0000  0.0000  0.0000  0.0000 
  4684.000 -71.192  4.6590  2.6920  2.8950 -43.238  4.6590  2.6920  2.8950  0.0000  4684.0  0.0000  0.0000  0.0000  0.0000 
  4684.500 -69.020  4.4800  2.6920  2.8950 -41.062  4.4800  2.6920  2.8950  0.0000  4684.5  0.0000  0.0000  0.0000  0.0000 
