~Version Information
VERS.                     2.0: CWLS log ASCII Standard Version 2.00
WRAP.                      NO: One line per depth step
~Well Information Block
#MNEM.UNIT                               Data Type  Information
#---------                               ---------  -----------
STRT.FT                                   720.0000:
STOP.FT                                  7270.0000:
STEP.FT                                     0.5000:
NULL.                 -999.25                     :
COMP.                                             :COMPANY            
WELL.     SAN EMIDIO A #34-27                     :WELL               
FLD .                                             :FIELD              
CTRY.                                             :COUNTRY            
STAT.                                             :STATE              
LOC .                                             :LOCATION           
UWI .                                             :UNIQUE WELL ID     
SRVC.                                             :Service company    
DATE.                                             :LOG DATE           
~Curve Information
#MNEM.UNIT           API CODE  Curve Description
#---------           --------  -----------------
DEPT.FT                      :   1 DEPTH
SP  .MV                      :   2
AM10.OHMM                    :   3
AO10.OHMM                    :   4
AO19.OHMM                    :   5
SBL .MV                      :   6
RS  .OHMM                    :   7
RM  .OHMM                    :   8
RD  .OHMM                    :   9
DEVI.DEG                     :  10
TVD .FT                      :  11
AZIM.DEG                     :  12
NORT.FT                      :  13
EAST.FT                      :  14
OFFS.FT                      :  15
~A
# ...
  2475.000 -52.230  2.9740  4.6220  4.9710 -16.558  2.9740  4.6220  4.9710  0.0000  2475.0  0.0000  0.0000  0.0000  0.0000 
  2475.500 -51.329  2.9390  4.7300  4.9180 -15.665  2.9390  4.7300  4.9180  0.0000  2475.5  0.0000  0.0000  0.0000  0.0000 
  2476.000 -50.518  2.8320  4.6230  4.4170 -14.863  2.8320  4.6230  4.4170  0.0000  2476.0  0.0000  0.0000  0.0000  0.0000 
  2476.500 -49.708  2.6890  4.5160  4.1310 -14.061  2.6890  4.5160  4.1310  0.0000  2476.5  0.0000  0.0000  0.0000  0.0000 
  2477.000 -47.189  2.3680  4.1590  3.8440 -11.551  2.3680  4.1590  3.8440  0.0000  2477.0  0.0000  0.0000  0.0000  0.0000 
  2477.500 -44.672  2.0820  3.7300  3.5580 -9.0427  2.0820  3.7300  3.5580  0.0000  2477.5  0.0000  0.0000  0.0000  0.0000 
  2478.000 -43.232  2.0460  3.6590  3.2720 -7.6113  2.0460  3.6590  3.2720  0.0000  2478.0  0.0000  0.0000  0.0000  0.0000 
  2478.500 -41.793  2.0110  3.6230  3.0580 -6.1809  2.0110  3.6230  3.0580  0.0000  2478.5  0.0000  0.0000  0.0000  0.0000 
  2479.000 -41.430  1.9760  3.5880  3.1120 -5.8266  1.9760  3.5880  3.1120  0.0000  2479.0  0.0000  0.0000  0.0000  0.0000 
  2479.500 -41.607  2.0130  3.6610  3.1660 -6.0122  2.0130  3.6610  3.1660  0.0000  2479.5  0.0000  0.0000  0.0000  0.0000 
  2480.000 -42.503  2.1570  3.7330  3.3820 -6.9168  2.1570  3.7330  3.3820  0.0000  2480.0  0.0000  0.0000  0.0000  0.0000 
  2480.500 -43.398  2.2110  3.8050  3.5620 -7.8204  2.2110  3.8050  3.5620  0.0000  2480.5  0.0000  0.0000  0.0000  0.0000 
  2481.000 -43.934  2.2660  3.8780  3.7410 -8.3650  2.2660  3.8780  3.7410  0.0000  2481.0  0.0000  0.0000  0.0000  0.0000 
  2481.500 -44.650  2.4450  3.9140  3.9750 -9.0897  2.4450  3.9140  3.9750  0.0000  2481.5  0.0000  0.0000  0.0000  0.0000 
  2482.000 -45.007  2.6250  3.9510  4.2080 -9.4553  2.6250  3.9510  4.2080  0.0000  2482.0  0.0000  0.0000  0.0000  0.0000 
  2482.500 -46.262  2.8410  4.1310  4.5310 -10.719  2.8410  4.1310  4.5310  0.0000  2482.5  0.0000  0.0000  0.0000  0.0000 
  2483.000 -46.439  3.0570  4.1670  4.6750 -10.905  3.0570  4.1670  4.6750  0.0000  2483.0  0.0000  0.0000  0.0000  0.0000 
  2483.500 -45.897  3.3440  4.2760  4.7830 -10.371  3.3440  4.2760  4.7830  0.0000  2483.5  0.0000  0.0000  0.0000  0.0000 
  2484.000 -46.344  3.5600  4.3300  4.8910 -10.827  3.5600  4.3300  4.8910  0.0000  2484.0  0.0000  0.0000  0.0000  0.0000 
  2484.500 -46.791  3.5960  4.3840  5.0350 -11.282  3.5960  4.3840  5.0350  0.0000  2484.5  0.0000  0.0000  0.0000  0.0000 
  2485.000 -48.045  3.6330  4.4390  5.1790 -12.545  3.6330  4.4390  5.1790  0.0000  2485.0  0.0000  0.0000  0.0000  0.0000 
  2485.500 -48.761  3.5260  4.4930  5.2150 -13.270  3.5260  4.4930  5.2150  0.0000  2485.5  0.0000  0.0000  0.0000  0.0000 
  2486.000 -44.087  3.4370  4.2430  5.0720 -8.6042  3.4370  4.2430  5.0720  0.0000  2486.0  0.0000  0.0000  0.0000  0.0000 
  2486.500 -42.648  3.3480  3.9930  4.9290 -7.1739  3.3480  3.9930  4.9290  0.0000  2486.5  0.0000  0.0000  0.0000  0.0000 
  2487.000 -41.926  3.2060  3.5640  4.6790 -6.4605  3.2060  3.5640  4.6790  0.0000  2487.0  0.0000  0.0000  0.0000  0.0000 
  2487.500 -41.564  3.0630  3.4030  4.5370 -6.1071  3.0630  3.4030  4.5370  0.0000  2487.5  0.0000  0.0000  0.0000  0.0000 
  2488.000 -42.639  2.6340  3.2430  4.4480 -7.1907  2.6340  3.2430  4.4480  0.0000  2488.0  0.0000  0.0000  0.0000  0.0000 
  2488.500 -43.715  2.4560  3.1180  4.3580 -8.2753  2.4560  3.1180  4.3580  0.0000  2488.5  0.0000  0.0000  0.0000  0.0000 
  2489.000 -44.430  2.3850  2.9930  4.2160 -8.9990  2.3850  2.9930  4.2160  0.0000  2489.0  0.0000  0.0000  0.0000  0.0000 
  2489.500 -43.530  2.3140  3.0300  4.1450 -8.1076  2.3140  3.0300  4.1450  0.0000  2489.5  0.0000  0.0000  0.0000  0.0000 
  2490.000 -44.425  2.2430  3.0670  4.1450 -9.0112  2.2430  3.0670  4.1450  0.0000  2490.0  0.0000  0.0000  0.0000  0.0000 
  2490.500 -45.680  2.3150  3.1210  4.1460 -10.275  2.3150  3.1210  4.1460  0.0000  2490.5  0.0000  0.0000  0.0000  0.0000 
  2491.000 -47.294  2.3520  3.1750  4.2360 -11.897  2.3520  3.1750  4.2360  0.0000  2491.0  0.0000  0.0000  0.0000  0.0000 
  2491.500 -49.088  2.4600  3.3730  4.3260 -13.700  2.4600  3.3730  4.3260  0.0000  2491.5  0.0000  0.0000  0.0000  0.0000 
  2492.000 -51.959  2.6400  3.5710  4.5410 -16.580  2.6400  3.5710  4.5410  0.0000  2492.0  0.0000  0.0000  0.0000  0.0000 
  2492.500 -53.214  2.9990  3.8940  4.7210 -17.843  2.9990  3.8940  4.7210  0.0000  2492.5  0.0000  0.0000  0.0000  0.0000 
  2493.000 -55.726  3.1960  4.2530  4.9010 -20.364  3.1960  4.2530  4.9010  0.0000  2493.0  0.0000  0.0000  0.0000  0.0000 
  2493.500 -59.496  3.3940  4.3970  5.1880 -24.143  3.3940  4.3970  5.1880  0.0000  2493.5  0.0000  0.0000  0.0000  0.0000 
  2494.000 -62.906  3.9320  4.7210  5.4750 -27.561  3.9320  4.7210  5.4750  0.0000  2494.0  0.0000  0.0000  0.0000  0.0000 
  2494.500 -65.059  4.7930  4.9180  5.6910 -29.723  4.7930  4.9180  5.6910  0.0000  2494.5  0.0000  0.0000  0.0000  0.0000 
  2495.000 -66.494  5.4030  5.1160  5.8340 -31.166  5.4030  5.1160  5.8340  0.0000  2495.0  0.0000  0.0000  0.0000  0.0000 
  2495.500 -68.467  5.7260  5.4030  6.0500 -33.148  5.7260  5.4030  6.0500  0.0000  2495.5  0.0000  0.0000  0.0000  0.0000 
  2496.000 -69.901  6.0490  5.7270  6.1100 -34.591  6.0490  5.7270  6.1100  0.0000  2496.0  0.0000  0.0000  0.0000  0.0000 
  2496.500 -71.336  6.6230  5.7990  6.1700 -36.034  6.6230  5.7990  6.1700  0.0000  2496.5  0.0000  0.0000  0.0000  0.0000 
  2497.000 -73.129  6.7670  5.8000  6.2300 -37.836  6.7670  5.8000  6.2300  0.0000  2497.0  0.0000  0.0000  0.0000  0.0000 
  2497.500 -73.845  7.0540  5.8000  6.3200 -38.561  7.0540  5.8000  6.3200  0.0000  2497.5  0.0000  0.0000  0.0000  0.0000 
  2498.000 -74.022  7.3420  5.8370  6.4110 -38.746  7.3420  5.8370  6.4110  0.0000  2498.0  0.0000  0.0000  0.0000  0.0000 
  2498.500 -74.110  7.4860  5.8380  6.4110 -38.843  7.4860  5.8380  6.4110  0.0000  2498.5  0.0000  0.0000  0.0000  0.0000 
  2499.000 -74.197  7.4510  5.8380  6.4120 -38.938  7.4510  5.8380  6.4120  0.0000  2499.0  0.0000  0.0000  0.0000  0.0000 
  2499.500 -74.194  7.3080  5.8030  6.3410 -38.944  7.3080  5.8030  6.3410  0.0000  2499.5  0.0000  0.0000  0.0000  0.0000 
  2500.000 -74.191  7.1830  5.7680  6.2690 -38.950  7.1830  5.7680  6.2690  0.0000  2500.0  0.0000  0.0000  0.0000  0.0000 
  2500.500 -74.014  7.0580  5.7320  6.1980 -38.781  7.0580  5.7320  6.1980  0.0000  2500.5  0.0000  0.0000  0.0000  0.0000 
  2501.000 -73.837  6.9150  5.7330  6.1800 -38.613  6.9150  5.7330  6.1800  0.0000  2501.0  0.0000  0.0000  0.0000  0.0000 
  2501.500 -73.301  6.8070  5.8220  6.1620 -38.085  6.8070  5.8220  6.1620  0.0000  2501.5  0.0000  0.0000  0.0000  0.0000 
  2502.000 -72.585  6.7000  5.9120  6.1450 -37.378  6.7000  5.9120  6.1450  0.0000  2502.0  0.0000  0.0000  0.0000  0.0000 
  2502.500 -72.678  6.5570  6.2350  6.1270 -37.480  6.5570  6.2350  6.1270  0.0000  2502.5  0.0000  0.0000  0.0000  0.0000 
  2503.000 -72.771  6.6290  6.5210  6.1990 -37.581  6.6290  6.5210  6.1990  0.0000  2503.0  0.0000  0.0000  0.0000  0.0000 
  2503.500 -72.773  6.7010  6.9160  6.2890 -37.592  6.7010  6.9160  6.2890  0.0000  2503.5  0.0000  0.0000  0.0000  0.0000 
  2504.000 -72.147  6.8090  7.1670  6.3780 -36.975  6.8090  7.1670  6.3780  0.0000  2504.0  0.0000  0.0000  0.0000  0.0000 
  2504.500 -71.522  6.8090  7.3100  6.5040 -36.358  6.8090  7.3100  6.5040  0.0000  2504.5  0.0000  0.0000  0.0000  0.0000 
  2505.000 -70.446  6.7370  7.4180  6.6300 -35.291  6.7370  7.4180  6.6300  0.0000  2505.0  0.0000  0.0000  0.0000  0.0000 
  2505.500 -69.730  6.6660  7.5080  6.8090 -34.583  6.6660  7.5080  6.8090  0.0000  2505.5  0.0000  0.0000  0.0000  0.0000 
  2506.000 -69.014  6.3790  7.5970  6.7020 -33.876  6.3790  7.5970  6.7020  0.0000  2506.0  0.0000  0.0000  0.0000  0.0000 
  2506.500 -69.735  6.2720  7.8840  6.5590 -34.606  6.2720  7.8840  6.5590  0.0000  2506.5  0.0000  0.0000  0.0000  0.0000 
  2507.000 -70.277  6.1290  8.0280  6.5950 -35.156  6.1290  8.0280  6.5950  0.0000  2507.0  0.0000  0.0000  0.0000  0.0000 
