~Version Information
VERS.                     2.0: CWLS log ASCII Standard Version 2.00
WRAP.                      NO: One line per depth step
~Well Information Block
#MNEM.UNIT                               Data Type  Information
#---------                               ---------  -----------
STRT.FT                                   720.0000:
STOP.FT                                  7270.0000:
STEP.FT                                     0.5000:
NULL.                 -999.25                     :
COMP.                                             :COMPANY            
WELL.     SAN EMIDIO A #34-27                     :WELL               
FLD .                                             :FIELD              
CTRY.                                             :COUNTRY            
STAT.                                             :STATE              
LOC .                                             :LOCATION           
UWI .                                             :UNIQUE WELL ID     
SRVC.                                             :Service company    
DATE.                                             :LOG DATE           
~Curve Information
#MNEM.UNIT           API CODE  Curve Description
#---------           --------  -----------------
DEPT.FT                      :   1 DEPTH
SP  .MV                      :   2
AM10.OHMM                    :   3
AO10.OHMM                    :   4
AO19.OHMM                    :   5
SBL .MV                      :   6
RS  .OHMM                    :   7
RM  .OHMM                    :   8
RD  .OHMM                    :   9
DEVI.DEG                     :  10
TVD .FT                      :  11
AZIM.DEG                     :  12
NORT.FT                      :  13
EAST.FT                      :  14
OFFS.FT                      :  15
~A
# ...
  5075.000 -43.066  1.8730  2.2310  2.4370 -13.066  1.8730  2.2310  2.4370  4.7500  5074.9  157.00 -2.9961  1.6130 -0.9780 
  5075.500 -43.066  1.8380  2.1960  2.4380 -13.066  1.8380  2.1960  2.4380  4.7500  5075.4  157.04 -3.0342  1.6292 -0.9935 
  5076.000 -42.886  1.8020  2.1430  2.4920 -12.886  1.8020  2.1430  2.4920  4.7500  5075.9  157.09 -3.0724  1.6453 -1.0091 
  5076.500 -42.617  1.7670  2.0890  2.5470 -12.617  1.7670  2.0890  2.5470  4.7500  5076.4  157.13 -3.1105  1.6614 -1.0247 
  5077.000 -42.348  1.7310  1.9830  2.5480 -12.348  1.7310  1.9830  2.5480  4.7500  5076.9  157.17 -3.1487  1.6775 -1.0403 
  5077.500 -41.448  1.6780  1.9830  2.5480 -11.448  1.6780  1.9830  2.5480  4.7500  5077.4  157.21 -3.1869  1.6935 -1.0560 
  5078.000 -41.088  1.6250  1.9840  2.5850 -11.088  1.6250  1.9840  2.5850  4.7500  5077.9  157.26 -3.2250  1.7095 -1.0716 
  5078.500 -40.909  1.6080  1.9840  2.5860 -10.909  1.6080  1.9840  2.5860  4.7500  5078.4  157.30 -3.2632  1.7255 -1.0874 
  5079.000 -40.729  1.5900  2.0200  2.5510 -10.729  1.5900  2.0200  2.5510  4.7500  5078.9  157.34 -3.3014  1.7414 -1.1031 
  5079.500 -40.729  1.5550  2.0570  2.5150 -10.729  1.5550  2.0570  2.5150  4.7500  5079.4  157.38 -3.3397  1.7574 -1.1189 
  5080.000 -40.729  1.5200  2.0930  2.4800 -10.729  1.5200  2.0930  2.4800  4.7500  5079.9  157.43 -3.3779  1.7732 -1.1347 
  5080.500 -40.999  1.5200  2.1290  2.4810 -10.999  1.5200  2.1290  2.4810  4.7500  5080.4  157.47 -3.4161  1.7891 -1.1505 
  5081.000 -41.269  1.5210  2.1480  2.4820 -11.269  1.5210  2.1480  2.4820  4.7500  5080.9  157.51 -3.4544  1.8049 -1.1663 
  5081.500 -41.808  1.5390  2.1660  2.4820 -11.808  1.5390  2.1660  2.4820  4.7500  5081.4  157.55 -3.4927  1.8208 -1.1822 
  5082.000 -42.078  1.5580  2.2390  2.5010 -12.078  1.5580  2.2390  2.5010  4.7500  5081.8  157.60 -3.5309  1.8365 -1.1981 
  5082.500 -42.348  1.5940  2.2750  2.5200 -12.348  1.5940  2.2750  2.5200  4.7500  5082.3  157.64 -3.5692  1.8523 -1.2141 
  5083.000 -42.527  1.6310  2.3290  2.5560 -12.527  1.6310  2.3290  2.5560  4.7500  5082.8  157.68 -3.6075  1.8680 -1.2300 
  5083.500 -42.797  1.6850  2.3840  2.5930 -12.797  1.6850  2.3840  2.5930  4.7500  5083.3  157.72 -3.6458  1.8837 -1.2460 
  5084.000 -43.068  1.7390  2.4020  2.5940 -13.068  1.7390  2.4020  2.5940  4.7500  5083.8  157.77 -3.6842  1.8994 -1.2620 
  5084.500 -43.426  1.8110  2.4200  2.6120 -13.426  1.8110  2.4200  2.6120  4.7500  5084.3  157.81 -3.7225  1.9150 -1.2781 
  5085.000 -43.607  1.8840  2.4030  2.6310 -13.607  1.8840  2.4030  2.6310  4.7500  5084.8  157.85 -3.7609  1.9306 -1.2942 
  5085.500 -43.787  1.9380  2.3860  2.6310 -13.787  1.9380  2.3860  2.6310  4.7500  5085.3  157.89 -3.7992  1.9462 -1.3103 
  5086.000 -44.056  1.9920  2.3680  2.6320 -14.056  1.9920  2.3680  2.6320  4.7500  5085.8  157.94 -3.8376  1.9618 -1.3264 
  5086.500 -44.325  2.0460  2.3510  2.6330 -14.325  2.0460  2.3510  2.6330  4.7500  5086.3  157.98 -3.8760  1.9773 -1.3426 
  5087.000 -44.326  2.1010  2.3520  2.6330 -14.326  2.1010  2.3520  2.6330  4.7500  5086.8  158.02 -3.9144  1.9928 -1.3588 
  5087.500 -44.505  2.1370  2.3520  2.6160 -14.505  2.1370  2.3520  2.6160  4.7500  5087.3  158.06 -3.9528  2.0082 -1.3750 
  5088.000 -44.326  2.2090  2.3350  2.5990 -14.326  2.2090  2.3350  2.5990  4.7500  5087.8  158.11 -3.9912  2.0237 -1.3912 
  5088.500 -43.966  2.2460  2.3170  2.6000 -13.966  2.2460  2.3170  2.6000  4.7500  5088.3  158.15 -4.0296  2.0391 -1.4075 
  5089.000 -43.606  2.2460  2.3180  2.6010 -13.606  2.2460  2.3180  2.6010  4.7500  5088.8  158.19 -4.0681  2.0545 -1.4238 
  5089.500 -43.067  2.2470  2.3010  2.6020 -13.067  2.2470  2.3010  2.6020  4.7500  5089.3  158.23 -4.1065  2.0698 -1.4402 
  5090.000 -42.706  2.2470  2.2830  2.5840 -12.706  2.2470  2.2830  2.5840  4.7500  5089.8  158.28 -4.1450  2.0852 -1.4565 
  5090.500 -42.526  2.2480  2.3200  2.5670 -12.526  2.2480  2.3200  2.5670  4.7500  5090.3  158.32 -4.1835  2.1005 -1.4729 
  5091.000 -42.347  2.2600  2.3200  2.5680 -12.347  2.2600  2.3200  2.5680  4.7500  5090.8  158.36 -4.2219  2.1157 -1.4893 
  5091.500 -42.347  2.2730  2.3030  2.5690 -12.347  2.2730  2.3030  2.5690  4.7500  5091.3  158.40 -4.2604  2.1310 -1.5058 
  5092.000 -42.347  2.2850  2.2850  2.5510 -12.347  2.2850  2.2850  2.5510  4.7500  5091.8  158.45 -4.2989  2.1462 -1.5222 
  5092.500 -42.437  2.2860  2.2860  2.5340 -12.437  2.2860  2.2860  2.5340  4.7500  5092.3  158.49 -4.3375  2.1613 -1.5387 
  5093.000 -42.528  2.2860  2.2690  2.4990 -12.528  2.2860  2.2690  2.4990  4.7500  5092.8  158.53 -4.3760  2.1765 -1.5553 
  5093.500 -42.527  2.2690  2.2510  2.4640 -12.527  2.2690  2.2510  2.4640  4.7500  5093.3  158.57 -4.4145  2.1916 -1.5718 
  5094.000 -42.527  2.2520  2.2520  2.4290 -12.527  2.2520  2.2520  2.4290  4.7500  5093.8  158.62 -4.4531  2.2067 -1.5884 
  5094.500 -42.347  2.2520  2.2520  2.3760 -12.347  2.2520  2.2520  2.3760  4.7500  5094.3  158.66 -4.4917  2.2218 -1.6050 
  5095.000 -41.898  2.2530  2.2530  2.3230 -11.898  2.2530  2.2530  2.3230  4.7500  5094.8  158.70 -4.5302  2.2368 -1.6217 
  5095.500 -41.449  2.2530  2.2530  2.2870 -11.449  2.2530  2.2530  2.2870  4.7500  5095.3  158.75 -4.5688  2.2518 -1.6384 
  5096.000 -40.729  2.2360  2.2180  2.2520 -10.729  2.2360  2.2180  2.2520  4.7500  5095.8  158.79 -4.6074  2.2668 -1.6551 
  5096.500 -40.549  2.2190  2.1830  2.1990 -10.549  2.2190  2.1830  2.1990  4.7500  5096.3  158.83 -4.6460  2.2818 -1.6718 
  5097.000 -40.549  2.2010  2.1650  2.1460 -10.549  2.2010  2.1650  2.1460  4.7500  5096.8  158.87 -4.6847  2.2967 -1.6885 
  5097.500 -40.909  2.1840  2.1480  2.0750 -10.909  2.1840  2.1480  2.0750  4.7500  5097.3  158.92 -4.7233  2.3116 -1.7053 
  5098.000 -41.268  2.1490  2.1360  2.0400 -11.268  2.1490  2.1360  2.0400  4.7500  5097.8  158.96 -4.7619  2.3265 -1.7221 
  5098.500 -41.359  2.1490  2.1250  2.0410 -11.359  2.1490  2.1250  2.0410  4.7500  5098.3  159.00 -4.8006  2.3413 -1.7390 
  5099.000 -41.449  2.1490  2.1140  2.0780 -11.449  2.1490  2.1140  2.0780  4.7500  5098.8  159.04 -4.8392  2.3561 -1.7558 
  5099.500 -41.808  2.1140  2.0780  2.1140 -11.808  2.1140  2.0780  2.1140  4.7500  5099.3  159.09 -4.8779  2.3709 -1.7727 
  5100.000 -41.808  2.0970  2.0610  2.1870 -11.808  2.0970  2.0610  2.1870  4.7500  5099.8  159.13 -4.9166  2.3856 -1.7897 
  5100.500 -42.519  2.0790  2.0440  2.1510 -12.519  2.0790  2.0440  2.1510  4.7500  5100.3  159.17 -4.9553  2.4004 -1.8066 
  5101.000 -42.511  2.0620  2.0270  2.1160 -12.511  2.0620  2.0270  2.1160  4.7500  5100.8  159.21 -4.9940  2.4151 -1.8236 
  5101.500 -42.503  2.0450  2.0090  2.0810 -12.503  2.0450  2.0090  2.0810  4.7500  5101.3  159.26 -5.0327  2.4297 -1.8406 
  5102.000 -42.315  2.0100  2.0100  2.0820 -12.315  2.0100  2.0100  2.0820  4.7500  5101.8  159.30 -5.0715  2.4444 -1.8577 
  5102.500 -41.767  2.0110  2.0110  2.0830 -11.767  2.0110  2.0110  2.0830  4.7500  5102.3  159.34 -5.1102  2.4590 -1.8747 
  5103.000 -41.220  2.0110  2.0110  2.1010 -11.220  2.0110  2.0110  2.1010  4.7500  5102.8  159.38 -5.1490  2.4735 -1.8918 
  5103.500 -40.673  1.9580  2.0120  2.1200 -10.673  1.9580  2.0120  2.1200  4.7500  5103.3  159.43 -5.1877  2.4881 -1.9089 
  5104.000 -40.306  1.9050  2.0130  2.1560 -10.306  1.9050  2.0130  2.1560  4.7500  5103.8  159.47 -5.2265  2.5026 -1.9261 
  5104.500 -39.938  1.7990  2.0140  2.2110 -9.9380  1.7990  2.0140  2.2110  4.7500  5104.3  159.51 -5.2653  2.5171 -1.9433 
  5105.000 -40.468  1.7280  1.9790  2.2650 -10.468  1.7280  1.9790  2.2650  4.7500  5104.8  159.55 -5.3041  2.5316 -1.9605 
  5105.500 -40.640  1.6930  1.9970  2.3380 -10.640  1.6930  1.9970  2.3380  4.7500  5105.3  159.60 -5.3429  2.5460 -1.9777 
  5106.000 -40.632  1.6750  2.0160  2.3030 -10.632  1.6750  2.0160  2.3030  4.7500  5105.8  159.64 -5.3817  2.5604 -1.9950 
  5106.500 -40.534  1.6580  2.0160  2.2670 -10.534  1.6580  2.0160  2.2670  4.7500  5106.3  159.68 -5.4205  2.5748 -2.0122 
  5107.000 -40.437  1.6410  2.0170  2.2320 -10.437  1.6410  2.0170  2.2320  4.7500  5106.8  159.72 -5.4594  2.5891 -2.0296 
