~Version Information
VERS.                     2.0: CWLS log ASCII Standard Version 2.00
WRAP.                      NO: One line per depth step
~Well Information Block
#MNEM.UNIT                               Data Type  Information
#---------                               ---------  -----------
STRT.FT                                   720.0000:
STOP.FT                                  7270.0000:
STEP.FT                                     0.5000:
NULL.                 -999.25                     :
COMP.                                             :COMPANY            
WELL.     SAN EMIDIO A #34-27                     :WELL               
FLD .                                             :FIELD              
CTRY.                                             :COUNTRY            
STAT.                                             :STATE              
LOC .                                             :LOCATION           
UWI .                                             :UNIQUE WELL ID     
SRVC.                                             :Service company    
DATE.                                             :LOG DATE           
~Curve Information
#MNEM.UNIT           API CODE  Curve Description
#---------           --------  -----------------
DEPT.FT                      :   1 DEPTH
SP  .MV                      :   2
AM10.OHMM                    :   3
AO10.OHMM                    :   4
AO19.OHMM                    :   5
SBL .MV                      :   6
RS  .OHMM                    :   7
RM  .OHMM                    :   8
RD  .OHMM                    :   9
DEVI.DEG                     :  10
TVD .FT                      :  11
AZIM.DEG                     :  12
NORT.FT                      :  13
EAST.FT                      :  14
OFFS.FT                      :  15
~A
# ...
  5952.500 -38.696  3.1200  1.9730  1.9200 -17.209  3.1200  1.9730  1.9200  18.000  5935.7  160.19 -154.48  39.495 -81.306 
  5953.000 -38.873  2.9410  2.2250  1.8850 -17.403  2.9410  2.2250  1.8850  18.000  5936.1  160.18 -154.62  39.547 -81.372 
  5953.500 -38.961  2.7270  2.3680  1.8490 -17.508  2.7270  2.3680  1.8490  18.000  5936.6  160.17 -154.77  39.600 -81.437 
  5954.000 -39.049  2.5840  2.5480  1.7790 -17.613  2.5840  2.5480  1.7790  18.000  5937.1  160.16 -154.91  39.652 -81.503 
  5954.500 -39.046  2.4770  2.8710  1.7610 -17.627  2.4770  2.8710  1.7610  18.000  5937.6  160.15 -155.06  39.705 -81.569 
  5955.000 -38.415  2.3690  3.0140  1.7440 -17.013  2.3690  3.0140  1.7440  18.000  5938.1  160.14 -155.21  39.757 -81.634 
  5955.500 -37.783  2.2620  3.1040  1.7440 -16.398  2.2620  3.1040  1.7440  18.000  5938.5  160.13 -155.35  39.810 -81.700 
  5956.000 -35.621  2.2270  3.1940  1.7450 -14.253  2.2270  3.1940  1.7450  18.000  5939.0  160.12 -155.50  39.862 -81.766 
  5956.500 -34.900  2.1550  3.4100  1.7630 -13.550  2.1550  3.4100  1.7630  18.000  5939.5  160.11 -155.64  39.915 -81.831 
  5957.000 -35.437  2.1380  3.5890  1.7820 -14.104  2.1380  3.5890  1.7820  18.000  5940.0  160.10 -155.79  39.967 -81.897 
  5957.500 -36.245  2.1200  3.6790  1.7820 -14.929  2.1200  3.6790  1.7820  18.000  5940.4  160.09 -155.93  40.020 -81.962 
  5958.000 -37.052  2.1210  3.7690  1.7830 -15.753  2.1210  3.7690  1.7830  18.000  5940.9  160.08 -156.08  40.073 -82.028 
  5958.500 -38.308  2.1210  3.8050  1.7830 -17.026  2.1210  3.8050  1.7830  18.000  5941.4  160.07 -156.22  40.125 -82.093 
  5959.000 -39.025  2.1930  3.8240  1.8020 -17.760  2.1930  3.8240  1.8020  18.000  5941.9  160.06 -156.37  40.178 -82.159 
  5959.500 -39.922  2.2290  3.8420  1.8200 -18.674  2.2290  3.8420  1.8200  18.000  5942.3  160.05 -156.51  40.231 -82.224 
  5960.000 -40.639  2.2290  3.8420  1.8570 -19.408  2.2290  3.8420  1.8570  18.000  5942.8  160.04 -156.66  40.283 -82.289 
  5960.500 -41.087  2.2300  3.8070  1.8930 -19.873  2.2300  3.8070  1.8930  18.000  5943.3  160.03 -156.80  40.336 -82.355 
  5961.000 -41.535  2.1940  3.7710  1.9110 -20.338  2.1940  3.7710  1.9110  18.000  5943.8  160.02 -156.95  40.389 -82.420 
  5961.500 -42.790  2.2190  3.7360  1.9300 -21.611  2.2190  3.7360  1.9300  18.000  5944.2  160.01 -157.09  40.442 -82.485 
  5962.000 -42.788  2.2430  3.6650  2.0020 -21.626  2.2430  3.6650  2.0020  18.000  5944.7  160.00 -157.24  40.495 -82.551 
  5962.500 -42.067  2.2670  3.6290  2.1640 -20.922  2.2670  3.6290  2.1640  17.992  5945.2  160.02 -157.38  40.548 -82.616 
  5963.000 -41.345  2.2670  3.5940  2.3260 -20.217  2.2670  3.5940  2.3260  17.984  5945.7  160.04 -157.53  40.600 -82.681 
  5963.500 -40.983  2.2680  3.5220  2.4520 -19.872  2.2680  3.5220  2.4520  17.975  5946.1  160.06 -157.67  40.653 -82.747 
  5964.000 -40.892  2.3400  3.5230  2.5780 -19.798  2.3400  3.5230  2.5780  17.967  5946.6  160.08 -157.82  40.705 -82.812 
  5964.500 -40.800  2.3760  3.5590  2.7930 -19.723  2.3760  3.5590  2.7930  17.959  5947.1  160.10 -157.96  40.758 -82.877 
  5965.000 -43.674  2.4480  3.5950  3.0090 -22.614  2.4480  3.5950  3.0090  17.951  5947.6  160.12 -158.11  40.810 -82.943 
  5965.500 -45.649  2.5200  3.7390  3.3320 -24.606  2.5200  3.7390  3.3320  17.942  5948.0  160.14 -158.25  40.863 -83.008 
  5966.000 -46.726  2.5920  3.8470  3.6200 -25.700  2.5920  3.8470  3.6200  17.934  5948.5  160.16 -158.40  40.915 -83.074 
  5966.500 -47.803  2.6640  3.8830  3.8890 -26.794  2.6640  3.8830  3.8890  17.926  5949.0  160.18 -158.54  40.967 -83.139 
  5967.000 -48.699  2.8440  3.8830  4.1580 -27.708  2.8440  3.8830  4.1580  17.918  5949.5  160.20 -158.69  41.019 -83.205 
  5967.500 -49.147  2.9880  3.8830  4.4100 -28.173  2.9880  3.8830  4.4100  17.909  5949.9  160.21 -158.83  41.071 -83.270 
  5968.000 -49.595  3.2030  3.8480  4.5890 -28.638  3.2030  3.8480  4.5890  17.901  5950.4  160.23 -158.98  41.123 -83.336 
  5968.500 -49.052  3.3830  3.7770  4.5540 -28.112  3.3830  3.7770  4.5540  17.893  5950.9  160.25 -159.12  41.175 -83.401 
  5969.000 -47.971  3.5440  3.7050  4.4470 -27.048  3.5440  3.7050  4.4470  17.885  5951.4  160.27 -159.27  41.227 -83.467 
  5969.500 -47.070  3.7060  3.6340  4.3760 -26.164  3.7060  3.6340  4.3760  17.877  5951.8  160.29 -159.41  41.279 -83.532 
  5970.000 -46.529  3.7780  3.3840  4.3050 -25.640  3.7780  3.3840  4.3050  17.868  5952.3  160.31 -159.56  41.330 -83.598 
  5970.500 -45.988  3.3120  3.3120  4.2340 -25.116  3.3120  3.3120  4.2340  17.860  5952.8  160.33 -159.70  41.382 -83.664 
  5971.000 -44.006  3.0260  3.2410  4.1270 -23.151  3.0260  3.2410  4.1270  17.852  5953.3  160.35 -159.84  41.434 -83.729 
  5971.500 -43.285  2.9010  3.1700  4.1090 -22.447  2.9010  3.1700  4.1090  17.844  5953.7  160.37 -159.99  41.485 -83.795 
  5972.000 -42.564  2.7760  3.1340  4.0920 -21.743  2.7760  3.1340  4.0920  17.835  5954.2  160.39 -160.13  41.536 -83.861 
  5972.500 -41.663  2.6330  3.1700  4.2360 -20.860  2.6330  3.1700  4.2360  17.827  5954.7  160.41 -160.28  41.588 -83.926 
  5973.000 -40.762  2.6150  3.2240  4.3620 -19.976  2.6150  3.2240  4.3620  17.819  5955.2  160.43 -160.42  41.639 -83.992 
  5973.500 -40.130  2.5970  3.2780  4.4870 -19.361  2.5970  3.2780  4.4870  17.811  5955.7  160.45 -160.57  41.690 -84.058 
  5974.000 -39.498  2.6160  3.4580  4.5960 -18.746  2.6160  3.4580  4.5960  17.803  5956.1  160.47 -160.71  41.741 -84.123 
  5974.500 -38.955  2.6340  3.5300  4.6320 -18.220  2.6340  3.5300  4.6320  17.794  5956.6  160.49 -160.85  41.792 -84.189 
  5975.000 -38.683  2.7780  3.5660  4.6680 -17.965  2.7780  3.5660  4.6680  17.786  5957.1  160.51 -161.00  41.843 -84.255 
  5975.500 -38.412  2.9570  3.6020  4.6330 -17.711  2.9570  3.6020  4.6330  17.778  5957.6  160.53 -161.14  41.894 -84.321 
  5976.000 -37.690  2.9940  3.5670  4.3470 -17.006  2.9940  3.5670  4.3470  17.770  5958.0  160.55 -161.29  41.945 -84.387 
  5976.500 -36.969  3.0120  3.5310  4.2040 -16.302  3.0120  3.5310  4.2040  17.761  5958.5  160.57 -161.43  41.996 -84.452 
  5977.000 -35.887  3.0300  3.4240  4.0610 -15.237  3.0300  3.4240  4.0610  17.753  5959.0  160.59 -161.57  42.046 -84.518 
  5977.500 -35.165  2.7800  3.3530  3.8820 -14.533  2.7800  3.3530  3.8820  17.745  5959.5  160.61 -161.72  42.097 -84.584 
  5978.000 -34.444  2.6370  3.1380  3.7040 -13.829  2.6370  3.1380  3.7040  17.737  5959.9  160.63 -161.86  42.147 -84.650 
  5978.500 -33.542  2.4220  2.9950  3.5790 -12.944  2.4220  2.9950  3.5790  17.729  5960.4  160.65 -162.00  42.198 -84.716 
  5979.000 -32.821  2.3330  2.8880  3.4540 -12.240  2.3330  2.8880  3.4540  17.720  5960.9  160.67 -162.15  42.248 -84.782 
  5979.500 -32.549  2.2430  2.7810  3.3110 -11.985  2.2430  2.7810  3.3110  17.712  5961.4  160.69 -162.29  42.299 -84.848 
  5980.000 -32.278  2.1000  2.6380  3.1680 -11.731  2.1000  2.6380  3.1680  17.704  5961.8  160.71 -162.43  42.349 -84.914 
  5980.500 -31.735  1.9570  2.6030  2.9540 -11.205  1.9570  2.6030  2.9540  17.696  5962.3  160.73 -162.58  42.399 -84.980 
  5981.000 -31.373  1.8860  2.5670  2.8830 -10.860  1.8860  2.5670  2.8830  17.687  5962.8  160.75 -162.72  42.449 -85.046 
  5981.500 -31.372  1.8150  2.5310  2.8120 -10.876  1.8150  2.5310  2.8120  17.679  5963.3  160.77 -162.87  42.499 -85.112 
  5982.000 -31.370  1.7250  2.5140  2.7220 -10.891  1.7250  2.5140  2.7220  17.671  5963.7  160.79 -163.01  42.549 -85.178 
  5982.500 -31.278  1.6360  2.4960  2.6330 -10.816  1.6360  2.4960  2.6330  17.663  5964.2  160.81 -163.15  42.599 -85.244 
  5983.000 -31.186  1.6190  2.4610  2.5270 -10.742  1.6190  2.4610  2.5270  17.655  5964.7  160.83 -163.30  42.649 -85.310 
  5983.500 -31.183  1.6010  2.4610  2.4550 -10.756  1.6010  2.4610  2.4550  17.646  5965.2  160.85 -163.44  42.698 -85.376 
  5984.000 -31.181  1.5660  2.4260  2.4200 -10.771  1.5660  2.4260  2.4200  17.638  5965.7  160.87 -163.58  42.748 -85.442 
  5984.500 -31.178  1.5300  2.4260  2.3490 -10.785  1.5300  2.4260  2.3490  17.630  5966.1  160.89 -163.72  42.798 -85.508 
