~Version Information
VERS.                     2.0: CWLS log ASCII Standard Version 2.00
WRAP.                      NO: One line per depth step
~Well Information Block
#MNEM.UNIT                               Data Type  Information
#---------                               ---------  -----------
STRT.FT                                   720.0000:
STOP.FT                                  7270.0000:
STEP.FT                                     0.5000:
NULL.                 -999.25                     :
COMP.                                             :COMPANY            
WELL.     SAN EMIDIO A #34-27                     :WELL               
FLD .                                             :FIELD              
CTRY.                                             :COUNTRY            
STAT.                                             :STATE              
LOC .                                             :LOCATION           
UWI .                                             :UNIQUE WELL ID     
SRVC.                                             :Service company    
DATE.                                             :LOG DATE           
~Curve Information
#MNEM.UNIT           API CODE  Curve Description
#---------           --------  -----------------
DEPT.FT                      :   1 DEPTH
SP  .MV                      :   2
AM10.OHMM                    :   3
AO10.OHMM                    :   4
AO19.OHMM                    :   5
SBL .MV                      :   6
RS  .OHMM                    :   7
RM  .OHMM                    :   8
RD  .OHMM                    :   9
DEVI.DEG                     :  10
TVD .FT                      :  11
AZIM.DEG                     :  12
NORT.FT                      :  13
EAST.FT                      :  14
OFFS.FT                      :  15
~A
# ...
  7252.500 -51.864  21.486  51.925  58.640 -31.864  21.486  51.925  58.640  18.000  7170.1  157.99 -532.66  189.94 -242.33 
  7253.000 -50.428  22.560  52.283  59.358 -30.428  22.560  52.283  59.358  18.000  7170.6  157.99 -532.80  190.00 -242.40 
  7253.500 -49.532  23.635  52.642  60.076 -29.532  23.635  52.642  60.076  18.000  7171.1  157.99 -532.94  190.06 -242.46 
  7254.000 -49.624  31.514  53.536  60.974 -29.624  31.514  53.536  60.974  18.000  7171.5  157.99 -533.09  190.12 -242.52 
  7254.500 -49.716  32.946  54.431  61.872 -29.716  32.946  54.431  61.872  18.000  7172.0  157.99 -533.23  190.18 -242.58 
  7255.000 -49.179  34.378  55.505  61.875 -29.179  34.378  55.505  61.875  18.000  7172.5  157.99 -533.37  190.23 -242.64 
  7255.500 -48.642  33.304  56.580  61.162 -28.642  33.304  56.580  61.162  18.000  7173.0  157.99 -533.52  190.29 -242.70 
  7256.000 -47.565  32.230  57.833  60.806 -27.565  32.230  57.833  60.806  18.000  7173.4  157.99 -533.66  190.35 -242.76 
  7256.500 -45.950  30.081  59.086  60.808 -25.950  30.081  59.086  60.808  18.000  7173.9  157.99 -533.80  190.41 -242.82 
  7257.000 -44.694  27.933  60.877  60.810 -24.694  27.933  60.877  60.810  18.000  7174.4  157.99 -533.95  190.47 -242.88 
  7257.500 -44.337  26.142  62.667  60.097 -24.337  26.142  62.667  60.097  18.000  7174.9  157.99 -534.09  190.52 -242.94 
  7258.000 -43.979  25.605  64.100  60.458 -23.979  25.605  64.100  60.458  18.000  7175.3  157.99 -534.23  190.58 -243.00 
  7258.500 -44.341  25.067  65.532  61.177 -24.341  25.067  65.532  61.177  18.000  7175.8  157.99 -534.38  190.64 -243.06 
  7259.000 -44.702  24.709  68.040  61.896 -24.702  24.709  68.040  61.896  18.000  7176.3  157.99 -534.52  190.70 -243.12 
  7259.500 -45.602  24.351  69.114  61.898 -25.602  24.351  69.114  61.898  18.000  7176.8  157.99 -534.66  190.75 -243.18 
  7260.000 -45.783  23.993  71.621  61.901 -25.783  23.993  71.621  61.901  18.000  7177.3  157.99 -534.81  190.81 -243.24 
  7260.500 -45.426  23.635  72.695  61.187 -25.426  23.635  72.695  61.187  18.000  7177.7  157.99 -534.95  190.87 -243.30 
  7261.000 -44.889  23.636  73.768  60.832 -24.889  23.636  73.768  60.832  18.000  7178.2  157.99 -535.09  190.93 -243.36 
  7261.500 -44.711  23.636  78.425  60.476 -24.711  23.636  78.425  60.476  18.000  7178.7  157.99 -535.24  190.99 -243.42 
  7262.000 -44.534  23.994  80.573  59.762 -24.534  23.994  80.573  59.762  18.000  7179.2  157.99 -535.38  191.04 -243.48 
  7262.500 -46.152  24.172  84.154  59.585 -26.152  24.172  84.154  59.585  18.000  7179.6  157.99 -535.52  191.10 -243.54 
  7263.000 -47.592  24.351  85.587  59.408 -27.592  24.351  85.587  59.408  18.000  7180.1  157.99 -535.67  191.16 -243.60 
  7263.500 -47.054  23.636  88.093  58.338 -27.054  23.636  88.093  58.338  18.000  7180.6  157.99 -535.81  191.22 -243.66 
  7264.000 -46.158  23.277  90.242  57.982 -26.158  23.277  90.242  57.982  18.000  7181.1  157.99 -535.95  191.28 -243.72 
  7264.500 -44.902  22.561  90.958  57.626 -24.902  22.561  90.958  57.626  18.000  7181.5  157.99 -536.10  191.33 -243.78 
  7265.000 -44.185  22.203  91.674  57.629 -24.185  22.203  91.674  57.629  18.000  7182.0  157.99 -536.24  191.39 -243.84 
  7265.500 -43.289  21.844  92.391  57.632 -23.289  21.844  92.391  57.632  18.000  7182.5  157.99 -536.38  191.45 -243.90 
  7266.000 -42.393  20.771  92.391  57.813 -22.393  20.771  92.391  57.813  18.000  7183.0  157.99 -536.53  191.51 -243.96 
  7266.500 -40.956  20.413  92.391  57.995 -20.956  20.413  92.391  57.995  18.000  7183.4  157.99 -536.67  191.57 -244.03 
  7267.000 -42.396  20.413  92.391  57.997 -22.396  20.413  92.391  57.997  18.000  7183.9  157.99 -536.81  191.62 -244.09 
  7267.500 -43.835  20.055  92.390  58.000 -23.835  20.055  92.390  58.000  18.000  7184.4  157.99 -536.96  191.68 -244.15 
  7268.000 -44.197 -999.25  92.390  58.002 -24.197 -999.25  92.390  58.002  18.000  7184.9  157.99 -537.10  191.74 -244.21 
  7268.500 -43.660 -999.25  92.033  58.005 -23.660 -999.25  92.033  58.005  18.000  7185.3  157.99 -537.24  191.80 -244.27 
  7269.000 -44.919 -999.25  92.033  58.186 -24.919 -999.25  92.033  58.186  18.000  7185.8  157.99 -537.38  191.85 -244.33 
  7269.500 -45.011 -999.25  92.033  58.367 -25.011 -999.25  92.033  58.367  18.000  7186.3  157.99 -537.53  191.91 -244.39 
  7270.000 -45.104 -999.25 -999.25  58.372 -25.104 -999.25 -999.25  58.372  18.000  7186.8  157.99 -537.67  191.97 -244.45 
