~Version Information
VERS.                     2.0: CWLS log ASCII Standard Version 2.00
WRAP.                      NO: One line per depth step
~Well Information Block
#MNEM.UNIT                               Data Type  Information
#---------                               ---------  -----------
STRT.FT                                   720.0000:
STOP.FT                                  7270.0000:
STEP.FT                                     0.5000:
NULL.                 -999.25                     :
COMP.                                             :COMPANY            
WELL.     SAN EMIDIO A #34-27                     :WELL               
FLD .                                             :FIELD              
CTRY.                                             :COUNTRY            
STAT.                                             :STATE              
LOC .                                             :LOCATION           
UWI .                                             :UNIQUE WELL ID     
SRVC.                                             :Service company    
DATE.                                             :LOG DATE           
~Curve Information
#MNEM.UNIT           API CODE  Curve Description
#---------           --------  -----------------
DEPT.FT                      :   1 DEPTH
SP  .MV                      :   2
AM10.OHMM                    :   3
AO10.OHMM                    :   4
AO19.OHMM                    :   5
SBL .MV                      :   6
RS  .OHMM                    :   7
RM  .OHMM                    :   8
RD  .OHMM                    :   9
DEVI.DEG                     :  10
TVD .FT                      :  11
AZIM.DEG                     :  12
NORT.FT                      :  13
EAST.FT                      :  14
OFFS.FT                      :  15
~A
# ...
  2897.500 -43.118  3.4730  4.9060  4.6550 -13.945  3.4730  4.9060  4.6550  0.0000  2897.5  0.0000  0.0000  0.0000  0.0000 
  2898.000 -45.093  3.6170  5.0500  4.8700 -15.927  3.6170  5.0500  4.8700  0.0000  2898.0  0.0000  0.0000  0.0000  0.0000 
  2898.500 -47.427  3.7790  5.2650  5.1220 -18.269  3.7790  5.2650  5.1220  0.0000  2898.5  0.0000  0.0000  0.0000  0.0000 
  2899.000 -50.660  3.9400  5.3370  5.3730 -21.509  3.9400  5.3370  5.3730  0.0000  2899.0  0.0000  0.0000  0.0000  0.0000 
  2899.500 -52.814  4.2810  5.4090  5.5170 -23.670  4.2810  5.4090  5.5170  0.0000  2899.5  0.0000  0.0000  0.0000  0.0000 
  2900.000 -55.150  4.6210  5.5170  5.6960 -26.014  4.6210  5.5170  5.6960  0.0000  2900.0  0.0000  0.0000  0.0000  0.0000 
  2900.500 -61.434  5.0520  5.5000  5.8760 -32.305  5.0520  5.5000  5.8760  0.0000  2900.5  0.0000  0.0000  0.0000  0.0000 
  2901.000 -65.743  5.5180  5.4820  6.0190 -36.622  5.5180  5.4820  6.0190  0.0000  2901.0  0.0000  0.0000  0.0000  0.0000 
  2901.500 -70.231  6.4500  5.4460  6.1620 -41.117  6.4500  5.4460  6.1620  0.0000  2901.5  0.0000  0.0000  0.0000  0.0000 
  2902.000 -74.360  7.5250  5.4470  6.5210 -45.253  7.5250  5.4470  6.5210  0.0000  2902.0  0.0000  0.0000  0.0000  0.0000 
  2902.500 -75.076  7.8470  5.4470  6.6410 -45.977  7.8470  5.4470  6.6410  0.0000  2902.5  0.0000  0.0000  0.0000  0.0000 
  2903.000 -75.433  7.8480  5.4110  6.7600 -46.341  7.8480  5.4110  6.7600  0.0000  2903.0  0.0000  0.0000  0.0000  0.0000 
  2903.500 -75.790  7.8480  5.4120  6.8800 -46.706  7.8480  5.4120  6.8800  0.0000  2903.5  0.0000  0.0000  0.0000  0.0000 
  2904.000 -76.505  7.8120  5.4120  6.9520 -47.428  7.8120  5.4120  6.9520  0.0000  2904.0  0.0000  0.0000  0.0000  0.0000 
  2904.500 -76.144  7.7770  5.5200  7.0240 -47.074  7.7770  5.5200  7.0240  0.0000  2904.5  0.0000  0.0000  0.0000  0.0000 
  2905.000 -75.782  7.7050  5.5740  7.0420 -46.720  7.7050  5.5740  7.0420  0.0000  2905.0  0.0000  0.0000  0.0000  0.0000 
  2905.500 -74.701  7.6340  5.6280  7.0600 -45.646  7.6340  5.6280  7.0600  0.0000  2905.5  0.0000  0.0000  0.0000  0.0000 
  2906.000 -74.249  7.4370  5.7710  7.0240 -45.202  7.4370  5.7710  7.0240  0.0000  2906.0  0.0000  0.0000  0.0000  0.0000 
  2906.500 -73.798  7.2410  5.8790  7.0240 -44.758  7.2410  5.8790  7.0240  0.0000  2906.5  0.0000  0.0000  0.0000  0.0000 
  2907.000 -71.998  7.0970  6.0230  7.0250 -42.966  7.0970  6.0230  7.0250  0.0000  2907.0  0.0000  0.0000  0.0000  0.0000 
  2907.500 -71.098  6.8830  6.0230  7.0070 -42.073  6.8830  6.0230  7.0070  0.0000  2907.5  0.0000  0.0000  0.0000  0.0000 
  2908.000 -70.197  6.7760  6.1310  6.9890 -41.179  6.7760  6.1310  6.9890  0.0000  2908.0  0.0000  0.0000  0.0000  0.0000 
  2908.500 -66.420  6.4180  6.1670  6.8820 -37.410  6.4180  6.1670  6.8820  0.0000  2908.5  0.0000  0.0000  0.0000  0.0000 
  2909.000 -64.083  6.0240  6.1670  6.7740 -35.080  6.0240  6.1670  6.7740  0.0000  2909.0  0.0000  0.0000  0.0000  0.0000 
  2909.500 -59.050  5.8450  6.1310  6.2730 -30.055  5.8450  6.1310  6.2730  0.0000  2909.5  0.0000  0.0000  0.0000  0.0000 
  2910.000 -55.455  5.6660  6.0960  6.4880 -26.467  5.6660  6.0960  6.4880  0.0000  2910.0  0.0000  0.0000  0.0000  0.0000 
  2910.500 -53.117  5.1290  5.8100  6.1660 -24.136  5.1290  5.8100  6.1660  0.0000  2910.5  0.0000  0.0000  0.0000  0.0000 
  2911.000 -50.060  4.7710  5.6310  5.0550 -21.087  4.7710  5.6310  5.0550  0.0000  2911.0  0.0000  0.0000  0.0000  0.0000 
  2911.500 -47.183  4.3770  5.3440  4.0880 -18.217  4.3770  5.3440  4.0880  0.0000  2911.5  0.0000  0.0000  0.0000  0.0000 
  2912.000 -42.869  3.7680  4.7360  3.6590 -13.911  3.7680  4.7360  3.6590  0.0000  2912.0  0.0000  0.0000  0.0000  0.0000 
  2912.500 -38.914  2.8370  4.0550  3.3900 -9.9631  2.8370  4.0550  3.3900  0.0000  2912.5  0.0000  0.0000  0.0000  0.0000 
  2913.000 -36.576  2.0490  3.1240  3.1210 -7.6325  2.0490  3.1240  3.1210  0.0000  2913.0  0.0000  0.0000  0.0000  0.0000 
  2913.500 -35.495  1.6910  2.9810  2.7280 -6.5589  1.6910  2.9810  2.7280  0.0000  2913.5  0.0000  0.0000  0.0000  0.0000 
  2914.000 -34.864  1.5120  2.9450  2.6200 -5.9354  1.5120  2.9450  2.6200  0.0000  2914.0  0.0000  0.0000  0.0000  0.0000 
  2914.500 -34.233  1.5130  3.2680  2.5130 -5.3118  1.5130  3.2680  2.5130  0.0000  2914.5  0.0000  0.0000  0.0000  0.0000 
  2915.000 -34.230  1.5490  3.4470  2.5850 -5.3162  1.5490  3.4470  2.5850  0.0000  2915.0  0.0000  0.0000  0.0000  0.0000 
  2915.500 -34.766  1.6030  3.6270  2.6570 -5.8596  1.6030  3.6270  2.6570  0.0000  2915.5  0.0000  0.0000  0.0000  0.0000 
  2916.000 -35.123  1.6560  3.9140  3.1940 -6.2240  1.6560  3.9140  3.1940  0.0000  2916.0  0.0000  0.0000  0.0000  0.0000 
  2916.500 -35.479  2.1940  4.1290  3.5170 -6.5874  2.1940  4.1290  3.5170  0.0000  2916.5  0.0000  0.0000  0.0000  0.0000 
  2917.000 -36.016  2.6250  4.3080  4.0190 -7.1318  2.6250  4.3080  4.0190  0.0000  2917.0  0.0000  0.0000  0.0000  0.0000 
  2917.500 -37.091  3.2700  4.4880  4.3590 -8.2143  3.2700  4.4880  4.3590  0.0000  2917.5  0.0000  0.0000  0.0000  0.0000 
  2918.000 -37.627  3.7000  4.7390  4.7000 -8.7577  3.7000  4.7390  4.7000  0.0000  2918.0  0.0000  0.0000  0.0000  0.0000 
  2918.500 -40.139  4.4170  5.0970  5.2370 -11.277  4.4170  5.0970  5.2370  0.0000  2918.5  0.0000  0.0000  0.0000  0.0000 
  2919.000 -41.035  5.1690  5.2410  5.6320 -12.181  5.1690  5.2410  5.6320  0.0000  2919.0  0.0000  0.0000  0.0000  0.0000 
  2919.500 -44.445  6.0650  5.5280  5.7750 -15.598  6.0650  5.5280  5.7750  0.0000  2919.5  0.0000  0.0000  0.0000  0.0000 
  2920.000 -49.113  6.3520  5.7790  6.0620 -20.273  6.3520  5.7790  6.0620  0.0000  2920.0  0.0000  0.0000  0.0000  0.0000 
  2920.500 -56.655  6.6390  5.9220  6.1870 -27.823  6.6390  5.9220  6.1870  0.0000  2920.5  0.0000  0.0000  0.0000  0.0000 
  2921.000 -58.989  6.7290  5.9940  6.3130 -30.164  6.7290  5.9940  6.3130  0.0000  2921.0  0.0000  0.0000  0.0000  0.0000 
  2921.500 -63.477  6.8180  5.9590  6.4210 -34.660  6.8180  5.9590  6.4210  0.0000  2921.5  0.0000  0.0000  0.0000  0.0000 
  2922.000 -66.348  6.8550  5.9230  6.4210 -37.538  6.8550  5.9230  6.4210  0.0000  2922.0  0.0000  0.0000  0.0000  0.0000 
  2922.500 -68.322  6.8550  5.8160  6.4210 -39.519  6.8550  5.8160  6.4210  0.0000  2922.5  0.0000  0.0000  0.0000  0.0000 
  2923.000 -68.858  6.7120  5.6190  6.3850 -40.063  6.7120  5.6190  6.3850  0.0000  2923.0  0.0000  0.0000  0.0000  0.0000 
  2923.500 -69.394  6.6050  5.4220  6.3500 -40.606  6.6050  5.4220  6.3500  0.0000  2923.5  0.0000  0.0000  0.0000  0.0000 
  2924.000 -70.110  6.4980  4.8850  6.3320 -41.330  6.4980  4.8850  6.3320  0.0000  2924.0  0.0000  0.0000  0.0000  0.0000 
  2924.500 -68.131  6.3900  4.7420  6.3140 -39.358  6.3900  4.7420  6.3140  0.0000  2924.5  0.0000  0.0000  0.0000  0.0000 
  2925.000 -66.871  6.2830  4.7430  6.3500 -38.105  6.2830  4.7430  6.3500  0.0000  2925.0  0.0000  0.0000  0.0000  0.0000 
  2925.500 -65.610  6.1760  4.8140  6.3860 -36.852  6.1760  4.8140  6.3860  0.0000  2925.5  0.0000  0.0000  0.0000  0.0000 
  2926.000 -65.159  6.1940  4.8860  6.5660 -36.408  6.1940  4.8860  6.5660  0.0000  2926.0  0.0000  0.0000  0.0000  0.0000 
  2926.500 -64.708  6.2120  5.2090  6.7450 -35.965  6.2120  5.2090  6.7450  0.0000  2926.5  0.0000  0.0000  0.0000  0.0000 
  2927.000 -63.626  6.3200  5.5320  6.8530 -34.890  6.3200  5.5320  6.8530  0.0000  2927.0  0.0000  0.0000  0.0000  0.0000 
  2927.500 -62.636  6.4280  5.7470  7.1040 -33.908  6.4280  5.7470  7.1040  0.0000  2927.5  0.0000  0.0000  0.0000  0.0000 
  2928.000 -61.646  6.4460  5.9620  7.3540 -32.925  6.4460  5.9620  7.3540  0.0000  2928.0  0.0000  0.0000  0.0000  0.0000 
  2928.500 -58.050  6.4640  6.2130  7.3550 -29.336  6.4640  6.2130  7.3550  0.0000  2928.5  0.0000  0.0000  0.0000  0.0000 
  2929.000 -54.993  5.7480  6.1600  7.2470 -26.287  5.7480  6.1600  7.2470  0.0000  2929.0  0.0000  0.0000  0.0000  0.0000 
  2929.500 -53.733  4.9960  6.1060  6.1010 -25.034  4.9960  6.1060  6.1010  0.0000  2929.5  0.0000  0.0000  0.0000  0.0000 
