~Version Information
VERS.                     2.0: CWLS log ASCII Standard Version 2.00
WRAP.                      NO: One line per depth step
~Well Information Block
#MNEM.UNIT                               Data Type  Information
#---------                               ---------  -----------
STRT.FT                                   500.0000:
STOP.FT                                  6920.0000:
STEP.FT                                     0.5000:
NULL.                 -999.25                     :
COMP.                                             :COMPANY            
WELL.     SAN EMIDIO A #47-20                     :WELL               
FLD .                                             :FIELD              
CTRY.                                             :COUNTRY            
STAT.                                             :STATE              
LOC .                                             :LOCATION           
UWI .                                             :UNIQUE WELL ID     
SRVC.                                             :Service company    
DATE.                                             :LOG DATE           
~Curve Information
#MNEM.UNIT           API CODE  Curve Description
#---------           --------  -----------------
DEPT.FT                      :   1 DEPTH
SP  .MV                      :   2
AM16.OHMM                    :   3
AO10.OHMM                    :   4
AO19.OHMM                    :   5
SBL .MV                      :   6
RS  .OHMM                    :   7
RM  .OHMM                    :   8
RD  .OHMM                    :   9
~A
# ...
  6436.000 -30.110  1.9720  2.1160  1.9720 -21.117  1.9720  2.1160  1.9720 
  6436.500 -30.916  2.0080  2.1160  1.9720 -21.920  2.0080  2.1160  1.9720 
  6437.000 -31.722  2.0080  2.0800  1.9720 -22.724  2.0080  2.0800  1.9720 
  6437.500 -32.617  2.0080  2.0800  1.9720 -23.616  2.0080  2.0800  1.9720 
  6438.000 -33.692  2.0260  2.0800  1.9720 -24.689  2.0260  2.0800  1.9720 
  6438.500 -34.408  2.0440  2.0800  1.9720 -25.402  2.0440  2.0800  1.9720 
  6439.000 -34.406  2.0260  2.0800  1.9000 -25.398  2.0260  2.0800  1.9000 
  6439.500 -34.405  2.0080  2.0800  1.9000 -25.394  2.0080  2.0800  1.9000 
  6440.000 -33.954  1.9720  2.0800  1.9000 -24.941  1.9720  2.0800  1.9000 
  6440.500 -33.504  1.9360  2.0620  1.8650 -24.488  1.9360  2.0620  1.8650 
  6441.000 -32.066  1.9360  2.0440  1.8650 -23.048  1.9360  2.0440  1.8650 
  6441.500 -31.167  1.9360  2.0620  1.8470 -22.147  1.9360  2.0620  1.8470 
  6442.000 -31.075  1.9360  2.0800  1.8290 -22.052  1.9360  2.0800  1.8290 
  6442.500 -30.984  1.9180  2.0800  1.7930 -21.959  1.9180  2.0800  1.7930 
  6443.000 -30.444  1.9000  2.0800  1.7570 -21.416  1.9000  2.0800  1.7570 
  6443.500 -29.904  1.9180  2.0800  1.7570 -20.874  1.9180  2.0800  1.7570 
  6444.000 -29.184  1.9360  2.0800  1.7390 -20.151  1.9360  2.0800  1.7390 
  6444.500 -28.823  1.9010  2.0800  1.7210 -19.788  1.9010  2.0800  1.7210 
  6445.000 -28.463  1.9180  2.0800  1.6850 -19.425  1.9180  2.0800  1.6850 
  6445.500 -28.281  1.9360  2.0800  1.6850 -19.241  1.9360  2.0800  1.6850 
  6446.000 -28.100  1.9360  2.0800  1.6850 -19.057  1.9360  2.0800  1.6850 
  6446.500 -27.919  1.9180  2.0800  1.7210 -18.874  1.9180  2.0800  1.7210 
  6447.000 -27.977  1.9000  2.0800  1.7210 -18.930  1.9000  2.0800  1.7210 
  6447.500 -28.035  1.9010  2.0800  1.7210 -18.985  1.9010  2.0800  1.7210 
  6448.000 -28.093  1.9010  2.0800  1.7570 -19.041  1.9010  2.0800  1.7570 
  6448.500 -28.181  1.9000  2.0440  1.7930 -19.126  1.9000  2.0440  1.7930 
  6449.000 -28.269  1.9000  2.0440  1.7750 -19.212  1.9000  2.0440  1.7750 
  6449.500 -28.267  1.9010  2.0440  1.7570 -19.207  1.9010  2.0440  1.7570 
  6450.000 -28.265  1.9010  2.0800  1.7570 -19.203  1.9010  2.0800  1.7570 
  6450.500 -28.204  1.9010  2.0800  1.7210 -19.139  1.9010  2.0800  1.7210 
  6451.000 -28.142  1.9000  2.0800  1.7210 -19.075  1.9000  2.0800  1.7210 
  6451.500 -28.080  1.9000  2.0980  1.7210 -19.010  1.9000  2.0980  1.7210 
  6452.000 -27.899  1.9000  2.1160  1.7030 -18.827  1.9000  2.1160  1.7030 
  6452.500 -27.897  1.9000  2.1160  1.6850 -18.823  1.9000  2.1160  1.6850 
  6453.000 -27.716  1.9010  2.1340  1.6850 -18.639  1.9010  2.1340  1.6850 
  6453.500 -27.714  1.9000  2.1510  1.6670 -18.635  1.9000  2.1510  1.6670 
  6454.000 -27.623  1.9000  2.1160  1.6490 -18.541  1.9000  2.1160  1.6490 
  6454.500 -27.531  1.9000  2.1160  1.6500 -18.447  1.9000  2.1160  1.6500 
  6455.000 -27.440  1.9000  2.1160  1.6850 -18.353  1.9000  2.1160  1.6850 
  6455.500 -27.348  1.9010  2.1160  1.6850 -18.259  1.9010  2.1160  1.6850 
  6456.000 -26.987  1.9010  2.1160  1.6850 -17.895  1.9010  2.1160  1.6850 
  6456.500 -26.806  1.9000  2.1160  1.6850 -17.712  1.9000  2.1160  1.6850 
  6457.000 -26.445  1.9000  2.1160  1.7210 -17.348  1.9000  2.1160  1.7210 
  6457.500 -26.085  1.9010  2.1160  1.7570 -16.986  1.9010  2.1160  1.7570 
  6458.000 -25.724  1.8830  2.0980  1.7570 -16.623  1.8830  2.0980  1.7570 
  6458.500 -25.543  1.8650  2.0800  1.7570 -16.439  1.8650  2.0800  1.7570 
  6459.000 -25.362  1.8650  2.0800  1.7570 -16.256  1.8650  2.0800  1.7570 
  6459.500 -25.180  1.8650  2.0800  1.7570 -16.071  1.8650  2.0800  1.7570 
  6460.000 -24.820  1.8650  2.0800  1.7570 -15.709  1.8650  2.0800  1.7570 
  6460.500 -25.087  1.8650  2.0800  1.7260 -15.973  1.8650  2.0800  1.7260 
  6461.000 -25.355  1.8650  2.0800  1.6960 -16.239  1.8650  2.0800  1.6960 
  6461.500 -25.712  1.8770  2.0620  1.6650 -16.593  1.8770  2.0620  1.6650 
  6462.000 -26.069  1.8890  2.0440  1.6340 -16.948  1.8890  2.0440  1.6340 
  6462.500 -26.964  1.9000  2.0800  1.6030 -17.840  1.9000  2.0800  1.6030 
  6463.000 -27.142  1.9010  2.0800  1.5730 -18.016  1.9010  2.0800  1.5730 
  6463.500 -27.319  1.9010  2.0800  1.5420 -18.191  1.9010  2.0800  1.5420 
  6464.000 -27.318  1.9000  2.0800  1.5420 -18.187  1.9000  2.0800  1.5420 
  6464.500 -27.316  1.9180  2.0800  1.5780 -18.183  1.9180  2.0800  1.5780 
  6465.000 -27.224  1.9360  2.0800  1.6140 -18.088  1.9360  2.0800  1.6140 
  6465.500 -27.133  1.9360  2.0800  1.6320 -17.995  1.9360  2.0800  1.6320 
  6466.000 -26.951  1.9540  2.0800  1.6490 -17.810  1.9540  2.0800  1.6490 
  6466.500 -26.950  1.9720  2.0800  1.7210 -17.807  1.9720  2.0800  1.7210 
  6467.000 -26.948  1.9900  2.0800  1.7570 -17.802  1.9900  2.0800  1.7570 
  6467.500 -27.036  2.0080  2.0800  1.7750 -17.888  2.0080  2.0800  1.7750 
  6468.000 -27.124  2.0260  2.1160  1.7930 -17.973  2.0260  2.1160  1.7930 
  6468.500 -27.122  2.0440  2.1520  1.7930 -17.969  2.0440  2.1520  1.7930 
  6469.000 -27.120  2.0080  2.1520  1.7930 -17.965  2.0080  2.1520  1.7930 
  6469.500 -27.298  2.0080  2.1520  1.7930 -18.140  2.0080  2.1520  1.7930 
  6470.000 -27.117  1.9720  2.1510  1.7570 -17.957  1.9720  2.1510  1.7570 
  6470.500 -26.935  1.9540  2.1160  1.7570 -17.772  1.9540  2.1160  1.7570 
  6471.000 -26.216  1.9360  2.1160  1.7210 -17.051  1.9360  2.1160  1.7210 
  6471.500 -25.945  1.9360  2.0980  1.6850 -16.777  1.9360  2.0980  1.6850 
  6472.000 -25.674  1.9360  2.0800  1.6500 -16.504  1.9360  2.0800  1.6500 
  6472.500 -25.313  1.9180  2.0620  1.6140 -16.140  1.9180  2.0620  1.6140 
  6473.000 -25.311  1.9000  2.0440  1.6140 -16.136  1.9000  2.0440  1.6140 
  6473.500 -25.399  1.9010  2.0440  1.6140 -16.221  1.9010  2.0440  1.6140 
  6474.000 -25.487  1.9010  2.0440  1.5780 -16.307  1.9010  2.0440  1.5780 
  6474.500 -25.665  1.9010  2.0440  1.5780 -16.483  1.9010  2.0440  1.5780 
  6475.000 -25.663  1.9180  2.0800  1.5780 -16.478  1.9180  2.0800  1.5780 
  6475.500 -25.661  1.9360  2.0800  1.5780 -16.474  1.9360  2.0800  1.5780 
  6476.000 -25.480  1.9360  2.0800  1.5780 -16.290  1.9360  2.0800  1.5780 
  6476.500 -25.299  1.9360  2.0800  1.6140 -16.107  1.9360  2.0800  1.6140 
  6477.000 -25.117  1.9360  2.0800  1.6140 -15.922  1.9360  2.0800  1.6140 
  6477.500 -24.936  1.9360  2.0800  1.6320 -15.739  1.9360  2.0800  1.6320 
  6478.000 -24.845  1.9360  2.0800  1.6490 -15.645  1.9360  2.0800  1.6490 
  6478.500 -24.753  1.9360  2.0800  1.6850 -15.551  1.9360  2.0800  1.6850 
  6479.000 -24.751  1.9180  2.0800  1.6490 -15.546  1.9180  2.0800  1.6490 
  6479.500 -24.570  1.9000  2.0800  1.6850 -15.363  1.9000  2.0800  1.6850 
  6480.000 -24.389  1.9000  2.0800  1.6850 -15.180  1.9000  2.0800  1.6850 
  6480.500 -24.208  1.9000  2.0800  1.6850 -14.996  1.9000  2.0800  1.6850 
  6481.000 -24.116  1.9000  2.0800  1.6850 -14.902  1.9000  2.0800  1.6850 
  6481.500 -24.024  1.9000  2.0800  1.6850 -14.807  1.9000  2.0800  1.6850 
  6482.000 -23.933  1.8650  2.0800  1.6490 -14.714  1.8650  2.0800  1.6490 
  6482.500 -23.842  1.8290  2.0800  1.6490 -14.620  1.8290  2.0800  1.6490 
  6483.000 -23.840  1.8290  2.0800  1.6490 -14.616  1.8290  2.0800  1.6490 
  6483.500 -23.658  1.8290  2.0800  1.6490 -14.431  1.8290  2.0800  1.6490 
  6484.000 -23.836  1.8290  2.0800  1.6490 -14.607  1.8290  2.0800  1.6490 
  6484.500 -24.014  1.8290  2.0800  1.6320 -14.782  1.8290  2.0800  1.6320 
  6485.000 -24.102  1.8290  2.0620  1.6140 -14.868  1.8290  2.0620  1.6140 
  6485.500 -24.190  1.8290  2.0440  1.6140 -14.954  1.8290  2.0440  1.6140 
  6486.000 -24.188  1.8290  2.0260  1.6140 -14.949  1.8290  2.0260  1.6140 
  6486.500 -24.186  1.8290  2.0080  1.6140 -14.945  1.8290  2.0080  1.6140 
  6487.000 -24.184  1.8290  1.9720  1.6140 -14.940  1.8290  1.9720  1.6140 
  6487.500 -24.183  1.8290  1.9720  1.6320 -14.937  1.8290  1.9720  1.6320 
  6488.000 -24.181  1.8290  1.9720  1.6490 -14.932  1.8290  1.9720  1.6490 
  6488.500 -24.179  1.8290  1.9720  1.6670 -14.928  1.8290  1.9720  1.6670 
