~Version Information
VERS.                     2.0: CWLS log ASCII Standard Version 2.00
WRAP.                      NO: One line per depth step
~Well Information Block
#MNEM.UNIT                               Data Type  Information
#---------                               ---------  -----------
STRT.FT                                   500.0000:
STOP.FT                                  6920.0000:
STEP.FT                                     0.5000:
NULL.                 -999.25                     :
COMP.                                             :COMPANY            
WELL.     SAN EMIDIO A #47-20                     :WELL               
FLD .                                             :FIELD              
CTRY.                                             :COUNTRY            
STAT.                                             :STATE              
LOC .                                             :LOCATION           
UWI .                                             :UNIQUE WELL ID     
SRVC.                                             :Service company    
DATE.                                             :LOG DATE           
~Curve Information
#MNEM.UNIT           API CODE  Curve Description
#---------           --------  -----------------
DEPT.FT                      :   1 DEPTH
SP  .MV                      :   2
AM16.OHMM                    :   3
AO10.OHMM                    :   4
AO19.OHMM                    :   5
SBL .MV                      :   6
RS  .OHMM                    :   7
RM  .OHMM                    :   8
RD  .OHMM                    :   9
~A
# ...
  2620.000 -44.372  6.7200  8.2530  8.7880 -24.997  6.7200  8.2530  8.7880 
  2620.500 -44.821  6.7910  8.3610  8.7890 -25.446  6.7910  8.3610  8.7890 
  2621.000 -45.090  6.8630  8.4320  8.7710 -25.716  6.8630  8.4320  8.7710 
  2621.500 -45.359  6.8990  8.4500  8.7540 -25.985  6.8990  8.4500  8.7540 
  2622.000 -45.359  6.9350  8.4690  8.7180 -25.985  6.9350  8.4690  8.7180 
  2622.500 -45.359  6.9350  8.4690  8.6830 -25.986  6.9350  8.4690  8.6830 
  2623.000 -44.821  6.9360  8.4690  8.6300 -25.448  6.9360  8.4690  8.6300 
  2623.500 -44.283  6.8650  8.3980  8.5770 -24.910  6.8650  8.3980  8.5770 
  2624.000 -43.207  6.8650  8.2560  8.5060 -23.835  6.8650  8.2560  8.5060 
  2624.500 -42.490  6.8300  8.0780  8.3810 -23.118  6.8300  8.0780  8.3810 
  2625.000 -41.235  6.7230  7.9720  8.2570 -21.863  6.7230  7.9720  8.2570 
  2625.500 -40.518  6.6520  7.8650  8.1140 -21.147  6.6520  7.8650  8.1140 
  2626.000 -38.904  6.5100  7.7580  7.9720 -19.533  6.5100  7.7580  7.9720 
  2626.500 -36.036  6.2610  7.6160  7.7590 -16.665  6.2610  7.6160  7.7590 
  2627.000 -33.167  5.9400  7.4740  7.4380 -13.797  5.9400  7.4740  7.4380 
  2627.500 -29.223  4.6920  6.9750  7.0820 -9.8529  4.6920  6.9750  7.0820 
  2628.000 -27.251  4.4780  6.5470  6.8320 -7.8812  4.4780  6.5470  6.8320 
  2628.500 -25.458  4.2290  6.2260  6.5120 -6.0885  4.2290  6.2260  6.5120 
  2629.000 -23.307  4.1220  5.8700  5.9410 -3.9378  4.1220  5.8700  5.9410 
  2629.500 -22.590  4.0160  5.6210  5.6560 -3.2212  4.0160  5.6210  5.6560 
  2630.000 -22.052  3.9450  5.3360  5.4780 -2.6835  3.9450  5.3360  5.4780 
  2630.500 -21.872  3.8740  5.2290  5.2290 -2.5038  3.8740  5.2290  5.2290 
  2631.000 -22.052  3.8380  5.2300  5.0510 -2.6841  3.8380  5.2300  5.0510 
  2631.500 -22.142  3.8030  5.2660  5.0870 -2.7744  3.8030  5.2660  5.0870 
  2632.000 -22.232  3.8390  5.3730  5.0880 -2.8647  3.8390  5.3730  5.0880 
  2632.500 -22.052  3.9110  5.4090  5.1240 -2.6851  3.9110  5.4090  5.1240 
  2633.000 -21.873  3.9830  5.4450  5.1600 -2.5064  3.9830  5.4450  5.1600 
  2633.500 -21.783  4.1610  5.5880  5.1960 -2.4167  4.1610  5.5880  5.1960 
  2634.000 -21.694  4.2510  5.6770  5.2320 -2.3280  4.2510  5.6770  5.2320 
  2634.500 -22.231  4.3400  5.7670  5.3750 -2.8653  4.3400  5.7670  5.3750 
  2635.000 -22.769  4.6260  5.9990  5.4820 -3.4036  4.6260  5.9990  5.4820 
  2635.500 -24.024  4.8760  6.2310  5.6960 -4.6590  4.8760  6.2310  5.6960 
  2636.000 -25.458  4.9830  6.5170  5.8390 -6.0933  4.9830  6.5170  5.8390 
  2636.500 -28.506  5.3760  7.0880  5.9820 -9.1416  5.3760  7.0880  5.9820 
  2637.000 -32.092  5.6620  7.4810  6.5890 -12.728  5.6620  7.4810  6.5890 
  2637.500 -34.960  6.0540  7.7660  6.7680 -15.596  6.0540  7.7660  6.7680 
  2638.000 -36.932  6.5180  8.0520  7.1250 -17.569  6.5180  8.0520  7.1250 
  2638.500 -38.725  7.0890  8.5520  7.3030 -19.362  7.0890  8.5520  7.3030 
  2639.000 -42.669  7.8740  8.8370  7.7320 -23.306  7.8740  8.8370  7.7320 
  2639.500 -45.717  8.0890  8.9800  8.1250 -26.354  8.0890  8.9800  8.1250 
  2640.000 -48.048  8.4820  9.1240  8.5170 -28.686  8.4820  9.1240  8.5170 
  2640.500 -48.944  8.7670  9.2310  8.9460 -29.582  8.7670  9.2310  8.9460 
  2641.000 -49.661  8.8210  9.3020  9.2310 -30.299  8.8210  9.3020  9.2310 
  2641.500 -50.199  8.8750  9.3740  9.3920 -30.838  8.8750  9.3740  9.3920 
  2642.000 -50.558  8.7680  9.4280  9.5530 -31.197  8.7680  9.4280  9.5530 
  2642.500 -49.661  8.5550  9.4820  9.7670 -30.300  8.5550  9.4820  9.7670 
  2643.000 -48.944  8.3770  9.4820  9.7320 -29.584  8.3770  9.4820  9.7320 
  2643.500 -48.048  8.0200  9.4470  9.5900 -28.688  8.0200  9.4470  9.5900 
  2644.000 -47.510  7.4140  9.3400  9.4470 -28.150  7.4140  9.3400  9.4470 
  2644.500 -46.973  7.0220  9.2340  9.3050 -27.614  7.0220  9.2340  9.3050 
  2645.000 -43.207  6.2020  8.6990  8.6990 -23.848  6.2020  8.6990  8.6990 
  2645.500 -41.056  5.4540  8.2360  8.3070 -21.697  5.4540  8.2360  8.3070 
  2646.000 -37.829  4.9190  7.8080  7.7730 -18.471  4.9190  7.8080  7.7730 
  2646.500 -33.705  4.5990  7.4160  7.5770 -14.347  4.5990  7.4160  7.5770 
  2647.000 -28.685  4.0640  7.2020  7.3810 -9.3272  4.0640  7.2020  7.3810 
  2647.500 -26.713  3.8150  6.5250  6.3830 -7.3555  3.8150  6.5250  6.3830 
  2648.000 -25.099  3.6010  5.9190  5.2770 -5.7419  3.6010  5.9190  5.2770 
  2648.500 -23.665  3.5480  4.6710  4.9570 -4.3082  3.5480  4.6710  4.9570 
  2649.000 -23.217  3.4950  4.4930  4.7070 -3.8605  3.4950  4.4930  4.7070 
  2649.500 -22.769  3.4590  4.5830  4.6010 -3.4128  3.4590  4.5830  4.6010 
  2650.000 -22.410  3.4600  4.6720  4.4940 -3.0541  3.4600  4.6720  4.4940 
  2650.500 -22.321  3.4600  5.1010  4.4590 -2.9654  3.4600  5.1010  4.4590 
  2651.000 -22.231  3.5320  5.4220  4.4590 -2.8758  3.5320  5.4220  4.4590 
  2651.500 -22.231  3.6390  5.5650  4.4950 -2.8761  3.6390  5.5650  4.4950 
  2652.000 -22.410  3.7460  5.7080  4.5310 -3.0554  3.7460  5.7080  4.5310 
  2652.500 -22.410  3.8890  5.9050  4.6390 -3.0557  3.8890  5.9050  4.6390 
  2653.000 -22.948  4.0320  6.1010  4.7100 -3.5940  4.0320  6.1010  4.7100 
  2653.500 -23.127  4.1930  6.3510  4.8000 -3.7733  4.1930  6.3510  4.8000 
  2654.000 -23.844  4.3540  6.4230  4.8890 -4.4906  4.3540  6.4230  4.8890 
  2654.500 -24.920  4.7830  6.4940  5.0500 -5.5670  4.7830  6.4940  5.0500 
  2655.000 -26.892  4.9260  6.6910  5.2110 -7.5393  4.9260  6.6910  5.2110 
  2655.500 -31.015  5.4250  6.8880  5.6390 -11.663  5.4250  6.8880  5.6390 
  2656.000 -34.422  5.9960  7.2800  5.9960 -15.070  5.9960  7.2800  5.9960 
  2656.500 -36.394  6.3890  7.4230  6.1930 -17.042  6.3890  7.4230  6.1930 
  2657.000 -38.545  6.8890  7.8870  6.3890 -19.194  6.8890  7.8870  6.3890 
  2657.500 -41.773  7.2100  8.9220  6.8530 -22.422  7.2100  8.9220  6.8530 
  2658.000 -45.000  7.3890  9.5290  7.1390 -25.649  7.3890  9.5290  7.1390 
  2658.500 -45.538  7.3180  9.5290  7.6030 -26.187  7.3180  9.5290  7.6030 
  2659.000 -45.538  7.1750  9.4940  8.0310 -26.188  7.1750  9.4940  8.0310 
  2659.500 -43.745  6.9970  9.4580  8.5310 -24.395  6.9970  9.4580  8.5310 
  2660.000 -38.725  6.7480  9.1020  8.3890 -19.375  6.7480  9.1020  8.3890 
  2660.500 -34.780  6.3920  8.4960  8.1390 -15.431  6.3920  8.4960  8.1390 
  2661.000 -31.733  6.1070  8.2470  7.8900 -12.384  6.1070  8.2470  7.8900 
  2661.500 -30.657  5.9290  7.7840  6.9280 -11.308  5.9290  7.7840  6.9280 
  2662.000 -29.043  5.7870  6.9990  6.6070 -9.6947  5.7870  6.9990  6.6070 
  2662.500 -28.506  5.6800  6.2860  6.3930 -9.1580  5.6800  6.2860  6.3930 
  2663.000 -28.506  5.5730  5.9300  6.2870 -9.1583  5.5730  5.9300  6.2870 
  2663.500 -28.864  5.4310  5.6810  6.1800 -9.5167  5.4310  5.6810  6.1800 
  2664.000 -29.581  5.3780  5.5380  6.3230 -10.234  5.3780  5.5380  6.3230 
  2664.500 -30.209  5.3250  5.5030  6.3950 -10.862  5.3250  5.5030  6.3950 
  2665.000 -30.837  5.1470  5.4320  6.4310 -11.491  5.1470  5.4320  6.4310 
  2665.500 -31.285  5.0930  5.4320  6.4670 -11.939  5.0930  5.4320  6.4670 
  2666.000 -31.733  5.0400  5.4330  6.4310 -12.387  5.0400  5.4330  6.4310 
  2666.500 -32.271  4.8620  5.6830  6.3600 -12.926  4.8620  5.6830  6.3600 
  2667.000 -32.808  4.6840  5.7900  6.2720 -13.463  4.6840  5.7900  6.2720 
  2667.500 -32.629  4.5420  6.2540  6.1830 -13.284  4.5420  6.2540  6.1830 
  2668.000 -32.181  4.4000  6.5750  6.0050 -12.836  4.4000  6.5750  6.0050 
  2668.500 -31.733  4.2580  7.0400  5.8270 -12.389  4.2580  7.0400  5.8270 
  2669.000 -27.789  4.1870  7.1110  5.5060 -8.4451  4.1870  7.1110  5.5060 
  2669.500 -26.803  4.1510  7.0050  5.2570 -7.4594  4.1510  7.0050  5.2570 
  2670.000 -25.817  4.1160  6.8800  5.0430 -6.4738  4.1160  6.8800  5.0430 
  2670.500 -25.099  4.1340  6.7560  4.9720 -5.7561  4.1340  6.7560  4.9720 
  2671.000 -24.920  4.1520  6.5780  4.9370 -5.5774  4.1520  6.5780  4.9370 
  2671.500 -24.741  4.1880  6.5420  4.9370 -5.3987  4.1880  6.5420  4.9370 
  2672.000 -24.920  4.2420  6.5070  4.9730 -5.5780  4.2420  6.5070  4.9730 
  2672.500 -25.099  4.2960  6.4720  4.9740 -5.7573  4.2960  6.4720  4.9740 
