~Version Information
VERS.                     2.0: CWLS log ASCII Standard Version 2.00
WRAP.                      NO: One line per depth step
~Well Information Block
#MNEM.UNIT                               Data Type  Information
#---------                               ---------  -----------
STRT.FT                                   500.0000:
STOP.FT                                  6920.0000:
STEP.FT                                     0.5000:
NULL.                 -999.25                     :
COMP.                                             :COMPANY            
WELL.     SAN EMIDIO A #47-20                     :WELL               
FLD .                                             :FIELD              
CTRY.                                             :COUNTRY            
STAT.                                             :STATE              
LOC .                                             :LOCATION           
UWI .                                             :UNIQUE WELL ID     
SRVC.                                             :Service company    
DATE.                                             :LOG DATE           
~Curve Information
#MNEM.UNIT           API CODE  Curve Description
#---------           --------  -----------------
DEPT.FT                      :   1 DEPTH
SP  .MV                      :   2
AM16.OHMM                    :   3
AO10.OHMM                    :   4
AO19.OHMM                    :   5
SBL .MV                      :   6
RS  .OHMM                    :   7
RM  .OHMM                    :   8
RD  .OHMM                    :   9
~A
   500.000 -999.25 -999.25 -999.25 -999.25 -999.25 -999.25 -999.25 -999.25 
   500.500 -7.8750 -999.25 -999.25 -999.25  22.125 -999.25 -999.25 -999.25 
   501.000 -11.994 -999.25 -999.25 -999.25  18.006 -999.25 -999.25 -999.25 
   501.500 -14.501  2.4290 -999.25 -999.25  15.499  2.4290 -999.25 -999.25 
   502.000 -17.904  2.7860 -999.25 -999.25  12.096  2.7860 -999.25 -999.25 
   502.500 -22.558  3.4290 -999.25 -999.25  7.4420  3.4290 -999.25 -999.25 
   503.000 -26.855  4.5010 -999.25 -999.25  3.1450  4.5010 -999.25 -999.25 
   503.500 -29.363  4.7870 -999.25 -999.25  0.6370  4.7870 -999.25 -999.25 
   504.000 -31.155  4.8580 -999.25 -999.25 -1.1550  4.8580 -999.25 -999.25 
   504.500 -31.694  4.9290 -999.25 -999.25 -1.6940  4.9290 -999.25 -999.25 
   505.000 -32.234  4.9290 -999.25 -999.25 -2.2340  4.9290 -999.25 -999.25 
   505.500 -32.415  4.9290 -999.25 -999.25 -2.4150  4.9290 -999.25 -999.25 
   506.000 -32.597  4.8930 -999.25 -999.25 -2.5970  4.8930 -999.25 -999.25 
   506.500 -32.599  4.8210 -999.25 -999.25 -2.5990  4.8210 -999.25 -999.25 
   507.000 -32.602  4.7850 -999.25 -999.25 -2.6020  4.7850 -999.25 -999.25 
   507.500 -32.246  4.6060 -999.25 -999.25 -2.2460  4.6060 -999.25 -999.25 
   508.000 -31.891  4.5350 -999.25 -999.25 -1.8910  4.5350 -999.25 -999.25 
   508.500 -31.358  4.4810 -999.25 -999.25 -1.3580  4.4810 -999.25 -999.25 
   509.000 -31.182  4.4270 -999.25 -999.25 -1.1820  4.4270 -999.25 -999.25 
   509.500 -30.290  4.3560 -999.25 -999.25 -0.2900  4.3560 -999.25 -999.25 
   510.000 -29.934  4.3200 -999.25 -999.25  0.0660  4.3200 -999.25 -999.25 
   510.500 -28.506  4.2480  0.1390 -999.25  1.4940  4.2480  0.1390 -999.25 
   511.000 -26.540  4.0330  0.9370 -999.25  3.4600  4.0330  0.9370 -999.25 
   511.500 -23.680  3.9260  1.7350 -999.25  6.3200  3.9260  1.7350 -999.25 
   512.000 -21.178  3.8190  2.5330 -999.25  8.8220  3.8190  2.5330 -999.25 
   512.500 -16.886  3.4610  3.3900 -999.25  13.114  3.4610  3.3900 -999.25 
   513.000 -14.563  2.8180  3.6750 -999.25  15.437  2.8180  3.6750 -999.25 
   513.500 -15.460  1.6390  3.9610 -999.25  14.540  1.6390  3.9610 -999.25 
   514.000 -19.399  1.5310  4.0320 -999.25  10.601  1.5310  4.0320 -999.25 
   514.500 -26.380  2.0310  4.0320 -999.25  3.6200  2.0310  4.0320 -999.25 
   515.000 -28.888  3.6750  4.0320 -999.25  1.1120  3.6750  4.0320 -999.25 
   515.500 -28.980  3.6750  4.1030 -999.25  1.0200  3.6750  4.1030 -999.25 
   516.000 -29.071  3.6740  4.1390 -999.25  0.9290  3.6740  4.1390 -999.25 
   516.500 -29.075  3.6740  4.1740 -999.25  0.9250  3.6740  4.1740 -999.25 
   517.000 -29.256  3.6740  4.1740 -999.25  0.7440  3.6740  4.1740 -999.25 
   517.500 -29.438  3.6740  4.1740 -999.25  0.5620  3.6740  4.1740 -999.25 
   518.000 -29.620  3.7090  4.1560 -999.25  0.3800  3.7090  4.1560 -999.25 
   518.500 -29.622  3.7450  4.1380 -999.25  0.3780  3.7450  4.1380 -999.25 
   519.000 -29.625  3.7810  4.1560 -999.25  0.3750  3.7810  4.1560 -999.25 
   519.500 -29.628  3.8160  4.1740  0.0360  0.3720  3.8160  4.1740  0.0360 
   520.000 -29.809  3.8520  4.1910  0.4500  0.1910  3.8520  4.1910  0.4500 
   520.500 -30.349  3.8510  4.2090  0.8640 -0.3490  3.8510  4.2090  0.8640 
   521.000 -30.709  3.8690  4.2440  1.2780 -0.7090  3.8690  4.2440  1.2780 
   521.500 -31.069  3.8870  4.2800  1.6920 -1.0690  3.8870  4.2800  1.6920 
   522.000 -31.788  3.9400  4.3870  2.1060 -1.7880  3.9400  4.3870  2.1060 
   522.500 -31.970  3.9940  4.4400  2.7490 -1.9700  3.9940  4.4400  2.7490 
   523.000 -32.151  4.0650  4.4940  3.1060 -2.1510  4.0650  4.4940  3.1060 
   523.500 -32.512  4.1180  4.5290  3.3910 -2.5120  4.1180  4.5290  3.3910 
   524.000 -32.515  4.1720  4.5650  3.7840 -2.5150  4.1720  4.5650  3.7840 
   524.500 -32.696  4.2430  4.6180  4.1050 -2.6960  4.2430  4.6180  4.1050 
   525.000 -32.878  4.3140  4.6720  4.2300 -2.8780  4.3140  4.6720  4.2300 
   525.500 -32.970  4.4210  4.7430  4.3540 -2.9700  4.4210  4.7430  4.3540 
   526.000 -33.061  4.5280  4.7430  4.5680 -3.0610  4.5280  4.7430  4.5680 
   526.500 -33.154  4.6530  4.7250  4.6390 -3.1540  4.6530  4.7250  4.6390 
   527.000 -33.246  4.7780  4.7070  4.7280 -3.2460  4.7780  4.7070  4.7280 
   527.500 -33.338  5.0280  4.6710  4.8170 -3.3380  5.0280  4.6710  4.8170 
   528.000 -33.430  5.1890  4.6710  4.8880 -3.4300  5.1890  4.6710  4.8880 
   528.500 -33.522  5.3490  4.6700  4.9590 -3.5220  5.3490  4.6700  4.9590 
   529.000 -33.614  5.6710  4.6340  5.1010 -3.6140  5.6710  4.6340  5.1010 
   529.500 -34.154  5.9560  4.5990  5.3150 -4.1540  5.9560  4.5990  5.3150 
   530.000 -34.873  6.1350  4.5980  5.4400 -4.8730  6.1350  4.5980  5.4400 
   530.500 -35.770  6.3850  4.6340  5.5650 -5.7700  6.3850  4.6340  5.5650 
   531.000 -37.025  6.5630  4.7410  5.8140 -7.0250  6.5630  4.7410  5.8140 
   531.500 -38.280  6.6700  4.9190  6.0640 -8.2800  6.6700  4.9190  6.0640 
   532.000 -40.967  6.9200  5.0980  6.2780 -10.967  6.9200  5.0980  6.2780 
   532.500 -42.938  7.3490  5.2760  6.4380 -12.938  7.3490  5.2760  6.4380 
   533.000 -44.015  7.9200  5.8840  6.5990 -14.015  7.9200  5.8840  6.5990 
   533.500 -44.733  8.2060  6.0620  6.9200 -14.733  8.2060  6.0620  6.9200 
   534.000 -45.451  8.5270  6.2410  7.1340 -15.451  8.5270  6.2410  7.1340 
   534.500 -46.349  9.3130  6.6330  7.2400 -16.349  9.3130  6.6330  7.2400 
   535.000 -46.709  9.9560  7.0620  7.4540 -16.709  9.9560  7.0620  7.4540 
   535.500 -46.891  10.456  7.6340  7.7040 -16.891  10.456  7.6340  7.7040 
   536.000 -47.251  10.956  7.9550  8.0960 -17.251  10.956  7.9550  8.0960 
   536.500 -47.343  11.313  8.7410  8.4180 -17.343  11.313  8.7410  8.4180 
   537.000 -47.435  11.706  9.3120  8.7390 -17.435  11.706  9.3120  8.7390 
   537.500 -47.617  11.956  9.9550  9.3100 -17.617  11.956  9.9550  9.3100 
   538.000 -47.620  12.170  10.384  9.5950 -17.620  12.170  10.384  9.5950 
   538.500 -47.622  12.349  10.777  9.9520 -17.622  12.349  10.777  9.9520 
   539.000 -47.804  12.456  11.241  10.416 -17.804  12.456  11.241  10.416 
   539.500 -47.807  12.509  11.741  10.666 -17.807  12.509  11.741  10.666 
   540.000 -47.809  12.563  12.062  10.665 -17.809  12.563  12.062  10.665 
   540.500 -47.812  12.562  12.312  10.594 -17.812  12.562  12.312  10.594 
   541.000 -47.994  12.491  12.562  10.522 -17.994  12.491  12.562  10.522 
   541.500 -47.996  12.455  12.776  10.343 -17.996  12.455  12.776  10.343 
   542.000 -47.999  12.419  13.205  10.378 -17.999  12.419  13.205  10.378 
   542.500 -48.539  12.455  13.848  10.449 -18.539  12.455  13.848  10.449 
   543.000 -48.720  12.490  14.420  10.556 -18.720  12.490  14.420  10.556 
   543.500 -48.902  12.704  14.741  10.734 -18.902  12.704  14.741  10.734 
   544.000 -49.263  12.776  15.027  11.484 -19.263  12.776  15.027  11.484 
   544.500 -49.354  12.847  15.598  12.269 -19.354  12.847  15.598  12.269 
   545.000 -49.446  12.668  16.277  12.805 -19.446  12.668  16.277  12.805 
   545.500 -49.092  12.453  16.831  13.162 -19.092  12.453  16.831  13.162 
   546.000 -48.915  12.096  20.201  13.697 -18.915  12.096  20.201  13.697 
   546.500 -48.739  11.989  25.201  14.375 -18.739  11.989  25.201  14.375 
   547.000 -47.847  11.881  26.271  14.911 -17.847  11.881  26.271  14.911 
   547.500 -47.134  11.488  26.984  15.518 -17.134  11.488  26.984  15.518 
   548.000 -45.706  11.202  26.982  16.053 -15.706  11.202  26.982  16.053 
   548.500 -43.561  9.4510  26.623  16.053 -13.561  9.4510  26.623  16.053 
   549.000 -40.343  7.6640  26.264  15.302 -10.343  7.6640  26.264  15.302 
   549.500 -38.556  6.9500  25.190  12.872 -8.5560  6.9500  25.190  12.872 
   550.000 -38.379  6.3780  22.688  11.478 -8.3790  6.3780  22.688  11.478 
   550.500 -38.203  5.9490  20.899  9.7630 -8.2030  5.9490  20.899  9.7630 
   551.000 -37.848  5.7340  16.060  7.0830 -7.8480  5.7340  16.060  7.0830 
   551.500 -37.493  5.5200  15.060  6.3320 -7.4930  5.5200  15.060  6.3320 
   552.000 -36.064  5.3770  14.667  5.6170 -6.0640  5.3770  14.667  5.6170 
   552.500 -35.173  5.3410  14.023  5.1520 -5.1730  5.3410  14.023  5.1520 
