~Version Information
VERS.                     2.0: CWLS log ASCII Standard Version 2.00
WRAP.                      NO: One line per depth step
~Well Information Block
#MNEM.UNIT                               Data Type  Information
#---------                               ---------  -----------
STRT.FT                                   500.0000:
STOP.FT                                  6920.0000:
STEP.FT                                     0.5000:
NULL.                 -999.25                     :
COMP.                                             :COMPANY            
WELL.     SAN EMIDIO A #47-20                     :WELL               
FLD .                                             :FIELD              
CTRY.                                             :COUNTRY            
STAT.                                             :STATE              
LOC .                                             :LOCATION           
UWI .                                             :UNIQUE WELL ID     
SRVC.                                             :Service company    
DATE.                                             :LOG DATE           
~Curve Information
#MNEM.UNIT           API CODE  Curve Description
#---------           --------  -----------------
DEPT.FT                      :   1 DEPTH
SP  .MV                      :   2
AM16.OHMM                    :   3
AO10.OHMM                    :   4
AO19.OHMM                    :   5
SBL .MV                      :   6
RS  .OHMM                    :   7
RM  .OHMM                    :   8
RD  .OHMM                    :   9
~A
# ...
  4316.000 -23.839  3.6190  5.6900  5.3680 -5.5362  3.6190  5.6900  5.3680 
  4316.500 -23.572  3.6550  5.6900  5.2980 -5.2695  3.6550  5.6900  5.2980 
  4317.000 -19.999  3.7270  5.6190  5.2980 -1.6969  3.7270  5.6190  5.2980 
  4317.500 -19.821  3.7980  5.5840  5.2270 -1.5192  3.7980  5.5840  5.2270 
  4318.000 -19.821  3.8350  5.5130  5.2090 -1.5195  3.8350  5.5130  5.2090 
  4318.500 -20.089  3.8880  5.4420  5.1920 -1.7878  3.8880  5.4420  5.1920 
  4319.000 -20.357  3.9420  5.3530  5.1560 -2.0561  3.9420  5.3530  5.1560 
  4319.500 -20.357  3.9960  5.2640  5.1210 -2.0564  3.9960  5.2640  5.1210 
  4320.000 -21.071  4.0500  4.9430  5.1030 -2.7707  4.0500  4.9430  5.1030 
  4320.500 -23.035  4.2290  4.7650  5.0860 -4.7351  4.2290  4.7650  5.0860 
  4321.000 -23.661  4.3010  4.6220  5.2650 -5.3614  4.3010  4.6220  5.2650 
  4321.500 -24.286  4.3730  4.8370  5.2300 -5.9867  4.3730  4.8370  5.2300 
  4322.000 -26.428  4.4440  5.0870  5.5160 -8.1290  4.4440  5.0870  5.5160 
  4322.500 -29.106  6.3020  5.5880  6.0880 -10.807  6.3020  5.5880  6.0880 
  4323.000 -39.643  7.2660  6.1240  6.4090 -21.345  7.2660  6.1240  6.4090 
  4323.500 -42.321  8.3740  6.6600  7.0880 -24.023  8.3740  6.6600  7.0880 
  4324.000 -43.750  8.7320  6.8390  7.6600 -25.452  8.7320  6.8390  7.6600 
  4324.500 -43.929  9.3390  7.0180  7.7680 -25.632  9.3390  7.0180  7.7680 
  4325.000 -44.108  9.3040  7.0890  7.8750 -25.811  9.3040  7.0890  7.8750 
  4325.500 -43.571  9.1610  7.1250  7.8760 -25.274  9.1610  7.1250  7.8760 
  4326.000 -43.214  9.0190  7.1610  7.7330 -24.918  9.0190  7.1610  7.7330 
  4326.500 -42.321  8.8760  7.1620  7.6260 -24.025  8.8760  7.1620  7.6260 
  4327.000 -38.392  8.5200  7.1260  7.4840 -20.096  8.5200  7.1260  7.4840 
  4327.500 -36.070  8.0910  7.0910  7.3060 -17.774  8.0910  7.0910  7.3060 
  4328.000 -34.820  7.4130  7.0550  7.0920 -16.525  7.4130  7.0550  7.0920 
  4328.500 -33.392  7.1280  6.9490  6.9130 -15.097  7.1280  6.9490  6.9130 
  4329.000 -31.963  6.8780  6.8420  6.7000 -13.668  6.8780  6.8420  6.7000 
  4329.500 -30.535  6.6280  6.4140  6.2710 -12.241  6.6280  6.4140  6.2710 
  4330.000 -29.106  6.3790  5.9860  5.9500 -10.812  6.3790  5.9860  5.9500 
  4330.500 -28.928  6.2720  5.5930  5.6290 -10.634  6.2720  5.5930  5.6290 
  4331.000 -29.107  6.2720  5.3080  5.2360 -10.814  6.2720  5.3080  5.2360 
  4331.500 -29.285  6.3080  5.2730  4.9510 -10.992  6.3080  5.2730  4.9510 
  4332.000 -31.071  6.3440  5.3090  4.8440 -12.778  6.3440  5.3090  4.8440 
  4332.500 -32.856  6.4340  5.3440  4.8800 -14.564  6.4340  5.3440  4.8800 
  4333.000 -35.356  6.5230  5.5950  4.9160 -17.064  6.5230  5.5950  4.9160 
  4333.500 -37.499  6.8810  5.9530  5.0240 -19.207  6.8810  5.9530  5.0240 
  4334.000 -38.928  6.9890  6.6310  5.1310 -20.637  6.9890  6.6310  5.1310 
  4334.500 -39.820  7.4180  7.5250  5.2390 -21.529  7.4180  7.5250  5.2390 
  4335.000 -39.464  7.7040  7.8820  5.3110 -21.173  7.7040  7.8820  5.3110 
  4335.500 -39.108  8.0610  8.1680  5.4180 -20.818  8.0610  8.1680  5.4180 
  4336.000 -38.928  8.2760  8.5260  5.5260 -20.638  8.2760  8.5260  5.5260 
  4336.500 -39.999  8.7410  8.7760  5.6510 -21.709  8.7410  8.7760  5.6510 
  4337.000 -41.070  9.4910  8.9910  5.7760 -22.780  9.4910  8.9910  5.7760 
  4337.500 -43.035  9.7410  9.3130  5.9370 -24.746  9.7410  9.3130  5.9370 
  4338.000 -44.284  9.8490  9.5270  6.0990 -25.995  9.8490  9.5270  6.0990 
  4338.500 -44.463  9.8850  9.9920  6.5280 -26.174  9.8850  9.9920  6.5280 
  4339.000 -44.285  9.8310  10.706  6.7240 -25.997  9.8310  10.706  6.7240 
  4339.500 -44.107  9.7780  10.993  6.9210 -25.819  9.7780  10.993  6.9210 
  4340.000 -42.320  9.3500  11.493  7.1720 -24.032  9.3500  11.493  7.1720 
  4340.500 -41.070  9.1010  11.601  7.3510 -22.783  9.1010  11.601  7.3510 
  4341.000 -39.821  8.6370  11.601  7.3150 -21.534  8.6370  11.601  7.3150 
  4341.500 -38.035  8.1370  11.494  7.2440 -19.748  8.1370  11.494  7.2440 
  4342.000 -35.357  7.4950  11.423  7.0660 -17.071  7.4950  11.423  7.0660 
  4342.500 -32.678  7.1380  10.888  6.9590 -14.392  7.1380  10.888  6.9590 
  4343.000 -29.821  6.8520  10.709  6.7450 -11.535  6.8520  10.709  6.7450 
  4343.500 -25.356  6.4240  8.7460  6.4600 -7.0706  6.4240  8.7460  6.4600 
  4344.000 -21.606  5.8890  8.1740  6.2460 -3.3209  5.8890  8.1740  6.2460 
  4344.500 -21.249  5.7460  7.2820  5.8530 -2.9642  5.7460  7.2820  5.8530 
  4345.000 -21.070  5.6030  6.8180  5.5680 -2.7855  5.6030  6.8180  5.5680 
  4345.500 -21.071  5.5330  6.5690  5.3540 -2.7869  5.5330  6.5690  5.3540 
  4346.000 -21.249  5.5690  6.6940  5.6400 -2.9652  5.5690  6.6940  5.6400 
  4346.500 -21.518  5.5690  6.8190  5.9980 -3.2345  5.5690  6.8190  5.9980 
  4347.000 -21.786  5.6050  7.4980  6.4620 -3.5028  5.6050  7.4980  6.4620 
  4347.500 -22.054  5.6770  7.7840  6.6770 -3.7711  5.6770  7.7840  6.6770 
  4348.000 -22.322  5.6950  8.3920  6.8200 -4.0394  5.6950  8.3920  6.8200 
  4348.500 -22.768  5.7130  8.6240  6.8560 -4.4858  5.7130  8.6240  6.8560 
  4349.000 -23.215  5.7670  8.8560  6.7850 -4.9331  5.7670  8.8560  6.7850 
  4349.500 -23.928  5.8210  9.0000  6.7500 -5.6464  5.8210  9.0000  6.7500 
  4350.000 -24.285  5.8210  9.0000  6.6070 -6.0037  5.8210  9.0000  6.6070 
  4350.500 -24.821  5.8220  9.0360  6.5540 -6.5400  5.8220  9.0360  6.5540 
  4351.000 -24.999  5.8220  9.0720  6.5010 -6.7183  5.8220  9.0720  6.5010 
  4351.500 -25.356  5.8230  9.0900  6.4300 -7.0757  5.8230  9.0900  6.4300 
  4352.000 -25.535  5.8230  9.1090  6.4480 -7.2550  5.8230  9.1090  6.4480 
  4352.500 -25.714  5.7880  9.1090  6.4660 -7.4343  5.7880  9.1090  6.4660 
  4353.000 -25.893  5.7520  9.1090  6.4670 -7.6136  5.7520  9.1090  6.4670 
  4353.500 -25.535  5.6630  9.0030  6.4850 -7.2559  5.6630  9.0030  6.4850 
  4354.000 -24.821  5.5740  8.8960  6.5030 -6.5422  5.5740  8.8960  6.5030 
  4354.500 -23.571  5.5390  8.8250  6.5390 -5.2926  5.5390  8.8250  6.5390 
  4355.000 -22.857  5.5930  8.4680  6.5750 -4.5789  5.5930  8.4680  6.5750 
  4355.500 -22.500  5.6470  8.2180  6.6110 -4.2222  5.6470  8.2180  6.6110 
  4356.000 -22.144  5.7540  8.0580  6.6830 -3.8665  5.7540  8.0580  6.6830 
  4356.500 -22.678  5.7900  7.8970  6.8800 -4.4008  5.7900  7.8970  6.8800 
  4357.000 -23.035  5.8260  8.0770  7.0760 -4.7581  5.8260  8.0770  7.0760 
  4357.500 -23.392  5.8270  8.3630  7.5050 -5.1155  5.8270  8.3630  7.5050 
  4358.000 -23.035  5.8270  8.6840  7.7560 -4.7588  5.8270  8.6840  7.7560 
  4358.500 -22.321  5.7920  9.0060  8.0420 -4.0451  5.7920  9.0060  8.0420 
  4359.000 -21.071  5.7210  8.8640  8.1500 -2.7954  5.7210  8.8640  8.1500 
  4359.500 -20.000  5.6850  8.6850  8.1140 -1.7247  5.6850  8.6850  8.1140 
  4360.000 -19.643  5.6140  8.4720  7.9720 -1.3680  5.6140  8.4720  7.9720 
  4360.500 -19.287  5.4720  8.2220  7.7940 -1.0123  5.4720  8.2220  7.7940 
  4361.000 -19.643  5.3290  8.0080  7.6510 -1.3687  5.3290  8.0080  7.6510 
  4361.500 -19.821  5.1870  7.7940  7.5440 -1.5470  5.1870  7.7940  7.5440 
  4362.000 -19.464  4.9020  7.6870  7.4730 -1.1903  4.9020  7.6870  7.4730 
  4362.500 -18.570  4.6880  7.5270  7.4020 -0.2966  4.6880  7.5270  7.4020 
  4363.000 -18.034  4.3670  7.3660  7.1520  0.2391  4.3670  7.3660  7.1520 
  4363.500 -17.678  3.9380  6.9380  6.9740  0.5948  3.9380  6.9380  6.9740 
  4364.000 -17.322  3.6890  6.6170  6.7240  0.9504  3.6890  6.6170  6.7240 
  4364.500 -16.964  3.5460  6.1890  6.4750  1.3081  3.5460  6.1890  6.4750 
  4365.000 -16.607  3.4040  5.8680  5.9750  1.6648  3.4040  5.8680  5.9750 
  4365.500 -16.607  3.3330  5.6540  5.2610  1.6645  3.3330  5.6540  5.2610 
  4366.000 -16.607  3.2970  5.4220  4.9400  1.6642  3.2970  5.4220  4.9400 
  4366.500 -16.786  3.2980  5.1900  4.7980  1.4849  3.2980  5.1900  4.7980 
  4367.000 -16.965  3.2980  4.8340  4.7980  1.3055  3.2980  4.8340  4.7980 
  4367.500 -17.142  3.3340  4.7630  4.7980  1.1282  3.3340  4.7630  4.7980 
  4368.000 -17.499  3.4240  4.7630  4.7980  0.7709  3.4240  4.7630  4.7980 
  4368.500 -17.856  3.5130  4.7990  4.8350  0.4136  3.5130  4.7990  4.8350 
