~Version Information
VERS.                     2.0: CWLS log ASCII Standard Version 2.00
WRAP.                      NO: One line per depth step
~Well Information Block
#MNEM.UNIT                               Data Type  Information
#---------                               ---------  -----------
STRT.FT                                   500.0000:
STOP.FT                                  6920.0000:
STEP.FT                                     0.5000:
NULL.                 -999.25                     :
COMP.                                             :COMPANY            
WELL.     SAN EMIDIO A #47-20                     :WELL               
FLD .                                             :FIELD              
CTRY.                                             :COUNTRY            
STAT.                                             :STATE              
LOC .                                             :LOCATION           
UWI .                                             :UNIQUE WELL ID     
SRVC.                                             :Service company    
DATE.                                             :LOG DATE           
~Curve Information
#MNEM.UNIT           API CODE  Curve Description
#---------           --------  -----------------
DEPT.FT                      :   1 DEPTH
SP  .MV                      :   2
AM16.OHMM                    :   3
AO10.OHMM                    :   4
AO19.OHMM                    :   5
SBL .MV                      :   6
RS  .OHMM                    :   7
RM  .OHMM                    :   8
RD  .OHMM                    :   9
~A
# ...
  1348.000 -49.390  16.386  33.376  32.472 -26.634  16.386  33.376  32.472 
  1348.500 -49.210  16.386  33.198  32.832 -26.459  16.386  33.198  32.832 
  1349.000 -49.119  16.386  33.200  33.192 -26.373  16.386  33.200  33.192 
  1349.500 -49.028  16.368  33.200  33.909 -26.287  16.368  33.200  33.909 
  1350.000 -49.116  16.350  33.377  34.627 -26.380  16.350  33.377  34.627 
  1350.500 -49.204  16.314  33.555  35.166 -26.473  16.314  33.555  35.166 
  1351.000 -49.559  16.278  33.556  35.705 -26.833  16.278  33.556  35.705 
  1351.500 -49.915  16.207  33.913  36.781 -27.193  16.207  33.913  36.781 
  1352.000 -50.003  16.100  34.269  37.498 -27.286  16.100  34.269  37.498 
  1352.500 -50.091  16.029  34.805  38.036 -27.379  16.029  34.805  38.036 
  1353.000 -50.179  15.939  35.341  38.575 -27.472  15.939  35.341  38.575 
  1353.500 -50.266  15.850  35.700  38.937 -27.564  15.850  35.700  38.937 
  1354.000 -50.443  15.600  36.056  39.297 -27.746  15.600  36.056  39.297 
  1354.500 -50.441  15.243  36.412  39.301 -27.749  15.243  36.412  39.301 
  1355.000 -50.440  14.851  37.128  39.305 -27.753  14.851  37.128  39.305 
  1355.500 -50.259  14.565  37.485  38.951 -27.576  14.565  37.485  38.951 
  1356.000 -50.079  14.137  37.485  38.955 -27.401  14.137  37.485  38.955 
  1356.500 -49.808  13.387  37.127  38.601 -27.135  13.387  37.127  38.601 
  1357.000 -49.538  12.780  36.769  37.891 -26.870  12.780  36.769  37.891 
  1357.500 -49.357  12.316  36.055  36.823 -26.694  12.316  36.055  36.823 
  1358.000 -47.924  11.745  35.341  36.112 -25.266  11.745  35.341  36.112 
  1358.500 -46.490  10.817  34.449  35.401 -23.837  10.817  34.449  35.401 
  1359.000 -45.057  10.638  33.556  32.907 -22.409  10.638  33.556  32.907 
  1359.500 -43.624  10.495  30.345  31.126 -20.980  10.495  30.345  31.126 
  1360.000 -42.191  10.352  28.738  28.988 -19.552  10.352  28.738  28.988 
  1360.500 -37.357  9.5320  27.130  26.136 -14.723  9.5320  27.130  26.136 
  1361.000 -35.924  9.1030  24.276  24.711 -13.295  9.1030  24.276  24.711 
  1361.500 -34.849  8.8890  23.205  24.000 -12.225  8.8890  23.205  24.000 
  1362.000 -34.131  8.6390  22.134  23.289 -11.512  8.6390  22.134  23.289 
  1362.500 -33.593  8.4960  21.420  22.223 -10.979  8.4960  21.420  22.223 
  1363.000 -33.770  8.3180  20.884  21.869 -11.160  8.3180  20.884  21.869 
  1363.500 -34.842  8.2460  20.348  21.514 -12.237  8.2460  20.348  21.514 
  1364.000 -35.377  8.1030  19.635  21.163 -12.777  8.1030  19.635  21.163 
  1364.500 -36.270  7.9610  19.920  19.930 -13.675  7.9610  19.920  19.930 
  1365.000 -36.805  7.6750  19.771  19.074 -14.215  7.6750  19.771  19.074 
  1365.500 -37.697  7.4610  19.622  18.860 -15.112  7.4610  19.622  18.860 
  1366.000 -38.054  7.2470  19.474  18.717 -15.474  7.2470  19.474  18.717 
  1366.500 -37.515  7.0330  19.325  18.646 -14.940  7.0330  19.325  18.646 
  1367.000 -37.245  6.8900  19.176  18.540 -14.674  6.8900  19.176  18.540 
  1367.500 -36.976  6.5690  19.027  18.469 -14.410  6.5690  19.027  18.469 
  1368.000 -35.720  6.3540  18.777  18.362 -13.159  6.3540  18.777  18.362 
  1368.500 -34.645  6.0690  18.456  18.112 -12.089  6.0690  18.456  18.112 
  1369.000 -31.244  5.7830  17.706  17.863 -8.6929  5.7830  17.706  17.863 
  1369.500 -29.632  5.6580  16.885  15.864 -7.0857  5.6580  16.885  15.864 
  1370.000 -28.199  5.5330  16.457  14.936 -5.6576  5.5330  16.457  14.936 
  1370.500 -27.481  5.1410  15.208  14.223 -4.9445  5.1410  15.208  14.223 
  1371.000 -26.406  4.9620  12.959  13.509 -3.8744  4.9620  12.959  13.509 
  1371.500 -25.867  4.8550  11.673  12.296 -3.3402  4.8550  11.673  12.296 
  1372.000 -25.329  4.7480  10.888  11.975 -2.8071  4.7480  10.888  11.975 
  1372.500 -24.969  4.5340  10.353  11.511 -2.4520  4.5340  10.353  11.511 
  1373.000 -24.788  4.4800  9.9240  11.083 -2.2758  4.4800  9.9240  11.083 
  1373.500 -24.965  4.4260  9.7100  10.940 -2.4577  4.4260  9.7100  10.940 
  1374.000 -25.142  4.4270  9.3890  10.905 -2.6396  4.4270  9.3890  10.905 
  1374.500 -25.319  4.4270  9.1390  10.870 -2.8214  4.4270  9.1390  10.870 
  1375.000 -25.675  4.4620  8.8890  10.942 -3.1823  4.4620  8.8890  10.942 
  1375.500 -26.031  4.4980  8.7820  11.013 -3.5432  4.4980  8.7820  11.013 
  1376.000 -26.566  4.5340  8.7460  11.085 -4.0830  4.5340  8.7460  11.085 
  1376.500 -27.459  4.5690  8.7460  11.121 -4.9809  4.5690  8.7460  11.121 
  1377.000 -28.710  4.6050  8.7820  11.086 -6.2368  4.6050  8.7820  11.086 
  1377.500 -29.424  4.6050  8.7820  11.032 -6.9556  4.6050  8.7820  11.032 
  1378.000 -29.780  4.5870  8.7820  10.979 -7.3165  4.5870  8.7820  10.979 
  1378.500 -29.062  4.5690  8.7820  10.766 -6.6034  4.5690  8.7820  10.766 
  1379.000 -28.345  4.5340  8.7280  10.587 -5.8913  4.5340  8.7280  10.587 
  1379.500 -27.090  4.4620  8.6750  10.374 -4.6411  4.4620  8.6750  10.374 
  1380.000 -25.836  4.4270  8.3180  10.124 -3.3920  4.4270  8.3180  10.124 
  1380.500 -24.403  4.3550  7.5680  9.9100 -1.9639  4.3550  7.5680  9.9100 
  1381.000 -23.865  4.3200  7.1750  9.7680 -1.4307  4.3200  7.1750  9.7680 
  1381.500 -23.684  4.3200  6.4260  9.5180 -1.2546  4.3200  6.4260  9.5180 
  1382.000 -23.503  4.3200  6.2470  9.1260 -1.0785  4.3200  6.2470  9.1260 
  1382.500 -23.501  4.3910  6.1050  8.9120 -1.0813  4.3910  6.1050  8.9120 
  1383.000 -23.500  4.4620  5.9260  8.6270 -1.0852  4.4620  5.9260  8.6270 
  1383.500 -23.677  4.5700  5.8190  8.5920 -1.2671  4.5700  5.8190  8.5920 
  1384.000 -23.855  4.6410  5.8370  8.6630 -1.4499  4.6410  5.8370  8.6630 
  1384.500 -25.462  4.7120  5.8540  8.7350 -3.0618  4.7120  5.8540  8.7350 
  1385.000 -27.250  4.9980  6.0330  9.0210 -4.8547  4.9980  6.0330  9.0210 
  1385.500 -29.574  5.2120  6.3190  9.1820 -7.1835  5.2120  6.3190  9.1820 
  1386.000 -30.825  5.3910  6.5690  9.3430 -8.4394  5.3910  6.5690  9.3430 
  1386.500 -32.254  5.7120  6.8540  9.9150 -9.8733  5.7120  6.8540  9.9150 
  1387.000 -33.505  6.0690  6.9970  10.379 -11.129  6.0690  6.9970  10.379 
  1387.500 -34.756  6.6760  7.3180  10.844 -12.385  6.6760  7.3180  10.844 
  1388.000 -36.543  6.8180  7.4970  11.165 -14.177  6.8180  7.4970  11.165 
  1388.500 -39.225  8.2110  7.8540  11.380 -16.864  8.2110  7.8540  11.380 
  1389.000 -42.086  8.8180  8.2460  11.666 -19.730  8.8180  8.2460  11.666 
  1389.500 -43.159  9.5670  8.3530  11.916 -20.807  9.5670  8.3530  11.916 
  1390.000 -45.483  10.174  8.7460  12.023 -23.136  10.174  8.7460  12.023 
  1390.500 -47.449  10.710  8.9960  12.166 -25.107  10.710  8.9960  12.166 
  1391.000 -49.774  11.209  9.1740  12.274 -27.437  11.209  9.1740  12.274 
  1391.500 -51.561  11.745  9.3530  12.417 -29.229  11.745  9.3530  12.417 
  1392.000 -51.738  12.138  9.5320  12.489 -29.411  12.138  9.5320  12.489 
  1392.500 -51.826  12.459  9.7100  12.525 -29.504  12.459  9.7100  12.525 
  1393.000 -51.914  12.923  9.8530  12.561 -29.597  12.923  9.8530  12.561 
  1393.500 -51.912  13.101  9.9960  12.597 -29.599  13.101  9.9960  12.597 
  1394.000 -51.910  13.244  10.138  12.490 -29.602  13.244  10.138  12.490 
  1394.500 -51.908  13.280  10.228  12.455 -29.605  13.280  10.228  12.455 
  1395.000 -51.906  13.316  10.317  12.384 -29.608  13.316  10.317  12.384 
  1395.500 -51.905  13.316  10.603  12.366 -29.612  13.316  10.603  12.366 
  1396.000 -51.993  13.351  10.781  12.349 -29.705  13.351  10.781  12.349 
  1396.500 -52.081  13.351  10.959  12.349 -29.798  13.351  10.959  12.349 
  1397.000 -52.615  13.333  11.424  12.349 -30.337  13.333  11.424  12.349 
  1397.500 -52.792  13.315  11.852  12.350 -30.518  13.315  11.852  12.350 
  1398.000 -52.790  13.316  13.137  12.332 -30.521  13.316  13.137  12.332 
  1398.500 -52.700  13.208  14.279  12.315 -30.436  13.208  14.279  12.315 
  1399.000 -52.609  13.101  15.458  12.297 -30.350  13.101  15.458  12.297 
  1399.500 -52.069  12.816  16.564  12.280 -29.815  12.816  16.564  12.280 
  1400.000 -51.172  12.602  18.135  12.245 -28.923  12.602  18.135  12.245 
  1400.500 -50.635  12.066  18.421  12.191 -28.391  12.066  18.421  12.191 
