~Version Information
VERS.                     2.0: CWLS log ASCII Standard Version 2.00
WRAP.                      NO: One line per depth step
~Well Information Block
#MNEM.UNIT                               Data Type  Information
#---------                               ---------  -----------
STRT.FT                                   500.0000:
STOP.FT                                  6920.0000:
STEP.FT                                     0.5000:
NULL.                 -999.25                     :
COMP.                                             :COMPANY            
WELL.     SAN EMIDIO A #47-20                     :WELL               
FLD .                                             :FIELD              
CTRY.                                             :COUNTRY            
STAT.                                             :STATE              
LOC .                                             :LOCATION           
UWI .                                             :UNIQUE WELL ID     
SRVC.                                             :Service company    
DATE.                                             :LOG DATE           
~Curve Information
#MNEM.UNIT           API CODE  Curve Description
#---------           --------  -----------------
DEPT.FT                      :   1 DEPTH
SP  .MV                      :   2
AM16.OHMM                    :   3
AO10.OHMM                    :   4
AO19.OHMM                    :   5
SBL .MV                      :   6
RS  .OHMM                    :   7
RM  .OHMM                    :   8
RD  .OHMM                    :   9
~A
# ...
  1772.000 -49.256  18.777  11.156  12.225 -29.345  18.777  11.156  12.225 
  1772.500 -49.433  18.956  11.352  12.296 -29.522  18.956  11.352  12.296 
  1773.000 -49.432  19.116  12.030  12.333 -29.522  19.116  12.030  12.333 
  1773.500 -49.610  19.277  12.673  12.440 -29.700  19.277  12.673  12.440 
  1774.000 -49.787  19.313  13.208  12.476 -29.877  19.313  13.208  12.476 
  1774.500 -49.786  19.313  14.636  12.583 -29.877  19.313  14.636  12.583 
  1775.000 -49.875  19.313  16.778  12.691 -29.966  19.313  16.778  12.691 
  1775.500 -49.964  19.259  17.207  12.798 -30.055  19.259  17.207  12.798 
  1776.000 -50.321  19.206  17.778  12.799 -30.413  19.206  17.778  12.799 
  1776.500 -50.410  19.027  26.774  12.656 -30.502  19.027  26.774  12.656 
  1777.000 -50.499  18.920  27.845  12.478 -30.591  18.920  27.845  12.478 
  1777.500 -50.766  18.813  28.202  12.229 -30.859  18.813  28.202  12.229 
  1778.000 -51.033  18.706  28.559  11.908 -31.126  18.706  28.559  11.908 
  1778.500 -51.390  18.385  28.559  11.765 -31.483  18.385  28.559  11.765 
  1779.000 -51.568  18.170  29.273  11.694 -31.662  18.170  29.273  11.694 
  1779.500 -51.567  17.956  29.630  11.623 -31.661  17.956  29.630  11.623 
  1780.000 -51.387  17.742  30.165  11.766 -31.481  17.742  30.165  11.766 
  1780.500 -51.028  17.528  30.699  11.909 -31.123  17.528  30.699  11.909 
  1781.000 -50.491  17.349  31.772  12.052 -30.586  17.349  31.772  12.052 
  1781.500 -50.132  17.278  32.129  12.446 -30.227  17.278  32.129  12.446 
  1782.000 -50.132  17.171  32.129  12.589 -30.227  17.171  32.129  12.589 
  1782.500 -50.131  17.064  32.663  12.875 -30.227  17.064  32.663  12.875 
  1783.000 -50.040  16.957  33.198  13.339 -30.136  16.957  33.198  13.339 
  1783.500 -49.950  16.885  33.733  13.571 -30.046  16.885  33.733  13.571 
  1784.000 -49.770  16.814  34.269  13.804 -29.867  16.814  34.269  13.804 
  1784.500 -49.769  16.528  34.986  19.880 -29.866  16.528  34.986  19.880 
  1785.000 -49.589  16.100  35.700  21.241 -29.686  16.100  35.700  21.241 
  1785.500 -49.051  15.814  36.057  22.601 -29.149  15.814  36.057  22.601 
  1786.000 -48.693  15.350  36.057  23.961 -28.791  15.350  36.057  23.961 
  1786.500 -48.335  14.672  35.700  25.321 -28.433  14.672  35.700  25.321 
  1787.000 -47.438  14.030  35.343  26.681 -27.537  14.030  35.343  26.681 
  1787.500 -46.812  13.780  34.629  27.757 -26.911  13.780  34.629  27.757 
  1788.000 -46.185  13.530  33.558  28.118 -26.284  13.530  33.558  28.118 
  1788.500 -44.931  12.816  32.130  28.121 -25.031  12.816  32.130  28.121 
  1789.000 -44.035  12.459  30.345  26.697 -24.135  12.459  30.345  26.697 
  1789.500 -43.140  11.923  28.917  24.915 -23.240  11.923  28.917  24.915 
  1790.000 -41.887  11.209  27.132  23.491 -21.988  11.209  27.132  23.491 
  1790.500 -39.381  10.995  26.061  22.781 -19.482  10.995  26.061  22.781 
  1791.000 -37.590  10.781  24.277  22.427 -17.691  10.781  24.277  22.427 
  1791.500 -35.442  10.353  23.206  21.717 -15.543  10.353  23.206  21.717 
  1792.000 -34.189  10.174  22.669  21.006 -14.291  10.174  22.669  21.006 
  1792.500 -33.114  10.174  22.133  20.296 -13.216  10.174  22.133  20.296 
  1793.000 -32.755  10.192  20.707  19.229 -12.857  10.192  20.707  19.229 
  1793.500 -32.755  10.210  20.170  18.518 -12.858  10.210  20.170  18.518 
  1794.000 -32.933  10.281  19.634  18.522 -13.036  10.281  19.634  18.522 
  1794.500 -34.005  10.352  19.636  23.523 -14.108  10.352  19.636  23.523 
  1795.000 -38.656  10.817  19.993  24.240 -18.760  10.817  19.993  24.240 
  1795.500 -41.339  11.388  21.063  24.956 -21.443  11.388  21.063  24.956 
  1796.000 -44.380  11.923  22.134  26.032 -24.484  11.923  22.134  26.032 
  1796.500 -45.811  12.352  22.848  26.571 -25.916  12.352  22.848  26.571 
  1797.000 -46.525  12.959  23.205  27.109 -26.630  12.959  23.205  27.109 
  1797.500 -46.525  13.316  23.204  27.828 -26.630  13.316  23.204  27.828 
  1798.000 -46.524  13.423  23.203  28.009 -26.630  13.423  23.203  28.009 
  1798.500 -45.807  13.851  23.383  28.190 -25.913  13.851  23.383  28.190 
  1799.000 -45.627  14.137  23.562  28.553 -25.733  14.137  23.562  28.553 
  1799.500 -45.626  14.422  23.562  28.556 -25.733  14.422  23.562  28.556 
  1800.000 -45.715  14.458  23.562  28.917 -25.822  14.458  23.562  28.917 
  1800.500 -45.804  14.494  23.564  29.274 -25.911  14.494  23.564  29.274 
  1801.000 -45.980  14.530  23.386  29.274 -26.087  14.530  23.386  29.274 
  1801.500 -46.336  14.423  23.209  29.274 -26.444  14.423  23.209  29.274 
  1802.000 -46.155  14.173  22.855  29.274 -26.263  14.173  22.855  29.274 
  1802.500 -45.438  13.852  22.500  29.274 -25.546  13.852  22.500  29.274 
  1803.000 -44.541  13.495  22.145  28.917 -24.650  13.495  22.145  28.917 
  1803.500 -43.645  13.138  21.433  28.917 -23.754  13.138  21.433  28.917 
  1804.000 -42.391  12.817  20.720  28.560 -22.500  12.817  20.720  28.560 
  1804.500 -42.121  12.639  20.721  28.380 -22.231  12.639  20.721  28.380 
  1805.000 -41.851  12.532  20.722  28.201 -21.961  12.532  20.722  28.201 
  1805.500 -42.386  12.461  20.724  27.844 -22.496  12.461  20.724  27.844 
  1806.000 -42.921  12.354  20.726  27.487 -23.032  12.354  20.726  27.487 
  1806.500 -43.634  12.247  21.085  27.130 -23.745  12.247  21.085  27.130 
  1807.000 -43.991  12.069  21.443  26.773 -24.102  12.069  21.443  26.773 
  1807.500 -43.028  11.855  21.804  26.237 -23.140  11.855  21.804  26.237 
  1808.000 -42.064  11.641  22.162  25.702 -22.176  11.641  22.162  25.702 
  1808.500 -41.101  11.462  22.164  24.990 -21.213  11.462  22.164  24.990 
  1809.000 -40.137  10.963  21.809  24.633 -20.250  10.963  21.809  24.633 
  1809.500 -39.174  10.642  21.811  23.919 -19.287  10.642  21.811  23.919 
  1810.000 -38.210  10.035  21.099  23.205 -18.323  10.035  21.099  23.205 
  1810.500 -37.247  9.5350  20.743  22.491 -17.360  9.5350  20.743  22.491 
  1811.000 -36.283  9.1070  20.386  21.420 -16.397  9.1070  20.386  21.420 
  1811.500 -33.060  8.8930  20.256  20.349 -13.174  8.8930  20.256  20.349 
  1812.000 -30.553  9.1070  20.126  17.850 -10.667  9.1070  20.126  17.850 
  1812.500 -29.836  9.3580  19.996  16.779 -9.9507  9.3580  19.996  16.779 
  1813.000 -29.655  9.5360  18.782  17.850 -9.7700  9.5360  18.782  17.850 
  1813.500 -29.832  9.7150  16.462  19.992 -9.9474  9.7150  16.462  19.992 
  1814.000 -30.546  9.9650  16.426  21.420 -10.662  9.9650  16.426  21.420 
  1814.500 -33.586  10.215  16.926  23.205 -13.702  10.215  16.926  23.205 
  1815.000 -35.910  10.501  17.712  24.989 -16.026  10.501  17.712  24.989 
  1815.500 -40.739  11.322  18.462  26.774 -20.856  11.322  18.462  26.774 
  1816.000 -43.422  12.393  19.890  28.916 -23.539  12.393  19.890  28.916 
  1816.500 -43.778  12.750  22.827  30.344 -23.895  12.750  22.827  30.344 
  1817.000 -44.134  12.751  25.764  30.701 -24.252  12.751  25.764  30.701 
  1817.500 -44.043  12.715  25.766  30.701 -24.161  12.715  25.766  30.701 
  1818.000 -43.952  12.679  25.411  29.987 -24.070  12.679  25.411  29.987 
  1818.500 -42.876  12.287  24.698  28.916 -22.995  12.287  24.698  28.916 
  1819.000 -42.158  12.144  23.807  27.488 -22.277  12.144  23.807  27.488 
  1819.500 -41.083  11.502  22.915  26.417 -21.202  11.502  22.915  26.417 
  1820.000 -40.187  10.967  22.046  26.417 -20.306  10.967  22.046  26.417 
  1820.500 -39.827  10.645  21.178  24.989 -19.947  10.645  21.178  24.989 
  1821.000 -40.004  8.7180  20.309  23.918 -20.124  8.7180  20.309  23.918 
  1821.500 -40.360  8.2180  19.440  22.133 -20.480  8.2180  19.440  22.133 
  1822.000 -40.716  8.0400  18.571  19.599 -20.837  8.0400  18.571  19.599 
  1822.500 -40.357  7.6830  18.053  18.992 -20.478  7.6830  18.053  18.992 
  1823.000 -39.460  7.5410  17.536  18.313 -19.581  7.5410  17.536  18.313 
  1823.500 -38.743  7.2910  16.680  17.564 -18.865  7.2910  16.680  17.564 
  1824.000 -36.056  6.9700  16.073  16.100 -16.178  6.9700  16.073  16.100 
  1824.500 -34.623  6.4350  15.074  15.386 -14.745  6.4350  15.074  15.386 
