~Version Information
VERS.                     2.0: CWLS log ASCII Standard Version 2.00
WRAP.                      NO: One line per depth step
~Well Information Block
#MNEM.UNIT                               Data Type  Information
#---------                               ---------  -----------
STRT.FT                                   500.0000:
STOP.FT                                  6920.0000:
STEP.FT                                     0.5000:
NULL.                 -999.25                     :
COMP.                                             :COMPANY            
WELL.     SAN EMIDIO A #47-20                     :WELL               
FLD .                                             :FIELD              
CTRY.                                             :COUNTRY            
STAT.                                             :STATE              
LOC .                                             :LOCATION           
UWI .                                             :UNIQUE WELL ID     
SRVC.                                             :Service company    
DATE.                                             :LOG DATE           
~Curve Information
#MNEM.UNIT           API CODE  Curve Description
#---------           --------  -----------------
DEPT.FT                      :   1 DEPTH
SP  .MV                      :   2
AM16.OHMM                    :   3
AO10.OHMM                    :   4
AO19.OHMM                    :   5
SBL .MV                      :   6
RS  .OHMM                    :   7
RM  .OHMM                    :   8
RD  .OHMM                    :   9
~A
# ...
  5588.000 -11.926  1.5420  1.8640  1.6310 -7.0962  1.5420  1.8640  1.6310 
  5588.500 -10.854  1.5420  1.8280  1.6130 -6.0218  1.5420  1.8280  1.6130 
  5589.000 -10.499  1.5420  1.8280  1.6130 -5.6643  1.5420  1.8280  1.6130 
  5589.500 -10.413  1.5420  1.7920  1.5950 -5.5758  1.5420  1.7920  1.5950 
  5590.000 -10.327  1.5410  1.7920  1.5770 -5.4874  1.5410  1.7920  1.5770 
  5590.500 -10.241  1.5590  1.7920  1.5590 -5.3989  1.5590  1.7920  1.5590 
  5591.000 -10.154  1.5770  1.7910  1.5410 -5.3095  1.5770  1.7910  1.5410 
  5591.500 -10.159  1.5770  1.7910  1.5410 -5.3120  1.5770  1.7910  1.5410 
  5592.000 -10.162  1.5760  1.7910  1.5410 -5.3126  1.5760  1.7910  1.5410 
  5592.500 -10.165  1.5760  1.7910  1.5400 -5.3131  1.5760  1.7910  1.5400 
  5593.000 -10.079  1.5760  1.7910  1.5400 -5.2247  1.5760  1.7910  1.5400 
  5593.500 -9.9930  1.5940  1.8080  1.5400 -5.1362  1.5940  1.8080  1.5400 
  5594.000 -9.9970  1.6110  1.8260  1.5400 -5.1378  1.6110  1.8260  1.5400 
  5594.500 -9.9110  1.5930  1.8260  1.5750 -5.0493  1.5930  1.8260  1.5750 
  5595.000 -9.8240  1.5750  1.8260  1.5750 -4.9598  1.5750  1.8260  1.5750 
  5595.500 -9.6490  1.5570  1.8260  1.5930 -4.7824  1.5570  1.8260  1.5930 
  5596.000 -9.6530  1.5390  1.8430  1.6110 -4.7839  1.5390  1.8430  1.6110 
  5596.500 -9.4770  1.5390  1.8610  1.6110 -4.6055  1.5390  1.8610  1.6110 
  5597.000 -9.4810  1.5390  1.8960  1.6100 -4.6070  1.5390  1.8960  1.6100 
  5597.500 -9.4840  1.5390  1.8960  1.5920 -4.6076  1.5390  1.8960  1.5920 
  5598.000 -9.4880  1.5390  1.8960  1.5740 -4.6091  1.5390  1.8960  1.5740 
  5598.500 -9.4920  1.5380  1.8960  1.5380 -4.6107  1.5380  1.8960  1.5380 
  5599.000 -9.4950  1.5380  1.8960  1.5380 -4.6112  1.5380  1.8960  1.5380 
  5599.500 -9.6780  1.5740  1.8960  1.5200 -4.7917  1.5740  1.8960  1.5200 
  5600.000 -9.7250  1.5740  1.8950  1.5020 -4.8363  1.5740  1.8950  1.5020 
  5600.500 -9.7720  1.5730  1.8950  1.4840 -4.8808  1.5730  1.8950  1.4840 
  5601.000 -9.8190  1.5910  1.8950  1.4660 -4.9254  1.5910  1.8950  1.4660 
  5601.500 -9.8660  1.6090  1.8950  1.4660 -4.9699  1.6090  1.8950  1.4660 
  5602.000 -9.6890  1.6090  1.8950  1.4660 -4.7905  1.6090  1.8950  1.4660 
  5602.500 -9.7800  1.6080  1.8950  1.4650 -4.8790  1.6080  1.8950  1.4650 
  5603.000 -9.8710  1.6080  1.8940  1.4650 -4.9676  1.6080  1.8940  1.4650 
  5603.500 -9.9620  1.6440  1.8940  1.5010 -5.0561  1.6440  1.8940  1.5010 
  5604.000 -10.054  1.6440  1.8940  1.5010 -5.1457  1.6440  1.8940  1.5010 
  5604.500 -10.056  1.6260  1.8940  1.5000 -5.1452  1.6260  1.8940  1.5000 
  5605.000 -9.9680  1.6080  1.8940  1.5000 -5.0547  1.6080  1.8940  1.5000 
  5605.500 -9.8800  1.6070  1.8930  1.5000 -4.9643  1.6070  1.8930  1.5000 
  5606.000 -9.4340  1.6070  1.8930  1.5000 -4.5158  1.6070  1.8930  1.5000 
  5606.500 -8.9870  1.6250  1.9290  1.5350 -4.0664  1.6250  1.9290  1.5350 
  5607.000 -8.8100  1.6430  1.9290  1.5530 -3.8869  1.6430  1.9290  1.5530 
  5607.500 -8.9010  1.6240  1.9280  1.5710 -3.9755  1.6240  1.9280  1.5710 
  5608.000 -8.9920  1.6060  1.9280  1.6060 -4.0640  1.6060  1.9280  1.6060 
  5608.500 -9.5330  1.6420  1.9460  1.6240 -4.6026  1.6420  1.9460  1.6240 
  5609.000 -9.7140  1.6420  1.9640  1.6420 -4.7811  1.6420  1.9640  1.6420 
  5609.500 -10.253  1.6420  1.9630  1.6950 -5.3176  1.6420  1.9630  1.6950 
  5610.000 -10.614  1.6590  1.9630  1.7490 -5.6762  1.6590  1.9630  1.7490 
  5610.500 -11.153  1.6770  1.9630  1.7490 -6.2127  1.6770  1.9630  1.7490 
  5611.000 -11.872  1.7310  1.9450  1.7480 -6.9293  1.7310  1.9450  1.7480 
  5611.500 -12.233  1.7840  1.9270  1.7840 -7.2878  1.7840  1.9270  1.7840 
  5612.000 -12.952  1.8200  1.9270  1.7840 -8.0044  1.8200  1.9270  1.7840 
  5612.500 -13.312  1.8550  1.9270  1.7840 -8.3619  1.8550  1.9270  1.7840 
  5613.000 -13.493  1.8910  1.9260  1.6760 -8.5405  1.8910  1.9260  1.6760 
  5613.500 -13.673  1.8730  1.9080  1.6400 -8.7180  1.8730  1.9080  1.6400 
  5614.000 -13.854  1.8550  1.8900  1.6400 -8.8966  1.8550  1.8900  1.6400 
  5614.500 -14.036  1.8190  1.8900  1.6040 -9.0761  1.8190  1.8900  1.6040 
  5615.000 -14.037  1.7830  1.8900  1.5680 -9.0746  1.7830  1.8900  1.5680 
  5615.500 -14.039  1.7470  1.8900  1.5500 -9.0742  1.7470  1.8900  1.5500 
  5616.000 -13.324  1.7110  1.8900  1.5320 -8.3567  1.7110  1.8900  1.5320 
  5616.500 -13.147  1.6930  1.8900  1.4960 -8.1773  1.6930  1.8900  1.4960 
  5617.000 -12.969  1.6750  1.8890  1.4960 -7.9968  1.6750  1.8890  1.4960 
  5617.500 -12.792  1.6570  1.8890  1.4960 -7.8174  1.6570  1.8890  1.4960 
  5618.000 -12.793  1.6390  1.8890  1.4960 -7.8159  1.6390  1.8890  1.4960 
  5618.500 -12.795  1.6380  1.8890  1.4950 -7.8155  1.6380  1.8890  1.4950 
  5619.000 -12.618  1.6380  1.8890  1.4950 -7.6360  1.6380  1.8890  1.4950 
  5619.500 -12.619  1.6380  1.8880  1.4950 -7.6345  1.6380  1.8880  1.4950 
  5620.000 -12.621  1.6560  1.8880  1.4950 -7.6341  1.6560  1.8880  1.4950 
  5620.500 -12.623  1.6740  1.8880  1.5130 -7.6336  1.6740  1.8880  1.5130 
  5621.000 -12.625  1.6910  1.8880  1.5300 -7.6332  1.6910  1.8880  1.5300 
  5621.500 -12.627  1.7090  1.8880  1.5300 -7.6327  1.7090  1.8880  1.5300 
  5622.000 -12.449  1.7270  1.8880  1.5660 -7.4523  1.7270  1.8880  1.5660 
  5622.500 -12.451  1.7440  1.8870  1.5650 -7.4518  1.7440  1.8870  1.5650 
  5623.000 -12.274  1.7440  1.8870  1.5650 -7.2724  1.7440  1.8870  1.5650 
  5623.500 -12.186  1.7260  1.8870  1.5650 -7.1819  1.7260  1.8870  1.5650 
  5624.000 -12.097  1.7080  1.8690  1.5650 -7.0905  1.7080  1.8690  1.5650 
  5624.500 -11.921  1.6960  1.8510  1.5650 -6.9120  1.6960  1.8510  1.5650 
  5625.000 -11.743  1.6840  1.8510  1.4930 -6.7315  1.6840  1.8510  1.4930 
  5625.500 -11.566  1.6720  1.8510  1.4930 -6.5521  1.6720  1.8510  1.4930 
  5626.000 -11.388  1.6710  1.8500  1.4930 -6.3716  1.6710  1.8500  1.4930 
  5626.500 -11.211  1.6530  1.8500  1.4930 -6.1922  1.6530  1.8500  1.4930 
  5627.000 -11.212  1.6350  1.8500  1.4920 -6.1907  1.6350  1.8500  1.4920 
  5627.500 -11.035  1.6350  1.8500  1.4920 -6.0113  1.6350  1.8500  1.4920 
  5628.000 -11.036  1.6350  1.8500  1.4920 -6.0098  1.6350  1.8500  1.4920 
  5628.500 -11.038  1.6350  1.8500  1.4920 -6.0094  1.6350  1.8500  1.4920 
  5629.000 -11.219  1.6350  1.8490  1.4920 -6.1879  1.6350  1.8490  1.4920 
  5629.500 -11.222  1.6350  1.8490  1.4910 -6.1884  1.6350  1.8490  1.4910 
  5630.000 -11.224  1.6340  1.8490  1.5090 -6.1880  1.6340  1.8490  1.5090 
  5630.500 -11.315  1.6340  1.8490  1.5270 -6.2765  1.6340  1.8490  1.5270 
  5631.000 -11.406  1.6340  1.8490  1.5630 -6.3651  1.6340  1.8490  1.5630 
  5631.500 -11.588  1.6340  1.8480  1.5980 -6.5446  1.6340  1.8480  1.5980 
  5632.000 -11.769  1.6340  1.8840  1.6340 -6.7232  1.6340  1.8840  1.6340 
  5632.500 -11.770  1.6340  1.8840  1.6330 -6.7217  1.6340  1.8840  1.6330 
  5633.000 -11.593  1.6330  1.8840  1.6510 -6.5423  1.6330  1.8840  1.6510 
  5633.500 -11.415  1.6330  1.8840  1.6690 -6.3618  1.6330  1.8840  1.6690 
  5634.000 -10.879  1.6330  1.8830  1.6870 -5.8234  1.6330  1.8830  1.6870 
  5634.500 -10.523  1.6510  1.8830  1.7040 -5.4649  1.6510  1.8830  1.7040 
  5635.000 -10.434  1.6680  1.8830  1.6680 -5.3734  1.6680  1.8830  1.6680 
  5635.500 -10.346  1.6680  1.8830  1.6680 -5.2830  1.6680  1.8830  1.6680 
  5636.000 -10.169  1.6680  1.8830  1.6680 -5.1035  1.6680  1.8830  1.6680 
  5636.500 -9.9920  1.6680  1.8650  1.6680 -4.9241  1.6680  1.8650  1.6680 
  5637.000 -9.8140  1.6680  1.8460  1.6680 -4.7436  1.6680  1.8460  1.6680 
  5637.500 -9.8160  1.6680  1.8460  1.6320 -4.7432  1.6680  1.8460  1.6320 
  5638.000 -9.8170  1.6670  1.8460  1.6320 -4.7417  1.6670  1.8460  1.6320 
  5638.500 -9.7300  1.6850  1.8460  1.6310 -4.6523  1.6850  1.8460  1.6310 
  5639.000 -9.6420  1.7030  1.8460  1.6310 -4.5618  1.7030  1.8460  1.6310 
  5639.500 -9.6430  1.7030  1.8460  1.6310 -4.5603  1.7030  1.8460  1.6310 
  5640.000 -9.6450  1.7020  1.8450  1.6310 -4.5599  1.7020  1.8450  1.6310 
  5640.500 -9.6470  1.6660  1.8630  1.6310 -4.5594  1.6660  1.8630  1.6310 
