~Version Information
VERS.                     2.0: CWLS log ASCII Standard Version 2.00
WRAP.                      NO: One line per depth step
~Well Information Block
#MNEM.UNIT                               Data Type  Information
#---------                               ---------  -----------
STRT.FT                                   500.0000:
STOP.FT                                  6920.0000:
STEP.FT                                     0.5000:
NULL.                 -999.25                     :
COMP.                                             :COMPANY            
WELL.     SAN EMIDIO A #47-20                     :WELL               
FLD .                                             :FIELD              
CTRY.                                             :COUNTRY            
STAT.                                             :STATE              
LOC .                                             :LOCATION           
UWI .                                             :UNIQUE WELL ID     
SRVC.                                             :Service company    
DATE.                                             :LOG DATE           
~Curve Information
#MNEM.UNIT           API CODE  Curve Description
#---------           --------  -----------------
DEPT.FT                      :   1 DEPTH
SP  .MV                      :   2
AM16.OHMM                    :   3
AO10.OHMM                    :   4
AO19.OHMM                    :   5
SBL .MV                      :   6
RS  .OHMM                    :   7
RM  .OHMM                    :   8
RD  .OHMM                    :   9
~A
# ...
  4740.000 -24.964  5.2860  6.6790  5.8070 -6.9292  5.2860  6.6790  5.8070 
  4740.500 -25.497  5.5370  6.4300  5.4870 -7.4625  5.5370  6.4300  5.4870 
  4741.000 -26.565  5.7160  6.3950  5.5590 -8.5309  5.7160  6.3950  5.5590 
  4741.500 -29.777  6.3240  6.4310  5.6670 -11.743  6.3240  6.4310  5.6670 
  4742.000 -33.524  6.5930  6.5390  5.9170 -15.490  6.5930  6.5390  5.9170 
  4742.500 -34.950  6.8610  6.6830  6.0970 -16.917  6.8610  6.6830  6.0970 
  4743.000 -39.233  7.3980  6.9340  6.4190 -21.200  7.3980  6.9340  6.4190 
  4743.500 -41.374  7.6850  7.1140  6.5620 -23.341  7.6850  7.1140  6.5620 
  4744.000 -41.997  8.0790  7.3640  6.5990 -23.965  8.0790  7.3640  6.5990 
  4744.500 -42.620  8.2220  7.6510  6.7060 -24.588  8.2220  7.6510  6.7060 
  4745.000 -43.330  8.3660  8.0450  6.8500 -25.298  8.3660  8.0450  6.8500 
  4745.500 -43.149  8.9740  8.1880  6.9220 -25.118  8.9740  8.1880  6.9220 
  4746.000 -42.968  9.4750  8.3320  7.0660 -24.937  9.4750  8.3320  7.0660 
  4746.500 -42.250  9.7620  8.4580  7.2100 -24.219  9.7620  8.4580  7.2100 
  4747.000 -41.533  10.120  8.5840  7.4250 -23.503  10.120  8.5840  7.4250 
  4747.500 -40.994  10.406  8.7990  7.6750 -22.964  10.406  8.7990  7.6750 
  4748.000 -40.277  10.372  9.0500  7.7830 -22.247  10.372  9.0500  7.7830 
  4748.500 -39.918  10.015  9.1940  8.0690 -21.889  10.015  9.1940  8.0690 
  4749.000 -39.022  9.7310  9.4450  8.3200 -20.993  9.7310  9.4450  8.3200 
  4749.500 -38.752  9.5170  9.7310  8.6070 -20.723  9.5170  9.7310  8.6070 
  4750.000 -38.482  9.1970  9.9470  8.7860 -20.454  9.1970  9.9470  8.7860 
  4750.500 -37.943  8.5190  9.6980  8.7150 -19.915  8.5190  9.6980  8.7150 
  4751.000 -37.940  7.7340  9.3410  8.5370 -19.912  7.7340  9.3410  8.5370 
  4751.500 -36.777  7.3420  8.9140  8.3240 -18.750  7.3420  8.9140  8.3240 
  4752.000 -35.615  7.1290  8.4500  8.2170 -17.588  7.1290  8.4500  8.2170 
  4752.500 -32.932  6.8440  8.0220  7.8970 -14.905  6.8440  8.0220  7.8970 
  4753.000 -29.180  6.5230  7.6300  7.1830 -11.153  6.5230  7.6300  7.1830 
  4753.500 -27.392  6.3100  7.4170  6.6120 -9.3658  6.3100  7.4170  6.6120 
  4754.000 -25.425  6.1680  7.3460  6.3270 -7.3991  6.1680  7.3460  6.3270 
  4754.500 -24.708  6.0620  7.2050  6.1140 -6.6824  6.0620  7.2050  6.1140 
  4755.000 -24.705  6.0270  7.2230  6.0070 -6.6797  6.0270  7.2230  6.0070 
  4755.500 -24.881  5.9920  7.2420  6.0080 -6.8560  5.9920  7.2420  6.0080 
  4756.000 -25.236  6.1530  7.3500  6.0090 -7.2113  6.1530  7.3500  6.0090 
  4756.500 -25.947  6.3150  7.4580  6.1520 -7.9227  6.3150  7.4580  6.1520 
  4757.000 -26.659  6.5300  7.6730  6.2600 -8.6350  6.5300  7.6730  6.2600 
  4757.500 -29.156  6.7810  7.8530  6.3680 -11.132  6.7810  7.8530  6.3680 
  4758.000 -33.617  7.2820  8.5680  6.6190 -15.594  7.2820  8.5680  6.6190 
  4758.500 -36.829  7.7830  9.1760  6.6910 -18.806  7.7830  9.1760  6.6910 
  4759.000 -41.112  8.2480  9.6410  6.8340 -23.089  8.2480  9.6410  6.8340 
  4759.500 -43.073  8.7850  10.249  7.0140 -25.051  8.7850  10.249  7.0140 
  4760.000 -43.785  9.0720  10.607  7.3000 -25.763  9.0720  10.607  7.3000 
  4760.500 -44.139  9.2510  10.965  7.3720 -26.117  9.2510  10.965  7.3720 
  4761.000 -44.405  9.3230  11.145  7.4800 -26.384  9.3230  11.145  7.4800 
  4761.500 -44.671  9.2890  11.146  7.4980 -26.650  9.2890  11.146  7.4980 
  4762.000 -45.024  9.2540  11.111  7.5170 -27.003  9.2540  11.111  7.5170 
  4762.500 -45.200  9.1480  10.933  7.5890 -27.179  9.1480  10.933  7.5890 
  4763.000 -44.126  9.0410  10.720  7.5900 -26.106  9.0410  10.720  7.5900 
  4763.500 -43.587  8.9350  10.471  7.5900 -25.567  8.9350  10.471  7.5900 
  4764.000 -42.870  8.4720  10.329  7.7350 -24.850  8.4720  10.329  7.7350 
  4764.500 -41.082  8.2940  10.044  7.7710 -23.063  8.2940  10.044  7.7710 
  4765.000 -37.865  7.8310  9.9380  7.8070 -19.846  7.8310  9.9380  7.8070 
  4765.500 -35.541  7.3320  9.7600  7.8440 -17.522  7.3320  9.7600  7.8440 
  4766.000 -34.200  6.9750  9.5820  7.7730 -16.182  6.9750  9.5820  7.7730 
  4766.500 -32.859  6.7970  9.3690  7.5600 -14.841  6.7970  9.3690  7.5600 
  4767.000 -30.982  6.2630  9.1560  7.3460 -12.964  6.2630  9.1560  7.3460 
  4767.500 -29.104  5.6920  9.0130  7.1680 -11.087  5.6920  9.0130  7.1680 
  4768.000 -25.349  5.4430  8.8710  6.9900 -7.3319  5.4430  8.8710  6.9900 
  4768.500 -24.632  5.2300  8.1230  6.8120 -6.6152  5.2300  8.1230  6.8120 
  4769.000 -23.648  5.1230  7.7300  6.6350 -5.6316  5.1230  7.7300  6.6350 
  4769.500 -22.664  5.0350  7.3380  6.4560 -4.6479  5.0350  7.3380  6.4560 
  4770.000 -22.124  4.9460  7.1970  6.3500 -4.1082  4.9460  7.1970  6.3500 
  4770.500 -22.121  4.7330  7.2330  6.4940 -4.1055  4.7330  7.2330  6.4940 
  4771.000 -22.119  4.6980  7.3060  6.6020 -4.1038  4.6980  7.3060  6.6020 
  4771.500 -22.117  4.6280  7.3420  6.6380 -4.1021  4.6280  7.3420  6.6380 
  4772.000 -22.113  4.5570  7.3790  6.6390 -4.0985  4.5570  7.3790  6.6390 
  4772.500 -22.111  4.5220  7.3970  6.5860 -4.0968  4.5220  7.3970  6.5860 
  4773.000 -22.108  4.5050  7.4160  6.5330 -4.0941  4.5050  7.4160  6.5330 
  4773.500 -22.105  4.4880  7.4170  6.4620 -4.0914  4.4880  7.4170  6.4620 
  4774.000 -22.103  4.4180  7.4180  6.4270 -4.0897  4.4180  7.4180  6.4270 
  4774.500 -21.743  4.3830  7.4190  6.4100 -3.7300  4.3830  7.4190  6.4100 
  4775.000 -21.562  4.4020  7.4200  6.3930 -3.5494  4.4020  7.4200  6.3930 
  4775.500 -21.470  4.4200  7.4560  6.2870 -3.4577  4.4200  7.4560  6.2870 
  4776.000 -21.379  4.6000  7.4930  6.3590 -3.3670  4.6000  7.4930  6.3590 
  4776.500 -22.447  4.7440  7.5470  6.3950 -4.4353  4.7440  7.5470  6.3950 
  4777.000 -23.872  4.8160  7.6020  6.4490 -5.8606  4.8160  7.6020  6.4490 
  4777.500 -24.048  4.8880  7.6200  6.5030 -6.0369  4.8880  7.6200  6.5030 
  4778.000 -24.581  4.9430  7.6390  6.5400 -6.5703  4.9430  7.6390  6.5400 
  4778.500 -23.865  4.9970  7.5330  6.5760 -5.8546  4.9970  7.5330  6.5760 
  4779.000 -23.149  4.8730  7.3910  6.5770 -5.1389  4.8730  7.3910  6.5770 
  4779.500 -21.538  4.7490  7.2850  6.5420 -3.5282  4.7490  7.2850  6.5420 
  4780.000 -20.821  4.6790  7.1070  6.4720 -2.8115  4.6790  7.1070  6.4720 
  4780.500 -20.640  4.6800  6.7870  6.4010 -2.6308  4.6800  6.7870  6.4010 
  4781.000 -20.460  4.6800  6.4660  6.3300 -2.4511  4.6800  6.4660  6.3300 
  4781.500 -21.170  4.7530  6.1820  6.2590 -3.1615  4.7530  6.1820  6.2590 
  4782.000 -21.882  4.7890  6.0750  6.2600 -3.8738  4.7890  6.0750  6.2600 
  4782.500 -22.593  4.8260  6.0400  6.2610 -4.5851  4.8260  6.0400  6.2610 
  4783.000 -23.483  4.8620  6.1480  6.5120 -5.4754  4.8620  6.1480  6.5120 
  4783.500 -25.802  4.8990  6.3280  6.5840 -7.7947  4.8990  6.3280  6.5840 
  4784.000 -33.656  4.9360  6.3820  6.6920 -15.649  4.9360  6.3820  6.6920 
  4784.500 -34.546  4.9370  6.4370  6.7640 -16.539  4.9370  6.4370  6.7640 
  4785.000 -32.758  4.9730  6.4380  6.8360 -14.752  4.9730  6.4380  6.8360 
  4785.500 -32.398  4.9740  6.4030  6.8720 -14.392  4.9740  6.4030  6.8720 
  4786.000 -32.395  4.9750  6.3680  6.7660 -14.389  4.9750  6.3680  6.7660 
  4786.500 -32.571  5.0470  6.3150  6.6770 -14.566  5.0470  6.3150  6.6770 
  4787.000 -32.569  5.1020  6.2620  6.5880 -14.564  5.1020  6.2620  6.5880 
  4787.500 -32.744  5.1560  6.1920  6.5180 -14.739  5.1560  6.1920  6.5180 
  4788.000 -33.456  5.4070  6.3000  6.4110 -15.452  5.4070  6.3000  6.4110 
  4788.500 -34.525  5.6580  6.4080  6.3760 -16.521  5.6580  6.4080  6.3760 
  4789.000 -37.200  5.8020  6.5880  6.3770 -19.196  5.8020  6.5880  6.3770 
  4789.500 -38.271  5.9460  6.8740  6.3780 -20.268  5.9460  6.8740  6.3780 
  4790.000 -39.341  6.0180  7.0890  6.7360 -21.338  6.0180  7.0890  6.7360 
  4790.500 -43.979  5.9120  7.3050  7.0220 -25.976  5.9120  7.3050  7.0220 
  4791.000 -42.727  5.8410  7.5200  7.0050 -24.724  5.8410  7.5200  7.0050 
  4791.500 -41.831  5.7350  7.4490  6.9880 -23.829  5.7350  7.4490  6.9880 
  4792.000 -40.221  5.6290  7.3790  6.8100 -22.219  5.6290  7.3790  6.8100 
  4792.500 -36.825  5.5040  7.0940  6.5610 -18.823  5.5040  7.0940  6.5610 
