~Version Information
VERS.                     2.0: CWLS log ASCII Standard Version 2.00
WRAP.                      NO: One line per depth step
~Well Information Block
#MNEM.UNIT                               Data Type  Information
#---------                               ---------  -----------
STRT.FT                                   500.0000:
STOP.FT                                  6920.0000:
STEP.FT                                     0.5000:
NULL.                 -999.25                     :
COMP.                                             :COMPANY            
WELL.     SAN EMIDIO A #47-20                     :WELL               
FLD .                                             :FIELD              
CTRY.                                             :COUNTRY            
STAT.                                             :STATE              
LOC .                                             :LOCATION           
UWI .                                             :UNIQUE WELL ID     
SRVC.                                             :Service company    
DATE.                                             :LOG DATE           
~Curve Information
#MNEM.UNIT           API CODE  Curve Description
#---------           --------  -----------------
DEPT.FT                      :   1 DEPTH
SP  .MV                      :   2
AM16.OHMM                    :   3
AO10.OHMM                    :   4
AO19.OHMM                    :   5
SBL .MV                      :   6
RS  .OHMM                    :   7
RM  .OHMM                    :   8
RD  .OHMM                    :   9
~A
# ...
  3468.000 -23.137  4.0810  6.1150  4.7700 -4.2982  4.0810  6.1150  4.7700 
  3468.500 -23.137  4.2590  6.1510  4.9310 -4.2985  4.2590  6.1510  4.9310 
  3469.000 -23.228  4.4030  6.1870  5.0910 -4.3898  4.4030  6.1870  5.0910 
  3469.500 -23.319  4.5810  6.2940  5.3770 -4.4811  4.5810  6.2940  5.3770 
  3470.000 -23.499  4.6530  6.5440  5.5020 -4.6615  4.6530  6.5440  5.5020 
  3470.500 -23.679  4.8320  6.6870  5.6270 -4.8418  4.8320  6.6870  5.6270 
  3471.000 -24.038  5.0110  6.7230  5.9490 -5.2011  5.0110  6.7230  5.9490 
  3471.500 -24.576  5.2250  6.7590  6.1630 -5.7394  5.2250  6.7590  6.1630 
  3472.000 -25.025  5.3320  6.7600  6.2700 -6.1887  5.3320  6.7600  6.2700 
  3472.500 -25.474  5.4400  6.7600  6.4670 -6.6380  5.4400  6.7600  6.4670 
  3473.000 -26.728  5.8330  6.7600  6.6630 -7.8923  5.8330  6.7600  6.6630 
  3473.500 -27.982  5.9760  6.7610  6.8420 -9.1467  5.9760  6.7610  6.8420 
  3474.000 -31.386  6.2260  6.7610  7.0200 -12.551  6.2260  6.7610  7.0200 
  3474.500 -35.506  6.4050  6.8330  7.3770 -16.671  6.4050  6.8330  7.3770 
  3475.000 -38.552  6.6190  6.9050  7.5560 -19.718  6.6190  6.9050  7.5560 
  3475.500 -39.807  6.8340  6.9760  7.8770 -20.973  6.8340  6.9760  7.8770 
  3476.000 -41.061  6.8520  7.1190  8.3770 -22.227  6.8520  7.1190  8.3770 
  3476.500 -41.600  6.8700  7.2620  8.6980 -22.767  6.8700  7.2620  8.6980 
  3477.000 -42.138  6.7630  7.5840  8.7700 -23.305  6.7630  7.5840  8.7700 
  3477.500 -43.034  6.5140  7.9050  8.7700 -24.201  6.5140  7.9050  8.7700 
  3478.000 -43.572  6.3720  7.9590  8.7700 -24.740  6.3720  7.9590  8.7700 
  3478.500 -41.066  5.9790  8.0130  8.6280 -22.234  5.9790  8.0130  8.6280 
  3479.000 -38.559  5.4440  7.8710  8.4490 -19.727  5.4440  7.8710  8.4490 
  3479.500 -35.516  4.7670  7.8710  7.8790 -16.684  4.7670  7.8710  7.8790 
  3480.000 -29.247  4.1960  6.7650  6.3440 -10.416  4.1960  6.7650  6.3440 
  3480.500 -29.069  3.9830  5.9450  5.3460 -10.238  3.9830  5.9450  5.3460 
  3481.000 -28.891  3.8760  5.3030  5.0600 -10.060  3.8760  5.3030  5.0600 
  3481.500 -28.713  3.7690  4.8400  4.8820 -9.8827  3.7690  4.8400  4.8820 
  3482.000 -28.535  3.6980  4.7510  4.8290 -9.7050  3.6980  4.7510  4.8290 
  3482.500 -28.267  3.6990  4.6620  4.7750 -9.4374  3.6990  4.6620  4.7750 
  3483.000 -28.000  3.6990  4.5910  4.7040 -9.1707  3.6990  4.5910  4.7040 
  3483.500 -27.463  3.7170  4.5910  4.6330 -8.6340  3.7170  4.5910  4.6330 
  3484.000 -27.105  3.7350  4.6270  4.5970 -8.2763  3.7350  4.6270  4.5970 
  3484.500 -26.927  3.8600  4.6990  4.5620 -8.0986  3.8600  4.6990  4.5620 
  3485.000 -27.107  3.9860  4.7350  4.5260 -8.2789  3.9860  4.7350  4.5260 
  3485.500 -27.824  4.3070  4.8070  4.6340 -8.9963  4.3070  4.8070  4.6340 
  3486.000 -29.079  4.5930  5.0930  4.8840 -10.252  4.5930  5.0930  4.8840 
  3486.500 -33.737  4.7720  5.2000  4.9910 -14.910  4.7720  5.2000  4.9910 
  3487.000 -36.245  5.3070  5.3610  5.2410 -17.418  5.3070  5.3610  5.2410 
  3487.500 -38.574  5.7000  5.5220  5.4190 -19.748  5.7000  5.5220  5.4190 
  3488.000 -45.381  6.0930  5.7900  5.5980 -26.555  6.0930  5.7900  5.5980 
  3488.500 -47.173  6.5930  6.0580  5.7770 -28.347  6.5930  6.0580  5.7770 
  3489.000 -48.249  6.9150  6.6290  5.8840 -29.423  6.9150  6.6290  5.8840 
  3489.500 -48.966  7.2720  7.0220  6.1340 -30.141  7.2720  7.0220  6.1340 
  3490.000 -49.684  7.5580  7.3430  6.3120 -30.859  7.5580  7.3430  6.3120 
  3490.500 -50.849  7.8430  7.5580  6.4910 -32.024  7.8430  7.5580  6.4910 
  3491.000 -52.014  8.0940  7.6300  6.7770 -33.190  8.0940  7.6300  6.7770 
  3491.500 -53.447  8.9150  7.7010  6.8660 -34.623  8.9150  7.7010  6.8660 
  3492.000 -54.881  9.3430  7.7020  6.9550 -36.057  9.3430  7.7020  6.9550 
  3492.500 -55.598  9.5930  7.6660  7.0450 -36.775  9.5930  7.6660  7.0450 
  3493.000 -55.420  9.9500  7.6670  7.1340 -36.597  9.9500  7.6670  7.1340 
  3493.500 -55.242  10.343  7.6670  7.4550 -36.419  10.343  7.6670  7.4550 
  3494.000 -55.064  10.451  7.7030  7.5980 -36.242  10.451  7.7030  7.5980 
  3494.500 -54.885  10.844  7.7390  7.7050 -36.063  10.844  7.7390  7.7050 
  3495.000 -55.065  11.165  7.8110  7.9550 -36.243  11.165  7.8110  7.9550 
  3495.500 -55.156  11.736  7.9180  8.1700 -36.335  11.736  7.9180  8.1700 
  3496.000 -55.246  12.022  8.0260  8.4910 -36.425  12.022  8.0260  8.4910 
  3496.500 -55.247  12.094  8.2400  8.7410 -36.426  12.094  8.2400  8.7410 
  3497.000 -55.427  12.130  8.3830  8.9550 -36.607  12.130  8.3830  8.9550 
  3497.500 -55.607  12.077  8.5260  8.9910 -36.787  12.077  8.5260  8.9910 
  3498.000 -55.787  12.023  8.6690  8.9560 -36.967  12.023  8.6690  8.9560 
  3498.500 -55.788  11.917  9.2050  8.9020 -36.968  11.917  9.2050  8.9020 
  3499.000 -55.789  11.810  9.3660  8.8490 -36.970  11.810  9.3660  8.8490 
  3499.500 -55.879  11.721  9.5270  8.7780 -37.060  11.721  9.5270  8.7780 
  3500.000 -55.970  11.632  9.9550  8.7060 -37.151  11.632  9.9550  8.7060 
  3500.500 -55.968  11.508  10.384  8.6710 -37.150  11.508  10.384  8.6710 
  3501.000 -55.787  11.383  10.848  8.6360 -36.969  11.383  10.848  8.6360 
  3501.500 -54.890  11.223  11.205  8.6180 -36.072  11.223  11.205  8.6180 
  3502.000 -53.814  11.062  12.026  8.6010 -34.997  11.062  12.026  8.6010 
  3502.500 -52.916  10.741  12.490  8.4940 -34.099  10.741  12.490  8.4940 
  3503.000 -52.198  10.456  12.775  8.3160 -33.381  10.456  12.775  8.3160 
  3503.500 -50.763  9.4930  12.740  8.2090 -31.947  9.4930  12.740  8.2090 
  3504.000 -49.508  9.0650  12.669  7.8170 -30.692  9.0650  12.669  7.8170 
  3504.500 -48.252  8.7080  12.455  7.3180 -29.436  8.7080  12.455  7.3180 
  3505.000 -45.922  8.3510  12.241  6.8550 -27.107  8.3510  12.241  6.8550 
  3505.500 -42.518  7.8880  11.742  6.4620 -23.703  7.8880  11.742  6.4620 
  3506.000 -42.695  7.4600  11.278  5.6780 -23.880  7.4600  11.278  5.6780 
  3506.500 -43.230  7.2460  10.886  5.4280 -24.416  7.2460  10.886  5.4280 
  3507.000 -43.945  7.1750  10.565  5.4640 -25.131  7.1750  10.565  5.4640 
  3507.500 -44.660  7.0680  10.600  5.5720 -25.846  7.0680  10.600  5.5720 
  3508.000 -45.374  6.9610  10.672  5.7150 -26.560  6.9610  10.672  5.7150 
  3508.500 -43.760  6.8540  10.744  5.9290 -24.947  6.8540  10.744  5.9290 
  3509.000 -40.355  6.6760  10.886  6.0720 -21.542  6.6760  10.886  6.0720 
  3509.500 -38.921  6.4980  10.922  6.0730 -20.108  6.4980  10.922  6.0730 
  3510.000 -38.740  6.3550  10.958  6.0200 -19.928  6.3550  10.958  6.0200 
  3510.500 -39.634  6.1050  10.637  5.9660 -20.822  6.1050  10.637  5.9660 
  3511.000 -40.886  6.1060  9.7450  5.8600 -22.074  6.1060  9.7450  5.8600 
  3511.500 -43.212  6.0880  9.3530  6.0030 -24.401  6.0880  9.3530  6.0030 
  3512.000 -45.360  6.0700  9.2820  6.1100 -26.549  6.0700  9.2820  6.1100 
  3512.500 -46.791  6.0350  9.3180  6.3600 -27.980  6.0350  9.3180  6.3600 
  3513.000 -47.505  5.9640  9.3530  6.5390 -28.695  5.9640  9.3530  6.5390 
  3513.500 -47.683  5.9280  9.4610  6.7180 -28.873  5.9280  9.4610  6.7180 
  3514.000 -46.427  5.8930  9.7110  6.8970 -27.617  5.8930  9.7110  6.8970 
  3514.500 -45.530  5.8210  9.8180  6.9330 -26.721  5.8210  9.8180  6.9330 
  3515.000 -44.453  5.4650  9.4970  6.8620 -25.644  5.4650  9.4970  6.8620 
  3515.500 -42.302  5.1440  9.1760  6.7550 -23.493  5.1440  9.1760  6.7550 
  3516.000 -40.151  4.8590  8.7480  6.6130 -21.343  4.8590  8.7480  6.6130 
  3516.500 -36.926  4.7160  8.3560  6.4520 -18.118  4.7160  8.3560  6.4520 
  3517.000 -34.775  4.6450  8.1060  6.2920 -15.967  4.6450  8.1060  6.2920 
  3517.500 -33.519  4.6450  7.7140  6.1500 -14.711  4.6450  7.7140  6.1500 
  3518.000 -32.980  4.7170  7.3570  6.1680 -14.173  4.7170  7.3570  6.1680 
  3518.500 -32.799  4.7520  6.8580  6.1860 -13.992  4.7520  6.8580  6.1860 
  3519.000 -32.619  4.8600  6.6080  6.2580 -13.812  4.8600  6.6080  6.2580 
  3519.500 -31.721  4.9670  6.5730  6.3300 -12.915  4.9670  6.5730  6.3300 
  3520.000 -29.749  5.0740  6.5370  6.3660 -10.943  5.0740  6.5370  6.3660 
  3520.500 -29.747  5.3950  6.5020  6.5090 -10.941  5.3950  6.5020  6.5090 
