~Version Information
VERS.                     2.0: CWLS log ASCII Standard Version 2.00
WRAP.                      NO: One line per depth step
~Well Information Block
#MNEM.UNIT                               Data Type  Information
#---------                               ---------  -----------
STRT.FT                                   500.0000:
STOP.FT                                  6920.0000:
STEP.FT                                     0.5000:
NULL.                 -999.25                     :
COMP.                                             :COMPANY            
WELL.     SAN EMIDIO A #47-20                     :WELL               
FLD .                                             :FIELD              
CTRY.                                             :COUNTRY            
STAT.                                             :STATE              
LOC .                                             :LOCATION           
UWI .                                             :UNIQUE WELL ID     
SRVC.                                             :Service company    
DATE.                                             :LOG DATE           
~Curve Information
#MNEM.UNIT           API CODE  Curve Description
#---------           --------  -----------------
DEPT.FT                      :   1 DEPTH
SP  .MV                      :   2
AM16.OHMM                    :   3
AO10.OHMM                    :   4
AO19.OHMM                    :   5
SBL .MV                      :   6
RS  .OHMM                    :   7
RM  .OHMM                    :   8
RD  .OHMM                    :   9
~A
# ...
  3892.000 -55.627  12.492  12.777  9.2090 -37.056  12.492  12.777  9.2090 
  3892.500 -56.879  12.777  13.170  9.5660 -38.309  12.777  13.170  9.5660 
  3893.000 -57.326  12.884  13.455  9.8870 -38.756  12.884  13.455  9.8870 
  3893.500 -57.773  13.026  13.597  9.9220 -39.203  13.026  13.597  9.9220 
  3894.000 -58.130  13.205  13.811  9.8860 -39.560  13.205  13.811  9.8860 
  3894.500 -58.487  13.347  14.204  9.8150 -39.918  13.347  14.204  9.8150 
  3895.000 -58.665  13.490  14.560  9.7430 -40.096  13.490  14.560  9.7430 
  3895.500 -58.485  13.561  14.417  9.7610 -39.916  13.561  14.417  9.7610 
  3896.000 -58.305  13.668  14.274  9.7780 -39.737  13.668  14.274  9.7780 
  3896.500 -58.484  13.685  14.203  9.8140 -39.916  13.685  14.203  9.8140 
  3897.000 -58.483  13.703  14.167  9.9920 -39.915  13.703  14.167  9.9920 
  3897.500 -58.661  13.739  14.095  10.170 -40.094  13.739  14.095  10.170 
  3898.000 -58.839  13.703  14.024  10.349 -40.272  13.703  14.024  10.349 
  3898.500 -59.017  13.667  14.452  10.705 -40.450  13.667  14.452  10.705 
  3899.000 -59.285  13.560  14.809  11.597 -40.719  13.560  14.809  11.597 
  3899.500 -59.553  13.720  15.415  12.132 -40.987  13.720  15.415  12.132 
  3900.000 -59.194  13.880  15.558  12.364 -40.628  13.880  15.558  12.364 
  3900.500 -59.015  14.238  15.611  12.596 -40.450  14.238  15.611  12.596 
  3901.000 -58.836  14.274  15.665  12.275 -40.271  14.274  15.665  12.275 
  3901.500 -58.658  14.167  15.701  12.026 -40.093  14.167  15.701  12.026 
  3902.000 -58.658  14.096  15.666  11.777 -40.094  14.096  15.666  11.777 
  3902.500 -58.569  13.882  15.631  11.349 -40.005  13.882  15.631  11.349 
  3903.000 -58.480  13.454  15.595  10.921 -39.916  13.454  15.595  10.921 
  3903.500 -58.660  13.134  15.560  10.636 -40.096  13.134  15.560  10.636 
  3904.000 -58.660  12.884  15.489  10.386 -40.097  12.884  15.489  10.386 
  3904.500 -58.840  12.742  15.454  10.137 -40.277  12.742  15.454  10.137 
  3905.000 -58.840  12.599  15.490  9.9590 -40.277  12.599  15.490  9.9590 
  3905.500 -58.841  12.350  15.597  9.8520 -40.279  12.350  15.597  9.8520 
  3906.000 -58.841  12.101  15.740  9.7810 -40.279  12.101  15.740  9.7810 
  3906.500 -58.662  11.923  15.955  9.7460 -40.100  11.923  15.955  9.7460 
  3907.000 -58.484  11.745  16.134  9.7110 -39.923  11.745  16.134  9.7110 
  3907.500 -58.126  11.674  16.205  9.6400 -39.565  11.674  16.205  9.6400 
  3908.000 -57.768  11.603  16.206  9.5690 -39.207  11.603  16.206  9.5690 
  3908.500 -57.679  11.603  16.224  9.4980 -39.119  11.603  16.224  9.4980 
  3909.000 -57.590  11.639  16.242  9.3550 -39.030  11.639  16.242  9.3550 
  3909.500 -57.232  11.657  16.278  9.2490 -38.672  11.657  16.278  9.2490 
  3910.000 -57.233  11.675  16.314  9.1780 -38.674  11.675  16.314  9.1780 
  3910.500 -57.412  11.818  16.457  9.4630 -38.853  11.818  16.457  9.4630 
  3911.000 -57.592  11.926  16.814  9.6780 -39.033  11.926  16.814  9.6780 
  3911.500 -57.772  12.033  17.635  9.8920 -39.214  12.033  17.635  9.8920 
  3912.000 -57.951  12.069  17.689  10.285 -39.393  12.069  17.689  10.285 
  3912.500 -57.951  12.070  17.743  10.571 -39.393  12.070  17.743  10.571 
  3913.000 -57.952  12.034  17.708  10.785 -39.394  12.034  17.708  10.785 
  3913.500 -57.952  11.999  17.672  10.911 -39.395  11.999  17.672  10.911 
  3914.000 -57.774  11.928  17.494  11.036 -39.217  11.928  17.494  11.036 
  3914.500 -57.595  11.857  17.388  11.286 -39.038  11.857  17.388  11.286 
  3915.000 -57.058  11.786  17.210  11.572 -38.502  11.786  17.210  11.572 
  3915.500 -56.700  11.751  17.032  11.751 -38.144  11.751  17.032  11.751 
  3916.000 -56.521  11.715  16.925  11.912 -37.965  11.715  16.925  11.912 
  3916.500 -56.522  11.644  16.890  12.072 -37.967  11.644  16.890  12.072 
  3917.000 -56.522  11.680  16.890  12.465 -37.967  11.680  16.890  12.465 
  3917.500 -56.523  11.752  16.855  12.608 -37.968  11.752  16.855  12.608 
  3918.000 -56.703  11.788  16.819  12.752 -38.149  11.788  16.819  12.752 
  3918.500 -56.882  11.860  16.677  12.859 -38.328  11.860  16.677  12.859 
  3919.000 -57.241  11.860  16.499  12.966 -38.687  11.860  16.499  12.966 
  3919.500 -57.600  11.860  16.321  13.324 -39.047  11.860  16.321  13.324 
  3920.000 -57.779  11.861  16.107  13.467 -39.226  11.861  16.107  13.467 
  3920.500 -57.958  11.826  16.072  13.717 -39.405  11.826  16.072  13.717 
  3921.000 -57.869  11.755  16.036  13.967 -39.317  11.755  16.036  13.967 
  3921.500 -57.781  11.684  16.072  14.146 -39.229  11.684  16.072  14.146 
  3922.000 -57.422  11.612  16.073  14.289 -38.870  11.612  16.073  14.289 
  3922.500 -57.423  11.488  16.073  14.253 -38.871  11.488  16.073  14.253 
  3923.000 -57.424  11.363  16.074  14.218 -38.873  11.363  16.074  14.218 
  3923.500 -57.603  11.185  16.074  14.183 -39.052  11.185  16.074  14.183 
  3924.000 -57.424  11.097  16.074  14.130 -38.873  11.097  16.074  14.130 
  3924.500 -57.066  11.008  16.039  14.076 -38.516  11.008  16.039  14.076 
  3925.000 -56.888  10.830  16.003  14.023 -38.338  10.830  16.003  14.023 
  3925.500 -56.172  10.794  15.683  13.970 -37.622  10.794  15.683  13.970 
  3926.000 -55.635  10.723  15.576  13.828 -37.086  10.723  15.576  13.828 
  3926.500 -55.993  10.742  15.469  13.757 -37.444  10.742  15.469  13.757 
  3927.000 -56.352  10.760  15.256  13.668 -37.803  10.760  15.256  13.668 
  3927.500 -56.890  10.974  15.256  13.579 -38.342  10.974  15.256  13.579 
  3928.000 -57.069  11.153  15.256  13.615 -38.521  11.153  15.256  13.615 
  3928.500 -56.891  11.242  15.364  13.651 -38.343  11.242  15.364  13.651 
  3929.000 -56.354  11.332  15.543  13.705 -37.807  11.332  15.543  13.705 
  3929.500 -55.638  11.261  15.935  13.759 -37.091  11.261  15.935  13.759 
  3930.000 -55.638  11.190  16.150  13.795 -37.091  11.190  16.150  13.795 
  3930.500 -55.639  11.048  16.257  13.795 -37.093  11.048  16.257  13.795 
  3931.000 -55.997  10.691  16.293  13.706 -37.451  10.691  16.293  13.706 
  3931.500 -55.998  9.6570  16.329  13.617 -37.452  9.6570  16.329  13.617 
  3932.000 -55.640  9.2650  16.365  13.083 -37.094  9.2650  16.365  13.083 
  3932.500 -55.283  8.5870  16.366  12.833 -36.738  8.5870  16.366  12.833 
  3933.000 -53.134  8.1950  16.152  12.512 -34.589  8.1950  16.152  12.512 
  3933.500 -51.880  7.6600  15.867  11.978 -33.335  7.6600  15.867  11.978 
  3934.000 -49.373  7.2680  15.047  11.514 -30.829  7.2680  15.047  11.514 
  3934.500 -41.672  6.3050  14.904  10.801 -23.128  6.3050  14.904  10.801 
  3935.000 -38.628  5.6270  14.601  10.337 -20.084  5.6270  14.601  10.337 
  3935.500 -35.942  4.7710  14.298  9.2310 -17.399  4.7710  14.298  9.2310 
  3936.000 -34.330  4.4860  11.658  7.9120 -15.787  4.4860  11.658  7.9120 
  3936.500 -33.256  4.0580  9.9100  6.9490 -14.713  4.0580  9.9100  6.9490 
  3937.000 -33.078  3.8440  9.2330  6.5560 -14.536  3.8440  9.2330  6.5560 
  3937.500 -33.436  3.5950  8.3760  6.4140 -14.894  3.5950  8.3760  6.4140 
  3938.000 -33.616  3.4880  7.1640  6.3790 -15.074  3.4880  7.1640  6.3790 
  3938.500 -33.974  3.4350  7.0210  6.5220 -15.433  3.4350  7.0210  6.5220 
  3939.000 -33.617  3.3820  6.9500  6.5930 -15.076  3.3820  6.9500  6.5930 
  3939.500 -33.438  3.3110  7.2360  6.6650 -14.897  3.3110  7.2360  6.6650 
  3940.000 -33.260  3.2760  7.3080  6.6120 -14.720  3.2760  7.3080  6.6120 
  3940.500 -32.812  3.2400  7.2550  6.5590 -14.272  3.2400  7.2550  6.5590 
  3941.000 -32.365  3.1870  7.2010  6.1310 -13.825  3.1870  7.2010  6.1310 
  3941.500 -32.186  3.1340  7.0230  5.9170 -13.646  3.1340  7.0230  5.9170 
  3942.000 -32.097  3.0990  6.7740  5.8280 -13.558  3.0990  6.7740  5.8280 
  3942.500 -32.008  3.0630  6.3820  5.7400 -13.469  3.0630  6.3820  5.7400 
  3943.000 -32.008  3.0280  6.0250  5.6690 -13.469  3.0280  6.0250  5.6690 
  3943.500 -32.188  2.9930  5.7050  5.5970 -13.650  2.9930  5.7050  5.5970 
  3944.000 -32.278  2.9930  5.4910  5.5620 -13.740  2.9930  5.4910  5.5620 
  3944.500 -32.368  3.0290  5.2770  5.5270 -13.830  3.0290  5.2770  5.5270 
