~Version Information
VERS.                     2.0: CWLS log ASCII Standard Version 2.00
WRAP.                      NO: One line per depth step
~Well Information Block
#MNEM.UNIT                               Data Type  Information
#---------                               ---------  -----------
STRT.FT                                   500.0000:
STOP.FT                                  6920.0000:
STEP.FT                                     0.5000:
NULL.                 -999.25                     :
COMP.                                             :COMPANY            
WELL.     SAN EMIDIO A #47-20                     :WELL               
FLD .                                             :FIELD              
CTRY.                                             :COUNTRY            
STAT.                                             :STATE              
LOC .                                             :LOCATION           
UWI .                                             :UNIQUE WELL ID     
SRVC.                                             :Service company    
DATE.                                             :LOG DATE           
~Curve Information
#MNEM.UNIT           API CODE  Curve Description
#---------           --------  -----------------
DEPT.FT                      :   1 DEPTH
SP  .MV                      :   2
AM16.OHMM                    :   3
AO10.OHMM                    :   4
AO19.OHMM                    :   5
SBL .MV                      :   6
RS  .OHMM                    :   7
RM  .OHMM                    :   8
RD  .OHMM                    :   9
~A
# ...
   924.000 -39.092  6.4010  6.2940  6.4500 -12.208  6.4010  6.2940  6.4500 
   924.500 -40.257  6.7220  6.4370  6.7710 -13.378  6.7220  6.4370  6.7710 
   925.000 -41.421  7.1500  6.6860  6.9140 -14.547  7.1500  6.6860  6.9140 
   925.500 -43.571  7.8290  7.1500  7.0920 -16.701  7.8290  7.1500  7.0920 
   926.000 -44.646  8.3640  7.3990  7.2700 -17.781  8.3640  7.3990  7.2700 
   926.500 -45.274  8.6140  7.5420  7.4490 -18.414  8.6140  7.5420  7.4490 
   927.000 -45.902  8.8630  7.7020  7.6270 -19.047  8.8630  7.7020  7.6270 
   927.500 -46.799  9.0410  7.8620  7.8770 -19.949  9.0410  7.8620  7.8770 
   928.000 -47.874  9.2190  8.0220  8.0190 -21.029  9.2190  8.0220  8.0190 
   928.500 -48.770  9.4150  8.1820  8.1620 -21.930  9.4150  8.1820  8.1620 
   929.000 -49.667  9.6110  8.4320  8.4830 -22.832  9.6110  8.4320  8.4830 
   929.500 -50.384  9.7530  8.5380  8.5900 -23.553  9.7530  8.5380  8.5900 
   930.000 -50.744  10.038  8.6630  8.6250 -23.918  10.038  8.6630  8.6250 
   930.500 -50.924  10.181  8.7870  8.7860 -24.103  10.181  8.7870  8.7860 
   931.000 -51.105  10.394  9.0720  8.9460 -24.289  10.394  9.0720  8.9460 
   931.500 -51.286  10.644  9.4290  9.0530 -24.475  10.644  9.4290  9.0530 
   932.000 -51.467  10.750  9.7860  9.1600 -24.661  10.750  9.7860  9.1600 
   932.500 -51.647  10.928  10.142  9.4090 -24.846  10.928  10.142  9.4090 
   933.000 -51.827  11.178  10.392  9.5520 -25.031  11.178  10.392  9.5520 
   933.500 -52.545  11.284  10.516  9.6590 -25.753  11.284  10.516  9.6590 
   934.000 -53.084  11.391  10.641  9.8010 -26.297  11.391  10.641  9.8010 
   934.500 -53.444  11.498  11.140  9.8370 -26.662  11.498  11.140  9.8370 
   935.000 -53.982  11.711  11.533  9.8010 -27.205  11.711  11.533  9.8010 
   935.500 -54.163  11.746  12.461  9.6570 -27.391  11.746  12.461  9.6570 
   936.000 -54.343  11.764  12.889  9.6210 -27.576  11.764  12.889  9.6210 
   936.500 -54.703  11.781  13.282  9.5850 -27.941  11.781  13.282  9.5850 
   937.000 -54.884  11.780  13.674  9.5850 -28.126  11.780  13.674  9.5850 
   937.500 -54.886  11.780  13.781  9.5840 -28.133  11.780  13.781  9.5840 
   938.000 -54.798  11.743  13.959  9.5840 -28.050  11.743  13.959  9.5840 
   938.500 -54.710  11.636  14.315  9.5840 -27.967  11.636  14.315  9.5840 
   939.000 -54.623  11.528  14.922  9.6190 -27.885  11.528  14.922  9.6190 
   939.500 -54.535  11.384  15.815  9.6550 -27.802  11.384  15.815  9.6550 
   940.000 -54.447  11.133  16.136  9.7260 -27.719  11.133  16.136  9.7260 
   940.500 -54.360  10.990  16.707  9.7970 -27.637  10.990  16.707  9.7970 
   941.000 -54.004  10.739  17.314  9.9040 -27.285  10.739  17.314  9.9040 
   941.500 -53.648  10.488  17.563  10.010 -26.934  10.488  17.563  10.010 
   942.000 -53.202  10.131  17.955  10.153 -26.493  10.131  17.955  10.153 
   942.500 -52.756  9.6650  18.312  10.224 -26.052  9.6650  18.312  10.224 
   943.000 -50.791  9.4500  18.847  10.224 -24.092  9.4500  18.847  10.224 
   943.500 -49.003  9.2360  19.097  10.223 -22.309  9.2360  19.097  10.223 
   944.000 -46.500  8.6990  19.168  10.080 -19.811  8.6990  19.168  10.080 
   944.500 -43.818  8.3410  19.131  9.9010 -17.133  8.3410  19.131  9.9010 
   945.000 -41.315  8.1620  18.881  9.4720 -14.635  8.1620  18.881  9.4720 
   945.500 -38.454  7.6970  17.987  9.2210 -11.779  7.6970  17.987  9.2210 
   946.000 -37.203  7.3390  17.164  8.7570 -10.533  7.3390  17.164  8.7570 
   946.500 -36.131  7.0160  16.235  8.5960 -9.4660  7.0160  16.235  8.5960 
   947.000 -34.523  6.7660  15.520  8.4350 -7.8628  6.7660  15.520  8.4350 
   947.500 -33.630  6.3720  15.162  8.1840 -6.9747  6.3720  15.162  8.1840 
   948.000 -33.811  6.3360  14.625  8.0760 -7.1606  6.3360  14.625  8.0760 
   948.500 -34.349  6.2990  12.123  8.0050 -7.7034  6.2990  12.123  8.0050 
   949.000 -34.709  6.3340  11.908  8.1830 -8.0683  6.3340  11.908  8.1830 
   949.500 -34.889  6.3690  11.943  8.2900 -8.2532  6.3690  11.943  8.2900 
   950.000 -35.428  6.4400  12.193  8.3960 -8.7970  6.4400  12.193  8.3960 
   950.500 -36.324  6.5830  12.442  8.4680 -9.6979  6.5830  12.442  8.4680 
   951.000 -37.221  6.7960  12.656  8.9320 -10.600  6.7960  12.656  8.9320 
   951.500 -38.654  7.0810  12.834  9.3600 -12.038  7.0810  12.834  9.3600 
   952.000 -41.340  7.3310  13.012  9.8600 -14.729  7.3310  13.012  9.8600 
   952.500 -42.236  7.4730  13.547  10.574 -15.629  7.4730  13.547  10.574 
   953.000 -41.701  7.4370  13.654  10.788 -15.099  7.4370  13.654  10.788 
   953.500 -40.629  7.2930  13.975  11.181 -14.032  7.2930  13.975  11.181 
   954.000 -39.200  7.1500  14.224  12.145 -12.608  7.1500  14.224  12.145 
   954.500 -37.949  6.8280  14.688  12.502 -11.362  6.8280  14.688  12.502 
   955.000 -35.982  6.6130  14.688  12.609 -9.3997  6.6130  14.688  12.609 
   955.500 -33.658  6.3980  13.937  12.359 -7.0806  6.3980  13.937  12.359 
   956.000 -32.050  6.1830  11.364  12.215 -5.4775  6.1830  11.364  12.215 
   956.500 -30.441  5.9680  10.255  11.322 -3.8733  5.9680  10.255  11.322 
   957.000 -29.190  5.2880  9.7190  9.8920 -2.6272  5.2880  9.7190  9.8920 
   957.500 -28.119  4.9300  9.3610  9.3920 -1.5611  4.9300  9.3610  9.3920 
   958.000 -27.584  4.8220  8.7170  8.8910 -1.0309  4.8220  8.7170  8.8910 
   958.500 -27.496  4.7150  8.0020  8.4260 -0.9478  4.7150  8.0020  8.4260 
   959.000 -27.408  4.6430  7.6080  8.1040 -0.8647  4.6430  7.6080  8.1040 
   959.500 -27.409  4.6060  7.1070  7.8540 -0.8705  4.6060  7.1070  7.8540 
   960.000 -27.411  4.6410  6.8560  7.8530 -0.8774  4.6410  6.8560  7.8530 
   960.500 -27.592  4.7480  6.7840  7.9960 -1.0633  4.7480  6.7840  7.9960 
   961.000 -27.773  4.9260  6.7480  8.0310 -1.2491  4.9260  6.7480  8.0310 
   961.500 -28.670  5.1400  6.7470  8.3170 -2.1510  5.1400  6.7470  8.3170 
   962.000 -29.745  5.3530  6.9970  8.7450 -3.2309  5.3530  6.9970  8.7450 
   962.500 -30.641  5.7460  7.4970  8.9590 -4.1318  5.7460  7.4970  8.9590 
   963.000 -32.075  5.8880  7.8530  9.1020 -5.5706  5.8880  7.8530  9.1020 
   963.500 -33.508  6.2800  8.4240  9.3520 -7.0085  6.2800  8.4240  9.3520 
   964.000 -34.762  6.4230  8.7810  9.4940 -8.2674  6.4230  8.7810  9.4940 
   964.500 -36.016  6.6360  9.2090  9.6190 -9.5262  6.6360  9.2090  9.6190 
   965.000 -37.628  6.8860  9.5300  9.7440 -11.143  6.8860  9.5300  9.7440 
   965.500 -38.525  7.0100  9.7080  9.9580 -12.045  7.0100  9.7080  9.9580 
   966.000 -39.243  7.1350  9.8500  10.136 -12.768  7.1350  9.8500  10.136 
   966.500 -39.423  7.1700  9.8860  10.207 -12.953  7.1700  9.8860  10.207 
   967.000 -39.604  7.1690  9.9210  10.225 -13.139  7.1690  9.9210  10.225 
   967.500 -39.427  7.1330  9.8840  10.242 -12.966  7.1330  9.8840  10.242 
   968.000 -39.071  7.0970  9.8480  10.224 -12.615  7.0970  9.8480  10.224 
   968.500 -38.714  6.8820  9.8120  10.206 -12.263  6.8820  9.8120  10.206 
   969.000 -36.570  6.8450  9.7750  9.9910 -10.124  6.8450  9.7750  9.9910 
   969.500 -35.319  6.4870  9.5600  9.7760 -8.8779  6.4870  9.5600  9.7760 
   970.000 -34.784  6.3080  9.4170  9.6330 -8.3478  6.3080  9.4170  9.6330 
   970.500 -34.248  6.2360  8.6300  9.4180 -7.8166  6.2360  8.6300  9.4180 
   971.000 -33.893  6.0570  7.9860  9.2750 -7.4665  6.0570  7.9860  9.2750 
   971.500 -33.716  5.9490  7.7000  9.1320 -7.2944  5.9490  7.7000  9.1320 
   972.000 -33.539  5.8410  7.6460  8.7020 -7.1223  5.8410  7.6460  8.7020 
   972.500 -33.361  5.7690  7.5910  8.5590 -6.9491  5.7690  7.5910  8.5590 
   973.000 -33.363  5.7680  7.5010  8.3800 -6.9560  5.7680  7.5010  8.3800 
   973.500 -33.544  5.8210  7.4110  8.3080 -7.1419  5.8210  7.4110  8.3080 
   974.000 -34.261  5.8740  7.4110  8.2720 -7.8637  5.8740  7.4110  8.2720 
   974.500 -34.979  6.0880  7.4460  8.2360 -8.5866  6.0880  7.4460  8.2360 
   975.000 -35.875  6.1950  7.6240  8.3790 -9.4875  6.1950  7.6240  8.3790 
   975.500 -36.772  6.4800  7.6950  8.5570 -10.389  6.4800  7.6950  8.5570 
   976.000 -37.578  7.4440  7.8550  8.7350 -11.200  7.4440  7.8550  8.7350 
   976.500 -38.385  7.6760  8.0150  8.9140 -12.012  7.6760  8.0150  8.9140 
