~Version Information
VERS.                     2.0: CWLS log ASCII Standard Version 2.00
WRAP.                      NO: One line per depth step
~Well Information Block
#MNEM.UNIT                               Data Type  Information
#---------                               ---------  -----------
STRT.FT                                   500.0000:
STOP.FT                                  6920.0000:
STEP.FT                                     0.5000:
NULL.                 -999.25                     :
COMP.                                             :COMPANY            
WELL.     SAN EMIDIO A #47-20                     :WELL               
FLD .                                             :FIELD              
CTRY.                                             :COUNTRY            
STAT.                                             :STATE              
LOC .                                             :LOCATION           
UWI .                                             :UNIQUE WELL ID     
SRVC.                                             :Service company    
DATE.                                             :LOG DATE           
~Curve Information
#MNEM.UNIT           API CODE  Curve Description
#---------           --------  -----------------
DEPT.FT                      :   1 DEPTH
SP  .MV                      :   2
AM16.OHMM                    :   3
AO10.OHMM                    :   4
AO19.OHMM                    :   5
SBL .MV                      :   6
RS  .OHMM                    :   7
RM  .OHMM                    :   8
RD  .OHMM                    :   9
~A
# ...
  6860.000 -26.506  2.5390  2.9690  3.3490 -16.506  2.5390  2.9690  3.3490 
  6860.500 -25.970  2.5380  2.9330  3.3850 -15.970  2.5380  2.9330  3.3850 
  6861.000 -25.882  2.5380  2.8970  3.4560 -15.882  2.5380  2.8970  3.4560 
  6861.500 -25.794  2.5380  2.8600  3.4920 -15.794  2.5380  2.8600  3.4920 
  6862.000 -25.257  2.5370  2.8600  3.4560 -15.257  2.5370  2.8600  3.4560 
  6862.500 -25.259  2.5010  2.8420  3.4200 -15.259  2.5010  2.8420  3.4200 
  6863.000 -25.081  2.5010  2.8230  3.3120 -15.081  2.5010  2.8230  3.3120 
  6863.500 -25.083  2.5000  2.7870  3.2760 -15.083  2.5000  2.7870  3.2760 
  6864.000 -25.085  2.5000  2.7510  3.2040 -15.085  2.5000  2.7510  3.2040 
  6864.500 -25.087  2.5000  2.7150  3.1680 -15.087  2.5000  2.7150  3.1680 
  6865.000 -25.268  2.4630  2.6790  3.1320 -15.268  2.4630  2.6790  3.1320 
  6865.500 -25.270  2.4630  2.6420  3.0960 -15.270  2.4630  2.6420  3.0960 
  6866.000 -25.451  2.4270  2.7140  3.0600 -15.451  2.4270  2.7140  3.0600 
  6866.500 -25.453  2.4270  2.7310  2.9880 -15.453  2.4270  2.7310  2.9880 
  6867.000 -25.275  2.4080  2.7490  2.9880 -15.275  2.4080  2.7490  2.9880 
  6867.500 -24.918  2.3900  2.7490  2.9880 -14.918  2.3900  2.7490  2.9880 
  6868.000 -24.561  2.3900  2.7480  2.9520 -14.561  2.3900  2.7480  2.9520 
  6868.500 -24.383  2.3890  2.7300  2.9160 -14.383  2.3890  2.7300  2.9160 
  6869.000 -24.475  2.3890  2.7120  2.8800 -14.475  2.3890  2.7120  2.8800 
  6869.500 -24.567  2.3890  2.7110  2.9150 -14.567  2.3890  2.7110  2.9150 
  6870.000 -24.748  2.3880  2.6390  2.8790 -14.748  2.3880  2.6390  2.8790 
  6870.500 -24.929  2.3880  2.6570  2.8790 -14.929  2.3880  2.6570  2.8790 
  6871.000 -25.110  2.3870  2.6740  2.8790 -15.110  2.3870  2.6740  2.8790 
  6871.500 -25.112  2.3870  2.6740  2.8430 -15.112  2.3870  2.6740  2.8430 
  6872.000 -25.114  2.3870  2.6740  2.8430 -15.114  2.3870  2.6740  2.8430 
  6872.500 -25.295  2.3860  2.6730  2.8430 -15.295  2.3860  2.6730  2.8430 
  6873.000 -25.117  2.3860  2.6730  2.8780 -15.117  2.3860  2.6730  2.8780 
  6873.500 -24.940  2.4220  2.6730  2.8780 -14.940  2.4220  2.6730  2.8780 
  6874.000 -24.852  2.4210  2.6720  2.8780 -14.852  2.4210  2.6720  2.8780 
  6874.500 -24.764  2.4210  2.6720  2.9140 -14.764  2.4210  2.6720  2.9140 
  6875.000 -24.586  2.4560  2.6710  2.9490 -14.586  2.4560  2.6710  2.9490 
  6875.500 -24.229  2.4920  2.6710  2.9850 -14.229  2.4920  2.6710  2.9850 
  6876.000 -24.231  2.4910  2.6710  2.9850 -14.231  2.4910  2.6710  2.9850 
  6876.500 -24.143  2.4910  2.6700  2.9850 -14.143  2.4910  2.6700  2.9850 
  6877.000 -24.055  2.5450  2.6520  2.9840 -14.055  2.5450  2.6520  2.9840 
  6877.500 -24.057  2.5980  2.6340  2.9840 -14.057  2.5980  2.6340  2.9840 
  6878.000 -24.059  2.5980  2.6690  2.9840 -14.059  2.5980  2.6690  2.9840 
  6878.500 -24.061  2.6510  2.6870  2.9840 -14.061  2.6510  2.6870  2.9840 
  6879.000 -24.062  2.7040  2.7040  2.9840 -14.062  2.7040  2.7040  2.9840 
  6879.500 -24.243  2.7400  2.7400  2.9840 -14.243  2.7400  2.7400  2.9840 
  6880.000 -24.515  2.7750  2.7750  3.0190 -14.515  2.7750  2.7750  3.0190 
  6880.500 -24.786  2.8110  2.8110  3.0550 -14.786  2.8110  2.8110  3.0550 
  6881.000 -25.326  2.8460  2.8460  3.1620 -15.326  2.8460  2.8460  3.1620 
  6881.500 -25.058  2.8820  2.9180  3.0900 -15.058  2.8820  2.9180  3.0900 
  6882.000 -24.791  2.9170  2.9170  3.0540 -14.791  2.9170  2.9170  3.0540 
  6882.500 -24.703  2.9350  2.8450  2.9830 -14.703  2.9350  2.8450  2.9830 
  6883.000 -24.615  2.9530  2.8090  2.9110 -14.615  2.9530  2.8090  2.9110 
  6883.500 -24.617  2.9520  2.7010  2.8750 -14.617  2.9520  2.7010  2.8750 
  6884.000 -24.619  2.9520  2.6290  2.8390 -14.619  2.9520  2.6290  2.8390 
  6884.500 -24.620  2.9510  2.5930  2.7670 -14.620  2.9510  2.5930  2.7670 
  6885.000 -24.622  2.9510  2.5750  2.7660 -14.622  2.9510  2.5750  2.7660 
  6885.500 -24.534  2.9510  2.5560  2.7300 -14.534  2.9510  2.5560  2.7300 
  6886.000 -24.446  2.9860  2.5560  2.7300 -14.446  2.9860  2.5560  2.7300 
  6886.500 -24.627  2.9860  2.5560  2.7300 -14.627  2.9860  2.5560  2.7300 
  6887.000 -24.629  2.9860  2.5550  2.7300 -14.629  2.9860  2.5550  2.7300 
  6887.500 -24.810  2.9850  2.5550  2.7300 -14.810  2.9850  2.5550  2.7300 
  6888.000 -24.992  2.9850  2.5720  2.7300 -14.992  2.9850  2.5720  2.7300 
  6888.500 -25.173  2.9840  2.5900  2.7290 -15.173  2.9840  2.5900  2.7290 
  6889.000 -25.265  2.9840  2.6080  2.6570 -15.265  2.9840  2.6080  2.6570 
  6889.500 -25.356  2.9840  2.6250  2.5860 -15.356  2.9840  2.6250  2.5860 
  6890.000 -25.358  2.9830  2.6610  2.5140 -15.358  2.9830  2.6610  2.5140 
  6890.500 -25.539  2.9830  2.6960  2.4780 -15.539  2.9830  2.6960  2.4780 
  6891.000 -25.541  2.9830  2.7680  2.4770 -15.541  2.9830  2.7680  2.4770 
  6891.500 -25.722  3.0000  2.8390  2.4410 -15.722  3.0000  2.8390  2.4410 
  6892.000 -25.724  3.0180  2.8740  2.4410 -15.724  3.0180  2.8740  2.4410 
  6892.500 -25.905  3.0530  2.9280  2.4770 -15.905  3.0530  2.9280  2.4770 
  6893.000 -25.817  3.0530  2.9810  2.5130 -15.817  3.0530  2.9810  2.5130 
  6893.500 -25.729  3.0530  3.0170  2.5120 -15.729  3.0530  3.0170  2.5120 
  6894.000 -25.552  3.0880  3.0520  2.5120 -15.552  3.0880  3.0520  2.5120 
  6894.500 -25.374  3.0880  3.0700  2.5120 -15.374  3.0880  3.0700  2.5120 
  6895.000 -25.196  3.1590  3.0870  2.4760 -15.196  3.1590  3.0870  2.4760 
  6895.500 -25.198  3.1770  3.0510  2.4760 -15.198  3.1770  3.0510  2.4760 
  6896.000 -25.110  3.1940  3.0330  2.4400 -15.110  3.1940  3.0330  2.4400 
  6896.500 -25.022  3.1580  3.0150  2.4750 -15.022  3.1580  3.0150  2.4750 
  6897.000 -25.024  3.1220  3.0500  2.4930 -15.024  3.1220  3.0500  2.4930 
  6897.500 -25.026  3.0860  3.0680  2.5110 -15.026  3.0860  3.0680  2.5110 
  6898.000 -25.028  3.0490  3.0850  2.6180 -15.028  3.0490  3.0850  2.6180 
  6898.500 -25.029  3.0490  3.1030  2.6180 -15.029  3.0490  3.1030  2.6180 
  6899.000 -25.031  3.0490  3.1200  2.6180 -15.031  3.0490  3.1200  2.6180 
  6899.500 -25.033  3.0480  3.1020  2.6180 -15.033  3.0480  3.1020  2.6180 
  6900.000 -25.035  3.0480  3.0840  2.6180 -15.035  3.0480  3.0840  2.6180 
  6900.500 -24.943  3.0290  3.0470  2.6160 -14.943  3.0290  3.0470  2.6160 
  6901.000 -24.851  3.0090  3.0450  2.6140 -14.851  3.0090  3.0450  2.6140 
  6901.500 -24.849  3.0080  3.0440  2.6120 -14.849  3.0080  3.0440  2.6120 
  6902.000 -24.846  2.9710  3.0070  2.6110 -14.846  2.9710  3.0070  2.6110 
  6902.500 -24.844  2.9700  3.0050  2.6090 -14.844  2.9700  3.0050  2.6090 
  6903.000 -24.842  2.9680  3.0040  2.6070 -14.842  2.9680  3.0040  2.6070 
  6903.500 -24.840  2.9670  2.9670  2.6050 -14.840  2.9670  2.9670  2.6050 
  6904.000 -24.837  2.9660  2.9650  2.6030 -14.837  2.9660  2.9650  2.6030 
  6904.500 -25.373  2.9280  2.9640  2.6010 -15.373  2.9280  2.9640  2.6010 
  6905.000 -25.551  2.9270  2.9630  2.6000 -15.551  2.9270  2.9630  2.6000 
  6905.500 -25.728  2.8900  2.9610  2.5980 -15.728  2.8900  2.9610  2.5980 
  6906.000 -25.905  2.8880  2.9240  2.5420 -15.905  2.8880  2.9240  2.5420 
  6906.500 -26.082  2.8690  2.8870  2.4870 -16.082  2.8690  2.8870  2.4870 
  6907.000 -26.080  2.8500  2.8860  2.4490 -16.080  2.8500  2.8860  2.4490 
  6907.500 -26.257  2.8480  2.8840  2.3760 -16.257  2.8480  2.8840  2.3760 
  6908.000 -26.434  2.8470  2.8830  2.4460 -16.434  2.8470  2.8830  2.4460 
  6908.500 -26.492  2.8460  2.8820  2.4800 -16.492  2.8460  2.8820  2.4800 
  6909.000 -26.550  2.8440  2.8980  2.5140 -16.550  2.8440  2.8980  2.5140 
  6909.500 -26.608  2.8430  2.9150  2.6550 -16.608  2.8430  2.9150  2.6550 
  6910.000 -26.785  2.8420  2.9850  2.6890 -16.785  2.8420  2.9850  2.6890 
  6910.500 -26.782  2.8760  3.0020  2.7230 -16.782  2.8760  3.0020  2.7230 
  6911.000 -26.780  2.8390  3.0180  2.7580 -16.780  2.8390  3.0180  2.7580 
  6911.500 -26.778  2.8380  3.0890  2.7740 -16.778  2.8380  3.0890  2.7740 
  6912.000 -26.776  2.8360  3.0870  2.7900 -16.776  2.8360  3.0870  2.7900 
  6912.500 -26.594  2.7990  3.0860  2.8060 -16.594  2.7990  3.0860  2.8060 
