~Version Information
VERS.                     2.0: CWLS log ASCII Standard Version 2.00
WRAP.                      NO: One line per depth step
~Well Information Block
#MNEM.UNIT                               Data Type  Information
#---------                               ---------  -----------
STRT.FT                                   500.0000:
STOP.FT                                  6920.0000:
STEP.FT                                     0.5000:
NULL.                 -999.25                     :
COMP.                                             :COMPANY            
WELL.     SAN EMIDIO A #47-20                     :WELL               
FLD .                                             :FIELD              
CTRY.                                             :COUNTRY            
STAT.                                             :STATE              
LOC .                                             :LOCATION           
UWI .                                             :UNIQUE WELL ID     
SRVC.                                             :Service company    
DATE.                                             :LOG DATE           
~Curve Information
#MNEM.UNIT           API CODE  Curve Description
#---------           --------  -----------------
DEPT.FT                      :   1 DEPTH
SP  .MV                      :   2
AM16.OHMM                    :   3
AO10.OHMM                    :   4
AO19.OHMM                    :   5
SBL .MV                      :   6
RS  .OHMM                    :   7
RM  .OHMM                    :   8
RD  .OHMM                    :   9
~A
# ...
  3044.000 -54.860  11.430  22.238  17.317 -35.753  11.430  22.238  17.317 
  3044.500 -54.318  11.181  22.243  17.282 -35.211  11.181  22.243  17.282 
  3045.000 -53.955  10.860  21.892  16.997 -34.849  10.860  21.892  16.997 
  3045.500 -53.414  10.611  21.540  16.819 -34.308  10.611  21.540  16.819 
  3046.000 -52.872  10.504  20.832  16.642 -33.766  10.504  20.832  16.642 
  3046.500 -50.360  10.469  20.272  16.464 -31.255  10.469  20.272  16.464 
  3047.000 -50.355  10.487  19.711  16.179 -31.250  10.487  19.711  16.179 
  3047.500 -50.351  10.506  19.545  16.144 -31.246  10.506  19.545  16.144 
  3048.000 -51.063  10.578  19.379  16.144 -31.959  10.578  19.379  16.144 
  3048.500 -51.596  10.578  19.213  16.180 -32.492  10.578  19.213  16.180 
  3049.000 -51.502  10.579  18.964  16.199 -32.398  10.579  18.964  16.199 
  3049.500 -51.408  10.651  18.715  16.217 -32.305  10.651  18.715  16.217 
  3050.000 -51.045  10.723  18.537  16.182 -31.942  10.723  18.537  16.182 
  3050.500 -51.219  10.795  18.395  16.147 -32.116  10.795  18.395  16.147 
  3051.000 -51.215  10.866  18.253  16.112 -32.113  10.866  18.253  16.112 
  3051.500 -51.389  10.938  17.968  16.148 -32.287  10.938  17.968  16.148 
  3052.000 -51.206  11.403  17.861  16.220 -32.104  11.403  17.861  16.220 
  3052.500 -51.022  11.831  18.112  16.470 -31.921  11.831  18.112  16.470 
  3053.000 -51.376  12.010  18.719  16.613 -32.275  12.010  18.719  16.613 
  3053.500 -51.729  12.011  19.076  16.739 -32.628  12.011  19.076  16.739 
  3054.000 -51.725  11.833  19.326  16.864 -32.624  11.833  19.326  16.864 
  3054.500 -51.541  11.405  19.684  17.721 -32.441  11.405  19.684  17.721 
  3055.000 -51.358  10.942  19.934  19.363 -32.258  10.942  19.934  19.363 
  3055.500 -50.458  10.621  19.952  19.863 -31.358  10.621  19.952  19.863 
  3056.000 -49.916  10.372  19.971  19.721 -30.817  10.372  19.971  19.721 
  3056.500 -49.195  10.194  19.882  19.543 -30.096  10.194  19.882  19.543 
  3057.000 -48.833  10.016  19.793  18.973 -29.734  10.016  19.793  18.973 
  3057.500 -48.470  9.7850  19.330  18.367 -29.372  9.7850  19.330  18.367 
  3058.000 -47.749  9.5540  18.367  17.796 -28.651  9.5540  18.367  17.796 
  3058.500 -47.207  9.0550  17.547  17.262 -28.109  9.0550  17.547  17.262 
  3059.000 -46.666  8.6630  17.226  16.977 -27.569  8.6630  17.226  16.977 
  3059.500 -45.766  8.4490  17.013  16.585 -26.669  8.4490  17.013  16.585 
  3060.000 -44.866  7.9860  16.728  16.264 -25.769  7.9860  16.728  16.264 
  3060.500 -42.533  7.7370  15.373  15.801 -23.437  7.7370  15.373  15.801 
  3061.000 -40.558  7.2380  13.874  14.624 -21.462  7.2380  13.874  14.624 
  3061.500 -39.121  6.6310  13.233  13.982 -20.025  6.6310  13.233  13.982 
  3062.000 -36.251  6.2040  12.662  12.769 -17.156  6.2040  12.662  12.769 
  3062.500 -32.664  5.5620  11.735  12.199 -13.569  5.5620  11.735  12.199 
  3063.000 -30.152  5.2410  11.379  11.200 -11.057  5.2410  11.379  11.200 
  3063.500 -28.894  4.8140  10.987  10.701 -9.7995  4.8140  10.987  10.701 
  3064.000 -27.278  4.6000  10.631  10.274 -8.1838  4.6000  10.631  10.274 
  3064.500 -25.840  4.4760  10.274  9.5250 -6.7461  4.4760  10.274  9.5250 
  3065.000 -24.761  4.3510  9.9180  8.5980 -5.6674  4.3510  9.9180  8.5980 
  3065.500 -23.861  4.2450  9.5970  8.2060 -4.7678  4.2450  9.5970  8.2060 
  3066.000 -23.140  4.1380  9.1340  7.6710 -4.0471  4.1380  9.1340  7.6710 
  3066.500 -22.957  4.0500  8.8490  7.4930 -3.8644  4.0500  8.8490  7.4930 
  3067.000 -22.774  3.9610  8.6360  7.3150 -3.6817  3.9610  8.6360  7.3150 
  3067.500 -22.410  3.9080  8.2790  6.9950 -3.3180  3.9080  8.2790  6.9950 
  3068.000 -22.227  3.8550  8.0660  6.8170 -3.1353  3.8550  8.0660  6.8170 
  3068.500 -22.043  3.8200  7.7810  6.7460 -2.9517  3.8200  7.7810  6.7460 
  3069.000 -21.859  3.7850  7.6740  6.6390 -2.7680  3.7850  7.6740  6.6390 
  3069.500 -21.676  3.7850  7.4610  6.6040 -2.5853  3.7850  7.4610  6.6040 
  3070.000 -21.492  3.7500  7.3180  6.5690 -2.4016  3.7500  7.3180  6.5690 
  3070.500 -21.488  3.7150  7.2120  6.5700 -2.3979  3.7150  7.2120  6.5700 
  3071.000 -21.483  3.6800  7.1230  6.5520 -2.3932  3.6800  7.1230  6.5520 
  3071.500 -21.479  3.6810  7.0350  6.5350 -2.3896  3.6810  7.0350  6.5350 
  3072.000 -21.475  3.6450  6.8210  6.5360 -2.3859  3.6450  6.8210  6.5360 
  3072.500 -21.470  3.6460  6.7150  6.5000 -2.3812  3.6460  6.7150  6.5000 
  3073.000 -21.555  3.6460  6.6080  6.5010 -2.4665  3.6460  6.6080  6.5010 
  3073.500 -21.640  3.6470  6.4300  6.5370 -2.5518  3.6470  6.4300  6.5370 
  3074.000 -21.815  3.6480  6.1810  6.5730 -2.7271  3.6480  6.1810  6.5730 
  3074.500 -21.990  3.6840  6.0390  6.6810 -2.9025  3.6840  6.0390  6.6810 
  3075.000 -22.164  3.7910  5.9860  6.7890 -3.0768  3.7910  5.9860  6.7890 
  3075.500 -22.339  3.9700  5.9330  6.9680 -3.2521  3.9700  5.9330  6.9680 
  3076.000 -22.514  4.1850  6.0050  7.2540 -3.4274  4.1850  6.0050  7.2540 
  3076.500 -22.957  4.3280  6.0770  7.4320 -3.8707  4.3280  6.0770  7.4320 
  3077.000 -23.400  4.6500  6.2910  7.7180 -4.3140  4.6500  6.2910  7.7180 
  3077.500 -24.828  4.7040  6.4700  8.0050 -5.7423  4.7040  6.4700  8.0050 
  3078.000 -25.540  4.7580  6.5780  8.3980 -6.4547  4.7580  6.5780  8.3980 
  3078.500 -26.073  4.7580  6.6140  8.5230 -6.9880  4.7580  6.6140  8.5230 
  3079.000 -26.247  4.7590  6.6140  8.6480 -7.1623  4.7590  6.6140  8.6480 
  3079.500 -26.064  4.6520  6.5440  8.5420 -6.9796  4.6520  6.5440  8.5420 
  3080.000 -25.522  4.5820  6.4010  8.4350 -6.4379  4.5820  6.4010  8.4350 
  3080.500 -25.159  4.4750  6.2240  8.1150 -6.0752  4.4750  6.2240  8.1150 
  3081.000 -25.245  4.4400  6.0810  7.8300 -6.1616  4.4400  6.0810  7.8300 
  3081.500 -25.330  4.4580  5.8680  7.6160 -6.2469  4.4580  5.8680  7.6160 
  3082.000 -27.474  4.4770  5.5120  7.2600 -8.3912  4.4770  5.5120  7.2600 
  3082.500 -29.261  4.4770  5.3340  7.1540 -10.179  4.4770  5.3340  7.1540 
  3083.000 -30.152  4.5850  5.2980  7.2250 -11.070  4.5850  5.2980  7.2250 
  3083.500 -31.401  4.6210  5.4770  7.3330 -12.319  4.6210  5.4770  7.3330 
  3084.000 -31.934  4.6930  5.5670  7.3690 -12.852  4.6930  5.5670  7.3690 
  3084.500 -31.213  4.7650  5.6570  7.2980 -12.132  4.7650  5.6570  7.2980 
  3085.000 -29.955  4.8370  5.6570  7.1920 -10.874  4.8370  5.6570  7.1920 
  3085.500 -29.413  4.8730  5.5870  7.0850 -10.332  4.8730  5.5870  7.0850 
  3086.000 -29.050  4.9090  5.5870  6.8720 -9.9697  4.9090  5.5870  6.8720 
  3086.500 -28.867  4.9810  5.5880  6.6940 -9.7870  4.9810  5.5880  6.6940 
  3087.000 -28.684  5.0530  5.5880  6.5520 -9.6044  5.0530  5.5880  6.5520 
  3087.500 -28.679  5.1250  5.5890  6.4100 -9.5997  5.1250  5.5890  6.4100 
  3088.000 -28.675  5.1610  5.6960  6.3030 -9.5960  5.1610  5.6960  6.3030 
  3088.500 -28.849  5.2330  5.7330  6.1970 -9.7703  5.2330  5.7330  6.1970 
  3089.000 -29.024  5.2690  5.8040  6.1610 -9.9456  5.2690  5.8040  6.1610 
  3089.500 -29.377  5.3410  5.8760  6.2150 -10.299  5.3410  5.8760  6.2150 
  3090.000 -30.089  5.4310  6.0550  6.2690 -11.011  5.4310  6.0550  6.2690 
  3090.500 -30.801  5.5210  6.1630  6.3770 -11.724  5.5210  6.1630  6.3770 
  3091.000 -31.692  5.7350  6.3780  6.5920 -12.615  5.7350  6.3780  6.5920 
  3091.500 -32.583  5.9320  6.5570  6.8060 -13.506  5.9320  6.5570  6.8060 
  3092.000 -35.265  6.1290  6.7350  7.0920 -16.189  6.1290  6.7350  7.0920 
  3092.500 -41.530  6.6290  6.9860  7.2710 -22.454  6.6290  6.9860  7.2710 
  3093.000 -42.779  6.8790  7.1650  7.3790 -23.703  6.8790  7.1650  7.3790 
  3093.500 -43.849  7.2370  7.3440  7.3970 -24.773  7.2370  7.3440  7.3970 
  3094.000 -43.845  7.5230  7.7370  7.4150 -24.770  7.5230  7.7370  7.4150 
  3094.500 -43.661  7.7730  7.8800  7.3800 -24.586  7.7730  7.8800  7.3800 
  3095.000 -43.477  8.0230  8.0230  7.3450 -24.402  8.0230  8.0230  7.3450 
  3095.500 -43.652  8.1670  8.1660  7.2740 -24.578  8.1670  8.1660  7.2740 
  3096.000 -44.364  8.2030  8.4520  7.4180 -25.290  8.2030  8.4520  7.4180 
  3096.500 -45.076  8.2750  8.5960  7.5250 -26.002  8.2750  8.5960  7.5250 
