~Version Information
VERS.                     2.0: CWLS log ASCII Standard Version 2.00
WRAP.                      NO: One line per depth step
~Well Information Block
#MNEM.UNIT                               Data Type  Information
#---------                               ---------  -----------
STRT.FT                                   500.0000:
STOP.FT                                  6920.0000:
STEP.FT                                     0.5000:
NULL.                 -999.25                     :
COMP.                                             :COMPANY            
WELL.     SAN EMIDIO A #47-20                     :WELL               
FLD .                                             :FIELD              
CTRY.                                             :COUNTRY            
STAT.                                             :STATE              
LOC .                                             :LOCATION           
UWI .                                             :UNIQUE WELL ID     
SRVC.                                             :Service company    
DATE.                                             :LOG DATE           
~Curve Information
#MNEM.UNIT           API CODE  Curve Description
#---------           --------  -----------------
DEPT.FT                      :   1 DEPTH
SP  .MV                      :   2
AM16.OHMM                    :   3
AO10.OHMM                    :   4
AO19.OHMM                    :   5
SBL .MV                      :   6
RS  .OHMM                    :   7
RM  .OHMM                    :   8
RD  .OHMM                    :   9
~A
# ...
  2196.000 -56.647  17.511  38.684  27.820 -37.004  17.511  38.684  27.820 
  2196.500 -55.930  17.154  38.864  28.176 -36.287  17.154  38.864  28.176 
  2197.000 -55.393  16.798  37.440  28.533 -35.751  16.798  37.440  28.533 
  2197.500 -55.035  16.334  36.372  27.464 -35.393  16.334  36.372  27.464 
  2198.000 -54.857  16.156  35.660  27.464 -35.215  16.156  35.660  27.464 
  2198.500 -54.679  16.210  34.947  27.108 -35.038  16.210  34.947  27.108 
  2199.000 -54.679  16.263  34.237  26.751 -35.038  16.263  34.237  26.751 
  2199.500 -54.859  16.442  34.239  26.751 -35.218  16.442  34.239  26.751 
  2200.000 -55.219  16.621  34.596  27.108 -35.579  16.621  34.596  27.108 
  2200.500 -55.398  16.763  34.953  27.465 -35.758  16.763  34.953  27.465 
  2201.000 -55.398  16.906  35.311  28.180 -35.758  16.906  35.311  28.180 
  2201.500 -55.398  17.013  35.311  28.895 -35.759  17.013  35.311  28.895 
  2202.000 -55.398  17.049  35.310  29.610 -35.759  17.049  35.310  29.610 
  2202.500 -55.219  17.049  35.309  30.325 -35.580  17.049  35.309  30.325 
  2203.000 -55.219  17.048  35.311  31.755 -35.581  17.048  35.311  31.755 
  2203.500 -55.040  16.995  35.310  32.470 -35.402  16.995  35.310  32.470 
  2204.000 -54.681  16.941  35.309  33.006 -35.043  16.941  35.309  33.006 
  2204.500 -54.681  16.585  34.774  33.542 -35.044  16.585  34.774  33.542 
  2205.000 -54.682  16.478  34.239  33.722 -35.045  16.478  34.239  33.722 
  2205.500 -54.502  16.228  33.527  33.902 -34.865  16.228  33.527  33.902 
  2206.000 -54.143  15.515  32.814  33.547 -34.506  15.515  32.814  33.547 
  2206.500 -53.785  15.158  32.278  33.192 -34.149  15.158  32.278  33.192 
  2207.000 -53.247  14.944  31.743  32.126 -33.611  14.944  31.743  32.126 
  2207.500 -52.709  14.659  30.317  31.414 -33.073  14.659  30.317  31.414 
  2208.000 -51.633  14.088  29.247  30.702 -31.998  14.088  29.247  30.702 
  2208.500 -50.558  13.018  28.534  29.991 -30.923  13.018  28.534  29.991 
  2209.000 -49.482  12.733  27.821  29.279 -29.847  12.733  27.821  29.279 
  2209.500 -48.586  12.269  26.751  28.568 -28.952  12.269  26.751  28.568 
  2210.000 -47.868  12.127  26.037  27.856 -28.234  12.127  26.037  27.856 
  2210.500 -46.972  11.984  25.324  27.501 -27.338  11.984  25.324  27.501 
  2211.000 -46.793  11.841  24.967  26.790 -27.160  11.841  24.967  26.790 
  2211.500 -46.076  11.699  24.254  26.435 -26.443  11.699  24.254  26.435 
  2212.000 -45.717  11.627  23.897  26.080 -26.084  11.627  23.897  26.080 
  2212.500 -45.359  11.556  23.539  26.082 -25.727  11.556  23.539  26.082 
  2213.000 -45.896  11.556  23.004  25.905 -26.264  11.556  23.004  25.905 
  2213.500 -46.434  11.592  22.469  25.727 -26.802  11.592  22.469  25.727 
  2214.000 -46.614  11.609  22.471  25.730 -26.983  11.609  22.471  25.730 
  2214.500 -46.793  11.627  22.114  25.553 -27.162  11.627  22.114  25.553 
  2215.000 -47.151  11.663  21.757  25.376 -27.520  11.663  21.757  25.376 
  2215.500 -47.331  11.699  21.401  25.199 -27.700  11.699  21.401  25.199 
  2216.000 -47.689  11.734  21.222  25.023 -28.059  11.734  21.222  25.023 
  2216.500 -48.048  11.877  21.044  25.026 -28.418  11.877  21.044  25.026 
  2217.000 -48.407  11.984  21.043  25.028 -28.777  11.984  21.043  25.028 
  2217.500 -49.303  12.055  21.043  25.029 -29.674  12.055  21.043  25.029 
  2218.000 -50.199  12.127  20.864  25.031 -30.570  12.127  20.864  25.031 
  2218.500 -50.737  12.162  20.686  25.033 -31.108  12.162  20.686  25.033 
  2219.000 -50.737  12.162  20.508  25.034 -31.109  12.162  20.508  25.034 
  2219.500 -50.738  12.198  20.330  25.035 -31.110  12.198  20.330  25.035 
  2220.000 -50.737  12.234  20.330  25.395 -31.109  12.234  20.330  25.395 
  2220.500 -50.737  12.269  20.330  25.574 -31.110  12.269  20.330  25.574 
  2221.000 -50.737  12.234  20.330  25.754 -31.110  12.234  20.330  25.754 
  2221.500 -50.738  12.198  20.330  25.757 -31.111  12.198  20.330  25.757 
  2222.000 -50.737  12.198  20.329  25.759 -31.111  12.198  20.329  25.759 
  2222.500 -50.916  12.198  19.974  25.761 -31.290  12.198  19.974  25.761 
  2223.000 -50.917  12.198  19.974  25.941 -31.291  12.198  19.974  25.941 
  2223.500 -50.917  12.251  19.974  26.121 -31.292  12.251  19.974  26.121 
  2224.000 -51.095  12.305  19.974  26.122 -31.470  12.305  19.974  26.122 
  2224.500 -51.275  12.519  19.974  26.123 -31.650  12.519  19.974  26.123 
  2225.000 -51.454  12.662  20.330  26.303 -31.829  12.662  20.330  26.303 
  2225.500 -51.633  12.769  20.330  26.483 -32.009  12.769  20.330  26.483 
  2226.000 -51.991  12.804  20.330  26.663 -32.367  12.804  20.330  26.663 
  2226.500 -52.171  12.840  20.687  26.843 -32.547  12.840  20.687  26.843 
  2227.000 -52.529  12.733  20.687  26.846 -32.906  12.733  20.687  26.846 
  2227.500 -52.709  12.608  20.865  26.669 -33.086  12.608  20.865  26.669 
  2228.000 -52.529  12.483  21.042  26.492 -32.906  12.483  21.042  26.492 
  2228.500 -51.991  12.269  21.042  26.495 -32.369  12.269  21.042  26.495 
  2229.000 -51.454  12.055  21.042  26.140 -31.832  12.055  21.042  26.140 
  2229.500 -50.557  11.663  21.043  25.785 -30.935  11.663  21.043  25.785 
  2230.000 -49.302  11.520  21.043  25.787 -29.681  11.520  21.043  25.787 
  2230.500 -47.509  11.288  20.865  25.432 -27.888  11.288  20.865  25.432 
  2231.000 -44.820  11.057  20.686  25.077 -25.199  11.057  20.686  25.077 
  2231.500 -43.745  10.664  19.973  24.722 -24.125  10.664  19.973  24.722 
  2232.000 -43.207  10.522  19.973  24.011 -23.587  10.522  19.973  24.011 
  2232.500 -43.207  10.593  19.972  23.655 -23.587  10.593  19.972  23.655 
  2233.000 -43.924  10.700  19.973  23.300 -24.305  10.700  19.973  23.300 
  2233.500 -44.642  10.807  19.973  22.233 -25.023  10.807  19.973  22.233 
  2234.000 -46.075  11.164  19.972  22.235 -26.456  11.164  19.972  22.235 
  2234.500 -48.047  11.271  20.150  22.236 -28.428  11.271  20.150  22.236 
  2235.000 -51.095  11.841  20.329  22.595 -31.477  11.841  20.329  22.595 
  2235.500 -51.992  12.198  20.508  22.774 -32.374  12.198  20.508  22.774 
  2236.000 -52.888  12.412  20.687  22.954 -33.270  12.412  20.687  22.954 
  2236.500 -53.605  12.662  21.043  23.313 -33.988  12.662  21.043  23.313 
  2237.000 -53.964  12.697  21.043  23.671 -34.347  12.697  21.043  23.671 
  2237.500 -53.964  12.662  21.042  24.029 -34.347  12.662  21.042  24.029 
  2238.000 -53.784  12.662  21.399  24.747 -34.168  12.662  21.399  24.747 
  2238.500 -53.246  12.590  21.755  25.105 -33.630  12.590  21.755  25.105 
  2239.000 -52.709  12.483  22.115  24.750 -33.093  12.483  22.115  24.750 
  2239.500 -52.171  12.269  22.115  24.751 -32.556  12.269  22.115  24.751 
  2240.000 -49.123  11.984  22.114  24.753 -29.508  11.984  22.114  24.753 
  2240.500 -47.868  11.806  22.113  24.577 -28.253  11.806  22.113  24.577 
  2241.000 -46.792  11.627  22.114  24.401 -27.178  11.627  22.114  24.401 
  2241.500 -46.434  11.378  21.757  24.046 -26.820  11.378  21.757  24.046 
  2242.000 -46.075  10.878  21.400  23.691 -26.461  10.878  21.400  23.691 
  2242.500 -45.896  10.557  20.993  22.623 -26.283  10.557  20.993  22.623 
  2243.000 -45.896  9.9870  20.587  21.911 -26.283  9.9870  20.587  21.911 
  2243.500 -44.641  9.2730  20.180  21.556 -25.028  9.2730  20.180  21.556 
  2244.000 -43.924  9.0410  19.774  19.917 -24.311  9.0410  19.774  19.917 
  2244.500 -42.848  8.8100  19.367  18.277 -23.236  8.8100  19.367  18.277 
  2245.000 -41.235  8.2030  18.689  17.600 -21.623  8.2030  18.689  17.600 
  2245.500 -39.621  7.6680  18.475  17.243 -20.009  7.6680  18.475  17.243 
  2246.000 -38.545  7.2050  18.261  16.780 -18.934  7.2050  18.261  16.780 
  2246.500 -36.753  6.8480  15.979  12.857 -17.142  6.8480  15.979  12.857 
  2247.000 -34.960  6.6160  14.909  12.250 -15.349  6.6160  14.909  12.250 
  2247.500 -32.809  6.3840  11.984  11.894 -13.199  6.3840  11.984  11.894 
  2248.000 -31.733  6.1350  11.627  11.431 -12.123  6.1350  11.627  11.431 
  2248.500 -31.374  6.0280  11.306  10.896 -11.764  6.0280  11.306  10.896 
