~Version Information
VERS.                     2.0: CWLS log ASCII Standard Version 2.00
WRAP.                      NO: One line per depth step
~Well Information Block
#MNEM.UNIT                               Data Type  Information
#---------                               ---------  -----------
STRT.FT                                   500.0000:
STOP.FT                                  6920.0000:
STEP.FT                                     0.5000:
NULL.                 -999.25                     :
COMP.                                             :COMPANY            
WELL.     SAN EMIDIO A #47-20                     :WELL               
FLD .                                             :FIELD              
CTRY.                                             :COUNTRY            
STAT.                                             :STATE              
LOC .                                             :LOCATION           
UWI .                                             :UNIQUE WELL ID     
SRVC.                                             :Service company    
DATE.                                             :LOG DATE           
~Curve Information
#MNEM.UNIT           API CODE  Curve Description
#---------           --------  -----------------
DEPT.FT                      :   1 DEPTH
SP  .MV                      :   2
AM16.OHMM                    :   3
AO10.OHMM                    :   4
AO19.OHMM                    :   5
SBL .MV                      :   6
RS  .OHMM                    :   7
RM  .OHMM                    :   8
RD  .OHMM                    :   9
~A
# ...
  6012.000 -13.506  1.5910  1.9850  1.6420 -6.5944  1.5910  1.9850  1.6420 
  6012.500 -13.504  1.5910  1.9860  1.6250 -6.5899  1.5910  1.9860  1.6250 
  6013.000 -13.503  1.5920  1.9860  1.6070 -6.5865  1.5920  1.9860  1.6070 
  6013.500 -13.591  1.5920  1.9510  1.6080 -6.6720  1.5920  1.9510  1.6080 
  6014.000 -13.679  1.5570  1.9510  1.6080 -6.7576  1.5570  1.9510  1.6080 
  6014.500 -13.677  1.5580  1.9520  1.5730 -6.7531  1.5580  1.9520  1.5730 
  6015.000 -13.675  1.5580  1.9520  1.6090 -6.7487  1.5580  1.9520  1.6090 
  6015.500 -13.673  1.5590  1.9530  1.6100 -6.7442  1.5590  1.9530  1.6100 
  6016.000 -13.671  1.5590  1.9540  1.6100 -6.7397  1.5590  1.9540  1.6100 
  6016.500 -13.670  1.5600  1.9540  1.6100 -6.7363  1.5600  1.9540  1.6100 
  6017.000 -13.668  1.5600  1.9550  1.6110 -6.7318  1.5600  1.9550  1.6110 
  6017.500 -13.845  1.5610  1.9550  1.6110 -6.9064  1.5610  1.9550  1.6110 
  6018.000 -13.844  1.5610  1.9560  1.6120 -6.9029  1.5610  1.9560  1.6120 
  6018.500 -13.842  1.5620  1.9560  1.6120 -6.8985  1.5620  1.9560  1.6120 
  6019.000 -13.930  1.5800  1.9570  1.6130 -6.9840  1.5800  1.9570  1.6130 
  6019.500 -14.018  1.5990  1.9570  1.5770 -7.0696  1.5990  1.9570  1.5770 
  6020.000 -14.016  1.5990  1.9400  1.5420 -7.0651  1.5990  1.9400  1.5420 
  6020.500 -14.014  1.6000  1.9230  1.5420 -7.0606  1.6000  1.9230  1.5420 
  6021.000 -14.012  1.6000  1.9230  1.5430 -7.0562  1.6000  1.9230  1.5430 
  6021.500 -14.010  1.6010  1.9240  1.5430 -7.0517  1.6010  1.9240  1.5430 
  6022.000 -14.009  1.6010  1.9240  1.5440 -7.0483  1.6010  1.9240  1.5440 
  6022.500 -14.007  1.6020  1.9070  1.5440 -7.0438  1.6020  1.9070  1.5440 
  6023.000 -14.005  1.6030  1.8890  1.5450 -7.0394  1.6030  1.8890  1.5450 
  6023.500 -14.003  1.6030  1.9080  1.5450 -7.0349  1.6030  1.9080  1.5450 
  6024.000 -14.001  1.6040  1.9260  1.5450 -7.0305  1.6040  1.9260  1.5450 
  6024.500 -14.000  1.6040  1.9270  1.5100 -7.0270  1.6040  1.9270  1.5100 
  6025.000 -13.998  1.6050  1.9270  1.5110 -7.0226  1.6050  1.9270  1.5110 
  6025.500 -13.996  1.6230  1.9280  1.5110 -7.0181  1.6230  1.9280  1.5110 
  6026.000 -13.994  1.6420  1.8930  1.5470 -7.0136  1.6420  1.8930  1.5470 
  6026.500 -13.993  1.6420  1.9110  1.5840 -7.0102  1.6420  1.9110  1.5840 
  6027.000 -13.991  1.6430  1.9300  1.6020 -7.0057  1.6430  1.9300  1.6020 
  6027.500 -13.899  1.6610  1.9480  1.6200 -6.9113  1.6610  1.9480  1.6200 
  6028.000 -13.808  1.6800  1.9660  1.6570 -6.8178  1.6800  1.9660  1.6570 
  6028.500 -13.626  1.6800  1.9670  1.6390 -6.6334  1.6800  1.9670  1.6390 
  6029.000 -13.625  1.6810  2.0030  1.6220 -6.6299  1.6810  2.0030  1.6220 
  6029.500 -13.533  1.7170  2.0400  1.6220 -6.5355  1.7170  2.0400  1.6220 
  6030.000 -13.442  1.7180  2.0760  1.6410 -6.4420  1.7180  2.0760  1.6410 
  6030.500 -13.081  1.7180  2.1130  1.6590 -6.0785  1.7180  2.1130  1.6590 
  6031.000 -13.079  1.7190  2.1130  1.6950 -6.0741  1.7190  2.1130  1.6950 
  6031.500 -13.077  1.7190  2.1140  1.6960 -6.0696  1.7190  2.1140  1.6960 
  6032.000 -13.075  1.7200  2.0430  1.6960 -6.0652  1.7200  2.0430  1.6960 
  6032.500 -13.253  1.7200  2.0250  1.7320 -6.2407  1.7200  2.0250  1.7320 
  6033.000 -13.251  1.7210  2.0080  1.6610 -6.2363  1.7210  2.0080  1.6610 
  6033.500 -13.250  1.7030  1.9900  1.6620 -6.2328  1.7030  1.9900  1.6620 
  6034.000 -13.069  1.6860  1.9730  1.6260 -6.0494  1.6860  1.9730  1.6260 
  6034.500 -12.887  1.6870  1.9730  1.6270 -5.8649  1.6870  1.9730  1.6270 
  6035.000 -12.885  1.6870  1.9740  1.6450 -5.8605  1.6870  1.9740  1.6450 
  6035.500 -12.884  1.6700  1.9570  1.6630 -5.8570  1.6700  1.9570  1.6630 
  6036.000 -12.882  1.6520  1.9390  1.6640 -5.8525  1.6520  1.9390  1.6640 
  6036.500 -12.880  1.6170  1.9400  1.6640 -5.8481  1.6170  1.9400  1.6640 
  6037.000 -12.878  1.5820  1.9400  1.6650 -5.8436  1.5820  1.9400  1.6650 
  6037.500 -12.877  1.5820  1.9410  1.6650 -5.8402  1.5820  1.9410  1.6650 
  6038.000 -12.785  1.5830  1.9410  1.6660 -5.7457  1.5830  1.9410  1.6660 
  6038.500 -12.693  1.6190  1.9420  1.6300 -5.6513  1.6190  1.9420  1.6300 
  6039.000 -12.781  1.6200  1.9420  1.6310 -5.7368  1.6200  1.9420  1.6310 
  6039.500 -12.869  1.6380  1.9790  1.7030 -5.8224  1.6380  1.9790  1.7030 
  6040.000 -12.688  1.6570  1.9610  1.7030 -5.6389  1.6570  1.9610  1.7030 
  6040.500 -12.686  1.6570  1.9440  1.7040 -5.6344  1.6570  1.9440  1.7040 
  6041.000 -12.685  1.6580  1.9800  1.6680 -5.6310  1.6580  1.9800  1.6680 
  6041.500 -12.683  1.6580  1.9810  1.6330 -5.6265  1.6580  1.9810  1.6330 
  6042.000 -12.681  1.6950  1.9820  1.5980 -5.6221  1.6950  1.9820  1.5980 
  6042.500 -12.679  1.6770  1.9820  1.5620 -5.6176  1.6770  1.9820  1.5620 
  6043.000 -12.677  1.6600  1.9830  1.5630 -5.6132  1.6600  1.9830  1.5630 
  6043.500 -12.675  1.6600  1.9650  1.5630 -5.6087  1.6600  1.9650  1.5630 
  6044.000 -12.674  1.6610  1.9480  1.5630 -5.6053  1.6610  1.9480  1.5630 
  6044.500 -12.672  1.6620  1.9660  1.6000 -5.6008  1.6620  1.9660  1.6000 
  6045.000 -12.670  1.6260  1.9850  1.6360 -5.5964  1.6260  1.9850  1.6360 
  6045.500 -12.668  1.6270  1.9850  1.6360 -5.5919  1.6270  1.9850  1.6360 
  6046.000 -12.666  1.6270  1.9860  1.6370 -5.5874  1.6270  1.9860  1.6370 
  6046.500 -12.664  1.6280  1.9860  1.6550 -5.5830  1.6280  1.9860  1.6550 
  6047.000 -12.573  1.6640  1.9870  1.6740 -5.4895  1.6640  1.9870  1.6740 
  6047.500 -12.482  1.6650  1.9870  1.6380 -5.3961  1.6650  1.9870  1.6380 
  6048.000 -12.480  1.6650  1.9880  1.6390 -5.3916  1.6650  1.9880  1.6390 
  6048.500 -12.568  1.6660  1.9890  1.6390 -5.4772  1.6660  1.9890  1.6390 
  6049.000 -12.656  1.6660  2.0250  1.6400 -5.5627  1.6660  2.0250  1.6400 
  6049.500 -12.833  1.6670  2.0610  1.6580 -5.7373  1.6670  2.0610  1.6580 
  6050.000 -12.831  1.6670  2.0620  1.6760 -5.7328  1.6670  2.0620  1.6760 
  6050.500 -12.830  1.6680  2.0620  1.7490 -5.7293  1.6680  2.0620  1.7490 
  6051.000 -12.828  1.6690  2.0630  1.7670 -5.7249  1.6690  2.0630  1.7670 
  6051.500 -12.826  1.6690  2.0630  1.7850 -5.7204  1.6690  2.0630  1.7850 
  6052.000 -12.824  1.6700  2.0280  1.8570 -5.7160  1.6700  2.0280  1.8570 
  6052.500 -12.822  1.6520  1.9930  1.8940 -5.7115  1.6520  1.9930  1.8940 
  6053.000 -12.821  1.6350  1.9930  1.7870 -5.7081  1.6350  1.9930  1.7870 
  6053.500 -12.819  1.6710  1.9940  1.7870 -5.7036  1.6710  1.9940  1.7870 
  6054.000 -12.817  1.6720  1.9940  1.7880 -5.6992  1.6720  1.9940  1.7880 
  6054.500 -12.815  1.6720  1.9950  1.7700 -5.6947  1.6720  1.9950  1.7700 
  6055.000 -12.813  1.6910  1.9950  1.7530 -5.6902  1.6910  1.9950  1.7530 
  6055.500 -12.632  1.7090  1.9960  1.7530 -5.5068  1.7090  1.9960  1.7530 
  6056.000 -12.630  1.7100  1.9970  1.7530 -5.5023  1.7100  1.9970  1.7530 
  6056.500 -12.629  1.7100  1.9970  1.7540 -5.4989  1.7100  1.9970  1.7540 
  6057.000 -12.627  1.7110  1.9980  1.7720 -5.4944  1.7110  1.9980  1.7720 
  6057.500 -12.625  1.7110  1.9980  1.7910 -5.4900  1.7110  1.9980  1.7910 
  6058.000 -12.623  1.7300  1.9990  1.7910 -5.4855  1.7300  1.9990  1.7910 
  6058.500 -12.621  1.7480  1.9810  1.7920 -5.4811  1.7480  1.9810  1.7920 
  6059.000 -12.440  1.7850  1.9640  1.7920 -5.2976  1.7850  1.9640  1.7920 
  6059.500 -12.438  1.7850  1.9650  1.7920 -5.2932  1.7850  1.9650  1.7920 
  6060.000 -12.437  1.7860  1.9290  1.7570 -5.2897  1.7860  1.9290  1.7570 
  6060.500 -12.435  1.7680  1.9300  1.7580 -5.2852  1.7680  1.9300  1.7580 
  6061.000 -12.433  1.7510  1.9300  1.7580 -5.2808  1.7510  1.9300  1.7580 
  6061.500 -12.431  1.7510  1.9490  1.7580 -5.2763  1.7510  1.9490  1.7580 
  6062.000 -12.430  1.7520  1.9670  1.7590 -5.2729  1.7520  1.9670  1.7590 
  6062.500 -12.248  1.7530  2.0390  1.7590 -5.0884  1.7530  2.0390  1.7590 
  6063.000 -12.246  1.7530  2.0580  1.7240 -5.0840  1.7530  2.0580  1.7240 
  6063.500 -12.245  1.7540  2.0760  1.6880 -5.0805  1.7540  2.0760  1.6880 
  6064.000 -12.243  1.7540  2.1130  1.6530 -5.0761  1.7540  2.1130  1.6530 
  6064.500 -12.241  1.7190  2.1130  1.6180 -5.0716  1.7190  2.1130  1.6180 
