~Version Information
VERS.                     2.0: CWLS log ASCII Standard Version 2.00
WRAP.                      NO: One line per depth step
~Well Information Block
#MNEM.UNIT                               Data Type  Information
#---------                               ---------  -----------
STRT.FT                                   500.0000:
STOP.FT                                  6920.0000:
STEP.FT                                     0.5000:
NULL.                 -999.25                     :
COMP.                                             :COMPANY            
WELL.     SAN EMIDIO A #47-20                     :WELL               
FLD .                                             :FIELD              
CTRY.                                             :COUNTRY            
STAT.                                             :STATE              
LOC .                                             :LOCATION           
UWI .                                             :UNIQUE WELL ID     
SRVC.                                             :Service company    
DATE.                                             :LOG DATE           
~Curve Information
#MNEM.UNIT           API CODE  Curve Description
#---------           --------  -----------------
DEPT.FT                      :   1 DEPTH
SP  .MV                      :   2
AM16.OHMM                    :   3
AO10.OHMM                    :   4
AO19.OHMM                    :   5
SBL .MV                      :   6
RS  .OHMM                    :   7
RM  .OHMM                    :   8
RD  .OHMM                    :   9
~A
# ...
  5164.000 -26.519  2.4450  2.8740  2.6130 -9.7947  2.4450  2.8740  2.6130 
  5164.500 -24.909  2.4090  2.8740  2.5770 -8.1864  2.4090  2.8740  2.5770 
  5165.000 -23.836  2.4090  2.8380  2.5410 -7.1152  2.4090  2.8380  2.5410 
  5165.500 -22.583  2.4080  2.8380  2.5400 -5.8639  2.4080  2.8380  2.5400 
  5166.000 -21.152  2.4800  2.8370  2.5400 -4.4346  2.4800  2.8370  2.5400 
  5166.500 -20.617  2.5150  2.8730  2.5570 -3.9014  2.5150  2.8730  2.5570 
  5167.000 -20.619  2.5870  2.9090  2.5750 -3.9051  2.5870  2.9090  2.5750 
  5167.500 -20.621  2.6580  2.9080  2.6450 -3.9088  2.6580  2.9080  2.6450 
  5168.000 -20.624  2.6940  2.9800  2.6090 -3.9135  2.6940  2.9800  2.6090 
  5168.500 -20.627  2.8720  3.0150  2.5730 -3.9183  2.8720  3.0150  2.5730 
  5169.000 -20.630  2.9260  3.0510  2.5190 -3.9230  2.9260  3.0510  2.5190 
  5169.500 -20.453  2.9790  3.1580  2.4640 -3.7477  2.9790  3.1580  2.4640 
  5170.000 -20.456  3.0860  3.3010  2.4640 -3.7525  3.0860  3.3010  2.4640 
  5170.500 -21.714  3.1930  3.4440  2.4630 -5.0122  3.1930  3.4440  2.4630 
  5171.000 -22.255  3.3360  3.5510  2.5170 -5.5549  3.3360  3.5510  2.5170 
  5171.500 -22.795  3.3720  3.6220  2.5700 -6.0966  3.3720  3.6220  2.5700 
  5172.000 -23.784  3.4070  3.7290  2.8550 -7.0874  3.4070  3.7290  2.8550 
  5172.500 -24.772  3.4430  3.7650  2.9440 -8.0771  3.4430  3.7650  2.9440 
  5173.000 -26.210  3.3000  3.8000  3.0330 -9.5168  3.3000  3.8000  3.0330 
  5173.500 -27.109  3.2640  3.7470  3.1040 -10.418  3.2640  3.7470  3.1040 
  5174.000 -27.649  3.2280  3.6930  3.0680 -10.959  3.2280  3.6930  3.0680 
  5174.500 -28.549  3.1380  3.5850  2.9600 -11.861  3.1380  3.5850  2.9600 
  5175.000 -28.282  3.0490  3.5490  2.9240 -11.596  3.0490  3.5490  2.9240 
  5175.500 -28.015  2.9410  3.3700  2.8870 -11.330  2.9410  3.3700  2.8870 
  5176.000 -27.481  2.9410  3.2990  2.7970 -10.798  2.9410  3.2990  2.7970 
  5176.500 -28.021  2.9050  3.2270  2.7070 -11.340  2.9050  3.2270  2.7070 
  5177.000 -28.024  2.9050  3.1910  2.6000 -11.345  2.9050  3.1910  2.6000 
  5177.500 -28.026  2.9400  3.1550  2.5630 -11.348  2.9400  3.1550  2.5630 
  5178.000 -27.671  2.9580  3.1190  2.5630 -10.995  2.9580  3.1190  2.5630 
  5178.500 -27.136  2.9760  3.1550  2.5620 -10.462  2.9760  3.1550  2.5620 
  5179.000 -26.780  3.0470  3.1900  2.6330 -10.108  3.0470  3.1900  2.6330 
  5179.500 -26.782  3.1190  3.2260  2.7040 -10.111  3.1190  3.2260  2.7040 
  5180.000 -26.785  3.2970  3.3150  2.7570 -10.116  3.2970  3.3150  2.7570 
  5180.500 -27.326  3.3690  3.4040  2.8100 -10.659  3.3690  3.4040  2.8100 
  5181.000 -27.866  3.4040  3.6540  2.9170 -11.200  3.4040  3.6540  2.9170 
  5181.500 -28.586  3.4040  3.7970  2.9520 -11.922  3.4040  3.7970  2.9520 
  5182.000 -28.947  3.3680  3.8690  2.9880 -12.285  3.3680  3.8690  2.9880 
  5182.500 -29.219  3.3320  3.8330  2.9870 -12.559  3.3320  3.8330  2.9870 
  5183.000 -29.490  3.2960  3.7970  2.9150 -12.831  3.2960  3.7970  2.9150 
  5183.500 -30.030  3.2960  3.6890  2.8790 -13.373  3.2960  3.6890  2.8790 
  5184.000 -30.571  3.2600  3.6530  2.8420 -13.916  3.2600  3.6530  2.8420 
  5184.500 -35.415  3.3310  3.6530  2.7350 -18.762  3.3310  3.6530  2.7350 
  5185.000 -42.051  3.3850  3.6530  2.7340 -25.399  3.3850  3.6530  2.7340 
  5185.500 -43.846  3.4380  3.6530  2.6980 -27.196  3.4380  3.6530  2.6980 
  5186.000 -49.945  3.6880  3.7240  2.7150 -33.297  3.6880  3.7240  2.7150 
  5186.500 -52.637  3.8670  3.7600  2.7320 -35.991  3.8670  3.7600  2.7320 
  5187.000 -57.301  4.1170  3.8310  2.8390 -40.656  4.1170  3.8310  2.8390 
  5187.500 -59.276  4.3670  3.9030  2.9280 -42.633  4.3670  3.9030  2.9280 
  5188.000 -60.892  4.7610  3.9740  3.0170 -44.251  4.7610  3.9740  3.0170 
  5188.500 -62.867  4.9390  4.0450  3.1590 -46.227  4.9390  4.0450  3.1590 
  5189.000 -63.587  5.0820  4.1880  3.2300 -46.949  5.0820  4.1880  3.2300 
  5189.500 -64.396  5.1530  4.2420  3.3370 -47.760  5.1530  4.2420  3.3370 
  5190.000 -65.205  5.2610  4.2950  3.4440 -48.571  5.2610  4.2950  3.4440 
  5190.500 -65.656  5.3680  4.4020  3.5510 -49.023  5.3680  4.4020  3.5510 
  5191.000 -66.107  5.4750  4.4020  3.6570 -49.476  5.4750  4.4020  3.6570 
  5191.500 -66.289  5.5460  4.4020  3.6930 -49.660  5.5460  4.4020  3.6930 
  5192.000 -66.471  5.6180  4.4020  3.7280 -49.844  5.6180  4.4020  3.7280 
  5192.500 -66.833  5.7600  4.3840  3.7630 -50.207  5.7600  4.3840  3.7630 
  5193.000 -67.104  5.9030  4.3660  3.7980 -50.480  5.9030  4.3660  3.7980 
  5193.500 -67.375  5.9750  4.2940  3.8330 -50.753  5.9750  4.2940  3.8330 
  5194.000 -67.826  6.0820  4.2220  3.8690 -51.205  6.0820  4.2220  3.8690 
  5194.500 -68.277  6.0100  4.1860  3.9040 -51.658  6.0100  4.1860  3.9040 
  5195.000 -69.714  5.9380  4.1140  3.8680 -53.097  5.9380  4.1140  3.8680 
  5195.500 -70.793  5.8310  4.0430  3.8310 -54.178  5.8310  4.0430  3.8310 
  5196.000 -72.588  5.7770  3.9530  3.7950 -55.974  5.7770  3.9530  3.7950 
  5196.500 -74.384  5.7230  3.8640  3.5440 -57.772  5.7230  3.8640  3.5440 
  5197.000 -75.193  5.5440  3.6850  3.4010 -58.583  5.5440  3.6850  3.4010 
  5197.500 -76.002  5.4720  3.5950  3.2570 -59.394  5.4720  3.5950  3.2570 
  5198.000 -76.722  5.3290  3.5050  3.0780 -60.115  5.3290  3.5050  3.0780 
  5198.500 -77.442  5.1860  3.3980  2.9340 -60.837  5.1860  3.3980  2.9340 
  5199.000 -78.879  5.1140  3.2910  2.7900 -62.276  5.1140  3.2910  2.7900 
  5199.500 -78.702  5.1500  3.0400  2.6650 -62.100  5.1500  3.0400  2.6650 
  5200.000 -78.525  5.1680  2.9680  2.5390 -61.925  5.1680  2.9680  2.5390 
  5200.500 -77.630  5.1850  2.8960  2.3600 -61.032  5.1850  2.8960  2.3600 
  5201.000 -76.554  5.1850  2.8600  2.3420 -59.958  5.1850  2.8600  2.3420 
  5201.500 -73.506  5.1850  2.8240  2.3240 -56.911  5.1850  2.8240  2.3240 
  5202.000 -71.175  5.1130  2.8950  2.3600 -54.582  5.1130  2.8950  2.3600 
  5202.500 -68.666  5.0410  2.9840  2.3950 -52.075  5.0410  2.9840  2.3950 
  5203.000 -65.797  4.9690  3.0730  2.5380 -49.208  4.9690  3.0730  2.5380 
  5203.500 -63.825  4.6470  3.2880  2.5740 -47.237  4.6470  3.2880  2.5740 
  5204.000 -60.777  4.3240  3.3950  2.5730 -44.191  4.3240  3.3950  2.5730 
  5204.500 -57.729  4.0020  3.3940  2.5380 -41.145  4.0020  3.3940  2.5380 
  5205.000 -52.530  3.7160  3.3220  2.3580 -35.947  3.7160  3.3220  2.3580 
  5205.500 -47.510  3.5010  3.2510  2.2510 -30.929  3.5010  3.2510  2.2510 
  5206.000 -44.642  3.3750  3.1790  2.1790 -28.063  3.3750  3.1790  2.1790 
  5206.500 -37.829  3.2500  3.1250  2.2150 -21.252  3.2500  3.1250  2.2150 
  5207.000 -36.753  3.1420  3.0710  2.2500 -20.177  3.1420  3.0710  2.2500 
  5207.500 -35.677  3.1060  3.0340  2.2500 -19.103  3.1060  3.0340  2.2500 
  5208.000 -35.499  3.0700  3.0340  2.2860 -18.927  3.0700  3.0340  2.2860 
  5208.500 -35.857  3.1410  3.0160  2.3570 -19.287  3.1410  3.0160  2.3570 
  5209.000 -36.126  3.1760  2.9980  2.4290 -19.557  3.1760  2.9980  2.4290 
  5209.500 -36.394  3.2480  2.9970  2.4820 -19.827  3.2480  2.9970  2.4820 
  5210.000 -38.008  3.3010  3.0330  2.5360 -21.443  3.3010  3.0330  2.5360 
  5210.500 -39.263  3.3540  3.0680  2.6070 -22.699  3.3540  3.0680  2.6070 
  5211.000 -42.132  3.6040  3.1210  2.6780 -25.570  3.6040  3.1210  2.6780 
  5211.500 -45.359  3.7830  3.1750  2.7670 -28.799  3.7830  3.1750  2.7670 
  5212.000 -48.407  4.0330  3.2100  2.8570 -31.849  4.0330  3.2100  2.8570 
  5212.500 -51.634  4.1750  3.2460  2.9280 -35.077  4.1750  3.2460  2.9280 
  5213.000 -53.606  4.2820  3.3880  3.0350 -37.051  4.2820  3.3880  3.0350 
  5213.500 -54.323  4.3530  3.4950  3.1420 -37.770  4.3530  3.4950  3.1420 
  5214.000 -53.695  4.3890  3.6380  3.3210 -37.144  4.3890  3.6380  3.3210 
  5214.500 -53.067  4.4240  3.7450  3.4990 -36.517  4.4240  3.7450  3.4990 
  5215.000 -51.813  4.4600  3.9950  3.6070 -35.265  4.4600  3.9950  3.6070 
  5215.500 -50.379  4.4950  4.3160  3.8920 -33.833  4.4950  4.3160  3.8920 
  5216.000 -48.945  4.5300  4.7090  4.2140 -32.400  4.5300  4.7090  4.2140 
  5216.500 -45.538  4.5660  5.1740  4.8220 -28.995  4.5660  5.1740  4.8220 
