~Version Information
VERS.                     2.0: CWLS log ASCII Standard Version 2.00
WRAP.                      NO: One line per depth step
~Well Information Block
#MNEM.UNIT                               Data Type  Information
#---------                               ---------  -----------
STRT.FT                                   350.0000:
STOP.FT                                  6830.0000:
STEP.FT                                     0.5000:
NULL.                 -999.25                     :
COMP.                                             :COMPANY            
WELL.     SAN EMIDIO A #56-19                     :WELL               
FLD .                                             :FIELD              
CTRY.                                             :COUNTRY            
STAT.                                             :STATE              
LOC .                                             :LOCATION           
UWI .                                             :UNIQUE WELL ID     
SRVC.                                             :Service company    
DATE.                                             :LOG DATE           
~Curve Information
#MNEM.UNIT           API CODE  Curve Description
#---------           --------  -----------------
DEPT.FT                      :   1 DEPTH
SP  .MV                      :   2
AM16.OHMM                    :   3
AO10.OHMM                    :   4
AO19.OHMM                    :   5
SBL .MV                      :   6
RS  .OHMM                    :   7
RM  .OHMM                    :   8
RD  .OHMM                    :   9
DEVI.DEG                     :  10
TVD .FT                      :  11
AZIM.DEG                     :  12
NORT.FT                      :  13
EAST.FT                      :  14
OFFS.FT                      :  15
~A
# ...
  2495.000 -29.347  7.2150  5.8290  7.0260 -14.065  7.2150  5.8290  7.0260  1.6708  2494.6  45.250  24.224  23.953  34.066 
  2495.500 -30.249  7.3410  5.9010  7.2770 -14.967  7.3410  5.9010  7.2770  1.6704  2495.1  45.225  24.234  23.963  34.081 
  2496.000 -31.512  7.7020  5.9740  7.4210 -16.230  7.7020  5.9740  7.4210  1.6700  2495.6  45.200  24.245  23.974  34.096 
  2496.500 -38.371  8.0980  6.0820  7.5650 -23.089  8.0980  6.0820  7.5650  1.6696  2496.1  45.175  24.255  23.984  34.110 
  2497.000 -41.620  8.4590  6.1900  7.7440 -26.339  8.4590  6.1900  7.7440  1.6692  2496.6  45.150  24.265  23.994  34.125 
  2497.500 -43.785  8.9990  6.2630  7.9240 -28.504  8.9990  6.2630  7.9240  1.6688  2497.1  45.125  24.275  24.005  34.139 
  2498.000 -45.048  9.5760  6.3350  8.2830 -29.767  9.5760  6.3350  8.2830  1.6683  2497.6  45.100  24.286  24.015  34.154 
  2498.500 -46.853  9.9000  6.4800  8.5340 -31.572  9.9000  6.4800  8.5340  1.6679  2498.1  45.075  24.296  24.025  34.168 
  2499.000 -48.206  10.620  6.6960  8.6060 -32.926  10.620  6.6960  8.6060  1.6675  2498.6  45.050  24.306  24.036  34.183 
  2499.500 -49.560  11.233  6.8050  8.7490 -34.280  11.233  6.8050  8.7490  1.6671  2499.1  45.025  24.317  24.046  34.198 
  2500.000 -52.447  12.025  6.9130  8.8930 -37.167  12.025  6.9130  8.8930  1.6667  2499.6  45.000  24.327  24.056  34.212 
  2500.500 -54.248  12.170  6.9490  9.0720 -38.968  12.170  6.9490  9.0720  1.6683  2500.1  45.025  24.337  24.067  34.227 
  2501.000 -55.870  12.314  7.0220  9.1430 -40.591  12.314  7.0220  9.1430  1.6700  2500.6  45.050  24.347  24.077  34.241 
  2501.500 -55.324  12.530  7.0940  9.3230 -40.045  12.530  7.0940  9.3230  1.6717  2501.1  45.075  24.358  24.087  34.256 
  2502.000 -54.960  12.819  7.2380  9.4660 -39.681  12.819  7.2380  9.4660  1.6733  2501.6  45.100  24.368  24.098  34.270 
  2502.500 -55.317  13.179  7.4190  9.7170 -40.038  13.179  7.4190  9.7170  1.6750  2502.1  45.125  24.378  24.108  34.285 
  2503.000 -55.585  13.684  7.5630  9.8610 -40.307  13.684  7.5630  9.8610  1.6767  2502.6  45.150  24.389  24.118  34.300 
  2503.500 -55.853  14.044  7.6710  9.8600 -40.575  14.044  7.6710  9.8600  1.6783  2503.1  45.175  24.399  24.129  34.314 
  2504.000 -58.014  14.332  7.8160  9.7150 -42.736  14.332  7.8160  9.7150  1.6800  2503.6  45.200  24.409  24.139  34.329 
  2504.500 -58.552  14.477  7.8880  9.6780 -43.274  14.477  7.8880  9.6780  1.6817  2504.1  45.225  24.420  24.150  34.344 
  2505.000 -59.271  14.405  7.9420  9.6410 -43.994  14.405  7.9420  9.6410  1.6833  2504.6  45.250  24.430  24.160  34.358 
  2505.500 -59.629  14.406  7.9970  9.7130 -44.352  14.406  7.9970  9.7130  1.6850  2505.1  45.275  24.440  24.170  34.373 
  2506.000 -59.805  14.550  8.1590  9.7120 -44.528  14.550  8.1590  9.7120  1.6867  2505.6  45.300  24.451  24.181  34.388 
  2506.500 -59.982  14.550  8.3210  9.6750 -44.705  14.550  8.3210  9.6750  1.6883  2506.1  45.325  24.461  24.191  34.402 
  2507.000 -59.979  14.479  8.4300  9.6030 -44.703  14.479  8.4300  9.6030  1.6900  2506.6  45.350  24.471  24.202  34.417 
  2507.500 -59.795  14.335  8.5020  9.3860 -44.519  14.335  8.5020  9.3860  1.6917  2507.1  45.375  24.482  24.212  34.432 
  2508.000 -59.612  14.173  8.6110  9.3130 -44.336  14.173  8.6110  9.3130  1.6933  2507.6  45.400  24.492  24.223  34.447 
  2508.500 -58.524  14.011  8.7910  8.9160 -43.248  14.011  8.7910  8.9160  1.6950  2508.1  45.425  24.503  24.233  34.462 
  2509.000 -57.798  13.616  9.1160  8.7720 -42.523  13.616  9.1160  8.7720  1.6967  2508.6  45.450  24.513  24.244  34.476 
  2509.500 -56.170  13.256  9.4040  8.7350 -40.895  13.256  9.4040  8.7350  1.6983  2509.1  45.475  24.523  24.254  34.491 
  2510.000 -55.083  12.392  9.5840  8.6980 -39.808  12.392  9.5840  8.6980  1.7000  2509.6  45.500  24.534  24.265  34.506 
  2510.500 -53.093  9.3330  9.6210  8.6620 -37.818  9.3330  9.6210  8.6620  1.7017  2510.1  45.525  24.544  24.276  34.521 
  2511.000 -51.104  8.5770  9.6570  8.5530 -35.830  8.5770  9.6570  8.5530  1.7033  2510.6  45.550  24.555  24.286  34.536 
  2511.500 -48.573  7.7850  9.6210  8.4440 -33.299  7.7850  9.6210  8.4440  1.7050  2511.1  45.575  24.565  24.297  34.551 
  2512.000 -42.791  6.9580  9.5860  8.2630 -27.517  6.9580  9.5860  8.2630  1.7067  2511.6  45.600  24.575  24.308  34.565 
  2512.500 -37.733  6.4540  9.3700  8.1550 -22.459  6.4540  9.3700  8.1550  1.7083  2512.1  45.625  24.586  24.318  34.580 
  2513.000 -33.216  6.1660  8.1100  7.8300 -17.943  6.1660  8.1100  7.8300  1.7100  2512.6  45.650  24.596  24.329  34.595 
  2513.500 -30.323  6.0580  7.3550  7.3970 -15.050  6.0580  7.3550  7.3970  1.7117  2513.1  45.675  24.607  24.340  34.610 
  2514.000 -27.792  5.9510  6.3830  6.3880 -12.519  5.9510  6.3830  6.3880  1.7133  2513.6  45.700  24.617  24.350  34.625 
  2514.500 -25.803  5.8070  6.1670  5.6670 -10.530  5.8070  6.1670  5.6670  1.7150  2514.1  45.725  24.628  24.361  34.640 
  2515.000 -24.897  5.7350  5.9870  5.5230 -9.6245  5.7350  5.9870  5.5230  1.7167  2514.6  45.750  24.638  24.372  34.655 
  2515.500 -25.074  5.7000  5.9520  5.5220 -9.8017  5.7000  5.9520  5.5220  1.7183  2515.1  45.775  24.648  24.382  34.670 
  2516.000 -25.522  5.6640  6.0240  5.5750 -10.250  5.6640  6.0240  5.5750  1.7200  2515.6  45.800  24.659  24.393  34.685 
  2516.500 -25.970  5.6280  6.1330  5.6290 -10.698  5.6280  6.1330  5.6290  1.7217  2516.1  45.825  24.669  24.404  34.700 
  2517.000 -26.688  5.9530  6.2770  5.7720 -11.416  5.9530  6.2770  5.7720  1.7233  2516.6  45.850  24.680  24.415  34.715 
  2517.500 -27.226  6.3850  6.4930  5.9150 -11.955  6.3850  6.4930  5.9150  1.7250  2517.1  45.875  24.690  24.426  34.730 
  2518.000 -27.403  6.7460  6.6380  6.0230 -12.132  6.7460  6.6380  6.0230  1.7267  2517.6  45.900  24.701  24.436  34.745 
  2518.500 -27.940  6.9620  6.9620  6.1300 -12.669  6.9620  6.9620  6.1300  1.7283  2518.1  45.925  24.711  24.447  34.760 
  2519.000 -28.568  7.2870  7.2150  6.4170 -13.297  7.2870  7.2150  6.4170  1.7300  2518.6  45.950  24.722  24.458  34.775 
  2519.500 -29.197  7.5750  7.4310  6.6320 -13.927  7.5750  7.4310  6.6320  1.7317  2519.1  45.975  24.732  24.469  34.791 
  2520.000 -31.360  8.0070  7.7550  6.8480 -16.090  8.0070  7.7550  6.8480  1.7333  2519.6  46.000  24.743  24.480  34.806 
  2520.500 -38.217  8.6560  8.1160  7.2070 -22.947  8.6560  8.1160  7.2070  1.7350  2520.1  46.025  24.753  24.491  34.821 
  2521.000 -43.629  9.4840  8.6200  7.6380 -28.359  9.4840  8.6200  7.6380  1.7367  2520.6  46.050  24.764  24.502  34.836 
  2521.500 -45.973  10.349  9.1250  7.9620 -30.704  10.349  9.1250  7.9620  1.7383  2521.1  46.075  24.774  24.513  34.851 
  2522.000 -48.317  10.601  9.4850  8.2490 -33.048  10.601  9.4850  8.2490  1.7400  2521.6  46.100  24.785  24.523  34.866 
  2522.500 -51.562  10.853  9.6650  9.0760 -36.293  10.853  9.6650  9.0760  1.7417  2522.1  46.125  24.795  24.534  34.881 
  2523.000 -53.364  11.574  9.7380  9.5080 -38.095  11.574  9.7380  9.5080  1.7433  2522.6  46.150  24.806  24.545  34.897 
  2523.500 -54.805  12.042  9.7380  9.8310 -39.537  12.042  9.7380  9.8310  1.7450  2523.1  46.175  24.817  24.556  34.912 
  2524.000 -56.065  13.195  9.7380  10.190 -40.797  13.195  9.7380  10.190  1.7467  2523.6  46.200  24.827  24.567  34.927 
  2524.500 -56.964  14.167  9.7030  10.442 -41.696  14.167  9.7030  10.442  1.7483  2524.1  46.225  24.838  24.578  34.942 
  2525.000 -57.864  14.708  9.7030  10.945 -42.596  14.708  9.7030  10.945  1.7500  2524.6  46.250  24.848  24.589  34.958 
  2525.500 -58.402  14.960  9.7030  11.448 -43.135  14.960  9.7030  11.448  1.7517  2525.1  46.275  24.859  24.600  34.973 
  2526.000 -58.940  15.428  9.7040  11.592 -43.673  15.428  9.7040  11.592  1.7533  2525.6  46.300  24.869  24.612  34.988 
  2526.500 -59.838  15.681  9.7220  11.987 -44.571  15.681  9.7220  11.987  1.7550  2526.1  46.325  24.880  24.623  35.004 
  2527.000 -60.376  15.789  9.7400  12.202 -45.109  15.789  9.7400  12.202  1.7567  2526.6  46.350  24.890  24.634  35.019 
