~Version Information
VERS.                     2.0: CWLS log ASCII Standard Version 2.00
WRAP.                      NO: One line per depth step
~Well Information Block
#MNEM.UNIT                               Data Type  Information
#---------                               ---------  -----------
STRT.FT                                   350.0000:
STOP.FT                                  6830.0000:
STEP.FT                                     0.5000:
NULL.                 -999.25                     :
COMP.                                             :COMPANY            
WELL.     SAN EMIDIO A #56-19                     :WELL               
FLD .                                             :FIELD              
CTRY.                                             :COUNTRY            
STAT.                                             :STATE              
LOC .                                             :LOCATION           
UWI .                                             :UNIQUE WELL ID     
SRVC.                                             :Service company    
DATE.                                             :LOG DATE           
~Curve Information
#MNEM.UNIT           API CODE  Curve Description
#---------           --------  -----------------
DEPT.FT                      :   1 DEPTH
SP  .MV                      :   2
AM16.OHMM                    :   3
AO10.OHMM                    :   4
AO19.OHMM                    :   5
SBL .MV                      :   6
RS  .OHMM                    :   7
RM  .OHMM                    :   8
RD  .OHMM                    :   9
DEVI.DEG                     :  10
TVD .FT                      :  11
AZIM.DEG                     :  12
NORT.FT                      :  13
EAST.FT                      :  14
OFFS.FT                      :  15
~A
# ...
  3340.000 -49.261  8.6640  8.2670  10.020 -34.392  8.6640  8.2670  10.020  0.6333  3339.3  38.000  40.154  38.575  55.670 
  3340.500 -38.228  8.2660  8.0140  9.9470 -23.359  8.2660  8.0140  9.9470  0.6329  3339.8  37.975  40.159  38.578  55.675 
  3341.000 -35.335  6.7870  7.5900  9.4050 -20.466  6.7870  7.5900  9.4050  0.6325  3340.3  37.950  40.163  38.582  55.681 
  3341.500 -32.080  5.8850  7.1660  9.0080 -17.211  5.8850  7.1660  9.0080  0.6321  3340.8  37.925  40.168  38.585  55.686 
  3342.000 -27.921  5.5240  6.7420  8.5390 -13.053  5.5240  6.7420  8.5390  0.6317  3341.3  37.900  40.172  38.588  55.692 
  3342.500 -26.114  5.2710  6.3170  8.3220 -11.246  5.2710  6.3170  8.3220  0.6312  3341.8  37.875  40.176  38.592  55.697 
  3343.000 -25.392  5.0550  5.4870  7.6360 -10.524  5.0550  5.4870  7.6360  0.6308  3342.3  37.850  40.181  38.595  55.703 
  3343.500 -23.042  4.9820  4.9820  7.3110 -8.1743  4.9820  4.9820  7.3110  0.6304  3342.8  37.825  40.185  38.598  55.708 
  3344.000 -22.501  4.9460  4.8560  7.2380 -7.6335  4.9460  4.8560  7.2380  0.6300  3343.3  37.800  40.189  38.602  55.714 
  3344.500 -21.959  4.9630  4.7290  7.2740 -7.0918  4.9630  4.7290  7.2740  0.6296  3343.8  37.775  40.194  38.605  55.719 
  3345.000 -22.685  4.9810  4.4400  7.3090 -7.8180  4.9810  4.4400  7.3090  0.6291  3344.3  37.750  40.198  38.609  55.725 
  3345.500 -23.230  5.1250  4.4760  7.5250 -8.3633  5.1250  4.4760  7.5250  0.6287  3344.8  37.725  40.202  38.612  55.730 
  3346.000 -23.774  5.2690  4.5480  7.7770 -8.9075  5.2690  4.5480  7.7770  0.6283  3345.3  37.700  40.207  38.615  55.735 
  3346.500 -25.224  5.5570  4.7270  8.2090 -10.358  5.5570  4.7270  8.2090  0.6279  3345.8  37.675  40.211  38.619  55.741 
  3347.000 -27.216  5.7730  4.9070  8.6060 -12.350  5.7730  4.9070  8.6060  0.6275  3346.3  37.650  40.215  38.622  55.746 
  3347.500 -30.474  6.0250  5.2320  8.8210 -15.608  6.0250  5.2320  8.8210  0.6271  3346.8  37.625  40.220  38.625  55.752 
  3348.000 -32.827  6.4220  5.5920  9.0370 -17.961  6.4220  5.5920  9.0370  0.6266  3347.3  37.600  40.224  38.629  55.757 
  3348.500 -35.181  6.7460  5.7720  9.2170 -20.316  6.7460  5.7720  9.2170  0.6262  3347.8  37.575  40.228  38.632  55.763 
  3349.000 -39.163  8.3320  6.0960  9.3250 -24.298  8.3320  6.0960  9.3250  0.6258  3348.3  37.550  40.233  38.635  55.768 
  3349.500 -44.230  8.8730  6.2400  9.3960 -29.365  8.8730  6.2400  9.3960  0.6254  3348.8  37.525  40.237  38.639  55.773 
  3350.000 -47.307  9.2330  6.4920  9.4680 -32.442  9.2330  6.4920  9.4680  0.6250  3349.3  37.500  40.241  38.642  55.779 
  3350.500 -48.937  9.4140  6.8890  9.5580 -34.073  9.4140  6.8890  9.5580  0.6246  3349.8  37.475  40.246  38.645  55.784 
  3351.000 -49.300  9.5940  7.0330  9.6470 -34.436  9.5940  7.0330  9.6470  0.6241  3350.3  37.450  40.250  38.649  55.790 
  3351.500 -48.940  10.062  7.1770  9.7370 -34.076  10.062  7.1770  9.7370  0.6237  3350.8  37.425  40.254  38.652  55.795 
  3352.000 -48.942  10.675  7.3570  9.8270 -34.078  10.675  7.3570  9.8270  0.6233  3351.3  37.400  40.259  38.655  55.800 
  3352.500 -49.487  10.999  7.5370  10.006 -34.624  10.999  7.5370  10.006  0.6229  3351.8  37.375  40.263  38.658  55.806 
  3353.000 -50.031  11.323  7.6630  10.078 -35.168  11.323  7.6630  10.078  0.6225  3352.3  37.350  40.267  38.662  55.811 
  3353.500 -51.661  11.648  7.7880  10.222 -36.798  11.648  7.7880  10.222  0.6221  3352.8  37.325  40.271  38.665  55.817 
  3354.000 -52.567  11.900  7.9320  10.401 -37.704  11.900  7.9320  10.401  0.6216  3353.3  37.300  40.276  38.668  55.822 
  3354.500 -53.293  12.152  8.0040  10.689 -38.431  12.152  8.0040  10.689  0.6212  3353.8  37.275  40.280  38.672  55.827 
  3355.000 -54.018  12.728  8.1120  10.833 -39.156  12.728  8.1120  10.833  0.6208  3354.3  37.250  40.284  38.675  55.833 
  3355.500 -54.653  13.161  8.1110  10.905 -39.791  13.161  8.1110  10.905  0.6204  3354.8  37.225  40.289  38.678  55.838 
  3356.000 -55.287  13.521  8.1110  10.976 -40.425  13.521  8.1110  10.976  0.6200  3355.3  37.200  40.293  38.681  55.843 
  3356.500 -57.099  14.134  8.1110  10.976 -42.238  14.134  8.1110  10.976  0.6196  3355.8  37.175  40.297  38.685  55.849 
  3357.000 -60.358  14.530  8.0380  10.939 -45.497  14.530  8.0380  10.939  0.6191  3356.3  37.150  40.302  38.688  55.854 
  3357.500 -61.083  14.674  8.0380  10.939 -46.222  14.674  8.0380  10.939  0.6187  3356.8  37.125  40.306  38.691  55.859 
  3358.000 -61.446  14.818  8.0010  10.902 -46.585  14.818  8.0010  10.902  0.6183  3357.3  37.100  40.310  38.694  55.865 
  3358.500 -60.815  14.710  8.0010  10.757 -45.955  14.710  8.0010  10.757  0.6179  3357.8  37.075  40.315  38.698  55.870 
  3359.000 -60.184  14.421  8.0370  10.648 -45.324  14.421  8.0370  10.648  0.6175  3358.3  37.050  40.319  38.701  55.875 
  3359.500 -59.462  14.132  8.1090  10.576 -44.602  14.132  8.1090  10.576  0.6171  3358.8  37.025  40.323  38.704  55.881 
  3360.000 -59.283  13.987  8.1440  10.575 -44.423  13.987  8.1440  10.575  0.6166  3359.3  37.000  40.327  38.707  55.886 
  3360.500 -58.742  13.843  8.1800  10.539 -43.883  13.843  8.1800  10.539  0.6162  3359.8  36.975  40.332  38.711  55.891 
  3361.000 -58.563  13.770  8.3240  10.538 -43.704  13.770  8.3240  10.538  0.6158  3360.3  36.950  40.336  38.714  55.897 
  3361.500 -58.203  13.734  8.5040  10.520 -43.344  13.734  8.5040  10.520  0.6154  3360.8  36.925  40.340  38.717  55.902 
  3362.000 -58.024  13.697  8.5760  10.501 -43.165  13.697  8.5760  10.501  0.6150  3361.3  36.900  40.345  38.720  55.907 
  3362.500 -57.664  13.697  8.6840  10.464 -42.806  13.697  8.6840  10.464  0.6146  3361.8  36.875  40.349  38.724  55.913 
  3363.000 -57.485  13.769  8.7910  10.428 -42.627  13.769  8.7910  10.428  0.6141  3362.3  36.850  40.353  38.727  55.918 
  3363.500 -57.487  13.804  9.1520  10.319 -42.629  13.804  9.1520  10.319  0.6137  3362.8  36.825  40.358  38.730  55.923 
  3364.000 -57.669  13.840  9.3680  10.246 -42.811  13.840  9.3680  10.246  0.6133  3363.3  36.800  40.362  38.733  55.929 
  3364.500 -57.852  14.020  9.6200  10.174 -42.995  14.020  9.6200  10.174  0.6129  3363.8  36.775  40.366  38.736  55.934 
  3365.000 -58.577  14.200  9.8720  9.9210 -43.720  14.200  9.8720  9.9210  0.6125  3364.3  36.750  40.370  38.740  55.939 
  3365.500 -59.303  14.380  10.160  9.8120 -44.446  14.380  10.160  9.8120  0.6121  3364.8  36.725  40.375  38.743  55.944 
  3366.000 -60.028  14.560  10.412  9.7390 -45.171  14.560  10.412  9.7390  0.6116  3365.3  36.700  40.379  38.746  55.950 
  3366.500 -61.115  14.848  10.520  9.7750 -46.259  14.848  10.520  9.7750  0.6112  3365.8  36.675  40.383  38.749  55.955 
  3367.000 -61.479  15.172  10.736  9.7740 -46.623  15.172  10.736  9.7740  0.6108  3366.3  36.650  40.387  38.752  55.960 
  3367.500 -61.662  15.352  10.934  9.9180 -46.806  15.352  10.934  9.9180  0.6104  3366.8  36.625  40.392  38.756  55.966 
  3368.000 -61.664  15.677  11.132  10.062 -46.808  15.677  11.132  10.062  0.6100  3367.3  36.600  40.396  38.759  55.971 
  3368.500 -61.484  16.037  11.709  10.278 -46.628  16.037  11.709  10.278  0.6096  3367.8  36.575  40.400  38.762  55.976 
  3369.000 -60.763  16.542  11.961  10.529 -45.908  16.542  11.961  10.529  0.6091  3368.3  36.550  40.405  38.765  55.981 
  3369.500 -60.312  16.794  12.357  10.817 -45.457  16.794  12.357  10.817  0.6087  3368.8  36.525  40.409  38.768  55.987 
  3370.000 -59.861  16.829  12.682  11.033 -45.006  16.829  12.682  11.033  0.6083  3369.3  36.500  40.413  38.771  55.992 
  3370.500 -58.778  16.793  12.898  11.249 -43.923  16.793  12.898  11.249  0.6079  3369.8  36.475  40.417  38.775  55.997 
  3371.000 -58.237  16.540  13.078  11.321 -43.383  16.540  13.078  11.321  0.6075  3370.3  36.450  40.422  38.778  56.002 
  3371.500 -57.967  16.107  13.294  11.320 -43.113  16.107  13.294  11.320  0.6070  3370.8  36.425  40.426  38.781  56.008 
  3372.000 -57.697  15.530  13.366  11.284 -42.843  15.530  13.366  11.284  0.6066  3371.3  36.400  40.430  38.784  56.013 
