~Version Information
VERS.                     2.0: CWLS log ASCII Standard Version 2.00
WRAP.                      NO: One line per depth step
~Well Information Block
#MNEM.UNIT                               Data Type  Information
#---------                               ---------  -----------
STRT.FT                                   350.0000:
STOP.FT                                  6830.0000:
STEP.FT                                     0.5000:
NULL.                 -999.25                     :
COMP.                                             :COMPANY            
WELL.     SAN EMIDIO A #56-19                     :WELL               
FLD .                                             :FIELD              
CTRY.                                             :COUNTRY            
STAT.                                             :STATE              
LOC .                                             :LOCATION           
UWI .                                             :UNIQUE WELL ID     
SRVC.                                             :Service company    
DATE.                                             :LOG DATE           
~Curve Information
#MNEM.UNIT           API CODE  Curve Description
#---------           --------  -----------------
DEPT.FT                      :   1 DEPTH
SP  .MV                      :   2
AM16.OHMM                    :   3
AO10.OHMM                    :   4
AO19.OHMM                    :   5
SBL .MV                      :   6
RS  .OHMM                    :   7
RM  .OHMM                    :   8
RD  .OHMM                    :   9
DEVI.DEG                     :  10
TVD .FT                      :  11
AZIM.DEG                     :  12
NORT.FT                      :  13
EAST.FT                      :  14
OFFS.FT                      :  15
~A
# ...
  1650.000 -57.980  17.537  15.156  19.847 -42.285  17.537  15.156  19.847  1.1250  1649.9  36.000  8.0257  7.4164  10.919 
  1650.500 -58.881  18.584  15.120  21.297 -43.186  18.584  15.120  21.297  1.1237  1650.4  36.010  8.0336  7.4222  10.929 
  1651.000 -60.686  18.729  17.719  23.833 -44.991  18.729  17.719  23.833  1.1225  1650.9  36.020  8.0416  7.4279  10.939 
  1651.500 -62.310  18.730  18.478  24.923 -46.616  18.730  18.478  24.923  1.1212  1651.4  36.030  8.0495  7.4337  10.948 
  1652.000 -62.849  18.695  18.695  24.929 -47.155  18.695  18.695  24.929  1.1200  1651.9  36.040  8.0574  7.4394  10.958 
  1652.500 -62.303  18.371  18.641  24.934 -46.609  18.371  18.641  24.934  1.1187  1652.4  36.050  8.0653  7.4452  10.968 
  1653.000 -61.214  18.155  18.588  24.761 -45.520  18.155  18.588  24.761  1.1175  1652.9  36.060  8.0732  7.4509  10.977 
  1653.500 -60.487  17.290  17.939  24.588 -44.794  17.290  17.939  24.588  1.1162  1653.4  36.070  8.0810  7.4566  10.987 
  1654.000 -59.851  16.857  17.615  23.154 -44.158  16.857  17.615  23.154  1.1150  1653.9  36.080  8.0889  7.4624  10.996 
  1654.500 -59.215  16.714  17.508  22.439 -43.522  16.714  17.508  22.439  1.1137  1654.4  36.090  8.0968  7.4681  11.006 
  1655.000 -58.486  16.679  17.472  21.723 -42.793  16.679  17.472  21.723  1.1125  1654.9  36.100  8.1046  7.4738  11.016 
  1655.500 -58.483  16.751  17.473  21.733 -42.791  16.751  17.473  21.733  1.1112  1655.4  36.110  8.1124  7.4795  11.025 
  1656.000 -59.022  16.933  17.690  22.822 -43.330  16.933  17.690  22.822  1.1100  1655.9  36.120  8.1203  7.4852  11.035 
  1656.500 -61.551  17.222  17.944  23.369 -45.859  17.222  17.944  23.369  1.1087  1656.4  36.130  8.1281  7.4909  11.044 
  1657.000 -64.261  19.496  18.522  23.916 -48.569  19.496  18.522  23.916  1.1075  1656.9  36.140  8.1359  7.4966  11.054 
  1657.500 -67.332  19.713  19.244  26.091 -51.641  19.713  19.244  26.091  1.1062  1657.4  36.150  8.1437  7.5023  11.063 
  1658.000 -68.776  20.039  19.534  26.459 -53.085  20.039  19.534  26.459  1.1050  1657.9  36.160  8.1515  7.5080  11.073 
  1658.500 -69.858  20.436  19.787  26.827 -54.167  20.436  19.787  26.827  1.1037  1658.4  36.170  8.1592  7.5137  11.082 
  1659.000 -70.578  20.618  19.968  27.556 -54.887  20.618  19.968  27.556  1.1025  1658.9  36.180  8.1670  7.5194  11.092 
  1659.500 -71.298  20.654  22.869  27.563 -55.608  20.654  22.869  27.563  1.1012  1659.4  36.190  8.1747  7.5251  11.101 
  1660.000 -71.475  20.619  24.683  27.569 -55.785  20.619  24.683  27.569  1.1000  1659.9  36.200  8.1825  7.5307  11.111 
  1660.500 -72.014  20.584  24.690  27.575 -56.324  20.584  24.690  27.575  1.0987  1660.4  36.210  8.1902  7.5364  11.120 
  1661.000 -71.468  20.512  24.697  27.582 -55.778  20.512  24.697  27.582  1.0975  1660.9  36.220  8.1980  7.5421  11.130 
  1661.500 -71.283  20.441  24.704  27.589 -55.593  20.441  24.704  27.589  1.0962  1661.4  36.230  8.2057  7.5477  11.139 
  1662.000 -70.738  20.405  24.712  27.238 -55.049  20.405  24.712  27.238  1.0950  1661.9  36.240  8.2134  7.5534  11.149 
  1662.500 -70.192  20.334  23.997  26.885 -54.503  20.334  23.997  26.885  1.0937  1662.4  36.250  8.2211  7.5590  11.158 
  1663.000 -69.282  20.226  23.643  26.710 -53.593  20.226  23.643  26.710  1.0925  1662.9  36.260  8.2288  7.5646  11.168 
  1663.500 -68.736  20.083  22.929  26.535 -53.047  20.083  22.929  26.535  1.0912  1663.4  36.270  8.2364  7.5703  11.177 
  1664.000 -68.372  19.867  22.575  25.824 -52.684  19.867  22.575  25.824  1.0900  1663.9  36.280  8.2441  7.5759  11.186 
  1664.500 -68.007  19.615  21.500  25.469 -52.319  19.615  21.500  25.469  1.0887  1664.4  36.290  8.2518  7.5815  11.196 
  1665.000 -67.459  18.786  20.425  25.114 -51.771  18.786  20.425  25.114  1.0875  1664.9  36.300  8.2594  7.5871  11.205 
  1665.500 -67.456  18.678  19.349  24.580 -51.768  18.678  19.349  24.580  1.0862  1665.4  36.310  8.2671  7.5928  11.215 
  1666.000 -67.453  18.715  17.913  24.046 -51.766  18.715  17.913  24.046  1.0850  1665.9  36.320  8.2747  7.5984  11.224 
  1666.500 -67.631  18.788  17.560  23.512 -51.944  18.788  17.560  23.512  1.0837  1666.4  36.330  8.2823  7.6040  11.233 
  1667.000 -67.808  19.114  17.206  22.977 -52.121  19.114  17.206  22.977  1.0825  1666.9  36.340  8.2899  7.6096  11.243 
  1667.500 -68.257  19.475  17.213  22.627 -52.570  19.475  17.213  22.627  1.0812  1667.4  36.350  8.2975  7.6152  11.252 
  1668.000 -68.705  19.728  18.303  22.634 -53.019  19.728  18.303  22.634  1.0800  1667.9  36.360  8.3051  7.6207  11.261 
  1668.500 -70.147  20.090  19.753  22.641 -54.461  20.090  19.753  22.641  1.0787  1668.4  36.370  8.3127  7.6263  11.271 
  1669.000 -70.506  20.235  22.647  22.827 -54.820  20.235  22.647  22.827  1.0775  1668.9  36.380  8.3202  7.6319  11.280 
  1669.500 -70.864  20.344  23.194  23.013 -55.178  20.344  23.194  23.013  1.0762  1669.4  36.390  8.3278  7.6375  11.289 
  1670.000 -71.041  20.345  23.741  23.745 -55.356  20.345  23.741  23.745  1.0750  1669.9  36.400  8.3354  7.6430  11.298 
  1670.500 -71.128  20.345  24.834  24.113 -55.443  20.345  24.834  24.113  1.0737  1670.4  36.410  8.3429  7.6486  11.308 
  1671.000 -71.215  20.292  24.841  24.481 -55.530  20.292  24.841  24.481  1.0725  1670.9  36.420  8.3504  7.6542  11.317 
  1671.500 -71.212  20.238  24.848  24.488 -55.527  20.238  24.848  24.488  1.0712  1671.4  36.430  8.3579  7.6597  11.326 
  1672.000 -71.209  20.095  24.854  24.495 -55.525  20.095  24.854  24.495  1.0700  1671.9  36.440  8.3655  7.6653  11.335 
  1672.500 -70.842  19.951  24.860  24.321 -55.158  19.951  24.860  24.321  1.0687  1672.4  36.450  8.3730  7.6708  11.345 
  1673.000 -69.933  19.880  24.870  24.146 -54.249  19.880  24.870  24.146  1.0675  1672.9  36.460  8.3805  7.6763  11.354 
  1673.500 -69.567  19.808  24.877  23.974 -53.883  19.808  24.877  23.974  1.0662  1673.4  36.470  8.3879  7.6819  11.363 
  1674.000 -69.564  19.593  24.884  23.802 -53.881  19.593  24.884  23.802  1.0650  1673.9  36.480  8.3954  7.6874  11.372 
  1674.500 -69.379  19.413  24.891  23.628 -53.696  19.413  24.891  23.628  1.0637  1674.4  36.490  8.4029  7.6929  11.381 
  1675.000 -69.376  19.233  24.538  23.453 -53.693  19.233  24.538  23.453  1.0625  1674.9  36.500  8.4103  7.6984  11.391 
  1675.500 -69.191  19.126  24.543  23.102 -53.508  19.126  24.543  23.102  1.0612  1675.4  36.510  8.4178  7.7039  11.400 
  1676.000 -69.007  18.982  24.549  22.749 -53.325  18.982  24.549  22.749  1.0600  1675.9  36.520  8.4252  7.7094  11.409 
  1676.500 -68.822  18.838  24.198  22.756 -53.140  18.838  24.198  22.756  1.0587  1676.4  36.530  8.4326  7.7149  11.418 
  1677.000 -68.638  18.551  23.845  22.763 -52.956  18.551  23.845  22.763  1.0575  1676.9  36.540  8.4400  7.7204  11.427 
  1677.500 -68.544  18.407  23.491  22.770 -52.862  18.407  23.491  22.770  1.0562  1677.4  36.550  8.4474  7.7259  11.436 
  1678.000 -68.451  18.299  23.137  22.776 -52.770  18.299  23.137  22.776  1.0550  1677.9  36.560  8.4548  7.7314  11.445 
  1678.500 -68.084  18.156  22.787  22.782 -52.403  18.156  22.787  22.782  1.0537  1678.4  36.570  8.4622  7.7369  11.454 
  1679.000 -67.900  17.904  22.433  22.431 -52.219  17.904  22.433  22.431  1.0525  1678.9  36.580  8.4696  7.7424  11.464 
  1679.500 -67.715  17.760  19.420  22.617 -52.034  17.760  19.420  22.617  1.0512  1679.4  36.590  8.4770  7.7478  11.473 
  1680.000 -67.622  17.617  19.365  22.803 -51.942  17.617  19.365  22.803  1.0500  1679.9  36.600  8.4843  7.7533  11.482 
  1680.500 -67.529  17.401  19.309  23.174 -51.849  17.401  19.309  23.174  1.0487  1680.4  36.610  8.4917  7.7587  11.491 
  1681.000 -67.434  17.185  19.254  23.360 -51.754  17.185  19.254  23.360  1.0475  1680.9  36.620  8.4990  7.7642  11.500 
  1681.500 -67.340  16.933  19.198  23.546 -51.660  16.933  19.198  23.546  1.0462  1681.4  36.630  8.5063  7.7696  11.509 
  1682.000 -66.793  16.754  19.143  23.555 -51.114  16.754  19.143  23.555  1.0450  1681.9  36.640  8.5136  7.7751  11.518 
