~Version Information
VERS.                     2.0: CWLS log ASCII Standard Version 2.00
WRAP.                      NO: One line per depth step
~Well Information Block
#MNEM.UNIT                               Data Type  Information
#---------                               ---------  -----------
STRT.FT                                   350.0000:
STOP.FT                                  6830.0000:
STEP.FT                                     0.5000:
NULL.                 -999.25                     :
COMP.                                             :COMPANY            
WELL.     SAN EMIDIO A #56-19                     :WELL               
FLD .                                             :FIELD              
CTRY.                                             :COUNTRY            
STAT.                                             :STATE              
LOC .                                             :LOCATION           
UWI .                                             :UNIQUE WELL ID     
SRVC.                                             :Service company    
DATE.                                             :LOG DATE           
~Curve Information
#MNEM.UNIT           API CODE  Curve Description
#---------           --------  -----------------
DEPT.FT                      :   1 DEPTH
SP  .MV                      :   2
AM16.OHMM                    :   3
AO10.OHMM                    :   4
AO19.OHMM                    :   5
SBL .MV                      :   6
RS  .OHMM                    :   7
RM  .OHMM                    :   8
RD  .OHMM                    :   9
DEVI.DEG                     :  10
TVD .FT                      :  11
AZIM.DEG                     :  12
NORT.FT                      :  13
EAST.FT                      :  14
OFFS.FT                      :  15
~A
# ...
  3795.000 -35.521  5.7400  4.6040  5.7020 -20.874  5.7400  4.6040  5.7020  0.9208  3794.2  37.150  45.039  42.876  62.165 
  3795.500 -35.704  5.7400  4.5850  5.7020 -21.057  5.7400  4.5850  5.7020  0.9204  3794.7  37.135  45.045  42.881  62.173 
  3796.000 -36.431  5.7390  4.5850  5.6840 -21.784  5.7390  4.5850  5.6840  0.9200  3795.2  37.120  45.052  42.886  62.181 
  3796.500 -37.881  5.7390  4.5480  5.6650 -23.235  5.7390  4.5480  5.6650  0.9196  3795.7  37.105  45.058  42.891  62.189 
  3797.000 -39.692  5.7380  4.4940  5.6470 -25.046  5.7380  4.4940  5.6470  0.9192  3796.2  37.090  45.064  42.896  62.197 
  3797.500 -41.685  5.7370  4.4390  5.6290 -27.039  5.7370  4.4390  5.6290  0.9188  3796.7  37.075  45.071  42.901  62.205 
  3798.000 -42.050  5.6650  4.3660  5.5560 -27.404  5.6650  4.3660  5.5560  0.9183  3797.2  37.060  45.077  42.905  62.213 
  3798.500 -41.690  5.6280  4.2940  5.4840 -27.045  5.6280  4.2940  5.4840  0.9179  3797.7  37.045  45.084  42.910  62.221 
  3799.000 -41.512  5.3750  4.2210  5.3390 -26.867  5.3750  4.2210  5.3390  0.9175  3798.2  37.030  45.090  42.915  62.229 
  3799.500 -39.163  5.2300  4.1480  5.2300 -24.518  5.2300  4.1480  5.2300  0.9171  3798.7  37.015  45.096  42.920  62.237 
  3800.000 -37.719  5.1220  4.0760  5.1940 -23.074  5.1220  4.0760  5.1940  0.9167  3799.2  37.000  45.103  42.925  62.245 
  3800.500 -32.112  5.1210  3.9670  5.1390 -17.468  5.1210  3.9670  5.1390  0.9158  3799.7  37.040  45.109  42.930  62.253 
  3801.000 -30.665  5.1930  3.8950  5.0850 -16.021  5.1930  3.8950  5.0850  0.9150  3800.2  37.080  45.115  42.934  62.261 
  3801.500 -31.390  5.3010  3.8950  5.0850 -16.746  5.3010  3.8950  5.0850  0.9142  3800.7  37.120  45.122  42.939  62.269 
  3802.000 -32.778  5.5180  3.9670  5.5530 -18.134  5.5180  3.9670  5.5530  0.9133  3801.2  37.160  45.128  42.944  62.276 
  3802.500 -34.165  5.7700  4.1110  5.8770 -19.522  5.7700  4.1110  5.8770  0.9125  3801.7  37.200  45.135  42.949  62.284 
  3803.000 -35.553  6.4910  4.3630  6.0570 -20.910  6.4910  4.3630  6.0570  0.9117  3802.2  37.240  45.141  42.954  62.292 
  3803.500 -43.514  6.7070  4.6520  6.1290 -28.871  6.7070  4.6520  6.1290  0.9108  3802.7  37.280  45.147  42.958  62.300 
  3804.000 -44.963  6.8150  4.8680  6.2010 -30.320  6.8150  4.8680  6.2010  0.9100  3803.2  37.320  45.153  42.963  62.308 
  3804.500 -45.506  6.7070  5.0120  6.2730 -30.864  6.7070  5.0120  6.2730  0.9092  3803.7  37.360  45.160  42.968  62.316 
  3805.000 -45.326  6.4900  5.0840  6.0920 -30.684  6.4900  5.0840  6.0920  0.9083  3804.2  37.400  45.166  42.973  62.324 
  3805.500 -42.975  6.2380  5.0480  5.8390 -28.333  6.2380  5.0480  5.8390  0.9075  3804.7  37.440  45.172  42.978  62.332 
  3806.000 -38.092  6.1650  4.9030  5.3340 -23.450  6.1650  4.9030  5.3340  0.9067  3805.2  37.480  45.179  42.983  62.339 
  3806.500 -36.826  6.1650  4.7590  5.0450 -22.184  6.1650  4.7590  5.0450  0.9058  3805.7  37.520  45.185  42.987  62.347 
  3807.000 -35.560  6.3090  4.3980  4.8280 -20.919  6.3090  4.3980  4.8280  0.9050  3806.2  37.560  45.191  42.992  62.355 
  3807.500 -35.743  6.5080  4.0010  4.7560 -21.102  6.5080  4.0010  4.7560  0.9042  3806.7  37.600  45.197  42.997  62.363 
  3808.000 -44.246  6.7060  4.0730  4.9720 -29.605  6.7060  4.0730  4.9720  0.9033  3807.2  37.640  45.204  43.002  62.371 
  3808.500 -45.694  7.5710  4.2890  5.4760 -31.053  7.5710  4.2890  5.4760  0.9025  3807.7  37.680  45.210  43.007  62.378 
  3809.000 -47.685  8.3280  4.3970  5.6920 -33.045  8.3280  4.3970  5.6920  0.9017  3808.2  37.720  45.216  43.011  62.386 
  3809.500 -49.495  8.7610  4.5410  5.8900 -34.855  8.7610  4.5410  5.8900  0.9008  3808.7  37.760  45.222  43.016  62.394 
  3810.000 -50.581  9.1220  4.7930  6.0880 -35.941  9.1220  4.7930  6.0880  0.9000  3809.2  37.800  45.229  43.021  62.402 
  3810.500 -52.934  9.5180  4.9380  6.2680 -38.294  9.5180  4.9380  6.2680  0.8992  3809.7  37.840  45.235  43.026  62.410 
  3811.000 -54.382  10.348  5.1900  6.2680 -39.743  10.348  5.1900  6.2680  0.8983  3810.2  37.880  45.241  43.031  62.417 
  3811.500 -55.829  11.610  5.1900  6.2680 -41.190  11.610  5.1900  6.2680  0.8975  3810.7  37.920  45.247  43.035  62.425 
  3812.000 -58.364  12.187  5.1890  6.2310 -43.725  12.187  5.1890  6.2310  0.8967  3811.2  37.960  45.253  43.040  62.433 
  3812.500 -60.354  12.511  5.2250  6.4110 -45.715  12.511  5.2250  6.4110  0.8958  3811.7  38.000  45.259  43.045  62.441 
  3813.000 -63.612  12.547  5.2610  6.4830 -48.974  12.547  5.2610  6.4830  0.8950  3812.2  38.040  45.266  43.050  62.448 
  3813.500 -67.231  12.547  5.2970  6.5190 -52.593  12.547  5.2970  6.5190  0.8942  3812.7  38.080  45.272  43.055  62.456 
  3814.000 -68.860  12.511  5.3510  6.5180 -54.222  12.511  5.3510  6.5180  0.8933  3813.2  38.120  45.278  43.060  62.464 
  3814.500 -69.765  12.366  5.4050  6.5180 -55.127  12.366  5.4050  6.5180  0.8925  3813.7  38.160  45.284  43.064  62.472 
  3815.000 -69.585  12.294  5.5310  6.5180 -54.948  12.294  5.5310  6.5180  0.8917  3814.2  38.200  45.290  43.069  62.479 
  3815.500 -68.862  12.041  5.6570  6.4810 -54.225  12.041  5.6570  6.4810  0.8908  3814.7  38.240  45.296  43.074  62.487 
  3816.000 -68.320  11.680  5.9090  6.4450 -53.683  11.680  5.9090  6.4450  0.8900  3815.2  38.280  45.302  43.079  62.495 
  3816.500 -66.512  11.283  6.0540  6.4260 -51.875  11.283  6.0540  6.4260  0.8892  3815.7  38.320  45.308  43.084  62.503 
  3817.000 -64.342  10.886  5.9450  6.4080 -49.706  10.886  5.9450  6.4080  0.8883  3816.2  38.360  45.314  43.088  62.510 
  3817.500 -63.439  10.345  5.8730  6.1910 -48.803  10.345  5.8730  6.1910  0.8875  3816.7  38.400  45.321  43.093  62.518 
  3818.000 -62.173  9.6600  5.6920  6.1190 -47.537  9.6600  5.6920  6.1190  0.8867  3817.2  38.440  45.327  43.098  62.526 
  3818.500 -61.270  9.2630  5.6200  6.0280 -46.634  9.2630  5.6200  6.0280  0.8858  3817.7  38.480  45.333  43.103  62.533 
  3819.000 -60.185  9.0460  5.4760  5.9380 -45.550  9.0460  5.4760  5.9380  0.8850  3818.2  38.520  45.339  43.108  62.541 
  3819.500 -57.292  8.8660  5.4750  5.8470 -42.657  8.8660  5.4750  5.8470  0.8842  3818.7  38.560  45.345  43.112  62.549 
  3820.000 -56.297  8.7930  5.5830  5.7570 -41.662  8.7930  5.5830  5.7570  0.8833  3819.2  38.600  45.351  43.117  62.556 
  3820.500 -55.303  8.8650  5.7270  5.7920 -40.668  8.8650  5.7270  5.7920  0.8825  3819.7  38.640  45.357  43.122  62.564 
  3821.000 -54.581  8.9370  5.9080  5.8640 -39.947  8.9370  5.9080  5.8640  0.8817  3820.2  38.680  45.363  43.127  62.572 
  3821.500 -54.401  8.9730  6.0520  5.7910 -39.767  8.9730  6.0520  5.7910  0.8808  3820.7  38.720  45.369  43.132  62.579 
  3822.000 -54.402  8.8290  6.0880  5.7370 -39.768  8.8290  6.0880  5.7370  0.8800  3821.2  38.760  45.375  43.136  62.587 
  3822.500 -54.222  8.7560  6.0870  5.6830 -39.588  8.7560  6.0870  5.6830  0.8792  3821.7  38.800  45.381  43.141  62.595 
  3823.000 -53.137  8.8280  6.1230  5.6100 -38.504  8.8280  6.1230  5.6100  0.8783  3822.2  38.840  45.387  43.146  62.602 
  3823.500 -51.510  9.0090  6.1590  5.7540 -36.877  9.0090  6.1590  5.7540  0.8775  3822.7  38.880  45.393  43.151  62.610 
  3824.000 -50.425  9.1890  6.3030  5.9700 -35.792  9.1890  6.3030  5.9700  0.8767  3823.2  38.920  45.399  43.156  62.617 
  3824.500 -50.969  9.5490  6.4110  6.1140 -36.336  9.5490  6.4110  6.1140  0.8758  3823.7  38.960  45.405  43.161  62.625 
  3825.000 -53.141  10.018  6.6100  6.1500 -38.509  10.018  6.6100  6.1500  0.8750  3824.2  39.000  45.411  43.165  62.633 
  3825.500 -55.674  10.956  6.8080  6.2940 -41.042  10.956  6.8080  6.2940  0.8742  3824.7  39.040  45.416  43.170  62.640 
  3826.000 -57.304  11.424  7.0240  6.3830 -42.672  11.424  7.0240  6.3830  0.8733  3825.2  39.080  45.422  43.175  62.648 
  3826.500 -58.028  11.604  7.0960  6.4730 -43.396  11.604  7.0960  6.4730  0.8725  3825.7  39.120  45.428  43.180  62.655 
  3827.000 -58.481  11.857  7.2760  6.7970 -43.850  11.857  7.2760  6.7970  0.8717  3826.2  39.160  45.434  43.185  62.663 
