~Version Information
VERS.                     2.0: CWLS log ASCII Standard Version 2.00
WRAP.                      NO: One line per depth step
~Well Information Block
#MNEM.UNIT                               Data Type  Information
#---------                               ---------  -----------
STRT.FT                                   350.0000:
STOP.FT                                  6830.0000:
STEP.FT                                     0.5000:
NULL.                 -999.25                     :
COMP.                                             :COMPANY            
WELL.     SAN EMIDIO A #56-19                     :WELL               
FLD .                                             :FIELD              
CTRY.                                             :COUNTRY            
STAT.                                             :STATE              
LOC .                                             :LOCATION           
UWI .                                             :UNIQUE WELL ID     
SRVC.                                             :Service company    
DATE.                                             :LOG DATE           
~Curve Information
#MNEM.UNIT           API CODE  Curve Description
#---------           --------  -----------------
DEPT.FT                      :   1 DEPTH
SP  .MV                      :   2
AM16.OHMM                    :   3
AO10.OHMM                    :   4
AO19.OHMM                    :   5
SBL .MV                      :   6
RS  .OHMM                    :   7
RM  .OHMM                    :   8
RD  .OHMM                    :   9
DEVI.DEG                     :  10
TVD .FT                      :  11
AZIM.DEG                     :  12
NORT.FT                      :  13
EAST.FT                      :  14
OFFS.FT                      :  15
~A
# ...
  6785.000 -17.027  37.102  23.773  25.990 -3.0270  37.102  23.773  25.990  2.5833  6783.4  182.59  0.9704  55.298  39.788 
  6785.500 -17.567  37.102  24.135  25.807 -3.5670  37.102  24.135  25.807  2.5833  6783.9  182.59  0.9479  55.297  39.771 
  6786.000 -17.838  36.920  23.775  25.624 -3.8380  36.920  23.775  25.624  2.5833  6784.4  182.60  0.9253  55.296  39.755 
  6786.500 -18.109  36.739  23.413  25.442 -4.1090  36.739  23.413  25.442  2.5833  6784.9  182.60  0.9028  55.295  39.738 
  6787.000 -18.108  36.381  23.052  25.260 -4.1080  36.381  23.052  25.260  2.5833  6785.4  182.61  0.8803  55.294  39.721 
  6787.500 -18.108  36.381  22.694  24.540 -4.1080  36.381  22.694  24.540  2.5833  6785.9  182.61  0.8578  55.293  39.705 
  6788.000 -17.928  36.021  22.694  24.178 -3.9280  36.021  22.694  24.178  2.5833  6786.4  182.61  0.8353  55.292  39.688 
  6788.500 -17.928  36.021  22.694  24.176 -3.9280  36.021  22.694  24.176  2.5833  6786.9  182.62  0.8128  55.291  39.672 
  6789.000 -17.658  36.021  22.694  23.993 -3.6580  36.021  22.694  23.993  2.5833  6787.4  182.62  0.7903  55.290  39.655 
  6789.500 -17.388  35.661  22.334  23.810 -3.3880  35.661  22.334  23.810  2.5833  6787.9  182.63  0.7678  55.289  39.638 
  6790.000 -17.207  35.661  22.333  23.090 -3.2070  35.661  22.333  23.090  2.5833  6788.4  182.63  0.7452  55.288  39.622 
  6790.500 -16.847  35.301  22.332  22.728 -2.8470  35.301  22.332  22.728  2.5833  6788.9  182.64  0.7227  55.287  39.605 
  6791.000 -16.847  34.940  21.613  22.725 -2.8470  34.940  21.613  22.725  2.5833  6789.4  182.64  0.7002  55.286  39.588 
  6791.500 -16.847  34.940  21.613  22.723 -2.8470  34.940  21.613  22.723  2.5833  6789.9  182.65  0.6777  55.285  39.572 
  6792.000 -17.027  34.580 -999.25  22.541 -3.0270  34.580 -999.25  22.541  2.5833  6790.4  182.65  0.6552  55.284  39.555 
  6792.500 -17.207  34.580 -999.25  22.359 -3.2070  34.580 -999.25  22.359  2.5833  6790.9  182.66  0.6327  55.283  39.538 
  6793.000 -17.207  34.580 -999.25  22.177 -3.2070  34.580 -999.25  22.177  2.5833  6791.4  182.66  0.6102  55.282  39.522 
  6793.500 -17.208  34.580 -999.25  21.995 -3.2080  34.580 -999.25  21.995  2.5833  6791.9  182.66  0.5877  55.281  39.505 
  6794.000 -17.208  34.399 -999.25  21.993 -3.2080  34.399 -999.25  21.993  2.5833  6792.4  182.67  0.5651  55.280  39.488 
  6794.500 -17.026  34.218 -999.25  21.991 -3.0260  34.218 -999.25  21.991  2.5833  6792.9  182.67  0.5426  55.279  39.472 
  6795.000 -16.846  33.499 -999.25  21.631 -2.8460  33.499 -999.25  21.631  2.5833  6793.4  182.68  0.5201  55.278  39.455 
  6795.500 -15.945  33.139 -999.25  21.629 -1.9450  33.139 -999.25  21.629  2.5833  6793.9  182.68  0.4976  55.277  39.438 
  6796.000 -15.585  32.779 -999.25  21.626 -1.5850  32.779 -999.25  21.626  2.5833  6794.4  182.69  0.4751  55.276  39.422 
  6796.500 -15.856  32.419 -999.25  21.626 -1.8560  32.419 -999.25  21.626  2.5833  6794.9  182.69  0.4526  55.275  39.405 
  6797.000 -16.126  32.059 -999.25  21.191 -2.1260  32.059 -999.25  21.191  2.5833  6795.4  182.70  0.4301  55.273  39.388 
  6797.500 -16.666  32.058 -999.25  20.756 -2.6660  32.058 -999.25  20.756  2.5833  6795.9  182.70  0.4076  55.272  39.372 
  6798.000 -17.027  32.057 -999.25  20.321 -3.0270  32.057 -999.25  20.321  2.5833  6796.4  182.71  0.3851  55.271  39.355 
  6798.500 -17.388  32.419 -999.25  19.886 -3.3880  32.419 -999.25  19.886  2.5833  6796.9  182.71  0.3625  55.270  39.338 
  6799.000 -17.748  32.419 -999.25  19.451 -3.7480  32.419 -999.25  19.451  2.5833  6797.4  182.71  0.3400  55.269  39.322 
  6799.500 -18.108  32.779 -999.25  19.379 -4.1080  32.779 -999.25  19.379  2.5833  6797.9  182.72  0.3175  55.268  39.305 
  6800.000 -18.378  32.779 -999.25  19.271 -4.3780  32.779 -999.25  19.271  2.5833  6798.4  182.72  0.2950  55.267  39.288 
  6800.500 -18.647  32.782 -999.25  19.163 -4.6470  32.782 -999.25  19.163  2.5833  6798.9  182.73  0.2725  55.266  39.272 
  6801.000 -19.005  32.785 -999.25  18.982 -5.0050  32.785 -999.25  18.982  2.5833  6799.4  182.73  0.2500  55.265  39.255 
  6801.500 -18.643  32.788 -999.25  18.874 -4.6430  32.788 -999.25  18.874  2.5833  6799.9  182.74  0.2275  55.264  39.238 
  6802.000 -18.462  32.611 -999.25  18.731 -4.4620  32.611 -999.25  18.731  2.5833  6800.4  182.74  0.2050  55.263  39.222 
  6802.500 -18.280  32.434 -999.25  18.658 -4.2800  32.434 -999.25  18.658  2.5833  6800.9  182.75  0.1825  55.262  39.205 
  6803.000 -18.098  32.436 -999.25  18.622 -4.0980  32.436 -999.25  18.622  2.5833  6801.4  182.75  0.1600  55.261  39.188 
  6803.500 -17.917  32.438 -999.25  18.550 -3.9170  32.438 -999.25  18.550  2.5833  6801.9  182.76  0.1374  55.260  39.172 
  6804.000 -17.735  32.261 -999.25  18.478 -3.7350  32.261 -999.25  18.478  2.5833  6802.4  182.76  0.1149  55.258  39.155 
  6804.500 -17.733  32.085 -999.25  18.478 -3.7330  32.085 -999.25  18.478  2.5833  6802.9  182.76  0.0924  55.257  39.138 
  6805.000 -17.912  31.907 -999.25  18.442 -3.9120  31.907 -999.25  18.442  2.5833  6803.4  182.77  0.0699  55.256  39.122 
  6805.500 -18.091  31.729 -999.25  18.406 -4.0910  31.729 -999.25  18.406  2.5833  6803.9  182.77  0.0474  55.255  39.105 
  6806.000 -18.089  31.552 -999.25  18.370 -4.0890  31.552 -999.25  18.370  2.5833  6804.4  182.78  0.0249  55.254  39.088 
  6806.500 -18.268  31.375 -999.25  18.334 -4.2680  31.375 -999.25  18.334  2.5833  6804.9  182.78  0.0024  55.253  39.071 
  6807.000 -18.357  31.198 -999.25  18.262 -4.3570  31.198 -999.25  18.262  2.5833  6805.4  182.79 -0.0201  55.252  39.055 
  6807.500 -18.446  31.021 -999.25  18.226 -4.4460  31.021 -999.25  18.226  2.5833  6805.9  182.79 -0.0426  55.251  39.038 
  6808.000 -18.445  30.305 -999.25  18.172 -4.4450  30.305 -999.25  18.172  2.5833  6806.4  182.80 -0.0651  55.250  39.021 
  6808.500 -18.443  30.308 -999.25  18.118 -4.4430  30.308 -999.25  18.118  2.5833  6806.9  182.80 -0.0877  55.249  39.005 
  6809.000 -18.261  29.951 -999.25  17.974 -4.2610  29.951 -999.25  17.974  2.5833  6807.4  182.81 -0.1102  55.247  38.988 
  6809.500 -18.080  29.953 -999.25  17.866 -4.0800  29.953 -999.25  17.866  2.5833  6807.9  182.81 -0.1327  55.246  38.971 
  6810.000 -17.898  29.955 -999.25  17.794 -3.8980  29.955 -999.25  17.794  2.5833  6808.4  182.81 -0.1552  55.245  38.955 
  6810.500 -17.716  29.960 -999.25  17.722 -3.7160  29.960 -999.25  17.722  2.5833  6808.9  182.82 -0.1777  55.244  38.938 
  6811.000 -17.354  30.323 -999.25  17.434 -3.3540  30.323 -999.25  17.434  2.5833  6809.4  182.82 -0.2002  55.243  38.921 
  6811.500 -16.902  30.685 -999.25  17.146 -2.9020  30.685 -999.25  17.146  2.5833  6809.9  182.83 -0.2227  55.242  38.904 
  6812.000 -16.451  31.047 -999.25  17.182 -2.4510  31.047 -999.25  17.182  2.5833  6810.4  182.83 -0.2452  55.241  38.888 
  6812.500 -16.089  32.853 -999.25  17.434 -2.0890  32.853 -999.25  17.434  2.5833  6810.9  182.84 -0.2677  55.240  38.871 
  6813.000 -15.727  34.297 -999.25  17.614 -1.7270  34.297 -999.25  17.614  2.5833  6811.4  182.84 -0.2902  55.239  38.854 
  6813.500 -15.004  36.101 -999.25  17.776 -1.0040  36.101 -999.25  17.776  2.5833  6811.9  182.85 -0.3127  55.237  38.838 
  6814.000 -14.822  36.466 -999.25  17.938 -0.8220  36.466 -999.25  17.938  2.5833  6812.4  182.85 -0.3352  55.236  38.821 
  6814.500 -14.460  35.388 -999.25  18.730 -0.4600  35.388 -999.25  18.730  2.5833  6812.9  182.86 -0.3577  55.235  38.804 
  6815.000 -13.918  34.489 -999.25  19.343  0.0820  34.489 -999.25  19.343  2.5833  6813.4  182.86 -0.3803  55.234  38.788 
  6815.500 -13.556  33.589 -999.25  19.451  0.4440  33.589 -999.25  19.451  2.5833  6813.9  182.86 -0.4028  55.233  38.771 
  6816.000 -13.195  30.353 -999.25  19.307  0.8050  30.353 -999.25  19.307  2.5833  6814.4  182.87 -0.4253  55.232  38.754 
  6816.500 -13.013  28.195 -999.25  19.055  0.9870  28.195 -999.25  19.055  2.5833  6814.9  182.87 -0.4478  55.231  38.737 
  6817.000 -13.192  27.837 -999.25  18.730  0.8080  27.837 -999.25  18.730  2.5833  6815.4  182.88 -0.4703  55.230  38.721 
