~Version Information
VERS.                     2.0: CWLS log ASCII Standard Version 2.00
WRAP.                      NO: One line per depth step
~Well Information Block
#MNEM.UNIT                               Data Type  Information
#---------                               ---------  -----------
STRT.FT                                   350.0000:
STOP.FT                                  6830.0000:
STEP.FT                                     0.5000:
NULL.                 -999.25                     :
COMP.                                             :COMPANY            
WELL.     SAN EMIDIO A #56-19                     :WELL               
FLD .                                             :FIELD              
CTRY.                                             :COUNTRY            
STAT.                                             :STATE              
LOC .                                             :LOCATION           
UWI .                                             :UNIQUE WELL ID     
SRVC.                                             :Service company    
DATE.                                             :LOG DATE           
~Curve Information
#MNEM.UNIT           API CODE  Curve Description
#---------           --------  -----------------
DEPT.FT                      :   1 DEPTH
SP  .MV                      :   2
AM16.OHMM                    :   3
AO10.OHMM                    :   4
AO19.OHMM                    :   5
SBL .MV                      :   6
RS  .OHMM                    :   7
RM  .OHMM                    :   8
RD  .OHMM                    :   9
DEVI.DEG                     :  10
TVD .FT                      :  11
AZIM.DEG                     :  12
NORT.FT                      :  13
EAST.FT                      :  14
OFFS.FT                      :  15
~A
# ...
   772.500 -45.082  8.8290  6.0180  8.3880 -29.082  8.8290  6.0180  8.3880  0.3187  772.49  53.976  0.3610  2.5262  2.0416 
   773.000 -43.457  8.6850  5.9100  8.3880 -27.457  8.6850  5.9100  8.3880  0.3175  772.99  53.631  0.3626  2.5285  2.0443 
   773.500 -40.929  8.2520  5.6220  8.3160 -24.929  8.2520  5.6220  8.3160  0.3162  773.49  53.286  0.3643  2.5307  2.0470 
   774.000 -38.400  7.9280  5.4770  8.2440 -22.400  7.9280  5.4770  8.2440  0.3150  773.99  52.941  0.3659  2.5329  2.0498 
   774.500 -35.872  7.8200  5.0810  7.9190 -19.872  7.8200  5.0810  7.9190  0.3137  774.49  52.596  0.3676  2.5350  2.0525 
   775.000 -31.898  7.7840  4.8650  7.6670 -15.898  7.7840  4.8650  7.6670  0.3125  774.99  52.251  0.3693  2.5372  2.0552 
   775.500 -30.454  7.8560  4.6490  7.4500 -14.454  7.8560  4.6490  7.4500  0.3113  775.49  51.906  0.3709  2.5393  2.0579 
   776.000 -29.371  7.9640  4.4320  7.3780 -13.371  7.9640  4.4320  7.3780  0.3100  775.99  51.561  0.3726  2.5415  2.0606 
   776.500 -29.012  8.2160  4.1440  7.2700 -13.012  8.2160  4.1440  7.2700  0.3088  776.49  51.216  0.3743  2.5436  2.0633 
   777.000 -29.375  8.5770  4.1080  7.2330 -13.375  8.5770  4.1080  7.2330  0.3075  776.99  50.871  0.3760  2.5456  2.0659 
   777.500 -30.280  8.8650  4.0720  7.3050 -14.280  8.8650  4.0720  7.3050  0.3063  777.49  50.526  0.3777  2.5477  2.0686 
   778.000 -31.367  9.4410  4.0900  7.4850 -15.367  9.4410  4.0900  7.4850  0.3050  777.99  50.181  0.3794  2.5497  2.0712 
   778.500 -34.441  10.414  4.1080  7.5570 -18.441  10.414  4.1080  7.5570  0.3038  778.49  49.836  0.3811  2.5518  2.0739 
   779.000 -40.045  11.135  4.2880  7.7010 -24.045  11.135  4.2880  7.7010  0.3025  778.99  49.491  0.3828  2.5538  2.0765 
   779.500 -43.300  11.892  4.5040  7.8450 -27.300  11.892  4.5040  7.8450  0.3013  779.49  49.146  0.3846  2.5558  2.0791 
   780.000 -45.109  13.802  4.7930  8.2050 -29.109  13.802  4.7930  8.2050  0.3000  779.99  48.801  0.3863  2.5577  2.0817 
   780.500 -45.653  14.450  5.2970  8.3490 -29.653  14.450  5.2970  8.3490  0.2988  780.49  48.456  0.3880  2.5597  2.0843 
   781.000 -45.654  14.847  6.0540  8.6010 -29.654  14.847  6.0540  8.6010  0.2975  780.99  48.111  0.3897  2.5616  2.0869 
   781.500 -46.921  15.459  6.6670  8.6550 -30.921  15.459  6.6670  8.6550  0.2963  781.49  47.766  0.3915  2.5635  2.0895 
   782.000 -48.369  16.396  6.9550  8.7090 -32.369  16.396  6.9550  8.7090  0.2950  781.99  47.421  0.3932  2.5654  2.0921 
   782.500 -51.804  16.973  7.3150  8.8170 -35.804  16.973  7.3150  8.8170  0.2938  782.49  47.076  0.3950  2.5673  2.0947 
   783.000 -54.698  17.369  7.8920  8.8890 -38.698  17.369  7.8920  8.8890  0.2925  782.99  46.731  0.3967  2.5692  2.0972 
   783.500 -56.507  17.694  8.6130  8.9610 -40.507  17.694  8.6130  8.9610  0.2913  783.49  46.386  0.3985  2.5710  2.0997 
   784.000 -58.135  17.838  9.5140  8.9610 -42.135  17.838  9.5140  8.9610  0.2900  783.99  46.041  0.4002  2.5728  2.1023 
   784.500 -59.583  19.387  9.8380  9.0690 -43.583  19.387  9.8380  9.0690  0.2888  784.49  45.696  0.4020  2.5746  2.1048 
   785.000 -61.030  19.928  10.126  9.1040 -45.030  19.928  10.126  9.1040  0.2875  784.99  45.351  0.4038  2.5764  2.1073 
   785.500 -62.478  20.054  10.306  9.1580 -46.478  20.054  10.306  9.1580  0.2863  785.49  45.006  0.4055  2.5782  2.1098 
   786.000 -63.202  20.181  10.487  9.2120 -47.202  20.181  10.487  9.2120  0.2850  785.99  44.661  0.4073  2.5799  2.1123 
   786.500 -63.746  20.781  10.703  9.3200 -47.746  20.781  10.703  9.3200  0.2838  786.49  44.316  0.4091  2.5817  2.1148 
   787.000 -63.929  21.382  10.847  9.3920 -47.929  21.382  10.847  9.3920  0.2825  786.99  43.971  0.4108  2.5834  2.1172 
   787.500 -63.750  21.982  11.027  9.4640 -47.750  21.982  11.027  9.4640  0.2813  787.49  43.626  0.4126  2.5851  2.1197 
   788.000 -63.390  22.582  11.135  9.5360 -47.390  22.582  11.135  9.5360  0.2800  787.99  43.281  0.4144  2.5867  2.1221 
   788.500 -63.573  23.183  11.351  9.6440 -47.573  23.183  11.351  9.6440  0.2788  788.49  42.936  0.4162  2.5884  2.1246 
   789.000 -63.755  23.783  11.676  9.7520 -47.755  23.783  11.676  9.7520  0.2775  788.99  42.591  0.4180  2.5900  2.1270 
   789.500 -63.938  23.423  11.928  9.9320 -47.938  23.423  11.928  9.9320  0.2763  789.49  42.246  0.4197  2.5917  2.1294 
   790.000 -63.759  23.063  12.180  10.184 -47.759  23.063  12.180  10.184  0.2750  789.99  41.901  0.4215  2.5933  2.1318 
   790.500 -63.399  22.702  12.613  10.472 -47.399  22.702  12.613  10.472  0.2738  790.49  41.556  0.4233  2.5948  2.1342 
   791.000 -62.859  22.702  13.261  10.634 -46.859  22.702  13.261  10.634  0.2725  790.99  41.211  0.4251  2.5964  2.1365 
   791.500 -62.680  22.702  15.748  10.796 -46.680  22.702  15.748  10.796  0.2713  791.49  40.866  0.4269  2.5980  2.1389 
   792.000 -62.863  22.342  16.432  11.552 -46.863  22.342  16.432  11.552  0.2700  791.99  40.521  0.4287  2.5995  2.1412 
   792.500 -63.045  21.982  16.649  11.949 -47.045  21.982  16.649  11.949  0.2688  792.49  40.176  0.4305  2.6010  2.1436 
   793.000 -63.227  21.621  19.099  12.237 -47.227  21.621  19.099  12.237  0.2675  792.99  39.831  0.4323  2.6025  2.1459 
   793.500 -64.133  21.621  19.700  12.453 -48.133  21.621  19.700  12.453  0.2663  793.49  39.486  0.4341  2.6040  2.1482 
   794.000 -64.316  21.261  20.300  12.597 -48.316  21.261  20.300  12.597  0.2650  793.99  39.141  0.4359  2.6054  2.1505 
   794.500 -64.498  21.261  20.901  12.741 -48.498  21.261  20.901  12.741  0.2638  794.49  38.796  0.4376  2.6069  2.1528 
   795.000 -64.862  21.261  21.501  12.777 -48.862  21.261  21.501  12.777  0.2625  794.99  38.451  0.4394  2.6083  2.1551 
   795.500 -65.044  21.261  22.102  12.812 -49.044  21.261  22.102  12.812  0.2613  795.49  38.106  0.4412  2.6097  2.1573 
   796.000 -65.227  21.261  22.702  12.848 -49.227  21.261  22.702  12.848  0.2600  795.99  37.761  0.4430  2.6111  2.1596 
   796.500 -65.229  20.901  23.063  12.920 -49.229  20.901  23.063  12.920  0.2588  796.49  37.416  0.4448  2.6125  2.1618 
   797.000 -65.050  21.261  23.423  13.064 -49.050  21.261  23.423  13.064  0.2575  796.99  37.071  0.4466  2.6138  2.1641 
   797.500 -64.871  21.081  23.784  13.172 -48.871  21.081  23.784  13.172  0.2563  797.49  36.726  0.4484  2.6152  2.1663 
   798.000 -64.150  20.901  23.784  13.424 -48.150  20.901  23.784  13.424  0.2550  797.99  36.381  0.4502  2.6165  2.1685 
   798.500 -63.971  20.901  23.784  13.604 -47.971  20.901  23.784  13.604  0.2538  798.49  36.036  0.4520  2.6178  2.1707 
   799.000 -62.527  20.901  24.144  13.892 -46.527  20.901  24.144  13.892  0.2525  798.99  35.691  0.4538  2.6191  2.1728 
   799.500 -62.077  21.261  24.504  14.108 -46.077  21.261  24.504  14.108  0.2513  799.49  35.346  0.4556  2.6203  2.1750 
   800.000 -62.349  21.261  24.865  14.468 -46.349  21.261  24.865  14.468  0.2500  799.99  35.001  0.4574  2.6216  2.1771 
   800.500 -61.930  21.261  25.225  14.612 -45.930  21.261  25.225  14.612  0.2513  800.49  35.001  0.4592  2.6229  2.1793 
   801.000 -61.510  21.621  25.225  15.189 -45.510  21.621  25.225  15.189  0.2525  800.99  35.001  0.4610  2.6241  2.1815 
   801.500 -61.090  21.982  25.585  15.585 -45.090  21.982  25.585  15.585  0.2538  801.49  35.001  0.4628  2.6254  2.1837 
   802.000 -61.453  22.342  26.306  15.981 -45.453  22.342  26.306  15.981  0.2550  801.99  35.001  0.4646  2.6267  2.1858 
   802.500 -61.997  22.702  26.306  16.918 -45.997  22.702  26.306  16.918  0.2563  802.49  35.001  0.4664  2.6279  2.1881 
   803.000 -62.541  22.703  26.307  17.711 -46.541  22.703  26.307  17.711  0.2575  802.99  35.001  0.4683  2.6292  2.1903 
   803.500 -62.904  23.063  26.847  21.789 -46.904  23.063  26.847  21.789  0.2588  803.49  35.001  0.4701  2.6305  2.1925 
   804.000 -63.268  23.063  27.388  22.148 -47.268  23.063  27.388  22.148  0.2600  803.99  35.001  0.4720  2.6318  2.1947 
   804.500 -63.450  23.063  27.748  22.507 -47.450  23.063  27.748  22.507  0.2613  804.49  35.001  0.4738  2.6331  2.1970 
