~Version Information
VERS.                     2.0: CWLS log ASCII Standard Version 2.00
WRAP.                      NO: One line per depth step
~Well Information Block
#MNEM.UNIT                               Data Type  Information
#---------                               ---------  -----------
STRT.FT                                   350.0000:
STOP.FT                                  6830.0000:
STEP.FT                                     0.5000:
NULL.                 -999.25                     :
COMP.                                             :COMPANY            
WELL.     SAN EMIDIO A #56-19                     :WELL               
FLD .                                             :FIELD              
CTRY.                                             :COUNTRY            
STAT.                                             :STATE              
LOC .                                             :LOCATION           
UWI .                                             :UNIQUE WELL ID     
SRVC.                                             :Service company    
DATE.                                             :LOG DATE           
~Curve Information
#MNEM.UNIT           API CODE  Curve Description
#---------           --------  -----------------
DEPT.FT                      :   1 DEPTH
SP  .MV                      :   2
AM16.OHMM                    :   3
AO10.OHMM                    :   4
AO19.OHMM                    :   5
SBL .MV                      :   6
RS  .OHMM                    :   7
RM  .OHMM                    :   8
RD  .OHMM                    :   9
DEVI.DEG                     :  10
TVD .FT                      :  11
AZIM.DEG                     :  12
NORT.FT                      :  13
EAST.FT                      :  14
OFFS.FT                      :  15
~A
   350.000 -999.25 -999.25 -999.25 -999.25 -999.25 -999.25 -999.25 -999.25  0.2083  350.00  52.500  0.5773  0.0730  0.4598 
   350.500 -999.25 -999.25 -999.25 -999.25 -999.25 -999.25 -999.25 -999.25  0.2088  350.50  53.025  0.5784  0.0745  0.4616 
   351.000 -999.25 -999.25 -999.25 -999.25 -999.25 -999.25 -999.25 -999.25  0.2092  351.00  53.550  0.5795  0.0760  0.4635 
   351.500 -999.25 -999.25 -999.25 -999.25 -999.25 -999.25 -999.25 -999.25  0.2096  351.50  54.075  0.5805  0.0774  0.4653 
   352.000 -999.25 -999.25 -999.25 -999.25 -999.25 -999.25 -999.25 -999.25  0.2100  352.00  54.600  0.5816  0.0789  0.4671 
   352.500 -999.25 -999.25 -999.25 -999.25 -999.25 -999.25 -999.25 -999.25  0.2104  352.50  55.125  0.5826  0.0804  0.4689 
   353.000 -999.25 -999.25 -999.25 -999.25 -999.25 -999.25 -999.25 -999.25  0.2108  353.00  55.650  0.5837  0.0820  0.4707 
   353.500 -999.25 -999.25 -999.25 -999.25 -999.25 -999.25 -999.25 -999.25  0.2113  353.50  56.175  0.5847  0.0835  0.4725 
   354.000 -999.25 -999.25 -999.25 -999.25 -999.25 -999.25 -999.25 -999.25  0.2117  354.00  56.700  0.5857  0.0850  0.4743 
   354.500 -999.25 -999.25 -999.25 -999.25 -999.25 -999.25 -999.25 -999.25  0.2121  354.50  57.225  0.5867  0.0866  0.4761 
   355.000 -999.25 -999.25 -999.25 -999.25 -999.25 -999.25 -999.25 -999.25  0.2125  355.00  57.750  0.5877  0.0882  0.4779 
   355.500 -999.25 -999.25 -999.25 -999.25 -999.25 -999.25 -999.25 -999.25  0.2129  355.50  58.275  0.5887  0.0897  0.4797 
   356.000 -999.25 -999.25 -999.25 -999.25 -999.25 -999.25 -999.25 -999.25  0.2133  356.00  58.800  0.5897  0.0913  0.4815 
   356.500 -999.25 -999.25 -999.25 -999.25 -999.25 -999.25 -999.25 -999.25  0.2138  356.50  59.325  0.5906  0.0929  0.4833 
   357.000 -999.25 -999.25 -999.25 -999.25 -999.25 -999.25 -999.25 -999.25  0.2142  357.00  59.850  0.5916  0.0945  0.4851 
   357.500 -999.25 -999.25 -999.25 -999.25 -999.25 -999.25 -999.25 -999.25  0.2146  357.50  60.375  0.5925  0.0962  0.4870 
   358.000 -999.25 -999.25 -999.25 -999.25 -999.25 -999.25 -999.25 -999.25  0.2150  358.00  60.900  0.5934  0.0978  0.4888 
   358.500 -999.25 -999.25 -999.25 -999.25 -999.25 -999.25 -999.25 -999.25  0.2154  358.50  61.425  0.5943  0.0995  0.4906 
   359.000 -999.25 -999.25 -999.25 -999.25 -999.25 -999.25 -999.25 -999.25  0.2158  359.00  61.950  0.5952  0.1011  0.4924 
   359.500 -999.25 -999.25 -999.25 -999.25 -999.25 -999.25 -999.25 -999.25  0.2163  359.50  62.475  0.5960  0.1028  0.4942 
   360.000 -999.25 -999.25 -999.25 -999.25 -999.25 -999.25 -999.25 -999.25  0.2167  360.00  63.000  0.5969  0.1045  0.4960 
   360.500 -999.25 -999.25 -999.25 -999.25 -999.25 -999.25 -999.25 -999.25  0.2171  360.50  63.525  0.5977  0.1062  0.4978 
   361.000 -999.25 -999.25 -999.25 -999.25 -999.25 -999.25 -999.25 -999.25  0.2175  361.00  64.050  0.5986  0.1079  0.4996 
   361.500 -999.25 -999.25 -999.25 -999.25 -999.25 -999.25 -999.25 -999.25  0.2179  361.50  64.575  0.5994  0.1096  0.5013 
   362.000 -999.25 -999.25 -999.25 -999.25 -999.25 -999.25 -999.25 -999.25  0.2183  362.00  65.100  0.6002  0.1113  0.5031 
   362.500 -999.25  0.0270 -999.25 -999.25 -999.25  0.0270 -999.25 -999.25  0.2188  362.50  65.625  0.6010  0.1131  0.5049 
   363.000 -999.25  0.0270 -999.25 -999.25 -999.25  0.0270 -999.25 -999.25  0.2192  363.00  66.150  0.6018  0.1148  0.5067 
   363.500 -999.25  0.0260 -999.25 -999.25 -999.25  0.0260 -999.25 -999.25  0.2196  363.50  66.675  0.6025  0.1166  0.5085 
   364.000 -999.25  0.1340 -999.25 -999.25 -999.25  0.1340 -999.25 -999.25  0.2200  364.00  67.200  0.6033  0.1184  0.5103 
   364.500 -999.25  0.3500 -999.25 -999.25 -999.25  0.3500 -999.25 -999.25  0.2204  364.50  67.725  0.6040  0.1201  0.5120 
   365.000 -999.25  0.6020 -999.25 -999.25 -999.25  0.6020 -999.25 -999.25  0.2208  365.00  68.250  0.6047  0.1219  0.5138 
   365.500 -999.25  0.8900 -999.25 -999.25 -999.25  0.8900 -999.25 -999.25  0.2213  365.50  68.775  0.6054  0.1237  0.5156 
   366.000 -999.25  1.3220 -999.25 -999.25 -999.25  1.3220 -999.25 -999.25  0.2217  366.00  69.300  0.6061  0.1255  0.5173 
   366.500 -0.5420  1.8620 -999.25 -999.25  15.458  1.8620 -999.25 -999.25  0.2221  366.50  69.825  0.6068  0.1274  0.5191 
   367.000 -5.4220  2.8350 -999.25 -999.25  10.578  2.8350 -999.25 -999.25  0.2225  367.00  70.350  0.6074  0.1292  0.5209 
   367.500 -8.8560  10.816 -999.25 -999.25  7.1440  10.816 -999.25 -999.25  0.2229  367.50  70.875  0.6080  0.1310  0.5226 
   368.000 -14.639  18.798 -999.25 -999.25  1.3610  18.798 -999.25 -999.25  0.2233  368.00  71.400  0.6087  0.1329  0.5243 
   368.500 -16.084  19.686 -999.25 -999.25 -0.0840  19.686 -999.25 -999.25  0.2238  368.50  71.925  0.6093  0.1347  0.5261 
   369.000 -18.615  21.665 -999.25 -999.25 -2.6150  21.665 -999.25 -999.25  0.2242  369.00  72.450  0.6099  0.1366  0.5278 
   369.500 -22.410  23.643 -999.25 -999.25 -6.4100  23.643 -999.25 -999.25  0.2246  369.50  72.975  0.6104  0.1385  0.5296 
   370.000 -26.386  21.477 -999.25 -999.25 -10.386  21.477 -999.25 -999.25  0.2250  370.00  73.500  0.6110  0.1403  0.5313 
   370.500 -28.193  20.100 -999.25 -999.25 -12.193  20.100 -999.25 -999.25  0.2254  370.50  74.025  0.6115  0.1422  0.5330 
   371.000 -29.458  18.724 -999.25 -999.25 -13.458  18.724 -999.25 -999.25  0.2258  371.00  74.550  0.6121  0.1441  0.5347 
   371.500 -30.362  17.894 -999.25 -999.25 -14.362  17.894 -999.25 -999.25  0.2263  371.50  75.075  0.6126  0.1460  0.5364 
   372.000 -30.723  15.912 -999.25 -999.25 -14.723  15.912 -999.25 -999.25  0.2267  372.00  75.600  0.6131  0.1480  0.5381 
   372.500 -29.819  13.389 -999.25 -999.25 -13.819  13.389 -999.25 -999.25  0.2271  372.50  76.125  0.6135  0.1499  0.5398 
   373.000 -28.916  12.848 -999.25 -999.25 -12.916  12.848 -999.25 -999.25  0.2275  373.00  76.650  0.6140  0.1518  0.5415 
   373.500 -27.470  12.848 -999.25 -999.25 -11.470  12.848 -999.25 -999.25  0.2279  373.50  77.175  0.6144  0.1538  0.5432 
   374.000 -26.928  13.100 -999.25 -999.25 -10.928  13.100 -999.25 -999.25  0.2283  374.00  77.700  0.6149  0.1557  0.5449 
   374.500 -26.928  13.424 -999.25 -999.25 -10.928  13.424 -999.25 -999.25  0.2288  374.50  78.225  0.6153  0.1577  0.5465 
   375.000 -27.651  13.712 -999.25 -999.25 -11.651  13.712 -999.25 -999.25  0.2292  375.00  78.750  0.6157  0.1596  0.5482 
   375.500 -28.735  14.324 -999.25 -999.25 -12.735  14.324 -999.25 -999.25  0.2296  375.50  79.275  0.6160  0.1616  0.5499 
   376.000 -29.638  14.828 -999.25 -999.25 -13.638  14.828 -999.25 -999.25  0.2300  376.00  79.800  0.6164  0.1636  0.5515 
   376.500 -30.542  15.981  0.0170 -999.25 -14.542  15.981  0.0170 -999.25  0.2304  376.50  80.325  0.6167  0.1655  0.5532 
   377.000 -32.169  16.773  0.4130 -999.25 -16.169  16.773  0.4130 -999.25  0.2308  377.00  80.850  0.6170  0.1675  0.5548 
   377.500 -33.434  17.530  0.8090 -999.25 -17.434  17.530  0.8090 -999.25  0.2313  377.50  81.375  0.6173  0.1695  0.5564 
   378.000 -34.970  18.394  1.2050 -999.25 -18.970  18.394  1.2050 -999.25  0.2317  378.00  81.900  0.6176  0.1715  0.5580 
   378.500 -36.506  19.615  4.5700 -999.25 -20.506  19.615  4.5700 -999.25  0.2321  378.50  82.425  0.6179  0.1735  0.5596 
   379.000 -38.494  21.052  7.9360 -999.25 -22.494  21.052  7.9360 -999.25  0.2325  379.00  82.950  0.6182  0.1756  0.5612 
   379.500 -39.398  22.490  11.301 -999.25 -23.398  22.490  11.301 -999.25  0.2329  379.50  83.475  0.6184  0.1776  0.5628 
   380.000 -39.759  22.847  14.667 -999.25 -23.759  22.847  14.667 -999.25  0.2333  380.00  84.000  0.6186  0.1796  0.5644 
   380.500 -39.579  23.564  18.032 -999.25 -23.579  23.564  18.032 -999.25  0.2338  380.50  84.525  0.6188  0.1816  0.5660 
   381.000 -39.217  23.200  18.356 -999.25 -23.217  23.200  18.356 -999.25  0.2342  381.00  85.050  0.6190  0.1837  0.5675 
   381.500 -38.855  22.836  18.716 -999.25 -22.855  22.836  18.716 -999.25  0.2346  381.50  85.575  0.6191  0.1857  0.5691 
   382.000 -37.952  22.472  19.112 -999.25 -21.952  22.472  19.112 -999.25  0.2350  382.00  86.100  0.6193  0.1878  0.5706 
