~Version Information
VERS.                     2.0: CWLS log ASCII Standard Version 2.00
WRAP.                      NO: One line per depth step
~Well Information Block
#MNEM.UNIT                               Data Type  Information
#---------                               ---------  -----------
STRT.FT                                   350.0000:
STOP.FT                                  6830.0000:
STEP.FT                                     0.5000:
NULL.                 -999.25                     :
COMP.                                             :COMPANY            
WELL.     SAN EMIDIO A #56-19                     :WELL               
FLD .                                             :FIELD              
CTRY.                                             :COUNTRY            
STAT.                                             :STATE              
LOC .                                             :LOCATION           
UWI .                                             :UNIQUE WELL ID     
SRVC.                                             :Service company    
DATE.                                             :LOG DATE           
~Curve Information
#MNEM.UNIT           API CODE  Curve Description
#---------           --------  -----------------
DEPT.FT                      :   1 DEPTH
SP  .MV                      :   2
AM16.OHMM                    :   3
AO10.OHMM                    :   4
AO19.OHMM                    :   5
SBL .MV                      :   6
RS  .OHMM                    :   7
RM  .OHMM                    :   8
RD  .OHMM                    :   9
DEVI.DEG                     :  10
TVD .FT                      :  11
AZIM.DEG                     :  12
NORT.FT                      :  13
EAST.FT                      :  14
OFFS.FT                      :  15
~A
# ...
  5062.500 -59.405  2.6980  1.7250  2.1010 -45.377  2.6980  1.7250  2.1010  0.4687  5061.7  115.50  48.819  51.552  70.973 
  5063.000 -57.599  2.5170  1.6520  2.0640 -43.571  2.5170  1.6520  2.0640  0.4691  5062.2  115.60  48.818  51.555  70.974 
  5063.500 -55.069  2.3720  1.6150  2.0640 -41.042  2.3720  1.6150  2.0640  0.4696  5062.7  115.70  48.816  51.559  70.976 
  5064.000 -49.464  2.0110  1.5790  1.9550 -35.437  2.0110  1.5790  1.9550  0.4700  5063.2  115.80  48.814  51.563  70.977 
  5064.500 -32.642  1.8300  1.4330  1.9180 -18.615  1.8300  1.4330  1.9180  0.4704  5063.7  115.90  48.812  51.566  70.978 
  5065.000 -25.047  1.7210  1.4140  1.6660 -11.020  1.7210  1.4140  1.6660  0.4708  5064.2  116.00  48.810  51.570  70.980 
  5065.500 -23.241  1.6120  1.3960  1.7370 -9.2146  1.6120  1.3960  1.7370  0.4712  5064.7  116.10  48.809  51.574  70.981 
  5066.000 -22.159  1.4670  1.3770  1.7720 -8.1329  1.4670  1.3770  1.7720  0.4716  5065.2  116.20  48.807  51.577  70.982 
  5066.500 -21.257  1.4300  1.3580  1.8080 -7.2311  1.4300  1.3580  1.8080  0.4721  5065.7  116.30  48.805  51.581  70.984 
  5067.000 -20.355  1.3930  1.3210  1.8070 -6.3293  1.3930  1.3210  1.8070  0.4725  5066.2  116.40  48.803  51.585  70.985 
  5067.500 -19.996  1.3920  1.3200  1.8250 -5.9706  1.3920  1.3200  1.8250  0.4729  5066.7  116.50  48.801  51.589  70.986 
  5068.000 -19.637  1.3910  1.3190  1.8420 -5.6118  1.3910  1.3190  1.8420  0.4733  5067.2  116.60  48.799  51.592  70.988 
  5068.500 -19.459  1.4260  1.3540  1.8050 -5.4341  1.4260  1.3540  1.8050  0.4737  5067.7  116.70  48.798  51.596  70.989 
  5069.000 -19.100  1.4610  1.3530  1.7690 -5.0753  1.4610  1.3530  1.7690  0.4741  5068.2  116.80  48.796  51.600  70.990 
  5069.500 -18.921  1.4600  1.3520  1.7680 -4.8966  1.4600  1.3520  1.7680  0.4746  5068.7  116.90  48.794  51.603  70.992 
  5070.000 -18.743  1.4950  1.3160  1.7670 -4.7188  1.4950  1.3160  1.7670  0.4750  5069.2  117.00  48.792  51.607  70.993 
  5070.500 -18.474  1.5310  1.3500  1.7670 -4.4501  1.5310  1.3500  1.7670  0.4754  5069.7  117.10  48.790  51.611  70.994 
  5071.000 -18.204  1.5480  1.3490  1.7840 -4.1803  1.5480  1.3490  1.7840  0.4758  5070.2  117.20  48.788  51.614  70.995 
  5071.500 -18.209  1.5650  1.3850  1.8020 -4.1855  1.5650  1.3850  1.8020  0.4762  5070.7  117.30  48.786  51.618  70.997 
  5072.000 -18.030  1.6000  1.3840  1.8370 -4.0068  1.6000  1.3840  1.8370  0.4766  5071.2  117.40  48.784  51.622  70.998 
  5072.500 -18.032  1.6350  1.3830  1.8540 -4.0090  1.6350  1.3830  1.8540  0.4771  5071.7  117.50  48.782  51.625  70.999 
  5073.000 -18.034  1.6710  1.4540  1.8720 -4.0113  1.6710  1.4540  1.8720  0.4775  5072.2  117.60  48.780  51.629  71.000 
  5073.500 -18.219  1.7060  1.4530  1.8710 -4.1965  1.7060  1.4530  1.8710  0.4779  5072.7  117.70  48.779  51.633  71.002 
  5074.000 -18.403  1.7040  1.4520  1.9060 -4.3808  1.7040  1.4520  1.9060  0.4783  5073.2  117.80  48.777  51.637  71.003 
  5074.500 -18.587  1.7040  1.4510  1.9420 -4.5650  1.7040  1.4510  1.9420  0.4787  5073.7  117.90  48.775  51.640  71.004 
  5075.000 -18.770  1.7030  1.4860  1.9410 -4.7483  1.7030  1.4860  1.9410  0.4791  5074.2  118.00  48.773  51.644  71.005 
  5075.500 -18.682  1.7020  1.4500  1.9590 -4.6605  1.7020  1.4500  1.9590  0.4796  5074.7  118.10  48.771  51.648  71.007 
  5076.000 -18.593  1.7010  1.4850  1.9760 -4.5717  1.7010  1.4850  1.9760  0.4800  5075.2  118.20  48.769  51.651  71.008 
  5076.500 -18.417  1.7000  1.4660  1.9750 -4.3960  1.7000  1.4660  1.9750  0.4804  5075.7  118.30  48.767  51.655  71.009 
  5077.000 -18.419  1.6810  1.4470  1.9930 -4.3982  1.6810  1.4470  1.9930  0.4808  5076.2  118.40  48.765  51.659  71.010 
  5077.500 -18.331  1.6620  1.4460  2.0100 -4.3105  1.6620  1.4460  2.0100  0.4812  5076.7  118.50  48.763  51.662  71.011 
  5078.000 -18.242  1.6250  1.4450  2.0100 -4.2217  1.6250  1.4450  2.0100  0.4816  5077.2  118.60  48.761  51.666  71.013 
  5078.500 -18.246  1.5880  1.4440  1.9730 -4.2260  1.5880  1.4440  1.9730  0.4821  5077.7  118.70  48.759  51.670  71.014 
  5079.000 -18.068  1.5870  1.4250  1.9360 -4.0482  1.5870  1.4250  1.9360  0.4825  5078.2  118.80  48.757  51.673  71.015 
  5079.500 -18.161  1.5860  1.4060  1.9000 -4.1415  1.5860  1.4060  1.9000  0.4829  5078.7  118.90  48.755  51.677  71.016 
  5080.000 -18.253  1.5680  1.3690  1.8630 -4.2337  1.5680  1.3690  1.8630  0.4833  5079.2  119.00  48.753  51.681  71.017 
  5080.500 -18.076  1.5490  1.3680  1.8620 -4.0569  1.5490  1.3680  1.8620  0.4837  5079.7  119.10  48.751  51.685  71.018 
  5081.000 -18.169  1.5660  1.3310  1.8620 -4.1502  1.5660  1.3310  1.8620  0.4841  5080.2  119.20  48.749  51.688  71.020 
  5081.500 -18.261  1.5830  1.3300  1.8610 -4.2424  1.5830  1.3300  1.8610  0.4845  5080.7  119.30  48.746  51.692  71.021 
  5082.000 -18.446  1.5820  1.3290  1.8610 -4.4277  1.5820  1.3290  1.8610  0.4850  5081.2  119.40  48.744  51.696  71.022 
  5082.500 -18.811  1.5990  1.4010  1.8600 -4.7929  1.5990  1.4010  1.8600  0.4854  5081.7  119.50  48.742  51.699  71.023 
  5083.000 -19.085  1.6160  1.4360  1.8230 -5.0672  1.6160  1.4360  1.8230  0.4858  5082.2  119.60  48.740  51.703  71.024 
  5083.500 -19.359  1.6510  1.4530  1.8410 -5.3414  1.6510  1.4530  1.8410  0.4862  5082.7  119.70  48.738  51.707  71.025 
  5084.000 -19.542  1.6500  1.4700  1.8580 -5.5247  1.6500  1.4700  1.8580  0.4866  5083.2  119.80  48.736  51.710  71.026 
  5084.500 -19.907  1.6500  1.4870  1.8390 -5.8899  1.6500  1.4870  1.8390  0.4870  5083.7  119.90  48.734  51.714  71.027 
  5085.000 -20.090  1.6670  1.5050  1.8210 -6.0731  1.6670  1.5050  1.8210  0.4875  5084.2  120.00  48.732  51.718  71.028 
  5085.500 -20.093  1.6840  1.5220  1.8380 -6.0764  1.6840  1.5220  1.8380  0.4879  5084.7  120.10  48.730  51.721  71.030 
  5086.000 -19.915  1.6830  1.5390  1.8560 -5.8986  1.6830  1.5390  1.8560  0.4883  5085.2  120.20  48.727  51.725  71.031 
  5086.500 -19.917  1.6820  1.5380  1.8370 -5.9009  1.6820  1.5380  1.8370  0.4887  5085.7  120.30  48.725  51.729  71.032 
  5087.000 -19.919  1.6810  1.5370  1.8180 -5.9031  1.6810  1.5370  1.8180  0.4891  5086.2  120.40  48.723  51.732  71.033 
  5087.500 -19.561  1.6800  1.5360  1.8360 -5.5454  1.6800  1.5360  1.8360  0.4895  5086.7  120.50  48.721  51.736  71.034 
  5088.000 -19.383  1.6790  1.5350  1.8530 -5.3676  1.6790  1.5350  1.8530  0.4900  5087.2  120.60  48.719  51.740  71.035 
  5088.500 -19.024  1.6780  1.5340  1.8520 -5.0089  1.6780  1.5340  1.8520  0.4904  5087.7  120.70  48.717  51.743  71.036 
  5089.000 -18.303  1.6770  1.5330  1.8520 -4.2881  1.6770  1.5330  1.8520  0.4908  5088.2  120.80  48.714  51.747  71.037 
  5089.500 -18.306  1.6760  1.5330  1.8510 -4.2913  1.6760  1.5330  1.8510  0.4912  5088.7  120.90  48.712  51.751  71.038 
  5090.000 -17.947  1.6760  1.5310  1.8500 -3.9326  1.6760  1.5310  1.8500  0.4916  5089.2  121.00  48.710  51.755  71.039 
  5090.500 -17.949  1.6750  1.5300  1.8140 -3.9348  1.6750  1.5300  1.8140  0.4920  5089.7  121.10  48.708  51.758  71.040 
  5091.000 -18.132  1.6740  1.5300  1.8130 -4.1181  1.6740  1.5300  1.8130  0.4925  5090.2  121.20  48.706  51.762  71.041 
  5091.500 -18.315  1.7090  1.5290  1.7760 -4.3013  1.7090  1.5290  1.7760  0.4929  5090.7  121.30  48.703  51.766  71.042 
  5092.000 -18.409  1.7440  1.5280  1.7760 -4.3956  1.7440  1.5280  1.7760  0.4933  5091.2  121.40  48.701  51.769  71.043 
  5092.500 -18.503  1.7790  1.5270  1.7570 -4.4898  1.7790  1.5270  1.7570  0.4937  5091.7  121.50  48.699  51.773  71.044 
  5093.000 -18.686  1.7780  1.5080  1.7390 -4.6731  1.7780  1.5080  1.7390  0.4941  5092.2  121.60  48.697  51.777  71.045 
  5093.500 -18.868  1.7770  1.4890  1.7380 -4.8553  1.7770  1.4890  1.7380  0.4945  5092.7  121.70  48.694  51.780  71.046 
  5094.000 -18.962  1.7760  1.4880  1.7370 -4.9495  1.7760  1.4880  1.7370  0.4950  5093.2  121.80  48.692  51.784  71.047 
  5094.500 -19.055  1.7940  1.4870  1.7370 -5.0428  1.7940  1.4870  1.7370  0.4954  5093.7  121.90  48.690  51.788  71.048 
