~Version Information
VERS.                     2.0: CWLS log ASCII Standard Version 2.00
WRAP.                      NO: One line per depth step
~Well Information Block
#MNEM.UNIT                               Data Type  Information
#---------                               ---------  -----------
STRT.FT                                   350.0000:
STOP.FT                                  6830.0000:
STEP.FT                                     0.5000:
NULL.                 -999.25                     :
COMP.                                             :COMPANY            
WELL.     SAN EMIDIO A #56-19                     :WELL               
FLD .                                             :FIELD              
CTRY.                                             :COUNTRY            
STAT.                                             :STATE              
LOC .                                             :LOCATION           
UWI .                                             :UNIQUE WELL ID     
SRVC.                                             :Service company    
DATE.                                             :LOG DATE           
~Curve Information
#MNEM.UNIT           API CODE  Curve Description
#---------           --------  -----------------
DEPT.FT                      :   1 DEPTH
SP  .MV                      :   2
AM16.OHMM                    :   3
AO10.OHMM                    :   4
AO19.OHMM                    :   5
SBL .MV                      :   6
RS  .OHMM                    :   7
RM  .OHMM                    :   8
RD  .OHMM                    :   9
DEVI.DEG                     :  10
TVD .FT                      :  11
AZIM.DEG                     :  12
NORT.FT                      :  13
EAST.FT                      :  14
OFFS.FT                      :  15
~A
# ...
  4217.500 -47.425  13.633  7.9440  11.292 -32.984  13.633  7.9440  11.292  0.5979  4216.7  102.92  48.292  46.637  67.124 
  4218.000 -47.787  13.632  7.8720  11.256 -33.347  13.632  7.8720  11.256  0.5983  4217.2  102.98  48.290  46.642  67.127 
  4218.500 -48.238  13.524  7.3670  10.536 -33.798  13.524  7.3670  10.536  0.5987  4217.7  103.03  48.289  46.647  67.130 
  4219.000 -48.690  13.416  6.7550  10.067 -34.250  13.416  6.7550  10.067  0.5991  4218.2  103.09  48.288  46.652  67.133 
  4219.500 -49.234  13.127  6.4670  9.5630 -34.794  13.127  6.4670  9.5630  0.5995  4218.7  103.14  48.287  46.657  67.135 
  4220.000 -48.332  11.219  6.2320  8.8780 -33.893  11.219  6.2320  8.8780  0.5999  4219.2  103.20  48.286  46.662  67.138 
  4220.500 -43.458  10.030  5.9980  8.7340 -29.019  10.030  5.9980  8.7340  0.6004  4219.7  103.25  48.284  46.667  67.141 
  4221.000 -40.390  8.8780  5.7460  8.3380 -25.951  8.8780  5.7460  8.3380  0.6008  4220.2  103.31  48.283  46.672  67.144 
  4221.500 -37.862  8.3010  5.4930  7.9770 -23.423  8.3010  5.4930  7.9770  0.6012  4220.7  103.36  48.282  46.677  67.146 
  4222.000 -34.072  7.7250  5.0610  7.6170 -19.633  7.7250  5.0610  7.6170  0.6016  4221.2  103.42  48.281  46.682  67.149 
  4222.500 -27.574  7.1120  4.8080  7.0760 -13.136  7.1120  4.8080  7.0760  0.6020  4221.7  103.47  48.280  46.688  67.152 
  4223.000 -22.339  6.5720  4.6640  6.5720 -7.9010  6.5720  4.6640  6.5720  0.6024  4222.2  103.53  48.278  46.693  67.155 
  4223.500 -21.076  6.3920  4.5560  5.8870 -6.6382  6.3920  4.5560  5.8870  0.6029  4222.7  103.58  48.277  46.698  67.157 
  4224.000 -20.355  6.2110  4.2670  5.6710 -5.9175  6.2110  4.2670  5.6710  0.6033  4223.2  103.64  48.276  46.703  67.160 
  4224.500 -20.175  6.2110  4.1950  5.7070 -5.7377  6.2110  4.1950  5.7070  0.6037  4223.7  103.69  48.275  46.708  67.163 
  4225.000 -20.357  6.4270  4.6260  5.8860 -5.9200  6.4270  4.6260  5.8860  0.6041  4224.2  103.75  48.273  46.713  67.166 
  4225.500 -20.357  6.6780  4.9860  6.0300 -5.9202  6.6780  4.9860  6.0300  0.6045  4224.7  103.80  48.272  46.718  67.168 
  4226.000 -20.719  6.8940  5.4900  6.3180 -6.2825  6.8940  5.4900  6.3180  0.6050  4225.2  103.86  48.271  46.723  67.171 
  4226.500 -21.080  7.1100  5.8490  6.4610 -6.6437  7.1100  5.8490  6.4610  0.6054  4225.7  103.91  48.270  46.729  67.174 
  4227.000 -22.527  7.5050  6.1010  6.7130 -8.0909  7.5050  6.1010  6.7130  0.6058  4226.2  103.97  48.268  46.734  67.177 
  4227.500 -23.972  8.2250  6.9290  7.0370 -9.5362  8.2250  6.9290  7.0370  0.6062  4226.7  104.02  48.267  46.739  67.179 
  4228.000 -25.597  9.0170  7.4320  7.2530 -11.161  9.0170  7.4320  7.2530  0.6066  4227.2  104.08  48.266  46.744  67.182 
  4228.500 -27.043  9.6280  8.5120  7.5040 -12.608  9.6280  8.5120  7.5040  0.6070  4227.7  104.13  48.264  46.749  67.185 
  4229.000 -29.752  9.8260  9.4120  7.8640 -15.317  9.8260  9.4120  7.8640  0.6075  4228.2  104.19  48.263  46.754  67.187 
  4229.500 -37.697  10.024  10.204  8.3320 -23.262  10.024  10.204  8.3320  0.6079  4228.7  104.24  48.262  46.759  67.190 
  4230.000 -40.767  10.564  10.707  8.6910 -26.332  10.564  10.707  8.6910  0.6083  4229.2  104.30  48.261  46.764  67.193 
  4230.500 -42.754  11.103  10.959  9.2310 -28.320  11.103  10.959  9.2310  0.6087  4229.7  104.35  48.259  46.770  67.196 
  4231.000 -45.643  12.039  11.211  9.9510 -31.209  12.039  11.211  9.9510  0.6091  4230.2  104.41  48.258  46.775  67.198 
  4231.500 -46.456  12.579  11.642  10.634 -32.022  12.579  11.642  10.634  0.6095  4230.7  104.46  48.257  46.780  67.201 
  4232.000 -47.269  13.910  11.822  10.886 -32.835  13.910  11.822  10.886  0.6100  4231.2  104.52  48.255  46.785  67.204 
  4232.500 -48.354  14.594  11.930  11.354 -33.921  14.594  11.930  11.354  0.6104  4231.7  104.57  48.254  46.790  67.206 
  4233.000 -48.896  15.026  12.038  11.533 -34.463  15.026  12.038  11.533  0.6108  4232.2  104.63  48.253  46.795  67.209 
  4233.500 -49.078  15.241  12.055  11.821 -34.645  15.241  12.055  11.821  0.6112  4232.7  104.68  48.251  46.801  67.212 
  4234.000 -48.988  15.241  12.073  12.145 -34.555  15.241  12.073  12.145  0.6116  4233.2  104.74  48.250  46.806  67.214 
  4234.500 -48.898  15.241  12.054  12.396 -34.466  15.241  12.054  12.396  0.6120  4233.7  104.79  48.248  46.811  67.217 
  4235.000 -48.358  15.114  12.036  12.684 -33.926  15.114  12.036  12.684  0.6125  4234.2  104.85  48.247  46.816  67.220 
  4235.500 -47.998  14.988  11.999  12.900 -33.566  14.988  11.999  12.900  0.6129  4234.7  104.90  48.246  46.821  67.222 
  4236.000 -46.735  14.339  11.927  13.259 -32.303  14.339  11.927  13.259  0.6133  4235.2  104.96  48.244  46.826  67.225 
  4236.500 -46.014  12.791  11.855  13.691 -31.583  12.791  11.855  13.691  0.6137  4235.7  105.01  48.243  46.832  67.228 
  4237.000 -44.751  12.359  11.674  13.655 -30.320  12.359  11.674  13.655  0.6141  4236.2  105.07  48.242  46.837  67.230 
  4237.500 -43.669  11.926  11.386  13.546 -29.238  11.926  11.386  13.546  0.6145  4236.7  105.12  48.240  46.842  67.233 
  4238.000 -42.587  10.774  11.062  13.222 -28.156  10.774  11.062  13.222  0.6150  4237.2  105.18  48.239  46.847  67.236 
  4238.500 -41.323  9.7650  10.485  12.717 -26.893  9.7650  10.485  12.717  0.6154  4237.7  105.23  48.237  46.852  67.238 
  4239.000 -40.060  9.3330  9.9810  12.141 -25.630  9.3330  9.9810  12.141  0.6158  4238.2  105.29  48.236  46.857  67.241 
  4239.500 -34.646  8.7200  9.5120  11.745 -20.216  8.7200  9.5120  11.745  0.6162  4238.7  105.34  48.234  46.863  67.244 
  4240.000 -31.397  8.0720  9.1520  11.132 -16.967  8.0720  9.1520  11.132  0.6166  4239.2  105.40  48.233  46.868  67.246 
  4240.500 -26.162  7.6040  8.4680  8.7560 -11.733  7.6040  8.4680  8.7560  0.6170  4239.7  105.45  48.232  46.873  67.249 
  4241.000 -22.191  6.5950  7.6390  7.8190 -7.7618  6.5950  7.6390  7.8190  0.6175  4240.2  105.51  48.230  46.878  67.252 
  4241.500 -20.567  5.9470  6.7750  7.2790 -6.1380  5.9470  6.7750  7.2790  0.6179  4240.7  105.56  48.229  46.883  67.254 
  4242.000 -19.755  5.5860  6.1980  6.7740 -5.3263  5.5860  6.1980  6.7740  0.6183  4241.2  105.62  48.227  46.889  67.257 
  4242.500 -18.942  5.3700  5.7300  6.0900 -4.5135  5.3700  5.7300  6.0900  0.6187  4241.7  105.67  48.226  46.894  67.260 
  4243.000 -17.861  5.3330  5.4770  5.6940 -3.4328  5.3330  5.4770  5.6940  0.6191  4242.2  105.73  48.224  46.899  67.262 
  4243.500 -17.501  5.2250  5.2610  5.1530 -3.0730  5.2250  5.2610  5.1530  0.6195  4242.7  105.78  48.223  46.904  67.265 
  4244.000 -17.503  5.1170  5.1890  4.6850 -3.0752  5.1170  5.1890  4.6850  0.6200  4243.2  105.84  48.221  46.909  67.268 
  4244.500 -17.593  5.0440  5.1520  4.6480 -3.1655  5.0440  5.1520  4.6480  0.6204  4243.7  105.89  48.220  46.915  67.270 
  4245.000 -17.684  5.0080  5.1520  4.6480 -3.2567  5.0080  5.1520  4.6480  0.6208  4244.2  105.95  48.218  46.920  67.273 
  4245.500 -17.867  4.9900  5.1520  4.6840 -3.4400  4.9900  5.1520  4.6840  0.6212  4244.7  106.00  48.217  46.925  67.276 
  4246.000 -18.047  4.9710  5.1870  4.7190 -3.6202  4.9710  5.1870  4.7190  0.6216  4245.2  106.06  48.215  46.930  67.278 
  4246.500 -18.228  5.0790  5.2230  4.7550 -3.8015  5.0790  5.2230  4.7550  0.6220  4245.7  106.11  48.214  46.935  67.281 
  4247.000 -18.591  5.1510  5.4390  4.7900 -4.1647  5.1510  5.4390  4.7900  0.6225  4246.2  106.17  48.212  46.941  67.283 
  4247.500 -19.134  5.2580  5.5100  4.8980 -4.7080  5.2580  5.5100  4.8980  0.6229  4246.7  106.22  48.211  46.946  67.286 
  4248.000 -19.135  5.4380  5.5820  4.9700 -4.7092  5.4380  5.5820  4.9700  0.6233  4247.2  106.28  48.209  46.951  67.289 
  4248.500 -19.858  5.5820  5.9420  5.1850 -5.4324  5.5820  5.9420  5.1850  0.6237  4247.7  106.33  48.208  46.956  67.291 
  4249.000 -20.219  5.9410  6.1570  5.5450 -5.7937  5.9410  6.1570  5.5450  0.6241  4248.2  106.39  48.206  46.962  67.294 
  4249.500 -20.581  6.1570  6.3370  5.9050 -6.1559  6.1570  6.3370  5.9050  0.6246  4248.7  106.44  48.205  46.967  67.296 
