~Version Information
VERS.                     2.0: CWLS log ASCII Standard Version 2.00
WRAP.                      NO: One line per depth step
~Well Information Block
#MNEM.UNIT                               Data Type  Information
#---------                               ---------  -----------
STRT.FT                                   350.0000:
STOP.FT                                  6830.0000:
STEP.FT                                     0.5000:
NULL.                 -999.25                     :
COMP.                                             :COMPANY            
WELL.     SAN EMIDIO A #56-19                     :WELL               
FLD .                                             :FIELD              
CTRY.                                             :COUNTRY            
STAT.                                             :STATE              
LOC .                                             :LOCATION           
UWI .                                             :UNIQUE WELL ID     
SRVC.                                             :Service company    
DATE.                                             :LOG DATE           
~Curve Information
#MNEM.UNIT           API CODE  Curve Description
#---------           --------  -----------------
DEPT.FT                      :   1 DEPTH
SP  .MV                      :   2
AM16.OHMM                    :   3
AO10.OHMM                    :   4
AO19.OHMM                    :   5
SBL .MV                      :   6
RS  .OHMM                    :   7
RM  .OHMM                    :   8
RD  .OHMM                    :   9
DEVI.DEG                     :  10
TVD .FT                      :  11
AZIM.DEG                     :  12
NORT.FT                      :  13
EAST.FT                      :  14
OFFS.FT                      :  15
~A
# ...
  2917.500 -24.172  5.8160  6.2470  7.8630 -9.0961  5.8160  6.2470  7.8630  1.8187  2916.9  38.050  33.310  32.883  46.806 
  2918.000 -26.516  6.0680  6.2840  8.0780 -11.440  6.0680  6.2840  8.0780  1.8183  2917.4  38.080  33.323  32.893  46.821 
  2918.500 -34.817  6.2850  6.3570  8.2940 -19.742  6.2850  6.3570  8.2940  1.8179  2917.9  38.110  33.335  32.902  46.837 
  2919.000 -39.688  7.2570  6.3930  8.5450 -24.613  7.2570  6.3930  8.5450  1.8175  2918.4  38.140  33.348  32.912  46.853 
  2919.500 -41.492  8.1940  6.5020  8.6880 -26.417  8.1940  6.5020  8.6880  1.8170  2918.9  38.170  33.360  32.922  46.869 
  2920.000 -44.016  8.9150  6.5740  8.8140 -28.941  8.9150  6.5740  8.8140  1.8166  2919.4  38.200  33.373  32.932  46.884 
  2920.500 -45.999  9.4190  6.7190  8.9390 -30.925  9.4190  6.7190  8.9390  1.8162  2919.9  38.230  33.385  32.942  46.900 
  2921.000 -48.342  10.032  6.8630  9.5860 -33.268  10.032  6.8630  9.5860  1.8158  2920.4  38.260  33.398  32.951  46.916 
  2921.500 -50.325  10.608  6.9720  9.8020 -35.251  10.608  6.9720  9.8020  1.8154  2920.9  38.290  33.410  32.961  46.932 
  2922.000 -51.947  11.149  7.0810  9.9450 -36.873  11.149  7.0810  9.9450  1.8150  2921.4  38.320  33.423  32.971  46.947 
  2922.500 -52.846  11.330  7.1530  10.053 -37.773  11.330  7.1530  10.053  1.8145  2921.9  38.350  33.435  32.981  46.963 
  2923.000 -51.760  11.546  7.2250  10.160 -36.687  11.546  7.2250  10.160  1.8141  2922.4  38.380  33.447  32.991  46.979 
  2923.500 -50.313  11.835  7.3700  10.303 -35.240  11.835  7.3700  10.303  1.8137  2922.9  38.410  33.460  33.001  46.995 
  2924.000 -49.768  12.303  7.4250  10.411 -34.695  12.303  7.4250  10.411  1.8133  2923.4  38.440  33.472  33.010  47.010 
  2924.500 -49.945  12.916  7.4790  10.518 -34.873  12.916  7.4790  10.518  1.8129  2923.9  38.470  33.485  33.020  47.026 
  2925.000 -50.664  13.240  7.5880  10.661 -35.592  13.240  7.5880  10.661  1.8125  2924.4  38.500  33.497  33.030  47.042 
  2925.500 -52.105  13.745  7.6600  10.697 -37.033  13.745  7.6600  10.697  1.8120  2924.9  38.530  33.509  33.040  47.057 
  2926.000 -53.727  14.178  7.6970  10.912 -38.655  14.178  7.6970  10.912  1.8116  2925.4  38.560  33.522  33.050  47.073 
  2926.500 -54.446  14.682  7.7330  11.020 -39.375  14.682  7.7330  11.020  1.8112  2925.9  38.590  33.534  33.060  47.089 
  2927.000 -55.166  15.475  7.8780  11.055 -40.095  15.475  7.8780  11.055  1.8108  2926.4  38.620  33.546  33.069  47.105 
  2927.500 -57.509  16.519  7.9150  11.162 -42.438  16.519  7.9150  11.162  1.8104  2926.9  38.650  33.559  33.079  47.120 
  2928.000 -58.589  17.204  8.0590  11.270 -43.518  17.204  8.0590  11.270  1.8100  2927.4  38.680  33.571  33.089  47.136 
  2928.500 -59.037  17.637  8.1680  11.521 -43.967  17.637  8.1680  11.521  1.8095  2927.9  38.710  33.583  33.099  47.152 
  2929.000 -59.485  18.393  8.8160  11.844 -44.415  18.393  8.8160  11.844  1.8091  2928.4  38.740  33.596  33.109  47.167 
  2929.500 -60.024  18.394  9.2850  12.132 -44.954  18.394  9.2850  12.132  1.8087  2928.9  38.770  33.608  33.119  47.183 
  2930.000 -60.201  19.186  9.8980  12.383 -45.131  19.186  9.8980  12.383  1.8083  2929.4  38.800  33.620  33.129  47.199 
  2930.500 -60.288  19.583  10.258  12.527 -45.218  19.583  10.258  12.527  1.8079  2929.9  38.830  33.633  33.139  47.214 
  2931.000 -60.375  19.979  10.583  12.346 -45.306  19.979  10.583  12.346  1.8075  2930.4  38.860  33.645  33.148  47.230 
  2931.500 -60.553  20.268  10.799  12.165 -45.484  20.268  10.799  12.165  1.8070  2930.9  38.890  33.657  33.158  47.246 
  2932.000 -60.730  20.269  11.160  12.345 -45.661  20.269  11.160  12.345  1.8066  2931.4  38.920  33.669  33.168  47.261 
  2932.500 -61.088  20.269  11.520  12.632 -46.019  20.269  11.520  12.632  1.8062  2931.9  38.950  33.682  33.178  47.277 
  2933.000 -61.176  20.198  11.701  12.955 -46.108  20.198  11.701  12.955  1.8058  2932.4  38.980  33.694  33.188  47.293 
  2933.500 -61.263  20.090  12.529  13.279 -46.195  20.090  12.529  13.279  1.8054  2932.9  39.010  33.706  33.198  47.308 
  2934.000 -61.801  19.767  13.862  13.566 -46.733  19.767  13.862  13.566  1.8050  2933.4  39.040  33.718  33.208  47.324 
  2934.500 -61.797  19.155  13.971  13.530 -46.729  19.155  13.971  13.530  1.8045  2933.9  39.070  33.731  33.218  47.340 
  2935.000 -61.885  18.760  13.971  13.403 -46.818  18.760  13.971  13.403  1.8041  2934.4  39.100  33.743  33.228  47.355 
  2935.500 -61.973  18.112  13.792  13.277 -46.906  18.112  13.792  13.277  1.8037  2934.9  39.130  33.755  33.238  47.371 
  2936.000 -61.247  17.861  13.612  12.196 -46.180  17.861  13.612  12.196  1.8033  2935.4  39.160  33.767  33.248  47.387 
  2936.500 -60.522  17.177  13.451  11.403 -45.455  17.177  13.451  11.403  1.8029  2935.9  39.190  33.779  33.258  47.402 
  2937.000 -59.254  16.854  13.289  10.502 -44.188  16.854  13.289  10.502  1.8025  2936.4  39.220  33.792  33.268  47.418 
  2937.500 -58.168  15.630  12.858  8.8810 -43.102  15.630  12.858  8.8810  1.8021  2936.9  39.250  33.804  33.277  47.434 
  2938.000 -57.894  15.199  12.643  8.4850 -42.828  15.199  12.643  8.4850  1.8016  2937.4  39.280  33.816  33.287  47.449 
  2938.500 -57.621  14.767  12.463  8.1960 -42.555  14.767  12.463  8.1960  1.8012  2937.9  39.310  33.828  33.297  47.465 
  2939.000 -56.714  14.336  12.391  8.0520 -41.649  14.336  12.391  8.0520  1.8008  2938.4  39.340  33.840  33.307  47.481 
  2939.500 -56.530  13.904  12.320  8.0150 -41.465  13.904  12.320  8.0150  1.8004  2938.9  39.370  33.852  33.317  47.496 
  2940.000 -55.625  13.473  12.212  7.9790 -40.560  13.473  12.212  7.9790  1.8000  2939.4  39.400  33.865  33.327  47.512 
  2940.500 -54.899  13.041  12.141  7.9060 -39.834  13.041  12.141  7.9060  1.7996  2939.9  39.430  33.877  33.337  47.527 
  2941.000 -53.993  12.574  12.106  7.8330 -38.929  12.574  12.106  7.8330  1.7991  2940.4  39.460  33.889  33.347  47.543 
  2941.500 -53.088  12.142  12.106  7.7610 -38.024  12.142  12.106  7.7610  1.7987  2940.9  39.490  33.901  33.357  47.559 
  2942.000 -51.460  11.747  11.999  7.6880 -36.396  11.747  11.999  7.6880  1.7983  2941.4  39.520  33.913  33.367  47.574 
  2942.500 -46.039  11.171  11.891  7.6150 -30.975  11.171  11.891  7.6150  1.7979  2941.9  39.550  33.925  33.377  47.590 
  2943.000 -44.592  10.668  11.712  7.4710 -29.529  10.668  11.712  7.4710  1.7975  2942.4  39.580  33.937  33.387  47.606 
  2943.500 -43.145  10.452  11.640  7.3620 -28.082  10.452  11.640  7.3620  1.7971  2942.9  39.610  33.949  33.397  47.621 
  2944.000 -41.697  9.8770  11.533  7.3070 -26.634  9.8770  11.533  7.3070  1.7966  2943.4  39.640  33.961  33.407  47.637 
  2944.500 -40.972  9.6250  11.605  7.2530 -25.909  9.6250  11.605  7.2530  1.7962  2943.9  39.670  33.973  33.417  47.652 
  2945.000 -40.608  9.3380  11.966  7.5400 -25.546  9.3380  11.966  7.5400  1.7958  2944.4  39.700  33.985  33.427  47.668 
  2945.500 -44.757  8.9780  12.399  7.7910 -29.695  8.9780  12.399  7.7910  1.7954  2944.9  39.730  33.998  33.437  47.684 
  2946.000 -47.642  8.6190  12.831  8.0430 -32.580  8.6190  12.831  8.0430  1.7950  2945.4  39.760  34.010  33.447  47.699 
  2946.500 -48.361  8.0790  13.120  8.4020 -33.299  8.0790  13.120  8.4020  1.7946  2945.9  39.790  34.022  33.457  47.715 
  2947.000 -47.636  7.7920  13.156  8.5640 -32.575  7.7920  13.156  8.5640  1.7941  2946.4  39.820  34.034  33.467  47.730 
  2947.500 -47.091  7.6120  13.049  8.7970 -32.030  7.6120  13.049  8.7970  1.7937  2946.9  39.850  34.046  33.477  47.746 
  2948.000 -39.144  6.9650  12.869  8.6340 -24.083  6.9650  12.869  8.6340  1.7933  2947.4  39.880  34.058  33.487  47.761 
  2948.500 -34.447  6.1370  12.510  8.4720 -19.386  6.1370  12.510  8.4720  1.7929  2947.9  39.910  34.070  33.497  47.777 
  2949.000 -33.180  5.5260  12.222  8.3090 -18.120  5.5260  12.222  8.3090  1.7925  2948.4  39.940  34.082  33.507  47.793 
  2949.500 -29.206  5.1300  11.251  8.1470 -14.146  5.1300  11.251  8.1470  1.7921  2948.9  39.970  34.094  33.517  47.808 
