~Version Information
VERS.                     2.0: CWLS log ASCII Standard Version 2.00
WRAP.                      NO: One line per depth step
~Well Information Block
#MNEM.UNIT                               Data Type  Information
#---------                               ---------  -----------
STRT.FT                                   350.0000:
STOP.FT                                  6830.0000:
STEP.FT                                     0.5000:
NULL.                 -999.25                     :
COMP.                                             :COMPANY            
WELL.     SAN EMIDIO A #56-19                     :WELL               
FLD .                                             :FIELD              
CTRY.                                             :COUNTRY            
STAT.                                             :STATE              
LOC .                                             :LOCATION           
UWI .                                             :UNIQUE WELL ID     
SRVC.                                             :Service company    
DATE.                                             :LOG DATE           
~Curve Information
#MNEM.UNIT           API CODE  Curve Description
#---------           --------  -----------------
DEPT.FT                      :   1 DEPTH
SP  .MV                      :   2
AM16.OHMM                    :   3
AO10.OHMM                    :   4
AO19.OHMM                    :   5
SBL .MV                      :   6
RS  .OHMM                    :   7
RM  .OHMM                    :   8
RD  .OHMM                    :   9
DEVI.DEG                     :  10
TVD .FT                      :  11
AZIM.DEG                     :  12
NORT.FT                      :  13
EAST.FT                      :  14
OFFS.FT                      :  15
~A
# ...
  6362.500 -17.342  2.2060  2.8010  2.6880 -3.3420  2.2060  2.8010  2.6880  1.4785  6361.2  167.13  15.233  54.519  49.322 
  6363.000 -17.341  2.2070  2.7830  2.6880 -3.3410  2.2070  2.7830  2.6880  1.4812  6361.7  167.24  15.221  54.522  49.315 
  6363.500 -17.429  2.2070  2.7470  2.6520 -3.4290  2.2070  2.7470  2.6520  1.4839  6362.2  167.35  15.208  54.524  49.308 
  6364.000 -17.518  2.2070  2.7300  2.6170 -3.5180  2.2070  2.7300  2.6170  1.4865  6362.7  167.46  15.195  54.527  49.301 
  6364.500 -17.695  2.2080  2.7120  2.5810 -3.6950  2.2080  2.7120  2.5810  1.4892  6363.2  167.56  15.183  54.530  49.294 
  6365.000 -17.693  2.2080  2.6940  2.5810 -3.6930  2.2080  2.6940  2.5810  1.4919  6363.7  167.67  15.170  54.533  49.287 
  6365.500 -17.782  2.2450  2.6770  2.6170 -3.7820  2.2450  2.6770  2.6170  1.4946  6364.2  167.78  15.157  54.536  49.280 
  6366.000 -17.871  2.2450  2.6050  2.6170 -3.8710  2.2450  2.6050  2.6170  1.4973  6364.7  167.89  15.145  54.538  49.273 
  6366.500 -17.869  2.2810  2.6050  2.6170 -3.8690  2.2810  2.6050  2.6170  1.5000  6365.2  167.99  15.132  54.541  49.266 
  6367.000 -17.867  2.2820  2.6060  2.6540 -3.8670  2.2820  2.6060  2.6540  1.5027  6365.7  168.10  15.119  54.544  49.259 
  6367.500 -17.865  2.2820  2.6060  2.6540 -3.8650  2.2820  2.6060  2.6540  1.5054  6366.2  168.21  15.106  54.547  49.252 
  6368.000 -17.863  2.2820  2.5700  2.6720 -3.8630  2.2820  2.5700  2.6720  1.5080  6366.7  168.32  15.093  54.549  49.245 
  6368.500 -17.861  2.3010  2.5710  2.6900 -3.8610  2.3010  2.5710  2.6900  1.5107  6367.2  168.43  15.080  54.552  49.237 
  6369.000 -17.859  2.3190  2.5710  2.7260 -3.8590  2.3190  2.5710  2.7260  1.5134  6367.7  168.53  15.067  54.554  49.230 
  6369.500 -17.857  2.3190  2.6080  2.7620 -3.8570  2.3190  2.6080  2.7620  1.5161  6368.2  168.64  15.054  54.557  49.223 
  6370.000 -17.855  2.3380  2.6080  2.7990 -3.8550  2.3380  2.6080  2.7990  1.5188  6368.7  168.75  15.041  54.560  49.215 
  6370.500 -17.763  2.3560  2.6080  2.7810 -3.7630  2.3560  2.6080  2.7810  1.5215  6369.2  168.86  15.028  54.562  49.208 
  6371.000 -17.672  2.3570  2.6090  2.7630 -3.6720  2.3570  2.6090  2.7630  1.5242  6369.7  168.96  15.015  54.565  49.201 
  6371.500 -17.760  2.3570  2.6270  2.7450 -3.7600  2.3570  2.6270  2.7450  1.5269  6370.2  169.07  15.002  54.567  49.193 
  6372.000 -17.848  2.3570  2.6450  2.7270 -3.8480  2.3570  2.6450  2.7270  1.5296  6370.7  169.18  14.989  54.570  49.186 
  6372.500 -17.846  2.3570  2.6460  2.6920 -3.8460  2.3570  2.6460  2.6920  1.5322  6371.2  169.29  14.976  54.572  49.178 
  6373.000 -17.845  2.3580  2.6460  2.6920 -3.8450  2.3580  2.6460  2.6920  1.5349  6371.7  169.39  14.963  54.575  49.170 
  6373.500 -17.843  2.3580  2.6460  2.6920 -3.8430  2.3580  2.6460  2.6920  1.5376  6372.2  169.50  14.950  54.577  49.163 
  6374.000 -17.842  2.3590  2.6110  2.6560 -3.8420  2.3590  2.6110  2.6560  1.5403  6372.7  169.61  14.936  54.580  49.155 
  6374.500 -18.019  2.3770  2.6110  2.6200 -4.0190  2.3770  2.6110  2.6200  1.5430  6373.2  169.72  14.923  54.582  49.148 
  6375.000 -18.017  2.3950  2.6120  2.6210 -4.0170  2.3950  2.6120  2.6210  1.5457  6373.7  169.82  14.910  54.584  49.140 
  6375.500 -18.016  2.3960  2.5760  2.5850 -4.0160  2.3960  2.5760  2.5850  1.5484  6374.2  169.93  14.897  54.587  49.132 
  6376.000 -18.014  2.3960  2.5400  2.5850 -4.0140  2.3960  2.5400  2.5850  1.5511  6374.7  170.04  14.883  54.589  49.124 
  6376.500 -18.013  2.3970  2.5050  2.5850 -4.0130  2.3970  2.5050  2.5850  1.5537  6375.2  170.15  14.870  54.591  49.117 
  6377.000 -18.010  2.3970  2.5050  2.5850 -4.0100  2.3970  2.5050  2.5850  1.5564  6375.7  170.25  14.856  54.594  49.109 
  6377.500 -17.919  2.3970  2.5050  2.5850 -3.9190  2.3970  2.5050  2.5850  1.5591  6376.2  170.36  14.843  54.596  49.101 
  6378.000 -17.827  2.3970  2.5060  2.5860 -3.8270  2.3970  2.5060  2.5860  1.5618  6376.7  170.47  14.830  54.598  49.093 
  6378.500 -17.644  2.3980  2.5060  2.5860 -3.6440  2.3980  2.5060  2.5860  1.5645  6377.2  170.58  14.816  54.600  49.085 
  6379.000 -17.463  2.3980  2.5060  2.6220 -3.4630  2.3980  2.5060  2.6220  1.5672  6377.7  170.68  14.803  54.603  49.077 
  6379.500 -17.282  2.3980  2.5070  2.6220 -3.2820  2.3980  2.5070  2.6220  1.5699  6378.2  170.79  14.789  54.605  49.069 
  6380.000 -17.009  2.3990  2.5070  2.5860 -3.0090  2.3990  2.5070  2.5860  1.5726  6378.7  170.90  14.776  54.607  49.061 
  6380.500 -16.736  2.3990  2.5070  2.5860 -2.7360  2.3990  2.5070  2.5860  1.5753  6379.2  171.01  14.762  54.609  49.053 
  6381.000 -16.644  2.4000  2.5080  2.5870 -2.6440  2.4000  2.5080  2.5870  1.5779  6379.7  171.11  14.748  54.611  49.045 
  6381.500 -16.553  2.4000  2.5080  2.5690 -2.5530  2.4000  2.5080  2.5690  1.5806  6380.2  171.22  14.735  54.613  49.037 
  6382.000 -16.371  2.4000  2.5080  2.5510 -2.3710  2.4000  2.5080  2.5510  1.5833  6380.7  171.33  14.721  54.616  49.028 
  6382.500 -16.369  2.4010  2.5090  2.5510 -2.3690  2.4010  2.5090  2.5510  1.5860  6381.2  171.44  14.707  54.618  49.020 
  6383.000 -16.368  2.4370  2.5090  2.5510 -2.3680  2.4370  2.5090  2.5510  1.5887  6381.7  171.54  14.694  54.620  49.012 
  6383.500 -16.366  2.4550  2.5280  2.5520 -2.3660  2.4550  2.5280  2.5520  1.5914  6382.2  171.65  14.680  54.622  49.004 
  6384.000 -16.364  2.4740  2.5460  2.5160 -2.3640  2.4740  2.5460  2.5160  1.5941  6382.7  171.76  14.666  54.624  48.995 
  6384.500 -16.453  2.5280  2.5640  2.4800 -2.4530  2.5280  2.5640  2.4800  1.5968  6383.2  171.87  14.652  54.626  48.987 
  6385.000 -16.541  2.3660  2.5830  2.4620 -2.5410  2.3660  2.5830  2.4620  1.5994  6383.7  171.97  14.639  54.628  48.979 
  6385.500 -16.538  2.5110  2.6190  2.4440 -2.5380  2.5110  2.6190  2.4440  1.6021  6384.2  172.08  14.625  54.629  48.970 
  6386.000 -16.717  2.5830  2.6550  2.4620 -2.7170  2.5830  2.6550  2.4620  1.6048  6384.7  172.19  14.611  54.631  48.962 
  6386.500 -16.896  2.7100  2.6920  2.4800 -2.8960  2.7100  2.6920  2.4800  1.6075  6385.2  172.30  14.597  54.633  48.953 
  6387.000 -17.073  2.8360  2.7640  2.5890 -3.0730  2.8360  2.7640  2.5890  1.6102  6385.7  172.40  14.583  54.635  48.945 
  6387.500 -17.072  2.9450  2.8370  2.6610 -3.0720  2.9450  2.8370  2.6610  1.6129  6386.2  172.51  14.569  54.637  48.936 
  6388.000 -17.071  2.9990  2.9450  2.7330 -3.0710  2.9990  2.9450  2.7330  1.6156  6386.7  172.62  14.555  54.639  48.927 
  6388.500 -17.428  3.0530  3.0900  2.8780 -3.4280  3.0530  3.0900  2.8780  1.6183  6387.2  172.73  14.541  54.641  48.919 
  6389.000 -17.607  3.0720  3.3780  2.9680 -3.6070  3.0720  3.3780  2.9680  1.6210  6387.7  172.83  14.527  54.642  48.910 
  6389.500 -17.965  3.0900  3.5950  3.0580 -3.9650  3.0900  3.5950  3.0580  1.6236  6388.2  172.94  14.513  54.644  48.901 
  6390.000 -18.324  3.0190  3.6670  3.3100 -4.3240  3.0190  3.6670  3.3100  1.6263  6388.7  173.05  14.499  54.646  48.893 
  6390.500 -19.043  2.9470  3.6670  3.7790 -5.0430  2.9470  3.6670  3.7790  1.6290  6389.2  173.16  14.485  54.647  48.884 
  6391.000 -19.221  3.0190  3.5960  3.9590 -5.2210  3.0190  3.5960  3.9590  1.6317  6389.7  173.26  14.471  54.649  48.875 
  6391.500 -19.400  3.0560  3.2720  3.8510 -5.4000  3.0560  3.2720  3.8510  1.6344  6390.2  173.37  14.457  54.651  48.866 
  6392.000 -18.858  3.0560  2.8400  3.5990 -4.8580  3.0560  2.8400  3.5990  1.6371  6390.7  173.48  14.442  54.652  48.857 
  6392.500 -18.316  3.0560  2.3720  3.2390 -4.3160  3.0560  2.3720  3.2390  1.6398  6391.2  173.59  14.428  54.654  48.848 
  6393.000 -17.592  2.9850  2.3180  3.0950 -3.5920  2.9850  2.3180  3.0950  1.6425  6391.7  173.69  14.414  54.656  48.839 
  6393.500 -17.050  2.9490  2.2640  2.9510 -3.0500  2.9490  2.2640  2.9510  1.6451  6392.2  173.80  14.400  54.657  48.830 
  6394.000 -17.229  2.8950  2.2110  2.5550 -3.2290  2.8950  2.2110  2.5550  1.6478  6392.7  173.91  14.385  54.659  48.821 
  6394.500 -17.408  2.8420  2.1570  2.3390 -3.4080  2.8420  2.1570  2.3390  1.6505  6393.2  174.02  14.371  54.660  48.812 
