~Version Information
VERS.                     2.0: CWLS log ASCII Standard Version 2.00
WRAP.                      NO: One line per depth step
~Well Information Block
#MNEM.UNIT                               Data Type  Information
#---------                               ---------  -----------
STRT.FT                                   350.0000:
STOP.FT                                  6830.0000:
STEP.FT                                     0.5000:
NULL.                 -999.25                     :
COMP.                                             :COMPANY            
WELL.     SAN EMIDIO A #56-19                     :WELL               
FLD .                                             :FIELD              
CTRY.                                             :COUNTRY            
STAT.                                             :STATE              
LOC .                                             :LOCATION           
UWI .                                             :UNIQUE WELL ID     
SRVC.                                             :Service company    
DATE.                                             :LOG DATE           
~Curve Information
#MNEM.UNIT           API CODE  Curve Description
#---------           --------  -----------------
DEPT.FT                      :   1 DEPTH
SP  .MV                      :   2
AM16.OHMM                    :   3
AO10.OHMM                    :   4
AO19.OHMM                    :   5
SBL .MV                      :   6
RS  .OHMM                    :   7
RM  .OHMM                    :   8
RD  .OHMM                    :   9
DEVI.DEG                     :  10
TVD .FT                      :  11
AZIM.DEG                     :  12
NORT.FT                      :  13
EAST.FT                      :  14
OFFS.FT                      :  15
~A
# ...
  4640.000 -40.677  6.0270  4.5350  5.3000 -26.443  6.0270  4.5350  5.3000  0.3167  4639.2  62.998  48.440  49.987  69.599 
  4640.500 -36.887  5.8100  4.4820  5.2630 -22.653  5.8100  4.4820  5.2630  0.3154  4639.7  63.223  48.441  49.990  69.601 
  4641.000 -33.819  5.5940  4.4280  5.1910 -19.585  5.5940  4.4280  5.1910  0.3142  4640.2  63.448  48.443  49.992  69.604 
  4641.500 -30.210  5.0170  4.3750  5.1190 -15.976  5.0170  4.3750  5.1190  0.3129  4640.7  63.673  48.444  49.995  69.606 
  4642.000 -27.504  4.7640  4.3220  4.9380 -13.271  4.7640  4.3220  4.9380  0.3117  4641.2  63.898  48.445  49.997  69.609 
  4642.500 -23.173  4.3310  4.2690  4.7940 -8.9399  4.3310  4.2690  4.7940  0.3104  4641.7  64.123  48.446  49.999  69.612 
  4643.000 -20.828  4.0780  4.2160  4.7570 -6.5952  4.0780  4.2160  4.7570  0.3092  4642.2  64.348  48.447  50.002  69.614 
  4643.500 -17.580  3.9700  4.1630  4.7570 -3.3474  3.9700  4.1630  4.7570  0.3079  4642.7  64.573  48.449  50.004  69.617 
  4644.000 -16.137  3.8250  4.1100  4.7570 -1.9047  3.8250  4.1100  4.7570  0.3067  4643.2  64.798  48.450  50.007  69.619 
  4644.500 -15.778  3.6440  4.0570  4.7560 -1.5459  3.6440  4.0570  4.7560  0.3054  4643.7  65.023  48.451  50.009  69.622 
  4645.000 -15.780  3.6070  4.0040  4.7560 -1.5482  3.6070  4.0040  4.7560  0.3042  4644.2  65.248  48.452  50.012  69.624 
  4645.500 -15.782  3.5710  3.9670  4.7920 -1.5504  3.5710  3.9670  4.7920  0.3029  4644.7  65.473  48.453  50.014  69.627 
  4646.000 -16.145  3.5700  3.9300  4.8630 -1.9137  3.5700  3.9300  4.8630  0.3017  4645.2  65.698  48.454  50.016  69.629 
  4646.500 -16.507  3.5690  3.8930  4.8630 -2.2759  3.5690  3.8930  4.8630  0.3004  4645.7  65.923  48.455  50.019  69.632 
  4647.000 -16.870  3.5690  3.8930  4.8620 -2.6391  3.5690  3.8930  4.8620  0.2992  4646.2  66.148  48.456  50.021  69.634 
  4647.500 -17.414  3.6760  3.8920  4.8620 -3.1834  3.6760  3.8920  4.8620  0.2979  4646.7  66.373  48.457  50.024  69.636 
  4648.000 -17.596  3.7110  3.8910  4.8260 -3.3656  3.7110  3.8910  4.8260  0.2967  4647.2  66.598  48.458  50.026  69.639 
  4648.500 -17.598  3.8180  3.8540  4.7890 -3.3679  3.8180  3.8540  4.7890  0.2954  4647.7  66.823  48.459  50.028  69.641 
  4649.000 -17.600  3.8900  3.8540  4.7530 -3.3701  3.8900  3.8540  4.7530  0.2942  4648.2  67.048  48.460  50.031  69.644 
  4649.500 -17.060  3.9970  3.8170  4.7350 -2.8304  3.9970  3.8170  4.7350  0.2929  4648.7  67.273  48.461  50.033  69.646 
  4650.000 -16.881  4.0680  3.8160  4.7170 -2.6516  4.0680  3.8160  4.7170  0.2917  4649.2  67.498  48.462  50.035  69.648 
  4650.500 -17.424  4.1400  3.8160  4.7880 -3.1949  4.1400  3.8160  4.7880  0.2904  4649.7  67.723  48.463  50.038  69.651 
  4651.000 -17.696  4.2110  3.8150  4.8960 -3.4671  4.2110  3.8150  4.8960  0.2892  4650.2  67.948  48.464  50.040  69.653 
  4651.500 -17.969  4.2460  3.8500  4.9490 -3.7403  4.2460  3.8500  4.9490  0.2879  4650.7  68.173  48.465  50.042  69.655 
  4652.000 -18.152  4.2810  3.8850  5.0030 -3.9236  4.2810  3.8850  5.0030  0.2867  4651.2  68.398  48.466  50.045  69.658 
  4652.500 -17.612  4.2810  3.9210  4.9670 -3.3838  4.2810  3.9210  4.9670  0.2854  4651.7  68.623  48.467  50.047  69.660 
  4653.000 -16.892  4.2260  3.9560  4.9660 -2.6641  4.2260  3.9560  4.9660  0.2842  4652.2  68.848  48.468  50.049  69.662 
  4653.500 -16.532  4.1710  3.9910  4.9660 -2.3043  4.1710  3.9910  4.9660  0.2829  4652.7  69.073  48.469  50.052  69.664 
  4654.000 -16.353  3.9910  3.9910  4.9290 -2.1256  3.9910  3.9910  4.9290  0.2817  4653.2  69.298  48.470  50.054  69.667 
  4654.500 -16.174  3.9180  3.9720  4.9290 -1.9468  3.9180  3.9720  4.9290  0.2804  4653.7  69.523  48.470  50.056  69.669 
  4655.000 -16.357  3.8810  3.9530  4.9290 -2.1301  3.8810  3.9530  4.9290  0.2792  4654.2  69.748  48.471  50.058  69.671 
  4655.500 -16.720  3.9160  3.9160  4.9290 -2.4933  3.9160  3.9160  4.9290  0.2779  4654.7  69.973  48.472  50.061  69.673 
  4656.000 -17.082  4.0240  3.8800  4.8920 -2.8555  4.0240  3.8800  4.8920  0.2767  4655.2  70.198  48.473  50.063  69.675 
  4656.500 -17.808  4.1130  3.8070  4.8920 -3.5818  4.1130  3.8070  4.8920  0.2754  4655.7  70.423  48.474  50.065  69.678 
  4657.000 -18.351  4.2020  3.7700  4.8550 -4.1250  4.2020  3.7700  4.8550  0.2742  4656.2  70.648  48.475  50.068  69.680 
  4657.500 -18.534  4.3460  3.7340  4.8550 -4.3083  4.3460  3.7340  4.8550  0.2729  4656.7  70.873  48.475  50.070  69.682 
  4658.000 -19.438  4.5610  3.6970  4.7470 -5.2125  4.5610  3.6970  4.7470  0.2717  4657.2  71.098  48.476  50.072  69.684 
  4658.500 -19.620  4.8480  3.6600  4.7100 -5.3948  4.8480  3.6600  4.7100  0.2704  4657.7  71.323  48.477  50.074  69.686 
  4659.000 -20.705  5.2430  3.6240  4.6020 -6.4800  5.2430  3.6240  4.6020  0.2692  4658.2  71.548  48.478  50.077  69.688 
  4659.500 -21.971  5.3870  3.6230  4.7820 -7.7463  5.3870  3.6230  4.7820  0.2679  4658.7  71.773  48.478  50.079  69.690 
  4660.000 -23.959  5.6740  3.6940  4.9610 -9.7345  5.6740  3.6940  4.9610  0.2667  4659.2  71.998  48.479  50.081  69.692 
  4660.500 -26.488  6.2850  3.7470  5.0690 -12.264  6.2850  3.7470  5.0690  0.2654  4659.7  72.223  48.480  50.083  69.694 
  4661.000 -31.906  6.5370  3.8010  5.1400 -17.682  6.5370  3.8010  5.1400  0.2642  4660.2  72.448  48.480  50.085  69.697 
  4661.500 -36.060  6.7520  3.9440  5.1400 -21.836  6.7520  3.9440  5.1400  0.2629  4660.7  72.673  48.481  50.088  69.699 
  4662.000 -37.867  7.0030  4.0870  5.1400 -23.643  7.0030  4.0870  5.1400  0.2617  4661.2  72.898  48.482  50.090  69.701 
  4662.500 -39.313  7.2190  4.0860  5.0310 -25.090  7.2190  4.0860  5.0310  0.2604  4661.7  73.123  48.482  50.092  69.703 
  4663.000 -41.482  7.2180  4.0860  4.9590 -27.259  7.2180  4.0860  4.9590  0.2592  4662.2  73.348  48.483  50.094  69.705 
  4663.500 -43.470  7.2170  4.0310  4.8510 -29.247  7.2170  4.0310  4.8510  0.2579  4662.7  73.573  48.484  50.096  69.707 
  4664.000 -44.194  7.2160  3.9760  4.7780 -29.971  7.2160  3.9760  4.7780  0.2567  4663.2  73.798  48.484  50.098  69.709 
  4664.500 -45.279  7.2340  3.9030  4.7420 -31.057  7.2340  3.9030  4.7420  0.2554  4663.7  74.023  48.485  50.101  69.710 
  4665.000 -46.454  7.2510  3.8310  4.7060 -32.232  7.2510  3.8310  4.7060  0.2542  4664.2  74.248  48.486  50.103  69.712 
  4665.500 -47.628  7.3220  3.8300  4.6690 -33.406  7.3220  3.8300  4.6690  0.2529  4664.7  74.473  48.486  50.105  69.714 
  4666.000 -49.978  7.5020  3.8290  4.6690 -35.756  7.5020  3.8290  4.6690  0.2517  4665.2  74.698  48.487  50.107  69.716 
  4666.500 -51.244  7.5370  3.8640  4.6690 -37.023  7.5370  3.8640  4.6690  0.2504  4665.7  74.923  48.487  50.109  69.718 
  4667.000 -52.329  7.5720  3.9000  4.6680 -38.108  7.5720  3.9000  4.6680  0.2492  4666.2  75.148  48.488  50.111  69.720 
  4667.500 -52.872  7.5360  3.8990  4.7040 -38.651  7.5360  3.8990  4.7040  0.2479  4666.7  75.373  48.488  50.113  69.722 
  4668.000 -51.249  7.4990  3.8980  4.7400 -37.028  7.4990  3.8980  4.7400  0.2467  4667.2  75.598  48.489  50.115  69.724 
  4668.500 -49.987  7.2100  3.8620  4.6670 -35.767  7.2100  3.8620  4.6670  0.2454  4667.7  75.823  48.489  50.117  69.726 
  4669.000 -48.364  7.0290  3.8250  4.6310 -34.144  7.0290  3.8250  4.6310  0.2442  4668.2  76.048  48.490  50.119  69.727 
  4669.500 -42.950  6.6330  3.8060  4.5580 -28.730  6.6330  3.8060  4.5580  0.2429  4668.7  76.273  48.490  50.121  69.729 
  4670.000 -40.244  6.3080  3.7880  4.4860 -26.024  6.3080  3.7880  4.4860  0.2417  4669.2  76.498  48.491  50.124  69.731 
  4670.500 -37.898  6.0190  3.7150  4.4500 -23.679  6.0190  3.7150  4.4500  0.2404  4669.7  76.723  48.491  50.126  69.733 
  4671.000 -37.178  5.9100  3.7140  4.3410 -22.959  5.9100  3.7140  4.3410  0.2392  4670.2  76.948  48.492  50.128  69.735 
  4671.500 -38.444  5.8740  3.7130  4.3050 -24.225  5.8740  3.7130  4.3050  0.2379  4670.7  77.173  48.492  50.130  69.736 
  4672.000 -40.251  5.9450  3.7850  4.2690 -26.032  5.9450  3.7850  4.2690  0.2367  4671.2  77.398  48.493  50.132  69.738 
