~Version Information
VERS.                     2.0: CWLS log ASCII Standard Version 2.00
WRAP.                      NO: One line per depth step
~Well Information Block
#MNEM.UNIT                               Data Type  Information
#---------                               ---------  -----------
STRT.FT                                   350.0000:
STOP.FT                                  6830.0000:
STEP.FT                                     0.5000:
NULL.                 -999.25                     :
COMP.                                             :COMPANY            
WELL.     SAN EMIDIO A #56-19                     :WELL               
FLD .                                             :FIELD              
CTRY.                                             :COUNTRY            
STAT.                                             :STATE              
LOC .                                             :LOCATION           
UWI .                                             :UNIQUE WELL ID     
SRVC.                                             :Service company    
DATE.                                             :LOG DATE           
~Curve Information
#MNEM.UNIT           API CODE  Curve Description
#---------           --------  -----------------
DEPT.FT                      :   1 DEPTH
SP  .MV                      :   2
AM16.OHMM                    :   3
AO10.OHMM                    :   4
AO19.OHMM                    :   5
SBL .MV                      :   6
RS  .OHMM                    :   7
RM  .OHMM                    :   8
RD  .OHMM                    :   9
DEVI.DEG                     :  10
TVD .FT                      :  11
AZIM.DEG                     :  12
NORT.FT                      :  13
EAST.FT                      :  14
OFFS.FT                      :  15
~A
# ...
  2072.500 -57.240  13.014  14.166  16.036 -41.751  13.014  14.166  16.036  1.5145  2072.3  46.200  15.707  13.189  20.433 
  2073.000 -55.614  11.430  14.706  16.432 -40.126  11.430  14.706  16.432  1.5158  2072.8  46.160  15.716  13.198  20.446 
  2073.500 -51.279  9.4140  15.103  16.432 -35.791  9.4140  15.103  16.432  1.5170  2073.3  46.120  15.726  13.208  20.459 
  2074.000 -49.111  8.1180  15.067  16.216 -33.623  8.1180  15.067  16.216  1.5183  2073.8  46.080  15.735  13.218  20.472 
  2074.500 -47.123  7.1820  14.995  15.927 -31.635  7.1820  14.995  15.927  1.5195  2074.3  46.040  15.744  13.227  20.486 
  2075.000 -45.496  6.6790  14.708  15.531 -30.009  6.6790  14.708  15.531  1.5208  2074.8  46.000  15.753  13.237  20.499 
  2075.500 -36.467  6.1390  13.772  15.135 -20.980  6.1390  13.772  15.135  1.5220  2075.3  45.960  15.762  13.246  20.512 
  2076.000 -32.674  5.4910  10.892  14.738 -17.187  5.4910  10.892  14.738  1.5233  2075.8  45.920  15.772  13.256  20.526 
  2076.500 -31.047  5.2040  6.8600  12.002 -15.560  5.2040  6.8600  12.002  1.5245  2076.3  45.880  15.781  13.265  20.539 
  2077.000 -29.240  5.0600  5.7440  11.660 -13.753  5.0600  5.7440  11.660  1.5258  2076.8  45.840  15.790  13.275  20.552 
  2077.500 -28.516  4.9520  5.0240  11.318 -13.030  4.9520  5.0240  11.318  1.5270  2077.3  45.800  15.800  13.284  20.565 
  2078.000 -27.612  4.9170  4.8090  7.1050 -12.126  4.9170  4.8090  7.1050  1.5283  2077.8  45.760  15.809  13.294  20.579 
  2078.500 -27.429  4.8810  4.7730  7.0320 -11.943  4.8810  4.7730  7.0320  1.5295  2078.3  45.720  15.818  13.304  20.592 
  2079.000 -27.428  4.8820  4.7740  6.9240 -11.942  4.8820  4.7740  6.9240  1.5308  2078.8  45.680  15.828  13.313  20.606 
  2079.500 -27.426  5.0620  4.8100  6.9240 -11.941  5.0620  4.8100  6.9240  1.5320  2079.3  45.640  15.837  13.323  20.619 
  2080.000 -27.424  5.1700  4.8460  6.9950 -11.939  5.1700  4.8460  6.9950  1.5333  2079.8  45.600  15.846  13.332  20.632 
  2080.500 -27.603  5.3870  5.0270  7.0670 -12.118  5.3870  5.0270  7.0670  1.5345  2080.3  45.560  15.856  13.342  20.646 
  2081.000 -27.781  5.6030  5.0990  7.2470 -12.296  5.6030  5.0990  7.2470  1.5358  2080.8  45.520  15.865  13.351  20.659 
  2081.500 -28.141  5.8190  5.2430  7.3730 -12.657  5.8190  5.2430  7.3730  1.5370  2081.3  45.480  15.874  13.361  20.672 
  2082.000 -29.042  6.1800  5.3880  7.4990 -13.558  6.1800  5.3880  7.4990  1.5383  2081.8  45.440  15.884  13.370  20.686 
  2082.500 -30.123  6.6840  5.6220  7.7140 -14.639  6.6840  5.6220  7.7140  1.5395  2082.3  45.400  15.893  13.380  20.699 
  2083.000 -32.468  7.3330  5.8560  7.9300 -16.984  7.3330  5.8560  7.9300  1.5408  2082.8  45.360  15.903  13.390  20.713 
  2083.500 -35.716  7.8370  6.5770  8.3620 -20.233  7.8370  6.5770  8.3620  1.5420  2083.3  45.320  15.912  13.399  20.726 
  2084.000 -37.700  8.1250  7.0810  8.7210 -22.217  8.1250  7.0810  8.7210  1.5433  2083.8  45.280  15.922  13.409  20.740 
  2084.500 -42.212  8.7020  7.3700  8.8650 -26.729  8.7020  7.3700  8.8650  1.5445  2084.3  45.240  15.931  13.418  20.753 
  2085.000 -45.279  9.8900  7.6220  9.1350 -29.796  9.8900  7.6220  9.1350  1.5458  2084.8  45.200  15.941  13.428  20.767 
  2085.500 -46.721  10.503  7.9460  9.4050 -31.239  10.503  7.9460  9.4050  1.5470  2085.3  45.160  15.950  13.437  20.780 
  2086.000 -47.983  11.007  8.0190  9.9440 -32.501  11.007  8.0190  9.9440  1.5483  2085.8  45.120  15.960  13.447  20.794 
  2086.500 -49.606  11.440  8.0730  10.214 -34.124  11.440  8.0730  10.214  1.5495  2086.3  45.080  15.969  13.457  20.807 
  2087.000 -51.231  12.124  8.1270  10.484 -35.749  12.124  8.1270  10.484  1.5508  2086.8  45.040  15.979  13.466  20.821 
  2087.500 -52.855  12.664  8.2360  10.988 -37.374  12.664  8.2360  10.988  1.5520  2087.3  45.000  15.988  13.476  20.834 
  2088.000 -61.337  13.169  8.3080  11.239 -45.856  13.169  8.3080  11.239  1.5533  2087.8  44.960  15.998  13.485  20.848 
  2088.500 -62.960  13.997  8.3090  11.455 -47.479  13.997  8.3090  11.455  1.5545  2088.3  44.920  16.008  13.495  20.861 
  2089.000 -65.666  15.582  8.3810  11.671 -50.185  15.582  8.3810  11.671  1.5558  2088.8  44.880  16.017  13.504  20.875 
  2089.500 -67.289  16.050  8.4170  12.067 -51.809  16.050  8.4170  12.067  1.5570  2089.3  44.840  16.027  13.514  20.889 
  2090.000 -68.732  16.519  8.4540  12.247 -53.252  16.519  8.4540  12.247  1.5583  2089.8  44.800  16.036  13.524  20.902 
  2090.500 -69.362  16.663  8.5260  12.534 -53.882  16.663  8.5260  12.534  1.5595  2090.3  44.760  16.046  13.533  20.916 
  2091.000 -69.993  17.203  8.5270  12.606 -54.513  17.203  8.5270  12.606  1.5608  2090.8  44.720  16.056  13.543  20.929 
  2091.500 -70.712  17.816  8.5450  12.786 -55.233  17.816  8.5450  12.786  1.5620  2091.3  44.680  16.065  13.552  20.943 
  2092.000 -70.530  17.942  8.5630  12.930 -55.051  17.942  8.5630  12.930  1.5633  2091.8  44.640  16.075  13.562  20.957 
  2092.500 -70.348  18.068  8.6360  13.109 -54.869  18.068  8.6360  13.109  1.5645  2092.3  44.600  16.085  13.572  20.970 
  2093.000 -70.166  18.105  8.6900  13.289 -54.687  18.105  8.6900  13.289  1.5658  2092.8  44.560  16.095  13.581  20.984 
  2093.500 -69.984  18.105  8.7440  13.361 -54.506  18.105  8.7440  13.361  1.5670  2093.3  44.520  16.104  13.591  20.998 
  2094.000 -69.801  18.141  8.9610  13.469 -54.323  18.141  8.9610  13.469  1.5683  2093.8  44.480  16.114  13.600  21.011 
  2094.500 -69.618  18.178  9.1770  13.540 -54.140  18.178  9.1770  13.540  1.5695  2094.3  44.440  16.124  13.610  21.025 
  2095.000 -69.436  18.286  9.4650  13.576 -53.958  18.286  9.4650  13.576  1.5708  2094.8  44.400  16.134  13.619  21.039 
  2095.500 -69.434  18.359  9.6820  13.612 -53.957  18.359  9.6820  13.612  1.5720  2095.3  44.360  16.144  13.629  21.052 
  2096.000 -69.432  18.503  9.9700  13.611 -53.955  18.503  9.9700  13.611  1.5733  2095.8  44.320  16.153  13.639  21.066 
  2096.500 -69.430  18.647  10.259  13.611 -53.953  18.647  10.259  13.611  1.5745  2096.3  44.280  16.163  13.648  21.080 
  2097.000 -69.610  18.756  10.799  13.593 -54.133  18.756  10.799  13.593  1.5758  2096.8  44.240  16.173  13.658  21.094 
  2097.500 -69.789  18.792  11.195  13.575 -54.313  18.792  11.195  13.575  1.5770  2097.3  44.200  16.183  13.667  21.107 
  2098.000 -70.328  18.756  11.592  13.502 -54.852  18.756  11.592  13.502  1.5783  2097.8  44.160  16.193  13.677  21.121 
  2098.500 -70.687  18.685  11.988  13.394 -55.211  18.685  11.988  13.394  1.5795  2098.3  44.120  16.203  13.687  21.135 
  2099.000 -70.685  18.577  12.277  13.250 -55.209  18.577  12.277  13.250  1.5808  2098.8  44.080  16.213  13.696  21.149 
  2099.500 -70.683  18.397  12.565  12.997 -55.207  18.397  12.565  12.997  1.5820  2099.3  44.040  16.223  13.706  21.163 
  2100.000 -70.682  18.326  13.106  12.565 -55.207  18.326  13.106  12.565  1.5833  2099.8  44.000  16.232  13.715  21.176 
  2100.500 -69.959  18.362  13.358  12.276 -54.484  18.362  13.358  12.276  1.5858  2100.3  44.060  16.242  13.725  21.190 
  2101.000 -69.416  18.435  13.719  12.024 -53.941  18.435  13.719  12.024  1.5883  2100.8  44.120  16.252  13.735  21.204 
  2101.500 -69.235  18.507  14.079  11.879 -53.760  18.507  14.079  11.879  1.5908  2101.3  44.180  16.262  13.744  21.218 
  2102.000 -68.964  18.580  14.440  11.824 -53.490  18.580  14.440  11.824  1.5933  2101.8  44.240  16.272  13.754  21.232 
  2102.500 -68.692  18.833  15.052  11.770 -53.218  18.833  15.052  11.770  1.5958  2102.3  44.300  16.282  13.764  21.246 
  2103.000 -68.329  19.265  15.341  11.877 -52.855  19.265  15.341  11.877  1.5983  2102.8  44.360  16.292  13.774  21.260 
  2103.500 -68.148  19.518  15.593  12.020 -52.674  19.518  15.593  12.020  1.6008  2103.3  44.420  16.302  13.783  21.274 
  2104.000 -68.148  19.518  15.846  12.343 -52.675  19.518  15.846  12.343  1.6033  2103.8  44.480  16.312  13.793  21.288 
  2104.500 -68.147  19.483  16.423  12.559 -52.674  19.483  16.423  12.559  1.6058  2104.3  44.540  16.322  13.803  21.302 
