~Version Information
VERS.                     2.0: CWLS log ASCII Standard Version 2.00
WRAP.                      NO: One line per depth step
~Well Information Block
#MNEM.UNIT                               Data Type  Information
#---------                               ---------  -----------
STRT.FT                                   350.0000:
STOP.FT                                  6830.0000:
STEP.FT                                     0.5000:
NULL.                 -999.25                     :
COMP.                                             :COMPANY            
WELL.     SAN EMIDIO A #56-19                     :WELL               
FLD .                                             :FIELD              
CTRY.                                             :COUNTRY            
STAT.                                             :STATE              
LOC .                                             :LOCATION           
UWI .                                             :UNIQUE WELL ID     
SRVC.                                             :Service company    
DATE.                                             :LOG DATE           
~Curve Information
#MNEM.UNIT           API CODE  Curve Description
#---------           --------  -----------------
DEPT.FT                      :   1 DEPTH
SP  .MV                      :   2
AM16.OHMM                    :   3
AO10.OHMM                    :   4
AO19.OHMM                    :   5
SBL .MV                      :   6
RS  .OHMM                    :   7
RM  .OHMM                    :   8
RD  .OHMM                    :   9
DEVI.DEG                     :  10
TVD .FT                      :  11
AZIM.DEG                     :  12
NORT.FT                      :  13
EAST.FT                      :  14
OFFS.FT                      :  15
~A
# ...
  5940.000 -19.627  1.9030  1.6140  2.0400 -5.6270  1.9030  1.6140  2.0400  2.2500  5938.9  181.86  28.243  52.925  57.394 
  5940.500 -18.365  1.9200  1.6140  2.0390 -4.3650  1.9200  1.6140  2.0390  2.2500  5939.4  181.88  28.223  52.924  57.380 
  5941.000 -18.005  1.9380  1.6130  2.0380 -4.0050  1.9380  1.6130  2.0380  2.2500  5939.9  181.89  28.204  52.923  57.365 
  5941.500 -17.193  1.9550  1.6130  2.0380 -3.1930  1.9550  1.6130  2.0380  2.2500  5940.4  181.90  28.184  52.923  57.351 
  5942.000 -16.380  1.9720  1.6300  2.0370 -2.3800  1.9720  1.6300  2.0370  2.2500  5940.9  181.92  28.165  52.922  57.337 
  5942.500 -16.654  1.9900  1.6480  2.0550 -2.6540  1.9900  1.6480  2.0550  2.2500  5941.4  181.93  28.145  52.921  57.322 
  5943.000 -16.927  2.0080  1.6470  2.0720 -2.9270  2.0080  1.6470  2.0720  2.2500  5941.9  181.94  28.125  52.921  57.308 
  5943.500 -17.655  2.0250  1.6830  2.0710 -3.6550  2.0250  1.6830  2.0710  2.2500  5942.4  181.96  28.106  52.920  57.294 
  5944.000 -17.114  2.0430  1.7180  2.1060 -3.1140  2.0430  1.7180  2.1060  2.2500  5942.9  181.97  28.086  52.919  57.279 
  5944.500 -16.935  2.0780  1.6460  2.1060 -2.9350  2.0780  1.6460  2.1060  2.2500  5943.4  181.98  28.066  52.919  57.265 
  5945.000 -16.757  2.1010  1.6450  2.0690 -2.7570  2.1010  1.6450  2.0690  2.2500  5943.9  182.00  28.047  52.918  57.251 
  5945.500 -16.940  2.1250  1.6450  2.0500 -2.9400  2.1250  1.6450  2.0500  2.2500  5944.4  182.01  28.027  52.917  57.236 
  5946.000 -17.122  2.1490  1.6440  2.0320 -3.1220  2.1490  1.6440  2.0320  2.2500  5944.9  182.02  28.008  52.917  57.222 
  5946.500 -17.305  2.1480  1.6430  2.0130 -3.3050  2.1480  1.6430  2.0130  2.2500  5945.4  182.04  27.988  52.916  57.208 
  5947.000 -17.851  2.1650  1.6430  1.9950 -3.8510  2.1650  1.6430  1.9950  2.2500  5945.9  182.05  27.968  52.915  57.193 
  5947.500 -17.130  2.1830  1.6430  1.9580 -3.1300  2.1830  1.6430  1.9580  2.2500  5946.4  182.06  27.949  52.914  57.179 
  5948.000 -16.860  2.2010  1.6420  1.9390 -2.8600  2.2010  1.6420  1.9390  2.2500  5946.9  182.08  27.929  52.914  57.164 
  5948.500 -16.590  2.2180  1.6420  1.9210 -2.5900  2.2180  1.6420  1.9210  2.2500  5947.4  182.09  27.909  52.913  57.150 
  5949.000 -16.413  2.2180  1.6410  1.9020 -2.4130  2.2180  1.6410  1.9020  2.2500  5947.9  182.11  27.890  52.912  57.136 
  5949.500 -16.414  2.2170  1.6400  1.8840 -2.4140  2.2170  1.6400  1.8840  2.2500  5948.4  182.12  27.870  52.912  57.121 
  5950.000 -16.416  2.2340  1.6580  1.9010 -2.4160  2.2340  1.6580  1.9010  2.2500  5948.9  182.13  27.851  52.911  57.107 
  5950.500 -16.420  2.2520  1.6750  1.9180 -2.4200  2.2520  1.6750  1.9180  2.2500  5949.4  182.15  27.831  52.910  57.093 
  5951.000 -16.784  2.2870  1.7830  2.0260 -2.7840  2.2870  1.7830  2.0260  2.2500  5949.9  182.16  27.811  52.909  57.078 
  5951.500 -16.876  2.2870  1.8900  2.0250 -2.8760  2.2870  1.8900  2.0250  2.2500  5950.4  182.17  27.792  52.909  57.064 
  5952.000 -16.968  2.2860  2.0340  2.0240 -2.9680  2.2860  2.0340  2.0240  2.2500  5950.9  182.19  27.772  52.908  57.049 
  5952.500 -16.429  2.2860  2.1050  2.0240 -2.4290  2.2860  2.1050  2.0240  2.2500  5951.4  182.20  27.753  52.907  57.035 
  5953.000 -16.250  2.2850  2.1410  2.0590 -2.2500  2.2850  2.1410  2.0590  2.2500  5951.9  182.21  27.733  52.906  57.021 
  5953.500 -16.252  2.2850  2.1580  2.0580 -2.2520  2.2850  2.1580  2.0580  2.2500  5952.4  182.23  27.713  52.906  57.006 
  5954.000 -16.435  2.2840  2.1760  2.0580 -2.4350  2.2840  2.1760  2.0580  2.2500  5952.9  182.24  27.694  52.905  56.992 
  5954.500 -16.619  2.2830  2.1760  2.0580 -2.6190  2.2830  2.1760  2.0580  2.2500  5953.4  182.25  27.674  52.904  56.977 
  5955.000 -16.801  2.2830  2.1750  2.0570 -2.8010  2.2830  2.1750  2.0570  2.2500  5953.9  182.27  27.654  52.903  56.963 
  5955.500 -16.983  2.2830  2.2100  2.0560 -2.9830  2.2830  2.2100  2.0560  2.2500  5954.4  182.28  27.635  52.902  56.948 
  5956.000 -17.076  2.2820  2.2280  2.0550 -3.0760  2.2820  2.2280  2.0550  2.2500  5954.9  182.29  27.615  52.902  56.934 
  5956.500 -17.169  2.2990  2.2450  2.0370 -3.1690  2.2990  2.2450  2.0370  2.2500  5955.4  182.31  27.596  52.901  56.920 
  5957.000 -18.077  2.3170  2.2810  2.0180 -4.0770  2.3170  2.2810  2.0180  2.2500  5955.9  182.32  27.576  52.900  56.905 
  5957.500 -18.803  2.3160  2.2980  2.0170 -4.8030  2.3160  2.2980  2.0170  2.2500  5956.4  182.33  27.556  52.899  56.891 
  5958.000 -20.073  2.3160  2.3160  2.0170 -6.0730  2.3160  2.3160  2.0170  2.2500  5956.9  182.35  27.537  52.898  56.876 
  5958.500 -20.799  2.3030  2.3150  2.0160 -6.7990  2.3030  2.3150  2.0160  2.2500  5957.4  182.36  27.517  52.898  56.862 
  5959.000 -20.619  2.2910  2.3150  2.0160 -6.6190  2.2910  2.3150  2.0160  2.2500  5957.9  182.38  27.498  52.897  56.847 
  5959.500 -20.440  2.2780  2.3140  2.0150 -6.4400  2.2780  2.3140  2.0150  2.2500  5958.4  182.39  27.478  52.896  56.833 
  5960.000 -20.082  2.2770  2.3140  2.0140 -6.0820  2.2770  2.3140  2.0140  2.2500  5958.9  182.40  27.458  52.895  56.819 
  5960.500 -19.903  2.2590  2.3130  2.0140 -5.9030  2.2590  2.3130  2.0140  2.2500  5959.4  182.42  27.439  52.894  56.804 
  5961.000 -19.543  2.2410  2.3120  2.0130 -5.5430  2.2410  2.3120  2.0130  2.2500  5959.9  182.43  27.419  52.894  56.790 
  5961.500 -19.184  2.2400  2.3120  2.0120 -5.1840  2.2400  2.3120  2.0120  2.2500  5960.4  182.44  27.400  52.893  56.775 
  5962.000 -19.095  2.2390  2.3110  2.0120 -5.0950  2.2390  2.3110  2.0120  2.2500  5960.9  182.46  27.380  52.892  56.761 
  5962.500 -19.006  2.2390  2.3110  2.0470 -5.0060  2.2390  2.3110  2.0470  2.2500  5961.4  182.47  27.360  52.891  56.746 
  5963.000 -18.918  2.2380  2.3110  2.0470 -4.9180  2.2380  2.3110  2.0470  2.2500  5961.9  182.48  27.341  52.890  56.732 
  5963.500 -18.830  2.2200  2.3100  2.0460 -4.8300  2.2200  2.3100  2.0460  2.2500  5962.4  182.50  27.321  52.889  56.717 
  5964.000 -18.291  2.2010  2.3090  2.0450 -4.2910  2.2010  2.3090  2.0450  2.2500  5962.9  182.51  27.301  52.888  56.703 
  5964.500 -18.112  2.2000  2.3090  2.0450 -4.1120  2.2000  2.3090  2.0450  2.2500  5963.4  182.52  27.282  52.888  56.688 
  5965.000 -17.391  2.2000  2.3080  2.0440 -3.3910  2.2000  2.3080  2.0440  2.2500  5963.9  182.54  27.262  52.887  56.674 
  5965.500 -17.121  2.1990  2.3430  2.0440 -3.1210  2.1990  2.3430  2.0440  2.2500  5964.4  182.55  27.243  52.886  56.659 
  5966.000 -16.851  2.1990  2.3430  2.0430 -2.8510  2.1990  2.3430  2.0430  2.2500  5964.9  182.56  27.223  52.885  56.645 
  5966.500 -17.036  2.1980  2.3430  2.0430 -3.0360  2.1980  2.3430  2.0430  2.2500  5965.4  182.58  27.203  52.884  56.630 
  5967.000 -17.219  2.1980  2.3420  2.0420 -3.2190  2.1980  2.3420  2.0420  2.2500  5965.9  182.59  27.184  52.883  56.616 
  5967.500 -17.583  2.1970  2.3410  2.0410 -3.5830  2.1970  2.3410  2.0410  2.2500  5966.4  182.61  27.164  52.882  56.601 
  5968.000 -18.128  2.1970  2.3410  2.0400 -4.1280  2.1970  2.3410  2.0400  2.2500  5966.9  182.62  27.145  52.881  56.587 
  5968.500 -18.492  2.1960  2.3400  2.0580 -4.4920  2.1960  2.3400  2.0580  2.2500  5967.4  182.63  27.125  52.881  56.572 
  5969.000 -19.037  2.1960  2.3220  2.0750 -5.0370  2.1960  2.3220  2.0750  2.2500  5967.9  182.65  27.105  52.880  56.558 
  5969.500 -19.401  2.1830  2.3030  2.0750 -5.4010  2.1830  2.3030  2.0750  2.2500  5968.4  182.66  27.086  52.879  56.543 
  5970.000 -19.765  2.1700  2.3020  2.0740 -5.7650  2.1700  2.3020  2.0740  2.2500  5968.9  182.67  27.066  52.878  56.529 
  5970.500 -20.129  2.1580  2.3020  2.0730 -6.1290  2.1580  2.3020  2.0730  2.2500  5969.4  182.69  27.047  52.877  56.514 
  5971.000 -20.674  2.1570  2.3020  2.1090 -6.6740  2.1570  2.3020  2.1090  2.2500  5969.9  182.70  27.027  52.876  56.500 
  5971.500 -21.037  2.1570  2.3010  2.0720 -7.0370  2.1570  2.3010  2.0720  2.2500  5970.4  182.71  27.007  52.875  56.485 
  5972.000 -21.400  2.1560  2.3000  2.0710 -7.4000  2.1560  2.3000  2.0710  2.2500  5970.9  182.73  26.988  52.874  56.471 
