~Version Information
VERS.                     2.0: CWLS log ASCII Standard Version 2.00
WRAP.                      NO: One line per depth step
~Well Information Block
#MNEM.UNIT                               Data Type  Information
#---------                               ---------  -----------
STRT.FT                                   350.0000:
STOP.FT                                  6830.0000:
STEP.FT                                     0.5000:
NULL.                 -999.25                     :
COMP.                                             :COMPANY            
WELL.     SAN EMIDIO A #56-19                     :WELL               
FLD .                                             :FIELD              
CTRY.                                             :COUNTRY            
STAT.                                             :STATE              
LOC .                                             :LOCATION           
UWI .                                             :UNIQUE WELL ID     
SRVC.                                             :Service company    
DATE.                                             :LOG DATE           
~Curve Information
#MNEM.UNIT           API CODE  Curve Description
#---------           --------  -----------------
DEPT.FT                      :   1 DEPTH
SP  .MV                      :   2
AM16.OHMM                    :   3
AO10.OHMM                    :   4
AO19.OHMM                    :   5
SBL .MV                      :   6
RS  .OHMM                    :   7
RM  .OHMM                    :   8
RD  .OHMM                    :   9
DEVI.DEG                     :  10
TVD .FT                      :  11
AZIM.DEG                     :  12
NORT.FT                      :  13
EAST.FT                      :  14
OFFS.FT                      :  15
~A
# ...
  5485.000 -32.880  1.6790  1.4270  1.7040 -18.880  1.6790  1.4270  1.7040  1.8542  5484.1  172.35  41.982  53.461  67.488 
  5485.500 -32.522  1.6790  1.4440  1.7040 -18.522  1.6790  1.4440  1.7040  1.8562  5484.6  172.40  41.966  53.463  67.479 
  5486.000 -31.803  1.7140  1.4610  1.7040 -17.803  1.7140  1.4610  1.7040  1.8583  5485.1  172.46  41.950  53.466  67.469 
  5486.500 -31.265  1.7130  1.4610  1.7040 -17.265  1.7130  1.4610  1.7040  1.8604  5485.6  172.51  41.933  53.468  67.459 
  5487.000 -30.546  1.7120  1.4600  1.7030 -16.546  1.7120  1.4600  1.7030  1.8625  5486.1  172.57  41.917  53.470  67.449 
  5487.500 -30.370  1.7120  1.4600  1.7390 -16.370  1.7120  1.4600  1.7390  1.8646  5486.6  172.62  41.901  53.472  67.439 
  5488.000 -30.374  1.7110  1.4590  1.7380 -16.374  1.7110  1.4590  1.7380  1.8667  5487.1  172.68  41.885  53.474  67.429 
  5488.500 -30.921  1.7100  1.4760  1.7380 -16.921  1.7100  1.4760  1.7380  1.8687  5487.6  172.73  41.869  53.476  67.419 
  5489.000 -31.107  1.7090  1.4930  1.7380 -17.107  1.7090  1.4930  1.7380  1.8708  5488.1  172.79  41.853  53.478  67.409 
  5489.500 -30.930  1.7270  1.4920  1.7370 -16.930  1.7270  1.4920  1.7370  1.8729  5488.6  172.84  41.836  53.480  67.399 
  5490.000 -30.573  1.7440  1.4920  1.7370 -16.573  1.7440  1.4920  1.7370  1.8750  5489.1  172.90  41.820  53.482  67.389 
  5490.500 -30.396  1.7430  1.4730  1.7370 -16.396  1.7430  1.4730  1.7370  1.8771  5489.6  172.95  41.804  53.484  67.379 
  5491.000 -30.219  1.7430  1.4550  1.7360 -16.219  1.7430  1.4550  1.7360  1.8792  5490.1  173.01  41.788  53.486  67.369 
  5491.500 -30.225  1.7420  1.4540  1.7360 -16.225  1.7420  1.4540  1.7360  1.8812  5490.6  173.06  41.771  53.488  67.359 
  5492.000 -30.591  1.7590  1.4530  1.7360 -16.591  1.7590  1.4530  1.7360  1.8833  5491.1  173.12  41.755  53.490  67.349 
  5492.500 -31.502  1.7760  1.4520  1.7350 -17.502  1.7760  1.4520  1.7350  1.8854  5491.6  173.17  41.739  53.492  67.338 
  5493.000 -31.687  1.7760  1.4510  1.7350 -17.687  1.7760  1.4510  1.7350  1.8875  5492.1  173.23  41.722  53.494  67.328 
  5493.500 -32.053  1.7750  1.4510  1.7340 -18.053  1.7750  1.4510  1.7340  1.8896  5492.6  173.28  41.706  53.496  67.318 
  5494.000 -31.696  1.7740  1.4500  1.7340 -17.696  1.7740  1.4500  1.7340  1.8917  5493.1  173.34  41.690  53.498  67.308 
  5494.500 -31.158  1.7740  1.4500  1.7340 -17.158  1.7740  1.4500  1.7340  1.8938  5493.6  173.39  41.673  53.500  67.297 
  5495.000 -30.981  1.7730  1.4670  1.7330 -16.981  1.7730  1.4670  1.7330  1.8958  5494.1  173.45  41.657  53.502  67.287 
  5495.500 -31.167  1.7720  1.4840  1.7330 -17.167  1.7720  1.4840  1.7330  1.8979  5494.6  173.50  41.640  53.504  67.277 
  5496.000 -31.533  1.7720  1.5010  1.7330 -17.533  1.7720  1.5010  1.7330  1.9000  5495.1  173.56  41.624  53.505  67.267 
  5496.500 -31.899  1.7710  1.5190  1.7320 -17.899  1.7710  1.5190  1.7320  1.9021  5495.6  173.61  41.607  53.507  67.256 
  5497.000 -32.084  1.7700  1.5180  1.7320 -18.084  1.7700  1.5180  1.7320  1.9042  5496.1  173.67  41.591  53.509  67.246 
  5497.500 -32.269  1.7700  1.5170  1.7320 -18.269  1.7700  1.5170  1.7320  1.9063  5496.6  173.72  41.574  53.511  67.235 
  5498.000 -32.183  1.7690  1.4990  1.7310 -18.183  1.7690  1.4990  1.7310  1.9083  5497.1  173.78  41.558  53.513  67.225 
  5498.500 -32.097  1.7680  1.4800  1.7310 -18.097  1.7680  1.4800  1.7310  1.9104  5497.6  173.83  41.541  53.514  67.214 
  5499.000 -32.012  1.7670  1.4790  1.7120 -18.012  1.7670  1.4790  1.7120  1.9125  5498.1  173.89  41.525  53.516  67.204 
  5499.500 -31.926  1.7660  1.4780  1.6940 -17.926  1.7660  1.4780  1.6940  1.9146  5498.6  173.94  41.508  53.518  67.194 
  5500.000 -31.207  1.7660  1.4600  1.6580 -17.207  1.7660  1.4600  1.6580  1.9167  5499.1  174.00  41.491  53.520  67.183 
  5500.500 -30.488  1.7650  1.4410  1.6210 -16.488  1.7650  1.4410  1.6210  1.9167  5499.6  174.00  41.475  53.521  67.172 
  5501.000 -29.950  1.7650  1.4400  1.6210 -15.950  1.7650  1.4400  1.6210  1.9167  5500.1  174.00  41.458  53.523  67.162 
  5501.500 -30.859  1.7640  1.4570  1.6200 -16.859  1.7640  1.4570  1.6200  1.9167  5500.6  174.00  41.441  53.525  67.151 
  5502.000 -32.491  1.7630  1.4750  1.6190 -18.491  1.7630  1.4750  1.6190  1.9167  5501.1  174.00  41.425  53.527  67.141 
  5502.500 -32.857  1.7620  1.4740  1.6370 -18.857  1.7620  1.4740  1.6370  1.9167  5501.6  174.00  41.408  53.528  67.130 
  5503.000 -33.222  1.7620  1.4730  1.6550 -19.222  1.7620  1.4730  1.6550  1.9167  5502.1  174.00  41.392  53.530  67.120 
  5503.500 -33.590  1.7610  1.4730  1.6540 -19.590  1.7610  1.4730  1.6540  1.9167  5502.6  174.00  41.375  53.532  67.109 
  5504.000 -34.137  1.7600  1.4720  1.6710 -20.137  1.7600  1.4720  1.6710  1.9167  5503.1  174.00  41.358  53.534  67.099 
  5504.500 -34.323  1.7770  1.4710  1.6890 -20.323  1.7770  1.4710  1.6890  1.9167  5503.6  174.00  41.342  53.535  67.088 
  5505.000 -34.870  1.7950  1.5060  1.7240 -20.870  1.7950  1.5060  1.7240  1.9167  5504.1  174.00  41.325  53.537  67.078 
  5505.500 -35.417  1.7940  1.5060  1.6880 -21.417  1.7940  1.5060  1.6880  1.9167  5504.6  174.00  41.308  53.539  67.067 
  5506.000 -35.783  1.7930  1.5050  1.6870 -21.783  1.7930  1.5050  1.6870  1.9167  5505.1  174.00  41.292  53.541  67.057 
  5506.500 -36.150  1.7930  1.5040  1.6870 -22.150  1.7930  1.5040  1.6870  1.9167  5505.6  174.00  41.275  53.542  67.046 
  5507.000 -36.516  1.7920  1.5030  1.6860 -22.516  1.7920  1.5030  1.6860  1.9167  5506.1  174.00  41.259  53.544  67.036 
  5507.500 -36.701  1.7910  1.5380  1.6490 -22.701  1.7910  1.5380  1.6490  1.9167  5506.6  174.00  41.242  53.546  67.025 
  5508.000 -36.525  1.7900  1.5380  1.6850 -22.525  1.7900  1.5380  1.6850  1.9167  5507.1  174.00  41.225  53.548  67.015 
  5508.500 -36.349  1.8080  1.5370  1.6840 -22.349  1.8080  1.5370  1.6840  1.9167  5507.6  174.00  41.209  53.549  67.004 
  5509.000 -36.172  1.8250  1.5720  1.7020 -22.172  1.8250  1.5720  1.7020  1.9167  5508.1  174.00  41.192  53.551  66.994 
  5509.500 -36.177  1.8240  1.5720  1.7200 -22.177  1.8240  1.5720  1.7200  1.9167  5508.6  174.00  41.175  53.553  66.983 
  5510.000 -35.819  1.8230  1.5710  1.7910 -21.819  1.8230  1.5710  1.7910  1.9167  5509.1  174.00  41.159  53.555  66.973 
  5510.500 -35.371  1.8230  1.5340  1.7720 -21.371  1.8230  1.5340  1.7720  1.9129  5509.6  174.00  41.142  53.556  66.962 
  5511.000 -34.922  1.8220  1.4980  1.7540 -20.922  1.8220  1.4980  1.7540  1.9092  5510.1  174.01  41.126  53.558  66.952 
  5511.500 -33.481  1.8390  1.4970  1.7170 -19.481  1.8390  1.4970  1.7170  1.9054  5510.6  174.01  41.109  53.560  66.941 
  5512.000 -32.762  1.8570  1.4960  1.7170 -18.762  1.8570  1.4960  1.7170  1.9017  5511.1  174.02  41.093  53.562  66.931 
  5512.500 -32.043  1.8560  1.4950  1.7160 -18.043  1.8560  1.4950  1.7160  1.8979  5511.6  174.02  41.076  53.563  66.920 
  5513.000 -31.595  1.8550  1.4950  1.7160 -17.595  1.8550  1.4950  1.7160  1.8942  5512.1  174.03  41.060  53.565  66.910 
  5513.500 -31.146  1.8720  1.4940  1.7150 -17.146  1.8720  1.4940  1.7150  1.8905  5512.6  174.04  41.043  53.567  66.899 
  5514.000 -31.152  1.8900  1.5110  1.7330 -17.152  1.8900  1.5110  1.7330  1.8867  5513.1  174.04  41.027  53.569  66.889 
  5514.500 -31.157  1.8890  1.5290  1.7500 -17.157  1.8890  1.5290  1.7500  1.8830  5513.6  174.05  41.010  53.570  66.879 
  5515.000 -30.980  1.9240  1.5640  1.8220 -16.980  1.9240  1.5640  1.8220  1.8792  5514.1  174.05  40.994  53.572  66.868 
  5515.500 -30.893  1.9240  1.5630  1.8210 -16.893  1.9240  1.5630  1.8210  1.8755  5514.6  174.06  40.978  53.574  66.858 
  5516.000 -30.807  1.9230  1.5260  1.8210 -16.807  1.9230  1.5260  1.8210  1.8717  5515.1  174.06  40.962  53.575  66.848 
  5516.500 -30.451  1.9220  1.5260  1.7120 -16.451  1.9220  1.5260  1.7120  1.8680  5515.6  174.07  40.945  53.577  66.837 
  5517.000 -29.913  1.9210  1.5250  1.6750 -15.913  1.9210  1.5250  1.6750  1.8642  5516.1  174.07  40.929  53.579  66.827 
