~Version Information
VERS.                     2.0: CWLS log ASCII Standard Version 2.00
WRAP.                      NO: One line per depth step
~Well Information Block
#MNEM.UNIT                               Data Type  Information
#---------                               ---------  -----------
STRT.FT                                   350.0000:
STOP.FT                                  6830.0000:
STEP.FT                                     0.5000:
NULL.                 -999.25                     :
COMP.                                             :COMPANY            
WELL.     SAN EMIDIO A #56-19                     :WELL               
FLD .                                             :FIELD              
CTRY.                                             :COUNTRY            
STAT.                                             :STATE              
LOC .                                             :LOCATION           
UWI .                                             :UNIQUE WELL ID     
SRVC.                                             :Service company    
DATE.                                             :LOG DATE           
~Curve Information
#MNEM.UNIT           API CODE  Curve Description
#---------           --------  -----------------
DEPT.FT                      :   1 DEPTH
SP  .MV                      :   2
AM16.OHMM                    :   3
AO10.OHMM                    :   4
AO19.OHMM                    :   5
SBL .MV                      :   6
RS  .OHMM                    :   7
RM  .OHMM                    :   8
RD  .OHMM                    :   9
DEVI.DEG                     :  10
TVD .FT                      :  11
AZIM.DEG                     :  12
NORT.FT                      :  13
EAST.FT                      :  14
OFFS.FT                      :  15
~A
# ...
  1195.000 -56.387  17.712  17.965  13.635 -40.470  17.712  17.965  13.635  0.3458  1195.0  44.750  3.3075  3.3844  4.7319 
  1195.500 -57.107  18.651  18.471  14.393 -41.190  18.651  18.471  14.393  0.3445  1195.5  45.075  3.3096  3.3866  4.7349 
  1196.000 -57.827  18.940  18.579  14.538 -41.910  18.940  18.579  14.538  0.3433  1196.0  45.400  3.3117  3.3887  4.7379 
  1196.500 -58.004  18.977  18.598  15.369 -42.087  18.977  18.598  15.369  0.3420  1196.5  45.725  3.3138  3.3908  4.7409 
  1197.000 -58.182  18.977  18.616  15.694 -42.266  18.977  18.616  15.694  0.3408  1197.0  46.050  3.3159  3.3930  4.7439 
  1197.500 -57.997  18.870  18.689  16.019 -42.081  18.870  18.689  16.019  0.3395  1197.5  46.375  3.3179  3.3951  4.7468 
  1198.000 -57.813  18.726  18.834  16.308 -41.897  18.726  18.834  16.308  0.3383  1198.0  46.700  3.3199  3.3973  4.7498 
  1198.500 -57.719  18.582  19.123  16.525 -41.803  18.582  19.123  16.525  0.3370  1198.5  47.025  3.3219  3.3994  4.7527 
  1199.000 -57.626  18.258  19.377  16.815 -41.711  18.258  19.377  16.815  0.3358  1199.0  47.350  3.3239  3.4016  4.7557 
  1199.500 -56.897  17.970  19.449  17.068 -40.982  17.970  19.449  17.068  0.3345  1199.5  47.675  3.3259  3.4037  4.7586 
  1200.000 -56.351  17.609  19.378  17.393 -40.436  17.609  19.378  17.393  0.3333  1200.0  48.000  3.3278  3.4059  4.7615 
  1200.500 -55.264  16.925  18.909  17.574 -39.349  16.925  18.909  17.574  0.3350  1200.5  47.945  3.3298  3.4081  4.7644 
  1201.000 -53.634  14.111  15.482  17.467 -37.720  14.111  15.482  17.467  0.3366  1201.0  47.890  3.3318  3.4103  4.7673 
  1201.500 -51.823  13.642  14.905  17.179 -35.909  13.642  14.905  17.179  0.3383  1201.5  47.835  3.3338  3.4124  4.7703 
  1202.000 -50.555  13.499  14.437  16.422 -34.641  13.499  14.437  16.422  0.3400  1202.0  47.780  3.3357  3.4146  4.7732 
  1202.500 -47.840  13.535  13.969  15.881 -31.926  13.535  13.969  15.881  0.3416  1202.5  47.725  3.3378  3.4168  4.7762 
  1203.000 -47.476  14.150  13.825  15.629 -31.562  14.150  13.825  15.629  0.3433  1203.0  47.670  3.3398  3.4191  4.7792 
  1203.500 -47.294  14.403  13.753  15.594 -31.381  14.403  13.753  15.594  0.3450  1203.5  47.615  3.3418  3.4213  4.7822 
  1204.000 -47.474  15.270  13.899  15.919 -31.561  15.270  13.899  15.919  0.3466  1204.0  47.560  3.3438  3.4235  4.7852 
  1204.500 -48.467  16.028  14.080  16.064 -32.554  16.028  14.080  16.064  0.3483  1204.5  47.505  3.3459  3.4258  4.7883 
  1205.000 -49.459  16.642  14.658  16.318 -33.546  16.642  14.658  16.318  0.3500  1205.0  47.450  3.3480  3.4280  4.7913 
  1205.500 -54.342  18.772  15.452  16.787 -38.430  18.772  15.452  16.787  0.3516  1205.5  47.395  3.3500  3.4303  4.7944 
  1206.000 -55.787  19.819  16.680  17.113 -39.875  19.819  16.680  17.113  0.3533  1206.0  47.340  3.3521  3.4325  4.7975 
  1206.500 -56.509  20.217  16.680  18.485 -40.597  20.217  16.680  18.485  0.3550  1206.5  47.285  3.3542  3.4348  4.8006 
  1207.000 -56.869  20.218  18.486  22.111 -40.957  20.218  18.486  22.111  0.3566  1207.0  47.230  3.3563  3.4371  4.8037 
  1207.500 -56.867  20.218  19.136  23.203 -40.956  20.218  19.136  23.203  0.3583  1207.5  47.175  3.3585  3.4394  4.8068 
  1208.000 -56.865  20.219  19.570  23.932 -40.954  20.219  19.570  23.932  0.3600  1208.0  47.120  3.3606  3.4417  4.8099 
  1208.500 -56.502  20.220  19.967  24.300 -40.591  20.220  19.967  24.300  0.3616  1208.5  47.065  3.3628  3.4440  4.8131 
  1209.000 -55.776  20.185  20.076  24.668 -39.865  20.185  20.076  24.668  0.3633  1209.0  47.010  3.3649  3.4463  4.8163 
  1209.500 -55.051  20.041  20.113  24.675 -39.141  20.041  20.113  24.675  0.3650  1209.5  46.955  3.3671  3.4486  4.8195 
  1210.000 -54.868  17.588  20.078  24.682 -38.958  17.588  20.078  24.682  0.3666  1210.0  46.900  3.3693  3.4510  4.8227 
  1210.500 -52.875  16.867  20.042  23.968 -36.965  16.867  20.042  23.968  0.3683  1210.5  46.845  3.3715  3.4533  4.8259 
  1211.000 -51.065  16.002  19.863  23.254 -35.155  16.002  19.863  23.254  0.3700  1211.0  46.790  3.3737  3.4557  4.8291 
  1211.500 -49.977  14.451  19.611  22.178 -34.068  14.451  19.611  22.178  0.3716  1211.5  46.735  3.3759  3.4580  4.8323 
  1212.000 -48.167  14.018  19.251  21.103 -32.258  14.018  19.251  21.103  0.3733  1212.0  46.680  3.3781  3.4604  4.8356 
  1212.500 -46.718  14.019  17.880  20.028 -30.809  14.019  17.880  20.028  0.3750  1212.5  46.625  3.3804  3.4628  4.8389 
  1213.000 -43.279  14.272  14.525  18.591 -27.370  14.272  14.525  18.591  0.3766  1213.0  46.570  3.3826  3.4652  4.8421 
  1213.500 -42.192  14.634  14.201  17.516 -26.284  14.634  14.201  17.516  0.3783  1213.5  46.515  3.3849  3.4676  4.8454 
  1214.000 -43.095  14.996  14.166  18.245 -27.187  14.996  14.166  18.245  0.3800  1214.0  46.460  3.3872  3.4700  4.8488 
  1214.500 -46.711  15.574  14.202  19.695 -30.803  15.574  14.202  19.695  0.3816  1214.5  46.405  3.3895  3.4724  4.8521 
  1215.000 -53.040  16.043  14.311  20.424 -37.132  16.043  14.311  20.424  0.3833  1215.0  46.350  3.3918  3.4748  4.8554 
  1215.500 -55.028  16.585  14.565  22.596 -39.121  16.585  14.565  22.596  0.3850  1215.5  46.295  3.3941  3.4772  4.8588 
  1216.000 -56.112  18.896  15.323  23.686 -40.205  18.896  15.323  23.686  0.3866  1216.0  46.240  3.3965  3.4797  4.8622 
  1216.500 -56.472  19.438  16.515  25.861 -40.565  19.438  16.515  25.861  0.3883  1216.5  46.185  3.3988  3.4821  4.8656 
  1217.000 -56.832  19.980  19.366  26.047 -40.925  19.980  19.366  26.047  0.3900  1217.0  46.130  3.4012  3.4846  4.8690 
  1217.500 -57.192  20.233  22.622  26.233 -41.286  20.233  22.622  26.233  0.3916  1217.5  46.075  3.4035  3.4870  4.8724 
  1218.000 -57.371  20.306  22.785  26.243 -41.465  20.306  22.785  26.243  0.3933  1218.0  46.020  3.4059  3.4895  4.8758 
  1218.500 -57.188  20.415  22.948  26.611 -41.282  20.415  22.948  26.611  0.3950  1218.5  45.965  3.4083  3.4920  4.8793 
  1219.000 -56.825  20.415  23.110  26.258 -40.919  20.415  23.110  26.258  0.3966  1219.0  45.910  3.4107  3.4945  4.8827 
  1219.500 -56.280  20.416  23.273  26.265 -40.375  20.416  23.273  26.265  0.3983  1219.5  45.855  3.4131  3.4970  4.8862 
  1220.000 -55.736  20.092  23.435  25.910 -39.831  20.092  23.435  25.910  0.4000  1220.0  45.800  3.4156  3.4995  4.8897 
  1220.500 -55.915  20.021  23.598  25.555 -40.010  20.021  23.598  25.555  0.4016  1220.5  45.745  3.4180  3.5020  4.8932 
  1221.000 -56.275  20.021  23.761  24.843 -40.370  20.021  23.761  24.843  0.4033  1221.0  45.690  3.4205  3.5045  4.8967 
  1221.500 -56.816  19.986  23.768  24.850 -40.912  19.986  23.768  24.850  0.4050  1221.5  45.635  3.4230  3.5070  4.9002 
  1222.000 -56.814  19.950  23.775  24.857 -40.910  19.950  23.775  24.857  0.4066  1222.0  45.580  3.4254  3.5096  4.9038 
  1222.500 -56.812  19.699  23.782  24.865 -40.908  19.699  23.782  24.865  0.4083  1222.5  45.525  3.4279  3.5121  4.9073 
  1223.000 -56.630  19.339  24.150  25.051 -40.726  19.339  24.150  25.051  0.4100  1223.0  45.470  3.4304  3.5146  4.9109 
  1223.500 -55.904  19.087  24.157  25.237 -40.000  19.087  24.157  25.237  0.4116  1223.5  45.415  3.4330  3.5172  4.9145 
  1224.000 -55.541  17.789  24.525  25.247 -39.638  17.789  24.525  25.247  0.4133  1224.0  45.360  3.4355  3.5198  4.9181 
  1224.500 -54.815  16.490  24.172  24.893 -38.912  16.490  24.172  24.893  0.4150  1224.5  45.305  3.4381  3.5223  4.9217 
  1225.000 -53.547  15.914  24.179  24.719 -37.644  15.914  24.179  24.719  0.4166  1225.0  45.250  3.4406  3.5249  4.9254 
  1225.500 -51.737  15.265  24.186  24.544 -35.834  15.265  24.186  24.544  0.4183  1225.5  45.195  3.4432  3.5275  4.9290 
  1226.000 -50.469  10.069  23.111  23.111 -34.567  10.069  23.111  23.111  0.4200  1226.0  45.140  3.4458  3.5301  4.9327 
  1226.500 -44.858  9.0960  22.757  19.416 -28.956  9.0960  22.757  19.416  0.4216  1226.5  45.085  3.4484  3.5327  4.9364 
  1227.000 -42.143  8.6630  21.682  18.803 -26.241  8.6630  21.682  18.803  0.4233  1227.0  45.030  3.4510  3.5353  4.9401 
