~Version Information
VERS.                     2.0: CWLS log ASCII Standard Version 2.00
WRAP.                      NO: One line per depth step
~Well Information Block
#MNEM.UNIT                               Data Type  Information
#---------                               ---------  -----------
STRT.FT                                   374.0000:
STOP.FT                                  6834.0000:
STEP.FT                                     0.5000:
NULL.                 -999.25                     :
COMP.                                             :COMPANY            
WELL.     SAN EMIDIO A #66-19 REDRILL             :WELL               
FLD .                                             :FIELD              
CTRY.                                             :COUNTRY            
STAT.                                             :STATE              
LOC .                                             :LOCATION           
UWI .                                             :UNIQUE WELL ID     
SRVC.                                             :Service company    
DATE.                                             :LOG DATE           
~Curve Information
#MNEM.UNIT           API CODE  Curve Description
#---------           --------  -----------------
DEPT.FT                      :   1 DEPTH
SP  .MV                      :   2
AM16.OHMM                    :   3
AO10.OHMM                    :   4
AO19.OHMM                    :   5
SBL .MV                      :   6
RS  .OHMM                    :   7
RM  .OHMM                    :   8
RD  .OHMM                    :   9
~A
# ...
  2918.000 -39.589  11.542  14.392  10.896 -30.122  11.542  14.392  10.896 
  2918.500 -35.165  10.882  14.471  10.789 -25.698  10.882  14.471  10.789 
  2919.000 -33.112  10.114  14.199  10.696 -23.646  10.114  14.199  10.696 
  2919.500 -31.634  8.8650  14.063  10.380 -22.169  8.8650  14.063  10.380 
  2920.000 -30.730  8.4570  13.920  9.9430 -21.265  8.4570  13.920  9.9430 
  2920.500 -30.060  8.1340  13.683  9.5840 -20.596  8.1340  13.683  9.5840 
  2921.000 -29.750  8.0490  13.311  9.2050 -20.286  8.0490  13.311  9.2050 
  2921.500 -30.014  7.9560  11.503  8.6310 -20.551  7.9560  11.503  8.6310 
  2922.000 -30.278  7.8640  11.108  8.3800 -20.816  7.8640  11.108  8.3800 
  2922.500 -31.081  7.6780  10.872  8.2090 -21.619  7.6780  10.872  8.2090 
  2923.000 -31.560  7.5560  10.693  8.0880 -22.099  7.5560  10.693  8.0880 
  2923.500 -31.752  7.4850  10.558  8.0170 -22.291  7.4850  10.558  8.0170 
  2924.000 -31.837  7.3850  10.372  8.1250 -22.377  7.3850  10.372  8.1250 
  2924.500 -31.580  7.2930  10.279  8.2690 -22.121  7.2930  10.279  8.2690 
  2925.000 -31.323  7.2070  10.201  8.4060 -21.864  7.2070  10.201  8.4060 
  2925.500 -30.438  7.1290  10.087  8.5220 -20.980  7.1290  10.087  8.5220 
  2926.000 -29.804  7.0800  9.9580  8.5870 -20.346  7.0800  9.9580  8.5870 
  2926.500 -29.062  7.0230  9.8590  8.6740 -19.605  7.0230  9.8590  8.6740 
  2927.000 -28.230  6.9950  9.7800  8.8040 -18.773  6.9950  9.7800  8.8040 
  2927.500 -27.399  6.9670  9.7240  9.0920 -17.943  6.9670  9.7240  9.0920 
  2928.000 -24.681  6.9610  9.6810  9.3650 -15.226  6.9610  9.6810  9.3650 
  2928.500 -23.940  6.9760  9.6960  9.7390 -14.485  6.9760  9.6960  9.7390 
  2929.000 -23.413  7.0050  9.7650  9.9770 -13.959  7.0050  9.7650  9.9770 
  2929.500 -24.647  7.0490  9.8340  10.093 -15.193  7.0490  9.8340  10.093 
  2930.000 -25.450  7.1000  9.8560  10.352 -15.997  7.1000  9.8560  10.352 
  2930.500 -27.296  7.1860  9.8780  10.597 -17.844  7.1860  9.8780  10.597 
  2931.000 -28.137  7.3580  9.7700  10.943 -18.685  7.3580  9.7700  10.943 
  2931.500 -29.157  7.4730  9.7060  11.210 -19.706  7.4730  9.7060  11.210 
  2932.000 -29.171  7.6380  9.6480  11.635 -19.720  7.6380  9.6480  11.635 
  2932.500 -28.970  7.9610  9.7920  12.146 -19.520  7.9610  9.7920  12.146 
  2933.000 -28.877  8.2630  9.9430  12.485 -19.427  8.2630  9.9430  12.485 
  2933.500 -29.035  8.5640  10.007  12.695 -19.586  8.5640  10.007  12.695 
  2934.000 -30.055  8.8590  10.072  12.818 -20.607  8.8590  10.072  12.818 
  2934.500 -31.973  9.5620  10.194  12.978 -22.525  9.5620  10.194  12.978 
  2935.000 -33.424  10.043  10.258  13.108 -23.977  10.043  10.258  13.108 
  2935.500 -35.163  10.524  10.359  13.440 -25.716  10.524  10.359  13.440 
  2936.000 -36.255  11.098  10.517  13.937 -26.809  11.098  10.517  13.937 
  2936.500 -37.958  11.730  10.632  14.197 -28.513  11.730  10.632  14.197 
  2937.000 -39.265  12.053  10.833  14.363 -29.820  12.053  10.833  14.363 
  2937.500 -41.040  12.412  11.106  14.508 -31.596  12.412  11.106  14.508 
  2938.000 -42.168  12.728  11.307  14.632 -32.724  12.728  11.307  14.632 
  2938.500 -43.367  12.936  11.385  14.719 -33.924  12.936  11.385  14.719 
  2939.000 -44.028  13.195  11.429  14.793 -34.585  13.195  11.429  14.793 
  2939.500 -44.222  13.424  11.436  14.873 -34.780  13.424  11.436  14.873 
  2940.000 -44.488  13.532  11.444  14.903 -35.047  13.532  11.444  14.903 
  2940.500 -41.864  13.749  11.452  14.902 -32.423  13.749  11.452  14.902 
  2941.000 -40.857  13.851  11.490  14.751 -31.417  13.851  11.490  14.751 
  2941.500 -40.460  13.961  11.527  14.592 -31.020  13.961  11.527  14.592 
  2942.000 -40.027  14.121  11.558  14.383 -30.588  14.121  11.558  14.383 
  2942.500 -39.917  14.575  11.653  14.239 -30.479  14.575  11.653  14.239 
  2943.000 -41.855  15.589  11.920  14.152 -32.417  15.589  11.920  14.152 
  2943.500 -44.691  15.978  12.389  14.374 -35.254  15.978  12.389  14.374 
  2944.000 -47.132  16.181  12.807  14.603 -37.695  16.181  12.807  14.603 
  2944.500 -48.280  16.499  13.268  14.882 -38.844  16.499  13.268  14.882 
  2945.000 -49.463  16.780  13.816  15.025 -40.027  16.780  13.816  15.025 
  2945.500 -50.108  17.127  14.485  15.218 -40.673  17.127  14.485  15.218 
  2946.000 -50.501  17.322  14.874  15.304 -41.067  17.322  14.874  15.304 
  2946.500 -50.643  17.525  15.357  15.425 -41.209  17.525  15.357  15.425 
  2947.000 -50.462  17.635  15.797  15.475 -41.029  17.635  15.797  15.475 
  2947.500 -50.280  17.715  16.107  15.309 -40.847  17.715  16.107  15.309 
  2948.000 -49.901  17.588  16.504  15.121 -40.469  17.588  16.504  15.121 
  2948.500 -49.522  17.425  16.958  14.927 -40.091  17.425  16.958  14.927 
  2949.000 -48.192  17.268  17.125  14.818 -38.761  17.268  17.125  14.818 
  2949.500 -46.968  16.962  17.364  14.732 -37.538  16.962  17.364  14.732 
  2950.000 -44.668  16.755  17.897  14.659 -35.238  16.755  17.897  14.659 
  2950.500 -43.518  16.498  18.350  14.639 -34.089  16.498  18.350  14.639 
  2951.000 -42.225  15.013  18.495  14.640 -32.797  15.013  18.495  14.640 
  2951.500 -40.501  13.894  18.632  14.612 -31.073  13.894  18.632  14.612 
  2952.000 -38.417  13.622  18.705  14.498 -28.990  13.622  18.705  14.498 
  2952.500 -37.160  13.315  18.742  14.148 -27.733  13.315  18.742  14.148 
  2953.000 -36.747  13.201  18.678  13.617 -27.321  13.201  18.678  13.617 
  2953.500 -36.334  13.102  17.933  13.317 -26.908  13.102  17.933  13.317 
  2954.000 -36.981  13.088  17.424  13.117 -27.556  13.088  17.424  13.117 
  2954.500 -38.669  13.190  17.332  13.025 -29.245  13.190  17.332  13.025 
  2955.000 -39.711  13.342  17.290  12.961 -30.287  13.342  17.290  12.961 
  2955.500 -40.788  13.537  17.234  12.919 -31.365  13.537  17.234  12.919 
  2956.000 -41.579  13.696  17.170  12.892 -32.156  13.696  17.170  12.892 
  2956.500 -42.369  13.926  17.128  13.101 -32.947  13.926  17.128  13.101 
  2957.000 -43.662  14.107  17.330  13.368 -34.241  14.107  17.330  13.368 
  2957.500 -44.380  14.187  17.683  13.577 -34.959  14.187  17.683  13.577 
  2958.000 -44.847  14.210  17.993  13.772 -35.427  14.210  17.993  13.772 
  2958.500 -45.063  14.125  18.181  13.866 -35.643  14.125  18.181  13.866 
  2959.000 -45.027  13.939  18.347  14.018 -35.608  13.939  18.347  14.018 
  2959.500 -44.668  13.538  18.455  14.084 -35.249  13.538  18.455  14.084 
  2960.000 -44.237  13.022  18.593  14.164 -34.819  13.022  18.593  14.164 
  2960.500 -43.305  12.807  18.664  14.234 -33.888  12.807  18.664  14.234 
  2961.000 -41.510  12.045  18.729  14.255 -32.093  12.045  18.729  14.255 
  2961.500 -37.130  11.334  18.714  14.125 -27.714  11.334  18.714  14.125 
  2962.000 -35.479  9.8480  18.462  13.800 -26.063  9.8480  18.462  13.800 
  2962.500 -34.008  9.3310  18.182  13.347 -24.593  9.3310  18.182  13.347 
  2963.000 -28.011  9.0140  16.947  12.090 -18.597  9.0140  16.947  12.090 
  2963.500 -26.971  8.6340  15.676  11.608 -17.557  8.6340  15.676  11.608 
  2964.000 -26.147  8.3530  14.706  11.420 -16.734  8.3530  14.706  11.420 
  2964.500 -25.323  8.0870  13.708  11.512 -15.910  8.0870  13.708  11.512 
  2965.000 -24.714  7.8930  13.485  11.691 -15.302  7.8930  13.485  11.691 
  2965.500 -24.033  7.7420  13.471  11.826 -14.621  7.7420  13.471  11.826 
  2966.000 -23.352  7.6200  13.406  11.940 -13.941  7.6200  13.406  11.940 
  2966.500 -23.246  7.5550  13.168  11.939 -13.836  7.5550  13.168  11.939 
  2967.000 -24.254  7.6260  12.945  11.909 -14.844  7.6260  12.945  11.909 
  2967.500 -26.626  7.7800  12.715  11.929 -17.217  7.7800  12.715  11.929 
  2968.000 -30.220  7.9340  12.586  12.122 -20.811  7.9340  12.586  12.122 
  2968.500 -33.455  8.5730  12.916  12.638 -24.047  8.5730  12.916  12.638 
  2969.000 -35.325  8.9450  13.246  13.046 -25.918  8.9450  13.246  13.046 
  2969.500 -37.230  9.4910  13.633  13.777 -27.823  9.4910  13.633  13.777 
  2970.000 -38.741  9.8210  13.891  14.063 -29.335  9.8210  13.891  14.063 
  2970.500 -39.962  10.029  14.171  14.264 -30.556  10.029  14.171  14.264 
