~Version Information
VERS.                     2.0: CWLS log ASCII Standard Version 2.00
WRAP.                      NO: One line per depth step
~Well Information Block
#MNEM.UNIT                               Data Type  Information
#---------                               ---------  -----------
STRT.FT                                   419.0000:
STOP.FT                                  7100.0000:
STEP.FT                                     0.5000:
NULL.                 -999.25                     :
COMP.                                             :COMPANY            
WELL.     SAN EMIDIO A #62-28                     :WELL               
FLD .                                             :FIELD              
CTRY.                                             :COUNTRY            
STAT.                                             :STATE              
LOC .                                             :LOCATION           
UWI .                                             :UNIQUE WELL ID     
SRVC.                                             :Service company    
DATE.                                             :LOG DATE           
~Curve Information
#MNEM.UNIT           API CODE  Curve Description
#---------           --------  -----------------
DEPT.FT                      :   1 DEPTH
SP  .MV                      :   2
AM16.OHMM                    :   3
AO10.OHMM                    :   4
AO19.OHMM                    :   5
SBL .MV                      :   6
RS  .OHMM                    :   7
RM  .OHMM                    :   8
RD  .OHMM                    :   9
DEVI.DEG                     :  10
TVD .FT                      :  11
AZIM.DEG                     :  12
NORT.FT                      :  13
EAST.FT                      :  14
OFFS.FT                      :  15
~A
# ...
  6204.000 -35.376  3.5810  2.8570  2.9010 -27.376  3.5810  2.8570  2.9010  1.6297  6202.2  173.78 -39.504  83.204  30.900 
  6204.500 -30.750  3.3580  2.7200  2.7430 -22.750  3.3580  2.7200  2.7430  1.6250  6202.7  173.88 -39.518  83.205  30.891 
  6205.000 -29.928  3.0780  2.4830  2.5570 -21.928  3.0780  2.4830  2.5570  1.6204  6203.2  173.98 -39.532  83.207  30.882 
  6205.500 -29.105  2.8200  2.2970  2.4700 -21.105  2.8200  2.2970  2.4700  1.6158  6203.7  174.07 -39.546  83.208  30.873 
  6206.000 -26.921  2.6260  2.1890  2.4670 -18.921  2.6260  2.1890  2.4670  1.6111  6204.2  174.17 -39.560  83.209  30.865 
  6206.500 -25.310  2.4960  2.2170  2.4630 -17.310  2.4960  2.2170  2.4630  1.6065  6204.7  174.27 -39.574  83.211  30.856 
  6207.000 -23.197  2.3670  2.2810  2.4560 -15.197  2.3670  2.2810  2.4560  1.6019  6205.2  174.36 -39.588  83.212  30.847 
  6207.500 -22.160  2.2950  2.3740  2.4410 -14.160  2.2950  2.3740  2.4410  1.5972  6205.7  174.46 -39.602  83.214  30.838 
  6208.000 -21.051  2.2950  2.5390  2.4410 -13.051  2.2950  2.5390  2.4410  1.5926  6206.2  174.56 -39.616  83.215  30.829 
  6208.500 -21.018  2.4310  2.6100  2.5480 -13.018  2.4310  2.6100  2.5480  1.5880  6206.7  174.66 -39.630  83.216  30.820 
  6209.000 -21.883  2.4990  2.6820  2.7130 -13.883  2.4990  2.6820  2.7130  1.5833  6207.2  174.75 -39.644  83.217  30.811 
  6209.500 -23.394  2.5660  2.8530  2.8270 -15.394  2.5660  2.8530  2.8270  1.5787  6207.7  174.85 -39.657  83.219  30.803 
  6210.000 -26.232  2.6300  2.9380  2.8630 -18.232  2.6300  2.9380  2.8630  1.5741  6208.2  174.95 -39.671  83.220  30.794 
  6210.500 -28.425  2.6440  3.0100  2.7630 -20.425  2.6440  3.0100  2.7630  1.5695  6208.7  175.04 -39.685  83.221  30.785 
  6211.000 -26.993  2.6940  3.0740  2.6620 -18.993  2.6940  3.0740  2.6620  1.5648  6209.2  175.14 -39.698  83.222  30.776 
  6211.500 -25.920  2.7440  3.0590  2.5980 -17.920  2.7440  3.0590  2.5980  1.5602  6209.7  175.24 -39.712  83.223  30.767 
  6212.000 -25.242  2.8220  3.0270  2.4830 -17.242  2.8220  3.0270  2.4830  1.5556  6210.2  175.34 -39.725  83.224  30.759 
  6212.500 -24.779  2.8510  2.9940  2.4180 -16.779  2.8510  2.9940  2.4180  1.5509  6210.7  175.43 -39.739  83.226  30.750 
  6213.000 -24.460  2.9940  2.9220  2.5040 -16.460  2.9940  2.9220  2.5040  1.5463  6211.2  175.53 -39.752  83.227  30.741 
  6213.500 -24.033  3.1370  2.9360  2.5900 -16.033  3.1370  2.9360  2.5900  1.5417  6211.7  175.63 -39.766  83.228  30.732 
  6214.000 -23.767  3.2510  3.0360  2.7040 -15.767  3.2510  3.0360  2.7040  1.5370  6212.2  175.73 -39.779  83.229  30.723 
  6214.500 -23.500  3.3660  3.1070  2.8040 -15.500  3.3660  3.1070  2.8040  1.5324  6212.7  175.82 -39.792  83.230  30.715 
  6215.000 -23.792  3.6300  3.1790  2.8680 -15.792  3.6300  3.1790  2.8680  1.5278  6213.2  175.92 -39.806  83.231  30.706 
  6215.500 -24.263  3.7440  3.2280  2.8250 -16.263  3.7440  3.2280  2.8250  1.5231  6213.7  176.02 -39.819  83.231  30.697 
  6216.000 -24.769  3.7370  3.2570  2.7390 -16.769  3.7370  3.2570  2.7390  1.5185  6214.2  176.11 -39.832  83.232  30.689 
  6216.500 -25.239  3.7800  3.2850  2.6820 -17.239  3.7800  3.2850  2.6820  1.5139  6214.7  176.21 -39.845  83.233  30.680 
  6217.000 -25.960  3.8720  3.1700  2.6530 -17.960  3.8720  3.1700  2.6530  1.5093  6215.2  176.31 -39.858  83.234  30.671 
  6217.500 -26.968  4.0010  3.0760  2.6740 -18.968  4.0010  3.0760  2.6740  1.5046  6215.7  176.41 -39.872  83.235  30.663 
  6218.000 -28.801  4.2370  2.9470  2.7390 -20.801  4.2370  2.9470  2.7390  1.5000  6216.2  176.50 -39.885  83.236  30.654 
  6218.500 -32.322  4.3660  2.8970  2.8810 -24.322  4.3660  2.8970  2.8810  1.4954  6216.7  176.60 -39.898  83.236  30.645 
  6219.000 -34.012  4.5450  2.9390  2.9280 -26.012  4.5450  2.9390  2.9280  1.4907  6217.2  176.70 -39.911  83.237  30.637 
  6219.500 -35.487  4.5800  2.9680  2.9750 -27.487  4.5800  2.9680  2.9750  1.4861  6217.7  176.79 -39.924  83.238  30.628 
  6220.000 -37.105  4.5440  2.9880  3.0460 -29.105  4.5440  2.9880  3.0460  1.4815  6218.2  176.89 -39.936  83.239  30.619 
  6220.500 -39.984  4.5080  3.0170  3.0010 -31.984  4.5080  3.0170  3.0010  1.4768  6218.7  176.99 -39.949  83.239  30.611 
  6221.000 -44.766  4.4630  3.0370  2.9560 -36.766  4.4630  3.0370  2.9560  1.4722  6219.2  177.09 -39.962  83.240  30.602 
  6221.500 -46.531  4.4920  2.9790  2.8820 -38.531  4.4920  2.9790  2.8820  1.4676  6219.7  177.18 -39.975  83.241  30.593 
  6222.000 -49.698  4.6700  2.9180  2.8300 -41.698  4.6700  2.9180  2.8300  1.4630  6220.2  177.28 -39.988  83.241  30.585 
  6222.500 -57.099  4.8340  2.8560  2.7770 -49.099  4.8340  2.8560  2.7770  1.4583  6220.7  177.38 -40.000  83.242  30.576 
  6223.000 -59.977  4.9990  2.7190  2.7320 -51.977  4.9990  2.7190  2.7320  1.4537  6221.2  177.48 -40.013  83.242  30.568 
  6223.500 -61.995  5.0330  2.6320  2.6870 -53.995  5.0330  2.6320  2.6870  1.4491  6221.7  177.57 -40.026  83.243  30.559 
  6224.000 -63.187  5.0690  2.5460  2.6130 -55.187  5.0690  2.5460  2.6130  1.4444  6222.2  177.67 -40.038  83.243  30.551 
  6224.500 -64.451  5.1110  2.5590  2.5970 -56.451  5.1110  2.5590  2.5970  1.4398  6222.7  177.77 -40.051  83.244  30.542 
  6225.000 -65.930  5.1820  2.6090  2.5730 -57.930  5.1820  2.6090  2.5730  1.4352  6223.2  177.86 -40.063  83.244  30.534 
  6225.500 -67.087  5.2600  2.6870  2.5350 -59.087  5.2600  2.6870  2.5350  1.4305  6223.7  177.96 -40.076  83.245  30.525 
  6226.000 -68.172  5.3310  2.7470  2.5180 -60.172  5.3310  2.7470  2.5180  1.4259  6224.2  178.06 -40.088  83.245  30.517 
  6226.500 -64.627  5.3440  2.8070  2.5090 -56.627  5.3440  2.8070  2.5090  1.4213  6224.7  178.16 -40.101  83.246  30.508 
  6227.000 -59.539  5.1720  2.8780  2.5000 -51.539  5.1720  2.8780  2.5000  1.4166  6225.2  178.25 -40.113  83.246  30.500 
  6227.500 -52.944  4.3970  2.9200  2.4760 -44.944  4.3970  2.9200  2.4760  1.4120  6225.7  178.35 -40.125  83.246  30.491 
  6228.000 -43.012  3.5220  2.9410  2.4880 -35.012  3.5220  2.9410  2.4880  1.4074  6226.2  178.45 -40.138  83.247  30.483 
  6228.500 -36.956  2.8830  2.9340  2.5000 -28.956  2.8830  2.9340  2.5000  1.4028  6226.7  178.55 -40.150  83.247  30.474 
  6229.000 -23.292  2.5810  2.7750  2.4910 -15.292  2.5810  2.7750  2.4910  1.3981  6227.2  178.64 -40.162  83.247  30.466 
  6229.500 -21.756  2.3870  2.5950  2.4250 -13.756  2.3870  2.5950  2.4250  1.3935  6227.7  178.74 -40.174  83.248  30.457 
  6230.000 -20.508  2.2790  2.5230  2.3580 -12.508  2.2790  2.5230  2.3580  1.3889  6228.2  178.84 -40.186  83.248  30.449 
  6230.500 -19.010  2.1640  2.4070  2.2770 -11.010  2.1640  2.4070  2.2770  1.3842  6228.7  178.93 -40.198  83.248  30.441 
  6231.000 -18.157  2.0270  2.3420  2.2320 -10.157  2.0270  2.3420  2.2320  1.3796  6229.2  179.03 -40.210  83.248  30.432 
  6231.500 -17.841  1.9540  2.2560  2.2080 -9.8410  1.9540  2.2560  2.2080  1.3750  6229.7  179.13 -40.222  83.248  30.424 
  6232.000 -17.491  1.9900  2.2120  2.2030 -9.4910  1.9900  2.2120  2.2030  1.3703  6230.2  179.23 -40.234  83.249  30.416 
  6232.500 -17.499  2.1680  2.2110  2.1970 -9.4990  2.1680  2.2110  2.1970  1.3657  6230.7  179.32 -40.246  83.249  30.407 
  6233.000 -17.543  2.3460  2.3460  2.3160 -9.5430  2.3460  2.3460  2.3160  1.3611  6231.2  179.42 -40.258  83.249  30.399 
  6233.500 -17.875  2.6400  2.4890  2.4650 -9.8750  2.6400  2.4890  2.4650  1.3564  6231.7  179.52 -40.270  83.249  30.391 
  6234.000 -18.277  3.1260  2.6530  2.7920 -10.277  3.1260  2.6530  2.7920  1.3518  6232.2  179.61 -40.282  83.249  30.382 
  6234.500 -19.038  3.6490  2.7210  3.0190 -11.038  3.6490  2.7210  3.0190  1.3472  6232.7  179.71 -40.294  83.249  30.374 
  6235.000 -23.496  4.3000  2.7880  3.2250 -15.496  4.3000  2.7880  3.2250  1.3426  6233.2  179.81 -40.305  83.249  30.366 
  6235.500 -28.636  5.0880  2.9730  3.3590 -20.636  5.0880  2.9730  3.3590  1.3379  6233.7  179.91 -40.317  83.249  30.358 
  6236.000 -31.658  5.5530  3.0800  3.4720 -23.658  5.5530  3.0800  3.4720  1.3333  6234.2  180.00 -40.329  83.249  30.349 
