~Version Information
VERS.                     2.0: CWLS log ASCII Standard Version 2.00
WRAP.                      NO: One line per depth step
~Well Information Block
#MNEM.UNIT                               Data Type  Information
#---------                               ---------  -----------
STRT.FT                                   419.0000:
STOP.FT                                  7100.0000:
STEP.FT                                     0.5000:
NULL.                 -999.25                     :
COMP.                                             :COMPANY            
WELL.     SAN EMIDIO A #62-28                     :WELL               
FLD .                                             :FIELD              
CTRY.                                             :COUNTRY            
STAT.                                             :STATE              
LOC .                                             :LOCATION           
UWI .                                             :UNIQUE WELL ID     
SRVC.                                             :Service company    
DATE.                                             :LOG DATE           
~Curve Information
#MNEM.UNIT           API CODE  Curve Description
#---------           --------  -----------------
DEPT.FT                      :   1 DEPTH
SP  .MV                      :   2
AM16.OHMM                    :   3
AO10.OHMM                    :   4
AO19.OHMM                    :   5
SBL .MV                      :   6
RS  .OHMM                    :   7
RM  .OHMM                    :   8
RD  .OHMM                    :   9
DEVI.DEG                     :  10
TVD .FT                      :  11
AZIM.DEG                     :  12
NORT.FT                      :  13
EAST.FT                      :  14
OFFS.FT                      :  15
~A
# ...
  7081.500 -26.819  13.255  15.366  11.230 -10.819  13.255  15.366  11.230  5.2500  7076.2  165.00 -113.44  103.44 -7.0709 
  7082.000 -27.101  13.248  15.331  11.291 -11.101  13.248  15.331  11.291  5.2500  7076.7  165.00 -113.48  103.45 -7.0938 
  7082.500 -27.418  13.199  15.181  11.386 -11.418  13.199  15.181  11.386  5.2500  7077.2  165.00 -113.53  103.46 -7.1167 
  7083.000 -27.772  12.581  14.793  11.444 -11.772  12.581  14.793  11.444  5.2500  7077.7  165.00 -113.57  103.47 -7.1396 
  7083.500 -28.018  12.207  14.241  11.488 -12.018  12.207  14.241  11.488  5.2500  7078.2  165.00 -113.62  103.49 -7.1625 
  7084.000 -27.652  11.589  14.134  11.489 -11.652  11.589  14.134  11.489  5.2500  7078.7  165.00 -113.66  103.50 -7.1853 
  7084.500 -27.179  11.251  14.027  11.202 -11.179  11.251  14.027  11.202  5.2500  7079.2  165.00 -113.70  103.51 -7.2082 
  7085.000 -26.706  10.878  13.848  10.706 -10.706  10.878  13.848  10.706  5.2500  7079.7  165.00 -113.75  103.52 -7.2311 
  7085.500 -26.521  10.670  13.504  10.261 -10.521  10.670  13.504  10.261  5.2500  7080.2  165.00 -113.79  103.53 -7.2540 
  7086.000 -26.299  10.462  11.937  9.7580 -10.299  10.462  11.937  9.7580  5.2500  7080.7  165.00 -113.84  103.55 -7.2768 
  7086.500 -26.221  10.218  11.290  9.4780 -10.221  10.218  11.290  9.4780  5.2500  7081.2  165.00 -113.88  103.56 -7.2997 
  7087.000 -26.215  10.168  10.903  9.3060 -10.215  10.168  10.903  9.3060  5.2500  7081.7  165.00 -113.92  103.57 -7.3226 
  7087.500 -26.245  10.140  10.580  9.5150 -10.245  10.140  10.580  9.5150  5.2500  7082.2  165.00 -113.97  103.58 -7.3455 
  7088.000 -26.240  10.191  10.272  9.6530 -10.240  10.191  10.272  9.6530  5.2500  7082.7  165.00 -114.01  103.59 -7.3684 
  7088.500 -26.342  10.224  10.223  9.8690 -10.342  10.224  10.223  9.8690  5.2500  7083.2  165.00 -114.06  103.60 -7.3912 
  7089.000 -26.552  10.257  10.260  10.036 -10.552  10.257  10.260  10.036  5.2500  7083.7  165.00 -114.10  103.62 -7.4141 
  7089.500 -26.797  10.178  10.275  10.151 -10.797  10.178  10.275  10.151  5.2500  7084.2  165.00 -114.15  103.63 -7.4370 
  7090.000 -26.863  10.021  10.290  10.281 -10.863  10.021  10.290  10.281  5.2500  7084.7  165.00 -114.19  103.64 -7.4599 
  7090.500 -27.109  9.9130  10.284  10.412 -11.109  9.9130  10.284  10.412  5.2500  7085.1  165.00 -114.23  103.65 -7.4827 
  7091.000 -27.319  9.9720  10.220  10.715 -11.319  9.9720  10.220  10.715  5.2500  7085.6  165.00 -114.28  103.66 -7.5056 
  7091.500 -27.493  10.195  10.099  10.874 -11.493  10.195  10.099  10.874  5.2500  7086.1  165.00 -114.32  103.68 -7.5285 
  7092.000 -27.559  10.606  10.014  11.036 -11.559  10.606  10.014  11.036  5.2500  7086.6  165.00 -114.37  103.69 -7.5514 
  7092.500 -27.158  10.959  9.9720  11.199 -11.158  10.959  9.9720  11.199  5.2500  7087.1  165.00 -114.41  103.70 -7.5743 
  7093.000 -26.505  11.413  10.239  11.696 -10.505  11.413  10.239  11.696  5.2500  7087.6  165.00 -114.46  103.71 -7.5971 
  7093.500 -26.032  12.033  10.527  12.193 -10.032  12.033  10.527  12.193  5.2500  7088.1  165.00 -114.50  103.72 -7.6200 
  7094.000 -25.594  12.745  11.111  12.654 -9.5940  12.745  11.111  12.654  5.2500  7088.6  165.00 -114.54  103.73 -7.6429 
  7094.500 -25.966  13.530  11.393  13.267 -9.9660  13.530  11.393  13.267  5.2500  7089.1  165.00 -114.59  103.75 -7.6658 
  7095.000 -26.338  14.330  12.213  15.476 -10.338  14.330  12.213  15.476  5.2500  7089.6  165.00 -114.63  103.76 -7.6886 
  7095.500 -26.979  15.467  12.984  17.448 -10.979  15.467  12.984  17.448  5.2500  7090.1  165.00 -114.68  103.77 -7.7115 
  7096.000 -27.225  18.123  17.682  18.571 -11.225  18.123  17.682  18.571  5.2500  7090.6  165.00 -114.72  103.78 -7.7344 
  7096.500 -27.650  18.979  18.819  19.817 -11.650  18.979  18.819  19.817  5.2500  7091.1  165.00 -114.76  103.79 -7.7573 
  7097.000 -27.788  23.670  19.424  31.759 -11.788  23.670  19.424  31.759  5.2500  7091.6  165.00 -114.81  103.81 -7.7802 
  7097.500 -27.962  25.762 -999.25  35.868 -11.962  25.762 -999.25  35.868  5.2500  7092.1  165.00 -114.85  103.82 -7.8030 
  7098.000 -27.920  27.136 -999.25  38.248 -11.920  27.136 -999.25  38.248  5.2500  7092.6  165.00 -114.90  103.83 -7.8259 
  7098.500 -27.663  27.862 -999.25  40.414 -11.663  27.862 -999.25  40.414  5.2500  7093.1  165.00 -114.94  103.84 -7.8488 
  7099.000 -27.297  28.299 -999.25  41.860 -11.297  28.299 -999.25  41.860  5.2500  7093.6  165.00 -114.99  103.85 -7.8717 
  7099.500 -27.040  27.515 -999.25  43.092 -11.040  27.515 -999.25  43.092  5.2500  7094.1  165.00 -115.03  103.86 -7.8945 
  7100.000 -26.926  25.435 -999.25  43.170 -10.926  25.435 -999.25  43.170  5.2500  7094.6  165.00 -115.07  103.88 -7.9174 
