~Version Information
VERS.                     2.0: CWLS log ASCII Standard Version 2.00
WRAP.                      NO: One line per depth step
~Well Information Block
#MNEM.UNIT                               Data Type  Information
#---------                               ---------  -----------
STRT.FT                                   419.0000:
STOP.FT                                  7100.0000:
STEP.FT                                     0.5000:
NULL.                 -999.25                     :
COMP.                                             :COMPANY            
WELL.     SAN EMIDIO A #62-28                     :WELL               
FLD .                                             :FIELD              
CTRY.                                             :COUNTRY            
STAT.                                             :STATE              
LOC .                                             :LOCATION           
UWI .                                             :UNIQUE WELL ID     
SRVC.                                             :Service company    
DATE.                                             :LOG DATE           
~Curve Information
#MNEM.UNIT           API CODE  Curve Description
#---------           --------  -----------------
DEPT.FT                      :   1 DEPTH
SP  .MV                      :   2
AM16.OHMM                    :   3
AO10.OHMM                    :   4
AO19.OHMM                    :   5
SBL .MV                      :   6
RS  .OHMM                    :   7
RM  .OHMM                    :   8
RD  .OHMM                    :   9
DEVI.DEG                     :  10
TVD .FT                      :  11
AZIM.DEG                     :  12
NORT.FT                      :  13
EAST.FT                      :  14
OFFS.FT                      :  15
~A
# ...
  6626.500 -24.801  1.9690  2.4570  1.9810 -8.8010  1.9690  2.4570  1.9810  5.2500  6623.1  165.00 -73.223  92.665  13.748 
  6627.000 -24.616  1.9700  2.4500  2.0250 -8.6160  1.9700  2.4500  2.0250  5.2500  6623.6  165.00 -73.267  92.677  13.725 
  6627.500 -24.360  1.9700  2.4140  2.1550 -8.3600  1.9700  2.4140  2.1550  5.2500  6624.1  165.00 -73.312  92.689  13.702 
  6628.000 -24.356  1.9710  2.3920  2.3280 -8.3560  1.9710  2.3920  2.3280  5.2500  6624.6  165.00 -73.356  92.701  13.679 
  6628.500 -24.387  1.9650  2.3780  2.4800 -8.3870  1.9650  2.3780  2.4800  5.2500  6625.1  165.00 -73.400  92.713  13.656 
  6629.000 -24.491  1.9660  2.3410  2.6750 -8.4910  1.9660  2.3410  2.6750  5.2500  6625.6  165.00 -73.444  92.725  13.633 
  6629.500 -24.702  1.9530  2.3120  2.7190 -8.7020  1.9530  2.3120  2.7190  5.2500  6626.1  165.00 -73.488  92.736  13.610 
  6630.000 -24.697  1.9530  2.2830  2.7270 -8.6970  1.9530  2.2830  2.7270  5.2500  6626.6  165.00 -73.533  92.748  13.588 
  6630.500 -24.657  1.9580  2.1900  2.7280 -8.6570  1.9580  2.1900  2.7280  5.2500  6627.1  165.00 -73.577  92.760  13.565 
  6631.000 -24.401  1.9620  2.1610  2.7280 -8.4010  1.9620  2.1610  2.7280  5.2500  6627.6  165.00 -73.621  92.772  13.542 
  6631.500 -24.288  1.9560  2.0960  2.7290 -8.2880  1.9560  2.0960  2.7290  5.2500  6628.1  165.00 -73.665  92.784  13.519 
  6632.000 -24.176  1.9430  2.0810  2.7300 -8.1760  1.9430  2.0810  2.7300  5.2500  6628.6  165.00 -73.709  92.796  13.496 
  6632.500 -24.064  1.9290  2.0600  2.7190 -8.0640  1.9290  2.0600  2.7190  5.2500  6629.1  165.00 -73.754  92.807  13.473 
  6633.000 -24.023  1.9150  2.0450  2.7090 -8.0230  1.9150  2.0450  2.7090  5.2500  6629.6  165.00 -73.798  92.819  13.450 
  6633.500 -23.983  1.9380  2.0160  2.7030 -7.9830  1.9380  2.0160  2.7030  5.2500  6630.1  165.00 -73.842  92.831  13.427 
  6634.000 -23.978  1.9610  2.0230  2.6970 -7.9780  1.9610  2.0230  2.6970  5.2500  6630.6  165.00 -73.886  92.843  13.405 
  6634.500 -23.902  1.9430  2.0230  2.6900 -7.9020  1.9430  2.0230  2.6900  5.2500  6631.1  165.00 -73.930  92.855  13.382 
  6635.000 -23.897  1.9260  2.0300  2.6330 -7.8970  1.9260  2.0300  2.6330  5.2500  6631.6  165.00 -73.975  92.867  13.359 
  6635.500 -24.001  1.9490  2.0370  2.5050 -8.0010  1.9490  2.0370  2.5050  5.2500  6632.1  165.00 -74.019  92.879  13.336 
  6636.000 -24.104  1.9710  2.0440  2.4480 -8.1040  1.9710  2.0440  2.4480  5.2500  6632.6  165.00 -74.063  92.890  13.313 
  6636.500 -24.279  1.9940  2.0650  2.4050 -8.2790  1.9940  2.0650  2.4050  5.2500  6633.1  165.00 -74.107  92.902  13.290 
  6637.000 -24.293  1.9730  2.0720  2.2840 -8.2930  1.9730  2.0720  2.2840  5.2500  6633.6  165.00 -74.151  92.914  13.267 
  6637.500 -24.307  1.9670  2.0720  2.2480 -8.3070  1.9670  2.0720  2.2480  5.2500  6634.0  165.00 -74.195  92.926  13.244 
  6638.000 -24.302  1.9680  2.0720  2.2170 -8.3020  1.9680  2.0720  2.2170  5.2500  6634.5  165.00 -74.240  92.938  13.222 
  6638.500 -24.208  1.9680  2.0720  2.1850 -8.2080  1.9680  2.0720  2.1850  5.2500  6635.0  165.00 -74.284  92.950  13.199 
  6639.000 -24.113  1.9700  2.0650  2.1500 -8.1130  1.9700  2.0650  2.1500  5.2500  6635.5  165.00 -74.328  92.961  13.176 
  6639.500 -24.145  1.9560  2.0640  2.1430 -8.1450  1.9560  2.0640  2.1430  5.2500  6636.0  165.00 -74.372  92.973  13.153 
  6640.000 -24.212  1.9460  2.0640  2.1440 -8.2120  1.9460  2.0640  2.1440  5.2500  6636.5  165.00 -74.416  92.985  13.130 
  6640.500 -24.215  1.9360  2.0650  2.1450 -8.2150  1.9360  2.0650  2.1450  5.2500  6637.0  165.00 -74.461  92.997  13.107 
  6641.000 -24.146  1.9430  2.0590  2.1460 -8.1460  1.9430  2.0590  2.1460  5.2500  6637.5  165.00 -74.505  93.009  13.084 
  6641.500 -24.076  1.9440  2.0520  2.1540 -8.0760  1.9440  2.0520  2.1540  5.2500  6638.0  165.00 -74.549  93.021  13.061 
  6642.000 -24.043  1.9440  2.0530  2.1630 -8.0430  1.9440  2.0530  2.1630  5.2500  6638.5  165.00 -74.593  93.032  13.038 
  6642.500 -24.118  1.9590  2.0540  2.1640 -8.1180  1.9590  2.0540  2.1640  5.2500  6639.0  165.00 -74.637  93.044  13.016 
  6643.000 -24.228  1.9660  2.0590  2.1650 -8.2280  1.9660  2.0590  2.1650  5.2500  6639.5  165.00 -74.682  93.056  12.993 
  6643.500 -24.375  1.9740  2.0630  2.1660 -8.3750  1.9740  2.0630  2.1660  5.2500  6640.0  165.00 -74.726  93.068  12.970 
  6644.000 -24.485  2.0030  2.0930  2.1600 -8.4850  2.0030  2.0930  2.1600  5.2500  6640.5  165.00 -74.770  93.080  12.947 
  6644.500 -24.596  2.0180  2.1300  2.1470 -8.5960  2.0180  2.1300  2.1470  5.2500  6641.0  165.00 -74.814  93.092  12.924 
  6645.000 -24.778  2.0610  2.1670  2.1480 -8.7780  2.0610  2.1670  2.1480  5.2500  6641.5  165.00 -74.858  93.103  12.901 
  6645.500 -24.925  2.1050  2.2250  2.1490 -8.9250  2.1050  2.2250  2.1490  5.2500  6642.0  165.00 -74.903  93.115  12.878 
  6646.000 -25.071  2.1990  2.2550  2.1720 -9.0710  2.1990  2.2550  2.1720  5.2500  6642.5  165.00 -74.947  93.127  12.855 
  6646.500 -25.110  2.2570  2.2700  2.2090 -9.1100  2.2570  2.2700  2.2090  5.2500  6643.0  165.00 -74.991  93.139  12.833 
  6647.000 -24.897  2.3070  2.2960  2.2530 -8.8970  2.3070  2.2960  2.2530  5.2500  6643.5  165.00 -75.035  93.151  12.810 
  6647.500 -24.684  2.2860  2.3220  2.2900 -8.6840  2.2860  2.3220  2.2900  5.2500  6644.0  165.00 -75.079  93.163  12.787 
  6648.000 -24.039  2.2720  2.3230  2.3050 -8.0390  2.2720  2.3230  2.3050  5.2500  6644.5  165.00 -75.124  93.174  12.764 
  6648.500 -23.790  2.2580  2.3240  2.3500 -7.7900  2.2580  2.3240  2.3500  5.2500  6645.0  165.00 -75.168  93.186  12.741 
  6649.000 -23.578  2.2590  2.3180  2.3870 -7.5780  2.2590  2.3180  2.3870  5.2500  6645.5  165.00 -75.212  93.198  12.718 
  6649.500 -23.365  2.2550  2.3330  2.4090 -7.3650  2.2550  2.3330  2.4090  5.2500  6646.0  165.00 -75.256  93.210  12.695 
  6650.000 -23.188  2.2520  2.3270  2.4180 -7.1880  2.2520  2.3270  2.4180  5.2500  6646.5  165.00 -75.300  93.222  12.672 
  6650.500 -23.190  2.2020  2.3060  2.4260 -7.1900  2.2020  2.3060  2.4260  5.2500  6647.0  165.00 -75.345  93.234  12.650 
  6651.000 -23.121  2.1810  2.2850  2.3910 -7.1210  2.1810  2.2850  2.3910  5.2500  6647.5  165.00 -75.389  93.246  12.627 
  6651.500 -22.944  2.1590  2.2650  2.3270 -6.9440  2.1590  2.2650  2.3270  5.2500  6648.0  165.00 -75.433  93.257  12.604 
  6652.000 -22.767  2.1240  2.2440  2.2850 -6.7670  2.1240  2.2440  2.2850  5.2500  6648.5  165.00 -75.477  93.269  12.581 
  6652.500 -22.590  2.0600  2.1870  2.2000 -6.5900  2.0600  2.1870  2.2000  5.2500  6649.0  165.00 -75.521  93.281  12.558 
  6653.000 -22.323  2.0310  2.1310  2.1510 -6.3230  2.0310  2.1310  2.1510  5.2500  6649.5  165.00 -75.565  93.293  12.535 
  6653.500 -22.056  2.0030  2.1030  2.0940 -6.0560  2.0030  2.1030  2.0940  5.2500  6650.0  165.00 -75.610  93.305  12.512 
  6654.000 -21.483  1.9850  2.0820  2.0520 -5.4830  1.9850  2.0820  2.0520  5.2500  6650.5  165.00 -75.654  93.317  12.489 
  6654.500 -20.839  1.9670  2.0610  2.0240 -4.8390  1.9670  2.0610  2.0240  5.2500  6651.0  165.00 -75.698  93.328  12.467 
  6655.000 -20.410  1.9460  2.0440  1.9970 -4.4100  1.9460  2.0440  1.9970  5.2500  6651.5  165.00 -75.742  93.340  12.444 
  6655.500 -20.125  1.9470  2.0270  1.9910 -4.1250  1.9470  2.0270  1.9910  5.2500  6652.0  165.00 -75.786  93.352  12.421 
  6656.000 -19.840  1.9470  2.0280  1.9920 -3.8400  1.9470  2.0280  1.9920  5.2500  6652.5  165.00 -75.831  93.364  12.398 
  6656.500 -19.735  1.9550  2.0290  2.0030 -3.7350  1.9550  2.0290  2.0030  5.2500  6653.0  165.00 -75.875  93.376  12.375 
  6657.000 -19.630  2.1130  2.0370  2.0150 -3.6300  2.1130  2.0370  2.0150  5.2500  6653.5  165.00 -75.919  93.388  12.352 
  6657.500 -20.316  2.3010  2.0380  2.0670 -4.3160  2.3010  2.0380  2.0670  5.2500  6654.0  165.00 -75.963  93.399  12.329 
  6658.000 -20.678  2.5600  2.0610  2.0820 -4.6780  2.5600  2.0610  2.0820  5.2500  6654.5  165.00 -76.007  93.411  12.306 
  6658.500 -21.184  2.7830  2.1050  2.1340 -5.1840  2.7830  2.1050  2.1340  5.2500  6655.0  165.00 -76.052  93.423  12.284 
