~Version Information
VERS.                     2.0: CWLS log ASCII Standard Version 2.00
WRAP.                      NO: One line per depth step
~Well Information Block
#MNEM.UNIT                               Data Type  Information
#---------                               ---------  -----------
STRT.FT                                   419.0000:
STOP.FT                                  7100.0000:
STEP.FT                                     0.5000:
NULL.                 -999.25                     :
COMP.                                             :COMPANY            
WELL.     SAN EMIDIO A #62-28                     :WELL               
FLD .                                             :FIELD              
CTRY.                                             :COUNTRY            
STAT.                                             :STATE              
LOC .                                             :LOCATION           
UWI .                                             :UNIQUE WELL ID     
SRVC.                                             :Service company    
DATE.                                             :LOG DATE           
~Curve Information
#MNEM.UNIT           API CODE  Curve Description
#---------           --------  -----------------
DEPT.FT                      :   1 DEPTH
SP  .MV                      :   2
AM16.OHMM                    :   3
AO10.OHMM                    :   4
AO19.OHMM                    :   5
SBL .MV                      :   6
RS  .OHMM                    :   7
RM  .OHMM                    :   8
RD  .OHMM                    :   9
DEVI.DEG                     :  10
TVD .FT                      :  11
AZIM.DEG                     :  12
NORT.FT                      :  13
EAST.FT                      :  14
OFFS.FT                      :  15
~A
# ...
  5749.000 -17.004  1.6980  2.2290  1.8970 -8.2625  1.6980  2.2290  1.8970  2.9150  5747.5  182.51 -22.514  84.142  43.577 
  5749.500 -16.528  1.6970  2.2280  1.8960 -7.7903  1.6970  2.2280  1.8960  2.9158  5748.0  182.51 -22.540  84.141  43.559 
  5750.000 -16.052  1.7150  2.2280  1.8950 -7.3181  1.7150  2.2280  1.8950  2.9167  5748.5  182.50 -22.565  84.140  43.540 
  5750.500 -15.720  1.7320  2.2280  1.8860 -6.9899  1.7320  2.2280  1.8860  2.9175  5749.0  182.50 -22.591  84.139  43.521 
  5751.000 -15.387  1.7430  2.2270  1.8780 -6.6606  1.7430  2.2270  1.8780  2.9183  5749.5  182.49 -22.616  84.138  43.502 
  5751.500 -15.112  1.7530  2.2120  1.8620 -6.3894  1.7530  2.2120  1.8620  2.9192  5750.0  182.49 -22.641  84.137  43.484 
  5752.000 -15.085  1.7520  2.1830  1.8320 -6.3662  1.7520  2.1830  1.8320  2.9200  5750.5  182.48 -22.667  84.135  43.465 
  5752.500 -15.023  1.7520  2.1680  1.8170 -6.3080  1.7520  2.1680  1.8170  2.9208  5751.0  182.48 -22.692  84.134  43.446 
  5753.000 -14.925  1.7510  2.1600  1.7870 -6.2138  1.7510  2.1600  1.7870  2.9217  5751.5  182.47 -22.718  84.133  43.427 
  5753.500 -14.863  1.7510  2.1530  1.7650 -6.1556  1.7510  2.1530  1.7650  2.9225  5752.0  182.47 -22.743  84.132  43.408 
  5754.000 -14.765  1.7430  2.1450  1.7640 -6.0613  1.7430  2.1450  1.7640  2.9233  5752.5  182.46 -22.769  84.131  43.390 
  5754.500 -14.739  1.7420  2.1440  1.7480 -6.0391  1.7420  2.1440  1.7480  2.9242  5753.0  182.46 -22.794  84.130  43.371 
  5755.000 -15.217  1.7420  2.1650  1.7330 -6.5209  1.7420  2.1650  1.7330  2.9250  5753.5  182.45 -22.820  84.129  43.352 
  5755.500 -15.766  1.7480  2.1650  1.7320 -7.0737  1.7480  2.1650  1.7320  2.9258  5754.0  182.45 -22.845  84.128  43.333 
  5756.000 -16.208  1.7330  2.1640  1.7310 -7.5195  1.7330  2.1640  1.7310  2.9267  5754.5  182.44 -22.871  84.127  43.315 
  5756.500 -16.794  1.7400  2.1780  1.7370 -8.1093  1.7400  2.1780  1.7370  2.9275  5755.0  182.44 -22.896  84.126  43.296 
  5757.000 -17.164  1.7610  2.1840  1.7570 -8.4830  1.7610  2.1840  1.7570  2.9283  5755.5  182.43 -22.922  84.125  43.277 
  5757.500 -17.642  1.7610  2.1980  1.7630 -8.9648  1.7610  2.1980  1.7630  2.9292  5756.0  182.43 -22.947  84.123  43.258 
  5758.000 -17.939  1.7740  2.2120  1.7440 -9.2656  1.7740  2.2120  1.7440  2.9300  5756.5  182.42 -22.973  84.122  43.239 
  5758.500 -18.201  1.7670  2.2190  1.7250 -9.5314  1.7670  2.2190  1.7250  2.9308  5757.0  182.42 -22.998  84.121  43.220 
  5759.000 -18.067  1.7590  2.2180  1.6950 -9.4012  1.7590  2.2180  1.6950  2.9317  5757.5  182.41 -23.024  84.120  43.202 
  5759.500 -16.745  1.7580  2.2180  1.6800 -8.0830  1.7580  2.2180  1.6800  2.9325  5758.0  182.41 -23.050  84.119  43.183 
  5760.000 -15.784  1.7650  2.2170  1.6690 -7.1257  1.7650  2.2170  1.6690  2.9333  5758.5  182.40 -23.075  84.118  43.164 
  5760.500 -15.467  1.7710  2.2020  1.6570 -6.8125  1.7710  2.2020  1.6570  2.9342  5759.0  182.40 -23.101  84.117  43.145 
  5761.000 -15.258  1.7630  2.2000  1.6420 -6.6073  1.7630  2.2000  1.6420  2.9350  5759.5  182.39 -23.126  84.116  43.126 
  5761.500 -15.084  1.7540  2.1990  1.6410 -6.4371  1.7540  2.1990  1.6410  2.9358  5760.0  182.39 -23.152  84.115  43.107 
  5762.000 -14.911  1.7460  2.1830  1.6330 -6.2679  1.7460  2.1830  1.6330  2.9367  5760.5  182.38 -23.177  84.114  43.089 
  5762.500 -14.595  1.7480  2.1820  1.6180 -5.9557  1.7480  2.1820  1.6180  2.9375  5761.0  182.38 -23.203  84.113  43.070 
  5763.000 -14.279  1.7510  2.1880  1.5960 -5.6434  1.7510  2.1880  1.5960  2.9383  5761.5  182.37 -23.229  84.112  43.051 
  5763.500 -14.034  1.7490  2.1940  1.5880 -5.4022  1.7490  2.1940  1.5880  2.9392  5762.0  182.37 -23.254  84.111  43.032 
  5764.000 -13.825  1.7480  2.1930  1.5730 -5.1970  1.7480  2.1930  1.5730  2.9400  5762.5  182.36 -23.280  84.110  43.013 
  5764.500 -14.157  1.7470  2.1920  1.5650 -5.5328  1.7470  2.1920  1.5650  2.9408  5763.0  182.36 -23.305  84.109  42.994 
  5765.000 -14.559  1.7520  2.1910  1.5640 -5.9386  1.7520  2.1910  1.5640  2.9417  5763.5  182.35 -23.331  84.107  42.975 
  5765.500 -15.467  1.7510  2.1820  1.5640 -6.8504  1.7510  2.1820  1.5640  2.9425  5764.0  182.35 -23.357  84.106  42.956 
  5766.000 -15.869  1.7500  2.1810  1.5630 -7.2561  1.7500  2.1810  1.5630  2.9433  5764.5  182.34 -23.382  84.105  42.938 
  5766.500 -16.669  1.7490  2.1800  1.5620 -8.0599  1.7490  2.1800  1.5620  2.9442  5765.0  182.34 -23.408  84.104  42.919 
  5767.000 -17.017  1.7510  2.1710  1.5610 -8.4117  1.7510  2.1710  1.5610  2.9450  5765.5  182.33 -23.434  84.103  42.900 
  5767.500 -17.365  1.7530  2.1630  1.5430 -8.7635  1.7530  2.1630  1.5430  2.9458  5766.0  182.33 -23.459  84.102  42.881 
  5768.000 -17.914  1.7520  2.1540  1.5240 -9.3163  1.7520  2.1540  1.5240  2.9467  5766.5  182.32 -23.485  84.101  42.862 
  5768.500 -17.398  1.7510  2.1460  1.5200 -8.8041  1.7510  2.1460  1.5200  2.9475  5767.0  182.32 -23.511  84.100  42.843 
  5769.000 -16.883  1.7500  2.1370  1.5160 -8.2928  1.7500  2.1370  1.5160  2.9483  5767.5  182.31 -23.536  84.099  42.824 
  5769.500 -16.512  1.7480  2.1360  1.5150 -7.9256  1.7480  2.1360  1.5150  2.9492  5768.0  182.31 -23.562  84.098  42.805 
  5770.000 -16.141  1.7470  2.1350  1.5140 -7.5584  1.7470  2.1350  1.5140  2.9500  5768.5  182.30 -23.588  84.097  42.786 
  5770.500 -16.870  1.7460  2.1330  1.5060 -8.2912  1.7460  2.1330  1.5060  2.9508  5769.0  182.30 -23.614  84.096  42.767 
  5771.000 -17.453  1.7450  2.1320  1.4980 -8.8780  1.7450  2.1320  1.4980  2.9517  5769.5  182.29 -23.639  84.095  42.749 
  5771.500 -17.856  1.7430  2.1380  1.4980 -9.2848  1.7430  2.1380  1.4980  2.9525  5770.0  182.29 -23.665  84.094  42.730 
  5772.000 -17.413  1.7420  2.1370  1.4970 -8.8455  1.7420  2.1370  1.4970  2.9533  5770.5  182.28 -23.691  84.093  42.711 
  5772.500 -16.970  1.7410  2.1280  1.4960 -8.4063  1.7410  2.1280  1.4960  2.9542  5771.0  182.28 -23.717  84.092  42.692 
  5773.000 -16.474  1.7400  2.1200  1.4950 -7.9141  1.7400  2.1200  1.4950  2.9550  5771.5  182.27 -23.742  84.091  42.673 
  5773.500 -16.050  1.7380  2.1110  1.4950 -7.4939  1.7380  2.1110  1.4950  2.9558  5772.0  182.27 -23.768  84.090  42.654 
  5774.000 -15.733  1.7370  2.1100  1.4940 -7.1807  1.7370  2.1100  1.4940  2.9567  5772.5  182.26 -23.794  84.089  42.635 
  5774.500 -15.237  1.7360  2.1020  1.5000 -6.6885  1.7360  2.1020  1.5000  2.9575  5773.0  182.26 -23.820  84.088  42.616 
  5775.000 -15.279  1.7350  2.1010  1.5140 -6.7342  1.7350  2.1010  1.5140  2.9583  5773.5  182.25 -23.845  84.087  42.597 
  5775.500 -15.611  1.7410  2.0990  1.5200 -7.0700  1.7410  2.0990  1.5200  2.9592  5774.0  182.25 -23.871  84.086  42.578 
  5776.000 -16.014  1.7470  2.0980  1.5270 -7.4768  1.7470  2.0980  1.5270  2.9600  5774.5  182.24 -23.897  84.085  42.559 
  5776.500 -16.273  1.7450  2.0930  1.5260 -7.7396  1.7450  2.0930  1.5260  2.9608  5775.0  182.24 -23.923  84.084  42.540 
  5777.000 -16.676  1.7440  2.0890  1.5260 -8.1464  1.7440  2.0890  1.5260  2.9617  5775.5  182.23 -23.949  84.083  42.521 
  5777.500 -16.611  1.7430  2.0870  1.5250 -8.0851  1.7430  2.0870  1.5250  2.9625  5776.0  182.23 -23.974  84.082  42.502 
  5778.000 -15.934  1.7420  2.0860  1.5380 -7.4119  1.7420  2.0860  1.5380  2.9633  5776.5  182.22 -24.000  84.081  42.483 
  5778.500 -15.222  1.7400  2.0770  1.5380 -6.7037  1.7400  2.0770  1.5380  2.9642  5777.0  182.22 -24.026  84.080  42.464 
  5779.000 -14.833  1.7390  2.0760  1.5370 -6.3185  1.7390  2.0760  1.5370  2.9650  5777.5  182.21 -24.052  84.079  42.445 
  5779.500 -14.840  1.7380  2.0750  1.5360 -6.3293  1.7380  2.0750  1.5360  2.9658  5778.0  182.21 -24.078  84.078  42.426 
  5780.000 -15.063  1.7360  2.0740  1.5360 -6.5561  1.7360  2.0740  1.5360  2.9667  5778.5  182.20 -24.104  84.077  42.407 
  5780.500 -15.351  1.7360  2.0580  1.5500 -6.8478  1.7360  2.0580  1.5500  2.9675  5779.0  182.20 -24.130  84.076  42.388 
  5781.000 -15.675  1.7350  2.0500  1.5650 -7.1756  1.7350  2.0500  1.5650  2.9683  5779.5  182.19 -24.155  84.075  42.369 
