~Version Information
VERS.                     2.0: CWLS log ASCII Standard Version 2.00
WRAP.                      NO: One line per depth step
~Well Information Block
#MNEM.UNIT                               Data Type  Information
#---------                               ---------  -----------
STRT.FT                                   374.0000:
STOP.FT                                  6834.0000:
STEP.FT                                     0.5000:
NULL.                 -999.25                     :
COMP.                                             :COMPANY            
WELL.     SAN EMIDIO A #66-19 REDRILL             :WELL               
FLD .                                             :FIELD              
CTRY.                                             :COUNTRY            
STAT.                                             :STATE              
LOC .                                             :LOCATION           
UWI .                                             :UNIQUE WELL ID     
SRVC.                                             :Service company    
DATE.                                             :LOG DATE           
~Curve Information
#MNEM.UNIT           API CODE  Curve Description
#---------           --------  -----------------
DEPT.FT                      :   1 DEPTH
SP  .MV                      :   2
AM16.OHMM                    :   3
AO10.OHMM                    :   4
AO19.OHMM                    :   5
SBL .MV                      :   6
RS  .OHMM                    :   7
RM  .OHMM                    :   8
RD  .OHMM                    :   9
~A
# ...
  4667.000 -16.963  5.5460  6.1120  6.4350 -8.9630  5.5460  6.1120  6.4350 
  4667.500 -16.740  5.7610  6.1630  6.9640 -8.7400  5.7610  6.1630  6.9640 
  4668.000 -16.733  5.8830  6.3920  7.4580 -8.7330  5.8830  6.3920  7.4580 
  4668.500 -16.906  6.0190  6.8230  7.8090 -8.9060  6.0190  6.8230  7.8090 
  4669.000 -17.115  6.1410  7.1020  8.1160 -9.1150  6.1410  7.1020  8.1160 
  4669.500 -17.395  6.2560  7.2890  8.3880 -9.3950  6.2560  7.2890  8.3880 
  4670.000 -18.072  6.3710  7.5620  8.5730 -10.072  6.3710  7.5620  8.5730 
  4670.500 -20.056  6.4580  8.0510  8.7530 -12.056  6.4580  8.0510  8.7530 
  4671.000 -22.579  6.5740  8.0950  8.7470 -14.579  6.5740  8.0950  8.7470 
  4671.500 -23.987  6.6120  8.0250  8.5610 -15.987  6.6120  8.0250  8.5610 
  4672.000 -24.206  6.4340  7.7900  8.2680 -16.206  6.4340  7.7900  8.2680 
  4672.500 -21.798  6.2770  7.0950  7.4720 -13.798  6.2770  7.0950  7.4720 
  4673.000 -19.642  6.1430  6.7020  5.9020 -11.642  6.1430  6.7020  5.9020 
  4673.500 -18.997  6.0220  6.2800  5.5080 -10.997  6.0220  6.2800  5.5080 
  4674.000 -18.461  5.9880  5.8150  5.3510 -10.461  5.9880  5.8150  5.3510 
  4674.500 -18.536  6.0030  5.5080  5.3440 -10.536  6.0030  5.5080  5.3440 
  4675.000 -22.248  6.0980  5.3590  5.4810 -14.248  6.0980  5.3590  5.4810 
  4675.500 -27.904  6.4870  5.2890  5.6680 -19.904  6.4870  5.2890  5.6680 
  4676.000 -31.255  6.6750  5.4340  5.9270 -23.255  6.6750  5.4340  5.9270 
  4676.500 -34.175  6.7910  5.5930  6.1220 -26.175  6.7910  5.5930  6.1220 
  4677.000 -37.095  6.9000  5.7160  6.2440 -29.095  6.9000  5.7160  6.2440 
  4677.500 -39.294  6.8800  5.8180  6.2950 -31.294  6.8800  5.8180  6.2950 
  4678.000 -37.606  6.7310  5.9200  6.2320 -29.606  6.7310  5.9200  6.2320 
  4678.500 -36.061  6.5670  6.0360  6.0530 -28.061  6.5670  6.0360  6.0530 
  4679.000 -34.985  6.4970  6.1020  5.8310 -26.985  6.4970  6.1020  5.8310 
  4679.500 -34.016  6.4120  6.1760  5.7100 -26.016  6.4120  6.1760  5.7100 
  4680.000 -33.552  6.3420  6.3920  5.5460 -25.552  6.3420  6.3920  5.5460 
  4680.500 -33.552  6.3270  6.5640  5.4740 -25.552  6.3270  6.5640  5.4740 
  4681.000 -38.664  6.2830  6.6990  5.4450 -30.664  6.2830  6.6990  5.4450 
  4681.500 -39.456  6.2610  6.7990  5.4380 -31.456  6.2610  6.7990  5.4380 
  4682.000 -36.900  6.2170  6.8340  5.4170 -28.900  6.2170  6.8340  5.4170 
  4682.500 -34.776  6.1660  6.8480  5.4020 -26.776  6.1660  6.8480  5.4020 
  4683.000 -33.732  6.1080  6.8110  5.4090 -25.732  6.1080  6.8110  5.4090 
  4683.500 -32.796  5.9420  6.7670  5.4450 -24.796  5.9420  6.7670  5.4450 
  4684.000 -32.400  5.8050  6.7020  5.5670 -24.400  5.8050  6.7020  5.5670 
  4684.500 -33.480  5.6680  6.6660  5.6170 -25.480  5.6680  6.6660  5.6170 
  4685.000 -33.516  5.3090  6.5790  5.6600 -25.516  5.3090  6.5790  5.6600 
  4685.500 -30.348  4.9280  6.4560  5.5030 -22.348  4.9280  6.4560  5.5030 
  4686.000 -26.676  4.6910  6.2110  5.2230 -18.676  4.6910  6.2110  5.2230 
  4686.500 -21.816  4.4750  5.8740  5.0000 -13.816  4.4750  5.8740  5.0000 
  4687.000 -17.928  4.3520  5.4850  4.8140 -9.9280  4.3520  5.4850  4.8140 
  4687.500 -16.992  4.2220  5.1550  4.6560 -8.9920  4.2220  5.1550  4.6560 
  4688.000 -16.560  4.1570  5.0750  4.5480 -8.5600  4.1570  5.0750  4.5480 
  4688.500 -16.200  4.1060  5.0100  4.5050 -8.2000  4.1060  5.0100  4.5050 
  4689.000 -16.164  4.0980  4.9550  4.6270 -8.1640  4.0980  4.9550  4.6270 
  4689.500 -16.164  4.1400  4.9010  4.7280 -8.1640  4.1400  4.9010  4.7280 
  4690.000 -16.272  4.1970  4.8860  4.8780 -8.2720  4.1970  4.8860  4.8780 
  4690.500 -16.810  4.3610  4.8990  5.1140 -8.8100  4.3610  4.8990  5.1140 
  4691.000 -17.420  4.5690  4.9420  5.3220 -9.4200  4.5690  4.9420  5.3220 
  4691.500 -18.535  4.7690  4.9840  5.6510 -10.535  4.7690  4.9840  5.6510 
  4692.000 -19.937  5.0760  5.0840  5.8940 -11.937  5.0760  5.0840  5.8940 
  4692.500 -22.707  5.3340  5.4850  6.1160 -14.707  5.3340  5.4850  6.1160 
  4693.000 -26.557  5.5920  5.8430  6.2440 -18.557  5.5920  5.8430  6.2440 
  4693.500 -30.623  5.8200  5.9640  6.3660 -22.623  5.8200  5.9640  6.3660 
  4694.000 -38.794  6.0060  6.0920  6.4150 -30.794  6.0060  6.0920  6.4150 
  4694.500 -41.276  6.1060  6.1420  6.4000 -33.276  6.1060  6.1420  6.4000 
  4695.000 -42.966  6.2630  6.1700  6.2270 -34.966  6.2630  6.1700  6.2270 
  4695.500 -44.260  6.3560  6.1550  6.1330 -36.260  6.3560  6.1550  6.1330 
  4696.000 -46.274  6.4770  6.0320  6.0250 -38.274  6.4770  6.0320  6.0250 
  4696.500 -47.965  6.6910  5.9020  6.0280 -39.965  6.6910  5.9020  6.0280 
  4697.000 -48.935  6.8130  5.8440  6.0310 -40.935  6.8130  5.8440  6.0310 
  4697.500 -49.833  6.8550  5.8150  6.1090 -41.833  6.8550  5.8150  6.1090 
  4698.000 -50.372  6.9040  5.7850  6.1510 -42.372  6.9040  5.7850  6.1510 
  4698.500 -51.233  6.9540  5.7490  6.2010 -43.233  6.9540  5.7490  6.2010 
  4699.000 -52.456  6.9750  5.7120  6.2070 -44.456  6.9750  5.7120  6.2070 
  4699.500 -53.354  6.9810  5.5820  6.1850 -45.354  6.9810  5.5820  6.1850 
  4700.000 -53.892  6.8510  5.4170  6.0410 -45.892  6.8510  5.4170  6.0410 
  4700.500 -54.504  6.7080  5.3300  5.7890 -46.504  6.7080  5.3300  5.7890 
  4701.000 -54.648  6.5790  5.1510  5.6530 -46.648  6.5790  5.1510  5.6530 
  4701.500 -54.828  6.5070  5.0220  5.5660 -46.828  6.5070  5.0220  5.5660 
  4702.000 -55.152  6.4850  4.9000  5.5800 -47.152  6.4850  4.9000  5.5800 
  4702.500 -55.584  6.4850  4.8570  5.5940 -47.584  6.4850  4.8570  5.5940 
  4703.000 -55.764  6.5140  4.8930  5.6080 -47.764  6.5140  4.8930  5.6080 
  4703.500 -55.944  6.5390  4.9390  5.6080 -47.944  6.5390  4.9390  5.6080 
  4704.000 -56.232  6.5650  4.9860  5.6070 -48.232  6.5650  4.9860  5.6070 
  4704.500 -56.340  6.5860  5.0650  5.5780 -48.340  6.5860  5.0650  5.5780 
  4705.000 -56.304  6.5570  5.0940  5.5460 -48.304  6.5570  5.0940  5.5460 
  4705.500 -56.160  6.4930  5.1080  5.5130 -48.160  6.4930  5.1080  5.5130 
  4706.000 -56.016  6.4780  5.0360  5.4190 -48.016  6.4780  5.0360  5.4190 
  4706.500 -55.764  6.4780  4.9570  5.3760 -47.764  6.4780  4.9570  5.3760 
  4707.000 -56.628  6.4640  4.8860  5.3470 -48.628  6.4640  4.8860  5.3470 
  4707.500 -57.528  6.4500  4.8930  5.3110 -49.528  6.4500  4.8930  5.3110 
  4708.000 -57.996  6.3990  4.9500  5.2100 -49.996  6.3990  4.9500  5.2100 
  4708.500 -57.456  6.3920  4.9650  5.1590 -49.456  6.3920  4.9650  5.1590 
  4709.000 -56.988  6.3640  4.9790  5.0800 -48.988  6.3640  4.9790  5.0800 
  4709.500 -56.520  6.3350  5.0290  5.0080 -48.520  6.3350  5.0290  5.0080 
  4710.000 -55.368  6.3200  5.0650  4.9360 -47.368  6.3200  5.0650  4.9360 
  4710.500 -54.504  6.3000  5.0660  4.8860 -46.504  6.3000  5.0660  4.8860 
  4711.000 -54.504  6.2790  5.0230  4.8500 -46.504  6.2790  5.0230  4.8500 
  4711.500 -55.152  6.2800  5.0170  4.9150 -47.152  6.2800  5.0170  4.9150 
  4712.000 -55.476  6.3090  4.9820  4.9800 -47.476  6.3090  4.9820  4.9800 
  4712.500 -55.728  6.3100  4.9750  5.0170 -47.728  6.3100  4.9750  5.0170 
  4713.000 -55.836  6.2960  4.9540  5.0460 -47.836  6.2960  4.9540  5.0460 
  4713.500 -54.504  6.2610  4.9410  5.0460 -46.504  6.2610  4.9410  5.0460 
  4714.000 -53.172  6.1330  4.9270  5.0180 -45.172  6.1330  4.9270  5.0180 
  4714.500 -51.732  5.9680  4.8850  4.9610 -43.732  5.9680  4.8850  4.9610 
  4715.000 -49.320  5.8330  4.8570  4.8750 -41.320  5.8330  4.8570  4.8750 
  4715.500 -47.952  5.7260  4.8290  4.8540 -39.952  5.7260  4.8290  4.8540 
  4716.000 -47.160  5.7050  4.7870  4.8680 -39.160  5.7050  4.7870  4.8680 
  4716.500 -46.332  5.6840  4.7660  4.8330 -38.332  5.6840  4.7660  4.8330 
  4717.000 -45.288  5.6490  4.7230  4.8120 -37.288  5.6490  4.7230  4.8120 
  4717.500 -44.712  5.6140  4.6880  4.8840 -36.712  5.6140  4.6880  4.8840 
  4718.000 -43.884  5.5360  4.6820  4.9200 -35.884  5.5360  4.6820  4.9200 
  4718.500 -43.236  5.4720  4.6830  4.9200 -35.236  5.4720  4.6830  4.9200 
  4719.000 -42.300  5.4440  4.6760  4.8920 -34.300  5.4440  4.6760  4.8920 
  4719.500 -41.472  5.3660  4.6770  4.8710 -33.472  5.3660  4.6770  4.8710 
