~Version Information
VERS.                     2.0: CWLS log ASCII Standard Version 2.00
WRAP.                      NO: One line per depth step
~Well Information Block
#MNEM.UNIT                               Data Type  Information
#---------                               ---------  -----------
STRT.FT                                   530.0000:
STOP.FT                                  8230.0000:
STEP.FT                                     0.5000:
NULL.                 -999.25                     :
COMP.                                             :COMPANY            
WELL.     SAN EMIDIO #61-28 REDRILL               :WELL               
FLD .                                             :FIELD              
CTRY.                                             :COUNTRY            
STAT.                                             :STATE              
LOC .                                             :LOCATION           
UWI .                                             :UNIQUE WELL ID     
SRVC.                                             :Service company    
DATE.                                             :LOG DATE           
~Curve Information
#MNEM.UNIT           API CODE  Curve Description
#---------           --------  -----------------
DEPT.FT                      :   1 DEPTH
SP  .MV                      :   2
2Z18.OHMM                    :   3
31Z9.OHMM                    :   4
31Z1.OHMM                    :   5
SBL .MV                      :   6
RS  .OHMM                    :   7
RM  .OHMM                    :   8
 RD .OHMM                    :   9
DEVI.DEG                     :  10
TVD .FT                      :  11
AZIM.DEG                     :  12
NORT.FT                      :  13
EAST.FT                      :  14
OFFS.FT                      :  15
~A
   530.000 -24.626 -999.25 -999.25 -999.25 -20.626 -999.25 -999.25 -999.25  0.4417  529.99  331.73  1.9218 -0.6567  0.8945 
   530.500 -25.955 -999.25 -999.25 -999.25 -21.955 -999.25 -999.25 -999.25  0.4421  530.49  331.70  1.9252 -0.6585  0.8957 
   531.000 -27.451 -999.25 -999.25  0.0160 -23.451 -999.25 -999.25  0.0160  0.4425  530.99  331.67  1.9286 -0.6604  0.8968 
   531.500 -28.781  25.662 -999.25  0.2490 -24.781  25.662 -999.25  0.2490  0.4429  531.49  331.65  1.9320 -0.6622  0.8979 
   532.000 -29.445  25.993 -999.25  0.4820 -25.445  25.993 -999.25  0.4820  0.4433  531.99  331.62  1.9354 -0.6640  0.8990 
   532.500 -29.110  26.658  21.326  0.7150 -25.110  26.658  21.326  0.7150  0.4437  532.49  331.59  1.9388 -0.6659  0.9001 
   533.000 -28.443  27.323  23.190  0.9470 -24.443  27.323  23.190  0.9470  0.4442  532.99  331.57  1.9422 -0.6677  0.9012 
   533.500 -27.277  29.321  25.055  1.1800 -23.277  29.321  25.055  1.1800  0.4446  533.49  331.54  1.9456 -0.6696  0.9023 
   534.000 -27.275  31.320  26.920  1.4130 -23.275  31.320  26.920  1.4130  0.4450  533.99  331.51  1.9490 -0.6714  0.9034 
   534.500 -27.606  32.985  28.785  1.6460 -23.606  32.985  28.785  1.6460  0.4454  534.49  331.49  1.9524 -0.6733  0.9045 
   535.000 -28.270  33.983  30.650  1.8790 -24.270  33.983  30.650  1.8790  0.4458  534.99  331.46  1.9558 -0.6751  0.9056 
   535.500 -28.684  34.648  32.981  8.0120 -24.684  34.648  32.981  8.0120  0.4462  535.49  331.43  1.9593 -0.6770  0.9067 
   536.000 -29.098  34.313  34.980  9.3120 -25.098  34.313  34.980  9.3120  0.4467  535.99  331.41  1.9627 -0.6789  0.9078 
   536.500 -30.095  33.978  38.978  10.678 -26.095  33.978  38.978  10.678  0.4471  536.49  331.38  1.9661 -0.6807  0.9089 
   537.000 -30.592  32.976  40.310  12.377 -26.592  32.976  40.310  12.377  0.4475  536.99  331.35  1.9695 -0.6826  0.9100 
   537.500 -31.256  31.975  43.308  12.877 -27.256  31.975  43.308  12.877  0.4479  537.49  331.33  1.9730 -0.6845  0.9111 
   538.000 -31.754  29.973  43.640  17.610 -27.754  29.973  43.640  17.610  0.4483  537.99  331.30  1.9764 -0.6864  0.9122 
   538.500 -32.085  28.305  43.972  17.910 -28.085  28.305  43.972  17.910  0.4487  538.49  331.27  1.9798 -0.6882  0.9133 
   539.000 -32.582  26.636  43.970  18.209 -28.582  26.636  43.970  18.209  0.4492  538.99  331.25  1.9833 -0.6901  0.9144 
   539.500 -32.913  24.301  43.635  19.142 -28.913  24.301  43.635  19.142  0.4496  539.49  331.22  1.9867 -0.6920  0.9155 
   540.000 -33.245  22.966  42.633  23.778 -29.245  22.966  42.633  23.778  0.4500  539.99  331.19  1.9901 -0.6939  0.9166 
   540.500 -33.243  22.631  41.631  28.413 -29.243  22.631  41.631  28.413  0.4504  540.49  331.17  1.9936 -0.6958  0.9177 
   541.000 -32.909  22.630  39.630  26.408 -28.909  22.630  39.630  26.408  0.4508  540.99  331.14  1.9970 -0.6977  0.9188 
   541.500 -32.907  22.795  37.295  25.071 -28.907  22.795  37.295  25.071  0.4512  541.49  331.11  2.0005 -0.6996  0.9199 
   542.000 -33.071  22.961  35.293  24.400 -29.071  22.961  35.293  24.400  0.4517  541.99  331.09  2.0039 -0.7015  0.9210 
   542.500 -33.236  24.291  32.625  23.729 -29.236  24.291  32.625  23.729  0.4521  542.49  331.06  2.0074 -0.7034  0.9221 
   543.000 -33.567  24.790  30.290  23.391 -29.567  24.790  30.290  23.391  0.4525  542.99  331.03  2.0108 -0.7053  0.9231 
   543.500 -34.065  25.289  28.288  23.721 -30.065  25.289  28.288  23.721  0.4529  543.49  331.01  2.0143 -0.7072  0.9242 
   544.000 -34.562  28.286  28.286  24.383 -30.562  28.286  28.286  24.383  0.4533  543.99  330.98  2.0178 -0.7092  0.9253 
   544.500 -35.393  29.618  28.951  26.046 -31.393  29.618  28.951  26.046  0.4537  544.49  330.95  2.0212 -0.7111  0.9264 
   545.000 -36.223  29.616  30.283  28.375 -32.223  29.616  30.283  28.375  0.4542  544.99  330.93  2.0247 -0.7130  0.9275 
   545.500 -36.388  28.948  34.948  30.370 -32.388  28.948  34.948  30.370  0.4546  545.49  330.90  2.0282 -0.7149  0.9286 
   546.000 -36.885  28.280  38.613  33.033 -32.885  28.280  38.613  33.033  0.4550  545.99  330.87  2.0316 -0.7169  0.9297 
   546.500 -37.216  27.945  41.278  35.029 -33.216  27.945  41.278  35.029  0.4554  546.49  330.85  2.0351 -0.7188  0.9308 
   547.000 -37.547  27.610  42.609  36.691 -33.547  27.610  42.609  36.691  0.4558  546.99  330.82  2.0386 -0.7207  0.9318 
   547.500 -37.712  26.775  42.608  37.020 -33.712  26.775  42.608  37.020  0.4562  547.49  330.79  2.0420 -0.7227  0.9329 
   548.000 -37.627  25.940  42.273  36.850 -33.627  25.940  42.273  36.850  0.4567  547.99  330.77  2.0455 -0.7246  0.9340 
   548.500 -37.542  24.938  41.271  36.680 -33.542  24.938  41.271  36.680  0.4571  548.49  330.74  2.0490 -0.7266  0.9351 
   549.000 -37.208  23.603  40.936  35.341 -33.208  23.603  40.936  35.341  0.4575  548.99  330.71  2.0525 -0.7285  0.9362 
   549.500 -37.040  23.268  38.934  33.670 -33.040  23.268  38.934  33.670  0.4579  549.49  330.69  2.0560 -0.7305  0.9372 
   550.000 -37.038  23.094  33.599  32.666 -33.038  23.094  33.599  32.666  0.4583  549.99  330.66  2.0595 -0.7325  0.9383 
   550.500 -37.702  22.921  30.598  31.995 -33.702  22.921  30.598  31.995  0.4587  550.49  330.63  2.0629 -0.7344  0.9394 
   551.000 -38.033  22.747  29.263  30.324 -34.033  22.747  29.263  30.324  0.4592  550.99  330.61  2.0664 -0.7364  0.9405 
   551.500 -38.697  22.574  28.594  28.987 -34.697  22.574  28.594  28.987  0.4596  551.49  330.58  2.0699 -0.7384  0.9416 
   552.000 -39.028  22.400  28.593  27.983 -35.028  22.400  28.593  27.983  0.4600  551.99  330.55  2.0734 -0.7403  0.9426 
   552.500 -38.860  22.227  28.592  28.312 -34.860  22.227  28.592  28.312  0.4604  552.49  330.53  2.0769 -0.7423  0.9437 
   553.000 -38.692  22.053  28.590  28.642 -34.692  22.053  28.590  28.642  0.4608  552.99  330.50  2.0804 -0.7443  0.9448 
   553.500 -38.191  21.879  29.254  30.637 -34.191  21.879  29.254  30.637  0.4612  553.49  330.47  2.0839 -0.7463  0.9459 
   554.000 -38.439  21.706  29.586  31.299 -34.439  21.706  29.586  31.299  0.4617  553.99  330.45  2.0874 -0.7483  0.9469 
   554.500 -38.687  21.532  29.919  30.962 -34.687  21.532  29.919  30.962  0.4621  554.49  330.42  2.0909 -0.7502  0.9480 
   555.000 -39.518  21.359  31.249  30.958 -35.518  21.359  31.249  30.958  0.4625  554.99  330.39  2.0944 -0.7522  0.9491 
   555.500 -39.849  21.185  31.581  29.953 -35.849  21.185  31.581  29.953  0.4629  555.49  330.37  2.0980 -0.7542  0.9502 
   556.000 -39.847  21.012  30.913  29.116 -35.847  21.012  30.913  29.116  0.4633  555.99  330.34  2.1015 -0.7562  0.9512 
   556.500 -39.346  20.838  29.911  28.279 -35.346  20.838  29.911  28.279  0.4637  556.49  330.31  2.1050 -0.7582  0.9523 
   557.000 -39.844  20.665  28.576  26.608 -35.844  20.665  28.576  26.608  0.4642  556.99  330.29  2.1085 -0.7602  0.9534 
   557.500 -40.008  20.491  28.908  26.604 -36.008  20.491  28.908  26.604  0.4646  557.49  330.26  2.1120 -0.7623  0.9544 
   558.000 -40.506  20.318  29.240  27.933 -36.506  20.318  29.240  27.933  0.4650  557.99  330.23  2.1155 -0.7643  0.9555 
   558.500 -40.172  20.144  29.904  29.929 -36.172  20.144  29.904  29.929  0.4654  558.49  330.21  2.1191 -0.7663  0.9566 
   559.000 -39.837  19.970  30.903  31.592 -35.837  19.970  30.903  31.592  0.4658  558.99  330.18  2.1226 -0.7683  0.9576 
   559.500 -39.835  19.797  31.234  32.587 -35.835  19.797  31.234  32.587  0.4662  559.49  330.15  2.1261 -0.7703  0.9587 
   560.000 -40.166  19.623  31.899  32.917 -36.166  19.623  31.899  32.917  0.4667  559.99  330.13  2.1297 -0.7724  0.9597 
   560.500 -40.497  17.590  32.231  31.246 -36.497  17.590  32.231  31.246  0.4671  560.49  330.10  2.1332 -0.7744  0.9608 
   561.000 -39.165  15.323  31.229  29.908 -35.165  15.323  31.229  29.908  0.4675  560.99  330.07  2.1367 -0.7764  0.9619 
   561.500 -37.499  14.989  29.561  27.904 -33.499  14.989  29.561  27.904  0.4679  561.49  330.05  2.1403 -0.7785  0.9629 
   562.000 -37.331  14.656  26.226  26.567 -33.331  14.656  26.226  26.567  0.4683  561.99  330.02  2.1438 -0.7805  0.9640 
