~Version Information
VERS.                     2.0: CWLS log ASCII Standard Version 2.00
WRAP.                      NO: One line per depth step
~Well Information Block
#MNEM.UNIT                               Data Type  Information
#---------                               ---------  -----------
STRT.FT                                   374.0000:
STOP.FT                                  6834.0000:
STEP.FT                                     0.5000:
NULL.                 -999.25                     :
COMP.                                             :COMPANY            
WELL.     SAN EMIDIO A #66-19 REDRILL             :WELL               
FLD .                                             :FIELD              
CTRY.                                             :COUNTRY            
STAT.                                             :STATE              
LOC .                                             :LOCATION           
UWI .                                             :UNIQUE WELL ID     
SRVC.                                             :Service company    
DATE.                                             :LOG DATE           
~Curve Information
#MNEM.UNIT           API CODE  Curve Description
#---------           --------  -----------------
DEPT.FT                      :   1 DEPTH
SP  .MV                      :   2
AM16.OHMM                    :   3
AO10.OHMM                    :   4
AO19.OHMM                    :   5
SBL .MV                      :   6
RS  .OHMM                    :   7
RM  .OHMM                    :   8
RD  .OHMM                    :   9
~A
# ...
  3819.000 -51.355  12.608  10.557  9.3790 -42.942  12.608  10.557  9.3790 
  3819.500 -52.451  12.708  10.794  9.4720 -44.039  12.708  10.794  9.4720 
  3820.000 -53.872  12.716  10.905  9.5280 -45.460  12.716  10.905  9.5280 
  3820.500 -54.380  12.706  11.016  9.5860 -45.969  12.706  11.016  9.5860 
  3821.000 -54.781  12.646  11.186  9.6220 -46.370  12.646  11.186  9.6220 
  3821.500 -55.002  12.572  11.277  9.6580 -46.592  12.572  11.277  9.6580 
  3822.000 -55.078  12.239  11.318  9.7220 -46.669  12.239  11.318  9.7220 
  3822.500 -54.545  12.100  11.374  9.6940 -46.136  12.100  11.374  9.6940 
  3823.000 -53.867  11.940  11.378  9.5860 -45.459  11.940  11.378  9.5860 
  3823.500 -53.154  11.815  11.290  9.5000 -44.746  11.815  11.290  9.5000 
  3824.000 -52.189  11.748  11.144  9.3770 -43.782  11.748  11.144  9.3770 
  3824.500 -51.906  11.825  11.070  9.2980 -43.499  11.825  11.070  9.2980 
  3825.000 -51.768  12.147  11.003  9.2340 -43.362  12.147  11.003  9.2340 
  3825.500 -52.852  12.382  10.958  9.2120 -44.447  12.382  10.958  9.2120 
  3826.000 -53.972  12.661  11.063  9.2120 -45.567  12.661  11.063  9.2120 
  3826.500 -54.372  12.774  11.378  9.2190 -45.968  12.774  11.378  9.2190 
  3827.000 -54.809  12.887  11.678  9.5930 -46.405  12.887  11.678  9.5930 
  3827.500 -55.463  13.108  11.848  9.7080 -47.060  13.108  11.848  9.7080 
  3828.000 -56.008  13.235  11.976  9.8090 -47.606  13.235  11.976  9.8090 
  3828.500 -56.191  13.377  12.139  9.9090 -47.789  13.377  12.139  9.9090 
  3829.000 -56.737  13.468  12.267  10.017 -48.336  13.468  12.267  10.017 
  3829.500 -57.102  13.545  12.416  10.082 -48.701  13.545  12.416  10.082 
  3830.000 -57.322  13.557  12.593  10.146 -48.922  13.557  12.593  10.146 
  3830.500 -57.399  13.555  12.771  10.239 -48.999  13.555  12.771  10.239 
  3831.000 -57.007  13.488  12.841  10.311 -48.608  13.488  12.841  10.311 
  3831.500 -56.722  13.429  12.925  10.361 -48.324  13.429  12.925  10.361 
  3832.000 -56.006  13.261  13.016  10.411 -47.608  13.261  13.016  10.411 
  3832.500 -55.040  13.057  13.072  10.439 -46.643  13.057  13.072  10.439 
  3833.000 -54.144  12.890  13.034  10.439 -45.747  12.890  13.034  10.439 
  3833.500 -53.034  12.628  12.952  10.367 -44.638  12.628  12.952  10.367 
  3834.000 -52.210  12.446  12.896  10.338 -43.815  12.446  12.896  10.338 
  3834.500 -51.387  11.955  12.841  10.265 -42.992  11.955  12.841  10.265 
  3835.000 -50.688  11.744  12.723  10.143 -42.294  11.744  12.723  10.143 
  3835.500 -49.990  11.102  12.620  10.049 -41.596  11.102  12.620  10.049 
  3836.000 -48.018  10.725  12.503  9.9480 -39.625  10.725  12.503  9.9480 
  3836.500 -46.226  10.306  12.356  9.8040 -37.833  10.306  12.356  9.8040 
  3837.000 -44.575  9.7490  12.268  9.6960 -36.183  9.7490  12.268  9.6960 
  3837.500 -42.601  8.5890  12.143  9.5810 -34.210  8.5890  12.143  9.5810 
  3838.000 -40.411  8.0180  12.026  9.4080 -32.020  8.0180  12.026  9.4080 
  3838.500 -36.568  7.2530  11.830  9.2420 -28.178  7.2530  11.830  9.2420 
  3839.000 -31.468  6.7900  11.453  9.0760 -23.078  6.7900  11.453  9.0760 
  3839.500 -30.213  6.3350  11.127  8.7380 -21.824  6.3350  11.127  8.7380 
  3840.000 -29.497  6.0880  9.5420  8.4070 -21.109  6.0880  9.5420  8.4070 
  3840.500 -29.142  5.9980  8.5420  7.9830 -20.754  5.9980  8.5420  7.9830 
  3841.000 -28.966  5.9080  8.2250  7.6740 -20.579  5.9080  8.2250  7.6740 
  3841.500 -29.184  5.7350  8.0670  7.3000 -20.797  5.7350  8.0670  7.3000 
  3842.000 -29.152  5.6490  7.8940  6.9830 -20.766  5.6490  7.8940  6.9830 
  3842.500 -28.077  5.5990  7.8290  6.9830 -19.692  5.5990  7.8290  6.9830 
  3843.000 -27.686  5.6270  7.7650  7.0260 -19.301  5.6270  7.7650  7.0260 
  3843.500 -27.474  5.6630  7.7430  7.0900 -19.090  5.6630  7.7430  7.0900 
  3844.000 -27.153  5.7140  7.7430  7.1540 -18.769  5.7140  7.7430  7.1540 
  3844.500 -26.655  5.7280  7.7930  7.3050 -18.272  5.7280  7.7930  7.3050 
  3845.000 -26.369  5.7280  7.8440  7.4770 -17.986  5.7280  7.8440  7.4770 
  3845.500 -26.984  5.7140  7.9590  7.5770 -18.602  5.7140  7.9590  7.5770 
  3846.000 -28.211  5.6490  8.1030  7.7060 -19.830  5.6490  8.1030  7.7060 
  3846.500 -28.573  5.5550  8.1530  7.7780 -20.192  5.5550  8.1530  7.7780 
  3847.000 -22.969  5.2600  8.1750  7.7920 -14.589  5.2600  8.1750  7.7920 
  3847.500 -20.707  5.0880  8.0450  7.5250 -12.327  5.0880  8.0450  7.5250 
  3848.000 -18.734  4.8860  7.7720  7.2300 -10.355  4.8860  7.7720  7.2300 
  3848.500 -17.839  4.7420  7.3620  7.0290 -9.4605  4.7420  7.3620  7.0290 
  3849.000 -16.837  4.6700  6.9660  6.7990 -8.4591  4.6700  6.9660  6.7990 
  3849.500 -16.480  4.5840  6.5560  6.5900 -8.1027  4.5840  6.5560  6.5900 
  3850.000 -16.268  4.5910  6.2100  6.4890 -7.8913  4.5910  6.2100  6.4890 
  3850.500 -17.357  4.6830  5.8850  6.5320 -8.9809  4.6830  5.8850  6.5320 
  3851.000 -18.985  4.8980  5.7900  6.7550 -10.609  4.8980  5.7900  6.7550 
  3851.500 -21.693  5.1840  5.8030  7.0130 -13.318  5.1840  5.8030  7.0130 
  3852.000 -24.328  5.4420  5.9170  7.2580 -15.954  5.4420  5.9170  7.2580 
  3852.500 -25.561  5.6780  6.1530  7.5240 -17.187  5.6780  6.1530  7.5240 
  3853.000 -26.290  5.7910  6.2880  7.8110 -17.917  5.7910  6.2880  7.8110 
  3853.500 -26.267  5.8330  6.3800  7.9830 -17.894  5.8330  6.3800  7.9830 
  3854.000 -26.635  5.8030  6.5010  8.0770 -18.263  5.8030  6.5010  8.0770 
  3854.500 -27.581  5.6360  6.5930  8.1340 -19.210  5.6360  6.5930  8.1340 
  3855.000 -28.239  5.3970  6.5990  8.1060 -19.868  5.3970  6.5990  8.1060 
  3855.500 -27.028  5.2560  6.5900  7.9910 -18.658  5.2560  6.5900  7.9910 
  3856.000 -25.995  5.1140  6.5020  7.7970 -17.625  5.1140  6.5020  7.7970 
  3856.500 -22.555  4.8390  6.4070  7.4370 -14.186  4.8390  6.4070  7.4370 
  3857.000 -21.308  4.7110  6.1180  7.1570 -12.939  4.7110  6.1180  7.1570 
  3857.500 -20.348  4.5840  5.5190  6.8410 -11.980  4.5840  5.5190  6.8410 
  3858.000 -19.603  4.3230  5.2230  6.5890 -11.236  4.3230  5.2230  6.5890 
  3858.500 -18.931  4.2070  5.0490  6.3740 -10.564  4.2070  5.0490  6.3740 
  3859.000 -18.297  4.0900  4.8530  6.2730 -9.9308  4.0900  4.8530  6.2730 
  3859.500 -17.983  4.0240  4.6570  6.1730 -9.6174  4.0240  4.6570  6.1730 
  3860.000 -17.742  4.0440  4.5190  6.1440 -9.3770  4.0440  4.5190  6.1440 
  3860.500 -17.649  4.0640  4.4240  6.1310 -9.2846  4.0640  4.4240  6.1310 
  3861.000 -17.556  4.1490  4.4230  6.1100 -9.1922  4.1490  4.4230  6.1100 
  3861.500 -17.593  4.2630  4.4140  6.1150 -9.2297  4.2630  4.4140  6.1150 
  3862.000 -17.878  4.3910  4.4420  6.1200 -9.5153  4.3910  4.4420  6.1200 
  3862.500 -18.848  4.5980  4.4690  6.2000 -10.486  4.5980  4.4690  6.2000 
  3863.000 -19.852  4.7770  4.5320  6.2800 -11.490  4.7770  4.5320  6.2800 
  3863.500 -21.719  5.1280  4.6960  6.4320 -13.358  5.1280  4.6960  6.4320 
  3864.000 -23.443  5.6090  4.8460  6.6270 -15.083  5.6090  4.8460  6.6270 
  3864.500 -25.203  6.1690  5.2330  6.9150 -16.843  6.1690  5.2330  6.9150 
  3865.000 -35.016  7.0590  5.7070  7.3550 -26.657  7.0590  5.7070  7.3550 
  3865.500 -40.407  8.1010  6.7990  7.7150 -32.048  8.1010  6.7990  7.7150 
  3866.000 -43.101  8.8840  6.9560  7.9750 -34.743  8.8840  6.9560  7.9750 
  3866.500 -45.867  9.6530  7.1130  8.3210 -37.510  9.6530  7.1130  8.3210 
  3867.000 -47.375  10.004  7.3270  8.5810 -39.018  10.004  7.3270  8.5810 
  3867.500 -49.027  10.269  7.3900  8.7250 -40.671  10.269  7.3900  8.7250 
  3868.000 -49.996  10.390  7.4030  8.7190 -41.640  10.390  7.4030  8.7190 
  3868.500 -49.995  10.539  7.3150  8.5550 -41.640  10.539  7.3150  8.5550 
  3869.000 -50.101  10.682  7.1990  8.3410 -41.747  10.682  7.1990  8.3410 
  3869.500 -50.187  10.860  7.0390  8.1550 -41.833  10.860  7.0390  8.1550 
  3870.000 -50.273  11.046  6.8650  8.0770 -41.920  11.046  6.8650  8.0770 
  3870.500 -50.757  11.447  6.8770  8.0460 -42.404  11.447  6.8770  8.0460 
  3871.000 -52.100  11.747  6.9110  8.1160 -43.748  11.747  6.9110  8.1160 
  3871.500 -52.867  12.148  6.9670  8.1790 -44.515  12.148  6.9670  8.1790 
