~Version Information
VERS.                     2.0: CWLS log ASCII Standard Version 2.00
WRAP.                      NO: One line per depth step
~Well Information Block
#MNEM.UNIT                               Data Type  Information
#---------                               ---------  -----------
STRT.FT                                   530.0000:
STOP.FT                                  8230.0000:
STEP.FT                                     0.5000:
NULL.                 -999.25                     :
COMP.                                             :COMPANY            
WELL.     SAN EMIDIO #61-28 REDRILL               :WELL               
FLD .                                             :FIELD              
CTRY.                                             :COUNTRY            
STAT.                                             :STATE              
LOC .                                             :LOCATION           
UWI .                                             :UNIQUE WELL ID     
SRVC.                                             :Service company    
DATE.                                             :LOG DATE           
~Curve Information
#MNEM.UNIT           API CODE  Curve Description
#---------           --------  -----------------
DEPT.FT                      :   1 DEPTH
SP  .MV                      :   2
2Z18.OHMM                    :   3
31Z9.OHMM                    :   4
31Z1.OHMM                    :   5
SBL .MV                      :   6
RS  .OHMM                    :   7
RM  .OHMM                    :   8
 RD .OHMM                    :   9
DEVI.DEG                     :  10
TVD .FT                      :  11
AZIM.DEG                     :  12
NORT.FT                      :  13
EAST.FT                      :  14
OFFS.FT                      :  15
~A
# ...
  8200.000 -10.707  2.7650  2.6320  2.5650 -6.7070  2.7650  2.6320  2.5650  14.750  8147.1  299.99  235.32 -343.30 -76.355 
  8200.500 -10.793  2.8310  2.6980  2.5980 -6.7930  2.8310  2.6980  2.5980  14.750  8147.6  299.99  235.38 -343.41 -76.388 
  8201.000 -10.879  2.8970  2.7300  2.6300 -6.8790  2.8970  2.7300  2.6300  14.750  8148.1  299.99  235.45 -343.52 -76.421 
  8201.500 -11.051  2.9630  2.7630  2.6950 -7.0510  2.9630  2.7630  2.6950  14.750  8148.6  299.99  235.51 -343.63 -76.454 
  8202.000 -11.387  3.0120  2.7960  2.7280 -7.3870  3.0120  2.7960  2.7280  14.750  8149.1  299.99  235.57 -343.74 -76.487 
  8202.500 -11.723  3.0620  2.8950  2.8270 -7.7230  3.0620  2.8950  2.8270  14.750  8149.6  299.99  235.64 -343.85 -76.520 
  8203.000 -12.059  3.0770  3.0270  2.8590 -8.0590  3.0770  3.0270  2.8590  14.750  8150.1  299.99  235.70 -343.96 -76.553 
  8203.500 -12.146  3.0930  3.0590  2.8910 -8.1460  3.0930  3.0590  2.8910  14.750  8150.5  299.99  235.76 -344.07 -76.586 
  8204.000 -12.233  3.0250  3.0090  2.9730 -8.2330  3.0250  3.0090  2.9730  14.750  8151.0  299.99  235.83 -344.18 -76.619 
  8204.500 -12.402  2.9910  2.9580  3.0560 -8.4020  2.9910  2.9580  3.0560  14.750  8151.5  299.99  235.89 -344.29 -76.652 
  8205.000 -12.572  2.9570  2.8240  2.9880 -8.5720  2.9570  2.8240  2.9880  14.750  8152.0  299.99  235.95 -344.40 -76.684 
  8205.500 -12.493  2.9070  2.6900  2.9200 -8.4930  2.9070  2.6900  2.9200  14.750  8152.5  299.99  236.02 -344.51 -76.717 
  8206.000 -12.414  2.8560  2.5890  2.7850 -8.4140  2.8560  2.5890  2.7850  14.750  8153.0  299.99  236.08 -344.62 -76.750 
  8206.500 -11.922  2.8380  2.4880  2.7510 -7.9220  2.8380  2.4880  2.7510  14.750  8153.4  299.99  236.15 -344.73 -76.783 
  8207.000 -11.262  2.8210  2.4370  2.6830 -7.2620  2.8210  2.4370  2.6830  14.750  8153.9  299.99  236.21 -344.84 -76.816 
  8207.500 -10.437  2.8200  2.3870  2.6820 -6.4370  2.8200  2.3870  2.6820  14.750  8154.4  299.99  236.27 -344.95 -76.849 
  8208.000 -10.275  2.8190  2.3690  2.6810 -6.2750  2.8190  2.3690  2.6810  14.750  8154.9  299.99  236.34 -345.06 -76.882 
  8208.500 -10.113  2.8180  2.3520  2.7130 -6.1130  2.8180  2.3520  2.7130  14.750  8155.4  299.99  236.40 -345.17 -76.915 
  8209.000 -10.283  2.8500  2.3510  2.7450 -6.2830  2.8500  2.3510  2.7450  14.750  8155.9  299.99  236.46 -345.28 -76.948 
  8209.500 -10.453  2.9160  2.3830  2.7780 -6.4530  2.9160  2.3830  2.7780  14.750  8156.3  299.99  236.53 -345.40 -76.981 
  8210.000 -10.789  2.9490  2.4820  2.8100 -6.7890  2.9490  2.4820  2.8100  14.750  8156.8  299.99  236.59 -345.51 -77.014 
  8210.500 -11.041  2.8480  2.5120  2.8420 -7.0410  2.8480  2.5120  2.8420  14.750  8157.3  299.99  236.65 -345.62 -77.047 
  8211.000 -11.293  2.7800  2.5420  2.8580 -7.2930  2.7800  2.5420  2.8580  14.750  8157.8  299.99  236.72 -345.73 -77.080 
  8211.500 -11.631  2.6790  2.5710  2.8730 -7.6310  2.6790  2.5710  2.8730  14.750  8158.3  299.99  236.78 -345.84 -77.113 
  8212.000 -11.801  2.6120  2.6010  2.8390 -7.8010  2.6120  2.6010  2.8390  14.750  8158.8  299.99  236.85 -345.95 -77.146 
  8212.500 -11.971  2.5450  2.6310  2.8380 -7.9710  2.5450  2.6310  2.8380  14.750  8159.2  299.99  236.91 -346.06 -77.179 
  8213.000 -11.477  2.5100  2.6610  2.8370 -7.4770  2.5100  2.6610  2.8370  14.750  8159.7  299.99  236.97 -346.17 -77.212 
  8213.500 -11.150  2.5100  2.6900  2.8350 -7.1500  2.5100  2.6900  2.8350  14.750  8160.2  299.99  237.04 -346.28 -77.245 
  8214.000 -10.655  2.5090  2.7200  2.8340 -6.6550  2.5090  2.7200  2.8340  14.750  8160.7  299.99  237.10 -346.39 -77.278 
  8214.500 -10.160  2.5410  2.7500  2.8330 -6.1600  2.5410  2.7500  2.8330  14.750  8161.2  299.99  237.16 -346.50 -77.311 
  8215.000 -9.5840  2.5740  2.7800  2.8820 -5.5840  2.5740  2.7800  2.8820  14.750  8161.7  299.99  237.23 -346.61 -77.344 
  8215.500 -9.0070  2.7730  2.8090  2.9310 -5.0070  2.7730  2.8090  2.9310  14.750  8162.1  299.99  237.29 -346.72 -77.377 
  8216.000 -8.5150  2.9390  2.8390  3.3300 -4.5150  2.9390  2.8390  3.3300  14.750  8162.6  299.99  237.35 -346.83 -77.410 
  8216.500 -8.5190  3.0880  3.4380  4.3610 -4.5190  3.0880  3.4380  4.3610  14.750  8163.1  299.99  237.42 -346.94 -77.443 
  8217.000 -8.6890  3.2370  4.2360  4.5270 -4.6890  3.2370  4.2360  4.5270  14.750  8163.6  299.99  237.48 -347.05 -77.476 
  8217.500 -8.7750  3.2360  4.0360  4.5590 -4.7750  3.2360  4.0360  4.5590  14.750  8164.1  299.99  237.55 -347.16 -77.509 
  8218.000 -8.8610  3.1690  3.8020  4.2920 -4.8610  3.1690  3.8020  4.2920  14.750  8164.6  299.99  237.61 -347.27 -77.542 
  8218.500 -9.1990  3.1010  2.4680  3.7070 -5.1990  3.1010  2.4680  3.7070  14.750  8165.0  299.99  237.67 -347.38 -77.575 
  8219.000 -9.3710  2.6670  2.1340  3.1230 -5.3710  2.6670  2.1340  3.1230  14.750  8165.5  299.99  237.74 -347.49 -77.608 
  8219.500 -9.5410  2.4660  2.0330  2.6220 -5.5410  2.4660  2.0330  2.6220  14.750  8166.0  299.99  237.80 -347.60 -77.641 
  8220.000 -9.5450  2.3990  1.9330  2.4880 -5.5450  2.3990  1.9330  2.4880  14.750  8166.5  299.99  237.86 -347.71 -77.674 
  8220.500 -9.6310  2.3320  1.8320  2.4700 -5.6310  2.3320  1.8320  2.4700  14.750  8167.0  299.99  237.93 -347.82 -77.707 
  8221.000 -9.7180  2.3310  1.8310  2.4520 -5.7180  2.3310  1.8310  2.4520  14.750  8167.5  299.99  237.99 -347.93 -77.740 
  8221.500 -9.4730  2.3300  1.8300  2.4340 -5.4730  2.3300  1.8300  2.4340  14.750  8167.9  299.99  238.05 -348.04 -77.773 
  8222.000 -9.2280  2.3290  1.8290  2.4170 -5.2280  2.3290  1.8290  2.4170  14.750  8168.4  299.99  238.12 -348.15 -77.806 
  8222.500 -8.6510  2.3280  1.7950  2.3820 -4.6510  2.3280  1.7950  2.3820  14.750  8168.9  299.99  238.18 -348.26 -77.839 
  8223.000 -8.0740  2.3600  1.7940  2.3810 -4.0740  2.3600  1.7940  2.3810  14.750  8169.4  299.99  238.24 -348.37 -77.872 
  8223.500 -7.7470  2.3600  1.7940  2.3800 -3.7470  2.3600  1.7940  2.3800  14.750  8169.9  299.99  238.31 -348.48 -77.905 
  8224.000 -7.4190  2.3760  1.7930  2.3790 -3.4190  2.3760  1.7930  2.3790  14.750  8170.4  299.99  238.37 -348.59 -77.938 
  8224.500 -7.4250  2.3920  1.7920  2.3780 -3.4250  2.3920  1.7920  2.3780  14.750  8170.8  299.99  238.44 -348.70 -77.971 
  8225.000 -7.9270  2.3910  1.7910  2.4100 -3.9270  2.3910  1.7910  2.4100  14.750  8171.3  299.99  238.50 -348.81 -78.004 
  8225.500 -9.2580  2.3900  1.7900  2.4090 -5.2580  2.3900  1.7900  2.4090  14.750  8171.8  299.99  238.56 -348.92 -78.037 
  8226.000 -10.756  2.3890  1.7560  2.4080 -6.7560  2.3890  1.7560  2.4080  14.750  8172.3  299.99  238.63 -349.03 -78.070 
  8226.500 -11.922  2.3880  1.7550  2.4070 -7.9220  2.3880  1.7550  2.4070  14.750  8172.8  299.99  238.69 -349.14 -78.102 
  8227.000 -12.922  2.3870  1.7540  2.4060 -8.9220  2.3870  1.7540  2.4060  14.750  8173.3  299.99  238.75 -349.25 -78.135 
  8227.500 -13.258  2.3860  1.7700  2.4380 -9.2580  2.3860  1.7700  2.4380  14.750  8173.7  299.99  238.82 -349.36 -78.168 
  8228.000 -14.092  2.3860  1.7860  2.4370 -10.092  2.3860  1.7860  2.4370  14.750  8174.2  299.99  238.88 -349.47 -78.201 
  8228.500 -14.510  2.3850  1.7850  2.4360 -10.510  2.3850  1.7850  2.4360  14.750  8174.7  299.99  238.94 -349.58 -78.234 
  8229.000 -14.928  2.3840  1.7840  2.4010 -10.928  2.3840  1.7840  2.4010  14.750  8175.2  299.99  239.01 -349.70 -78.267 
  8229.500 -15.598  2.3830  1.8000  2.3670 -11.598  2.3830  1.8000  2.3670  14.750  8175.7  299.99  239.07 -349.81 -78.300 
  8230.000 -999.25  2.3490  1.8160  2.3650 -999.25  2.3490  1.8160  2.3650  14.750  8176.2  299.99  239.14 -349.92 -78.333 
