~Version Information
VERS.                     2.0: CWLS log ASCII Standard Version 2.00
WRAP.                      NO: One line per depth step
~Well Information Block
#MNEM.UNIT                               Data Type  Information
#---------                               ---------  -----------
STRT.FT                                   530.0000:
STOP.FT                                  8230.0000:
STEP.FT                                     0.5000:
NULL.                 -999.25                     :
COMP.                                             :COMPANY            
WELL.     SAN EMIDIO #61-28 REDRILL               :WELL               
FLD .                                             :FIELD              
CTRY.                                             :COUNTRY            
STAT.                                             :STATE              
LOC .                                             :LOCATION           
UWI .                                             :UNIQUE WELL ID     
SRVC.                                             :Service company    
DATE.                                             :LOG DATE           
~Curve Information
#MNEM.UNIT           API CODE  Curve Description
#---------           --------  -----------------
DEPT.FT                      :   1 DEPTH
SP  .MV                      :   2
2Z18.OHMM                    :   3
31Z9.OHMM                    :   4
31Z1.OHMM                    :   5
SBL .MV                      :   6
RS  .OHMM                    :   7
RM  .OHMM                    :   8
 RD .OHMM                    :   9
DEVI.DEG                     :  10
TVD .FT                      :  11
AZIM.DEG                     :  12
NORT.FT                      :  13
EAST.FT                      :  14
OFFS.FT                      :  15
~A
# ...
  3585.000 -45.304  9.0980  5.5030  5.2420 -39.424  9.0980  5.5030  5.2420  1.3542  3584.8  68.842  4.7630  24.668  20.811 
  3585.500 -45.304  8.1990  5.9360  5.2410 -39.424  8.1990  5.9360  5.2410  1.3563  3585.3  68.847  4.7673  24.679  20.822 
  3586.000 -45.055  7.2340  6.0680  5.0080 -39.176  7.2340  6.0680  5.0080  1.3584  3585.8  68.852  4.7716  24.690  20.832 
  3586.500 -44.805  6.7010  6.0850  4.8410 -38.926  6.7010  6.0850  4.8410  1.3605  3586.3  68.857  4.7758  24.701  20.843 
  3587.000 -42.478  5.8010  6.1010  4.4740 -36.599  5.8010  6.1010  4.4740  1.3625  3586.8  68.862  4.7801  24.712  20.854 
  3587.500 -36.992  5.2020  5.7680  4.0740 -31.114  5.2020  5.7680  4.0740  1.3646  3587.3  68.867  4.7844  24.723  20.865 
  3588.000 -34.663  4.8350  5.6010  3.6070 -28.785  4.8350  5.6010  3.6070  1.3667  3587.8  68.872  4.7887  24.734  20.876 
  3588.500 -31.172  4.4690  5.4010  3.1080 -25.295  4.4690  5.4010  3.1080  1.3688  3588.3  68.877  4.7930  24.746  20.887 
  3589.000 -29.842  3.9020  5.2010  2.7740 -23.965  3.9020  5.2010  2.7740  1.3709  3588.8  68.882  4.7973  24.757  20.898 
  3589.500 -28.180  3.7690  5.0340  2.4410 -22.303  3.7690  5.0340  2.4410  1.3730  3589.3  68.887  4.8017  24.768  20.909 
  3590.000 -27.681  3.6690  4.8340  2.2070 -21.805  3.6690  4.8340  2.2070  1.3750  3589.8  68.892  4.8060  24.779  20.920 
  3590.500 -27.515  3.6680  4.7340  2.1730 -21.639  3.6680  4.7340  2.1730  1.3771  3590.3  68.897  4.8103  24.790  20.931 
  3591.000 -27.348  3.6680  4.6670  2.2060 -21.472  3.6680  4.6670  2.2060  1.3792  3590.8  68.902  4.8146  24.802  20.942 
  3591.500 -27.182  3.6680  4.6660  2.2390 -21.307  3.6680  4.6660  2.2390  1.3813  3591.3  68.907  4.8190  24.813  20.953 
  3592.000 -27.183  3.6840  4.8320  2.3050 -21.308  3.6840  4.8320  2.3050  1.3834  3591.8  68.912  4.8233  24.824  20.964 
  3592.500 -27.349  3.7000  4.9320  2.3380 -21.474  3.7000  4.9320  2.3380  1.3855  3592.3  68.917  4.8277  24.835  20.975 
  3593.000 -27.848  3.7500  5.0320  2.4370 -21.974  3.7500  5.0320  2.4370  1.3875  3592.8  68.922  4.8320  24.847  20.986 
  3593.500 -28.679  3.8000  5.2980  2.5030 -22.805  3.8000  5.2980  2.5030  1.3896  3593.3  68.927  4.8364  24.858  20.997 
  3594.000 -29.343  3.8490  5.4310  2.6030 -23.470  3.8490  5.4310  2.6030  1.3917  3593.8  68.932  4.8407  24.869  21.008 
  3594.500 -30.008  3.8990  5.6300  2.7690 -24.135  3.8990  5.6300  2.7690  1.3938  3594.3  68.937  4.8451  24.881  21.019 
  3595.000 -31.173  3.9820  5.6960  2.8350 -25.300  3.9820  5.6960  2.8350  1.3959  3594.8  68.942  4.8495  24.892  21.030 
  3595.500 -31.671  4.0650  5.8290  2.9010 -25.799  4.0650  5.8290  2.9010  1.3980  3595.3  68.947  4.8539  24.903  21.042 
  3596.000 -32.170  4.2310  5.8790  3.1670 -26.298  4.2310  5.8790  3.1670  1.4000  3595.8  68.952  4.8583  24.915  21.053 
  3596.500 -31.672  4.4300  5.9280  3.2660 -25.800  4.4300  5.9280  3.2660  1.4021  3596.3  68.957  4.8627  24.926  21.064 
  3597.000 -31.173  4.5300  5.8950  3.6320 -25.302  4.5300  5.8950  3.6320  1.4042  3596.8  68.962  4.8671  24.938  21.075 
  3597.500 -30.674  4.8290  5.6940  3.7810 -24.803  4.8290  5.6940  3.7810  1.4063  3597.3  68.967  4.8715  24.949  21.086 
  3598.000 -31.173  4.9620  5.4280  3.9310 -25.302  4.9620  5.4280  3.9310  1.4084  3597.8  68.972  4.8759  24.961  21.098 
  3598.500 -31.837  5.1610  5.2940  4.1630 -25.967  5.1610  5.2940  4.1630  1.4105  3598.3  68.977  4.8803  24.972  21.109 
  3599.000 -32.502  5.5270  5.1270  4.1960 -26.632  5.5270  5.1270  4.1960  1.4125  3598.8  68.982  4.8847  24.984  21.120 
  3599.500 -32.917  5.8260  5.0270  4.4610 -27.047  5.8260  5.0270  4.4610  1.4146  3599.3  68.987  4.8891  24.995  21.131 
  3600.000 -33.333  6.1920  5.0930  4.6610 -27.464  6.1920  5.0930  4.6610  1.4167  3599.8  68.992  4.8936  25.007  21.143 
  3600.500 -34.084  6.5250  5.4260  4.9930 -28.215  6.5250  5.4260  4.9930  1.4134  3600.3  68.942  4.8980  25.018  21.154 
  3601.000 -34.835  6.7910  5.7580  5.3260 -28.967  6.7910  5.7580  5.3260  1.4100  3600.8  68.892  4.9024  25.030  21.165 
  3601.500 -34.840  6.7900  6.2570  6.1910 -28.972  6.7900  6.2570  6.1910  1.4067  3601.3  68.842  4.9069  25.041  21.176 
  3602.000 -34.510  5.5580  6.4230  6.2080 -28.642  5.5580  6.4230  6.2080  1.4034  3601.8  68.792  4.9113  25.052  21.188 
  3602.500 -31.189  5.2570  6.5890  6.2240 -25.322  5.2570  6.5890  6.2240  1.4000  3602.3  68.742  4.9157  25.064  21.199 
  3603.000 -26.371  4.7580  6.5550  6.1900 -20.504  4.7580  6.5550  6.1900  1.3967  3602.8  68.692  4.9201  25.075  21.210 
  3603.500 -23.216  3.7250  6.4220  6.1570 -17.349  3.7250  6.4220  6.1570  1.3934  3603.3  68.642  4.9246  25.087  21.221 
  3604.000 -21.723  3.2920  6.0550  5.8230 -15.857  3.2920  6.0550  5.8230  1.3900  3603.8  68.592  4.9290  25.098  21.232 
  3604.500 -18.401  3.1250  4.9230  4.9240 -12.535  3.1250  4.9230  4.9240  1.3867  3604.3  68.542  4.9334  25.109  21.243 
  3605.000 -14.082  2.9910  4.3560  3.7590 -8.2165  2.9910  4.3560  3.7590  1.3834  3604.8  68.492  4.9379  25.120  21.254 
  3605.500 -13.669  2.9570  4.0560  3.2420 -7.8038  2.9570  4.0560  3.2420  1.3800  3605.3  68.442  4.9423  25.131  21.265 
  3606.000 -13.257  2.9240  3.4560  2.7260 -7.3922  2.9240  3.4560  2.7260  1.3767  3605.8  68.392  4.9467  25.143  21.276 
  3606.500 -13.094  2.9230  3.3730  2.6260 -7.2295  2.9230  3.3730  2.6260  1.3734  3606.3  68.342  4.9511  25.154  21.287 
  3607.000 -13.525  2.9390  3.2890  2.6590 -7.6609  2.9390  3.2890  2.6590  1.3700  3606.8  68.292  4.9555  25.165  21.298 
  3607.500 -13.955  2.9550  3.2880  2.7250 -8.0913  2.9550  3.2880  2.7250  1.3667  3607.3  68.242  4.9600  25.176  21.309 
  3608.000 -14.386  3.0220  3.3880  2.8240 -8.5226  3.0220  3.3880  2.8240  1.3634  3607.8  68.192  4.9644  25.187  21.320 
  3608.500 -14.817  3.0880  3.5870  2.9240 -8.9540  3.0880  3.5870  2.9240  1.3600  3608.3  68.142  4.9688  25.198  21.331 
  3609.000 -15.248  3.1870  3.8530  2.9900 -9.3853  3.1870  3.8530  2.9900  1.3567  3608.8  68.091  4.9732  25.209  21.342 
  3609.500 -15.679  3.2860  4.2520  3.0730 -9.8167  3.2860  4.2520  3.0730  1.3534  3609.3  68.041  4.9776  25.220  21.353 
  3610.000 -16.109  3.2860  4.4840  3.1560 -10.247  3.2860  4.4840  3.1560  1.3500  3609.8  67.991  4.9821  25.231  21.364 
  3610.500 -18.441  3.2850  4.5840  3.1890 -12.579  3.2850  4.5840  3.1890  1.3467  3610.3  67.941  4.9865  25.242  21.375 
  3611.000 -19.774  3.2850  4.7000  3.2220 -13.913  3.2850  4.7000  3.2220  1.3434  3610.8  67.891  4.9909  25.253  21.385 
  3611.500 -20.276  3.2180  4.8160  3.2210 -14.415  3.2180  4.8160  3.2210  1.3400  3611.3  67.841  4.9953  25.263  21.396 
  3612.000 -19.947  3.1510  4.8150  3.1550 -14.087  3.1510  4.8150  3.1550  1.3367  3611.8  67.791  4.9997  25.274  21.407 
  3612.500 -18.288  3.0500  4.6480  3.1210 -12.428  3.0500  4.6480  3.1210  1.3334  3612.3  67.741  5.0041  25.285  21.418 
  3613.000 -17.128  2.9830  4.5150  3.0540 -11.268  2.9830  4.5150  3.0540  1.3300  3612.8  67.691  5.0085  25.296  21.428 
  3613.500 -16.466  2.9330  4.3810  2.9870 -10.607  2.9330  4.3810  2.9870  1.3267  3613.3  67.641  5.0129  25.306  21.439 
  3614.000 -17.134  2.8820  4.1810  2.9530 -11.275  2.8820  4.1810  2.9530  1.3234  3613.8  67.591  5.0173  25.317  21.450 
  3614.500 -17.304  2.8150  4.0140  2.9200 -11.445  2.8150  4.0140  2.9200  1.3200  3614.3  67.541  5.0217  25.328  21.460 
  3615.000 -18.139  2.8150  3.7800  2.8860 -12.281  2.8150  3.7800  2.8860  1.3167  3614.8  67.491  5.0261  25.338  21.471 
  3615.500 -18.557  2.8480  3.5470  2.8690 -12.699  2.8480  3.5470  2.8690  1.3134  3615.3  67.441  5.0305  25.349  21.482 
  3616.000 -18.976  2.9140  3.4130  2.8520 -13.118  2.9140  3.4130  2.8520  1.3100  3615.8  67.391  5.0349  25.360  21.492 
  3616.500 -19.479  2.9800  3.3130  2.8520 -13.622  2.9800  3.3130  2.8520  1.3067  3616.3  67.341  5.0393  25.370  21.503 
  3617.000 -19.648  3.0130  3.2120  2.8520 -13.791  3.0130  3.2120  2.8520  1.3034  3616.8  67.291  5.0437  25.381  21.513 
