~Version Information
VERS.                     2.0: CWLS log ASCII Standard Version 2.00
WRAP.                      NO: One line per depth step
~Well Information Block
#MNEM.UNIT                               Data Type  Information
#---------                               ---------  -----------
STRT.FT                                   419.0000:
STOP.FT                                  7100.0000:
STEP.FT                                     0.5000:
NULL.                 -999.25                     :
COMP.                                             :COMPANY            
WELL.     SAN EMIDIO A #62-28                     :WELL               
FLD .                                             :FIELD              
CTRY.                                             :COUNTRY            
STAT.                                             :STATE              
LOC .                                             :LOCATION           
UWI .                                             :UNIQUE WELL ID     
SRVC.                                             :Service company    
DATE.                                             :LOG DATE           
~Curve Information
#MNEM.UNIT           API CODE  Curve Description
#---------           --------  -----------------
DEPT.FT                      :   1 DEPTH
SP  .MV                      :   2
AM16.OHMM                    :   3
AO10.OHMM                    :   4
AO19.OHMM                    :   5
SBL .MV                      :   6
RS  .OHMM                    :   7
RM  .OHMM                    :   8
RD  .OHMM                    :   9
DEVI.DEG                     :  10
TVD .FT                      :  11
AZIM.DEG                     :  12
NORT.FT                      :  13
EAST.FT                      :  14
OFFS.FT                      :  15
~A
# ...
  3961.500 -30.581  4.2250  3.9880  3.0060 -20.823  4.2250  3.9880  3.0060  1.9358  3961.0  97.698  8.2398  52.021  42.610 
  3962.000 -29.756  4.1880  4.0370  2.9740 -19.999  4.1880  4.0370  2.9740  1.9367  3961.5  97.663  8.2375  52.037  42.621 
  3962.500 -29.039  4.3950  4.1230  2.9410 -19.283  4.3950  4.1230  2.9410  1.9375  3962.0  97.628  8.2353  52.054  42.631 
  3963.000 -28.861  4.7960  4.2080  2.9770 -19.106  4.7960  4.2080  2.9770  1.9383  3962.5  97.593  8.2331  52.071  42.641 
  3963.500 -29.510  4.9680  4.3440  3.0490 -19.756  4.9680  4.3440  3.0490  1.9392  3963.0  97.558  8.2308  52.088  42.652 
  3964.000 -31.092  5.1680  4.5870  3.1270 -21.339  5.1680  4.5870  3.1270  1.9400  3963.5  97.523  8.2286  52.104  42.662 
  3964.500 -34.723  5.2750  4.7870  3.1990 -24.972  5.2750  4.7870  3.1990  1.9408  3964.0  97.488  8.2264  52.121  42.672 
  3965.000 -37.491  5.4040  5.0160  3.2200 -27.741  5.4040  5.0160  3.2200  1.9417  3964.5  97.453  8.2242  52.138  42.682 
  3965.500 -39.325  5.4670  5.1660  3.2420 -29.576  5.4670  5.1660  3.2420  1.9425  3965.0  97.418  8.2220  52.155  42.693 
  3966.000 -40.153  5.4600  5.2440  3.2840 -30.405  5.4600  5.2440  3.2840  1.9433  3965.5  97.383  8.2198  52.172  42.703 
  3966.500 -40.623  5.3580  5.3440  3.2910 -30.876  5.3580  5.3440  3.2910  1.9442  3966.0  97.348  8.2177  52.188  42.714 
  3967.000 -40.732  5.3150  5.3220  3.2910 -30.986  5.3150  5.3220  3.2910  1.9450  3966.5  97.313  8.2155  52.205  42.724 
  3967.500 -39.943  5.2990  5.3140  3.2910 -30.199  5.2990  5.3140  3.2910  1.9458  3967.0  97.278  8.2134  52.222  42.734 
  3968.000 -38.867  5.2840  5.3060  3.3060 -29.124  5.2840  5.3060  3.3060  1.9467  3967.5  97.243  8.2112  52.239  42.745 
  3968.500 -37.540  5.2550  5.2950  3.3200 -27.798  5.2550  5.2950  3.3200  1.9475  3968.0  97.208  8.2091  52.256  42.755 
  3969.000 -36.032  5.2260  5.2830  3.3340 -26.291  5.2260  5.2830  3.3340  1.9483  3968.5  97.173  8.2070  52.273  42.766 
  3969.500 -34.130  4.7730  5.2610  3.3410 -24.390  4.7730  5.2610  3.3410  1.9492  3969.0  97.138  8.2049  52.289  42.776 
  3970.000 -31.329  4.4130  5.2380  3.3480 -21.591  4.4130  5.2380  3.3480  1.9500  3969.5  97.103  8.2028  52.306  42.786 
  3970.500 -27.164  4.1400  5.2310  3.3470 -17.427  4.1400  5.2310  3.3470  1.9508  3970.0  97.068  8.2007  52.323  42.797 
  3971.000 -24.363  3.6870  5.2160  3.2760 -14.627  3.6870  5.2160  3.2760  1.9517  3970.5  97.033  8.1986  52.340  42.807 
  3971.500 -21.994  3.0910  5.1290  3.1460 -12.259  3.0910  5.1290  3.1460  1.9525  3971.0  96.998  8.1965  52.357  42.818 
  3972.000 -19.588  2.8600  4.8980  2.9380 -9.8542  2.8600  4.8980  2.9380  1.9533  3971.5  96.963  8.1944  52.374  42.828 
  3972.500 -18.117  2.7450  4.5960  2.7730 -8.3844  2.7450  4.5960  2.7730  1.9542  3972.0  96.928  8.1924  52.391  42.839 
  3973.000 -16.933  2.6940  4.0070  2.6140 -7.2016  2.6940  4.0070  2.6140  1.9550  3972.5  96.893  8.1903  52.408  42.849 
  3973.500 -16.144  2.7150  3.7120  2.5430 -6.4138  2.7150  3.7120  2.5430  1.9558  3973.0  96.858  8.1883  52.425  42.860 
  3974.000 -15.787  2.7860  3.4960  2.5070 -6.0579  2.7860  3.4960  2.5070  1.9567  3973.5  96.823  8.1863  52.442  42.870 
  3974.500 -16.687  3.1220  3.4310  2.8510 -6.9591  3.1220  3.4310  2.8510  1.9575  3974.0  96.788  8.1842  52.459  42.881 
  3975.000 -20.605  3.4880  3.6310  3.1520 -10.878  3.4880  3.6310  3.1520  1.9583  3974.5  96.753  8.1822  52.476  42.892 
  3975.500 -26.320  3.8380  4.0320  3.3670 -16.594  3.8380  4.0320  3.3670  1.9592  3975.0  96.718  8.1802  52.493  42.902 
  3976.000 -27.687  4.0390  4.3760  3.5540 -17.963  4.0390  4.3760  3.5540  1.9600  3975.5  96.683  8.1782  52.510  42.913 
  3976.500 -29.592  4.1670  4.6190  3.6970 -19.869  4.1670  4.6190  3.6970  1.9608  3976.0  96.648  8.1763  52.527  42.923 
  3977.000 -30.744  4.2100  4.7620  3.7690 -21.022  4.2100  4.7620  3.7690  1.9617  3976.5  96.613  8.1743  52.544  42.934 
  3977.500 -31.356  4.1510  4.9050  3.8040 -21.635  4.1510  4.9050  3.8040  1.9625  3976.9  96.578  8.1723  52.561  42.945 
  3978.000 -29.921  3.8350  5.0260  3.7900 -20.201  3.8350  5.0260  3.7900  1.9633  3977.4  96.543  8.1704  52.578  42.955 
  3978.500 -28.198  3.5260  5.0470  3.7390 -18.480  3.5260  5.0470  3.7390  1.9642  3977.9  96.508  8.1684  52.595  42.966 
  3979.000 -24.428  3.1090  5.0460  3.6100 -14.711  3.1090  5.0460  3.6100  1.9650  3978.4  96.473  8.1665  52.612  42.977 
  3979.500 -15.196  2.7780  4.9240  3.4230 -5.4799  2.7780  4.9240  3.4230  1.9658  3978.9  96.438  8.1646  52.629  42.987 
  3980.000 -15.054  2.5830  4.4850  3.1360 -5.3390  2.5830  4.4850  3.1360  1.9667  3979.4  96.403  8.1627  52.646  42.998 
  3980.500 -14.124  2.3530  3.8030  2.8630 -4.4102  2.3530  3.8030  2.8630  1.9675  3979.9  96.368  8.1608  52.663  43.009 
  3981.000 -13.374  2.2520  3.5010  2.6400 -3.6614  2.2520  3.5010  2.6400  1.9683  3980.4  96.333  8.1589  52.680  43.020 
  3981.500 -12.481  2.1790  3.3060  2.4680 -2.7696  2.1790  3.3060  2.4680  1.9692  3980.9  96.298  8.1570  52.697  43.030 
  3982.000 -11.588  2.1070  3.1830  2.3750 -1.8777  2.1070  3.1830  2.3750  1.9700  3981.4  96.263  8.1551  52.714  43.041 
  3982.500 -11.089  2.1060  3.0960  2.4320 -1.3799  2.1060  3.0960  2.4320  1.9708  3981.9  96.228  8.1532  52.731  43.052 
  3983.000 -10.698  2.1200  3.0460  2.5180 -0.9901  2.1200  3.0460  2.5180  1.9717  3982.4  96.193  8.1514  52.748  43.063 
  3983.500 -10.271  2.1340  3.0160  2.6470 -0.5643  2.1340  3.0160  2.6470  1.9725  3982.9  96.158  8.1495  52.765  43.073 
  3984.000 -10.132  2.1690  2.9940  2.6750 -0.4264  2.1690  2.9940  2.6750  1.9733  3983.4  96.123  8.1477  52.783  43.084 
  3984.500 -10.226  2.1970  2.9860  2.7040 -0.5216  2.1970  2.9860  2.7040  1.9742  3983.9  96.088  8.1459  52.800  43.095 
  3985.000 -10.319  2.2460  2.9850  2.7680 -0.6158  2.2460  2.9850  2.7680  1.9750  3984.4  96.053  8.1441  52.817  43.106 
  3985.500 -10.433  2.2810  3.0490  2.7970 -0.7310  2.2810  3.0490  2.7970  1.9758  3984.9  96.018  8.1423  52.834  43.117 
  3986.000 -10.365  2.3310  3.1380  2.8180 -0.6641  2.3310  3.1380  2.8180  1.9767  3985.4  95.983  8.1405  52.851  43.128 
  3986.500 -10.154  2.3660  3.2270  2.8390 -0.4543  2.3660  3.2270  2.8390  1.9775  3985.9  95.948  8.1387  52.868  43.138 
  3987.000 -10.015  2.4080  3.2800  2.8680 -0.3165  2.4080  3.2800  2.8680  1.9783  3986.4  95.913  8.1369  52.885  43.149 
  3987.500 -9.8410  2.4290  3.3340  2.8820 -0.1437  2.4290  3.3340  2.8820  1.9792  3986.9  95.878  8.1351  52.903  43.160 
  3988.000 -9.7730  2.4280  3.4190  2.9030 -0.0768  2.4280  3.4190  2.9030  1.9800  3987.4  95.843  8.1334  52.920  43.171 
  3988.500 -9.7060  2.4280  3.4750  2.9320 -0.0110  2.4280  3.4750  2.9320  1.9808  3987.9  95.808  8.1316  52.937  43.182 
  3989.000 -9.6740  2.4270  3.5180  2.9820  0.0198  2.4270  3.5180  2.9820  1.9817  3988.4  95.773  8.1299  52.954  43.193 
  3989.500 -9.4990  2.3400  3.5530  3.0030  0.1936  2.3400  3.5530  3.0030  1.9825  3988.9  95.738  8.1281  52.971  43.204 
  3990.000 -9.3600  2.3040  3.5520  3.0170  0.3314  2.3040  3.5520  3.0170  1.9833  3989.4  95.703  8.1264  52.989  43.215 
  3990.500 -9.3280  2.2670  3.5230  2.9170  0.3623  2.2670  3.5230  2.9170  1.9842  3989.9  95.668  8.1247  53.006  43.226 
  3991.000 -9.1530  2.1660  3.3000  2.8660  0.5361  2.1660  3.3000  2.8660  1.9850  3990.4  95.633  8.1230  53.023  43.237 
  3991.500 -9.0140  2.1220  3.1340  2.7870  0.6739  2.1220  3.1340  2.7870  1.9858  3990.9  95.598  8.1213  53.040  43.248 
  3992.000 -9.0180  2.0570  2.9970  2.6360  0.6687  2.0570  2.9970  2.6360  1.9867  3991.4  95.563  8.1196  53.058  43.259 
  3992.500 -8.9870  2.0270  2.8740  2.6000  0.6986  2.0270  2.8740  2.6000  1.9875  3991.9  95.528  8.1180  53.075  43.270 
  3993.000 -8.9920  2.0120  2.7800  2.5650  0.6924  2.0120  2.7800  2.5650  1.9883  3992.4  95.493  8.1163  53.092  43.281 
  3993.500 -9.0130  1.9970  2.7430  2.4140  0.6702  1.9970  2.7430  2.4140  1.9892  3992.9  95.458  8.1147  53.109  43.292 
