~Version Information
VERS.                     2.0: CWLS log ASCII Standard Version 2.00
WRAP.                      NO: One line per depth step
~Well Information Block
#MNEM.UNIT                               Data Type  Information
#---------                               ---------  -----------
STRT.FT                                   530.0000:
STOP.FT                                  8230.0000:
STEP.FT                                     0.5000:
NULL.                 -999.25                     :
COMP.                                             :COMPANY            
WELL.     SAN EMIDIO #61-28 REDRILL               :WELL               
FLD .                                             :FIELD              
CTRY.                                             :COUNTRY            
STAT.                                             :STATE              
LOC .                                             :LOCATION           
UWI .                                             :UNIQUE WELL ID     
SRVC.                                             :Service company    
DATE.                                             :LOG DATE           
~Curve Information
#MNEM.UNIT           API CODE  Curve Description
#---------           --------  -----------------
DEPT.FT                      :   1 DEPTH
SP  .MV                      :   2
2Z18.OHMM                    :   3
31Z9.OHMM                    :   4
31Z1.OHMM                    :   5
SBL .MV                      :   6
RS  .OHMM                    :   7
RM  .OHMM                    :   8
 RD .OHMM                    :   9
DEVI.DEG                     :  10
TVD .FT                      :  11
AZIM.DEG                     :  12
NORT.FT                      :  13
EAST.FT                      :  14
OFFS.FT                      :  15
~A
# ...
  1050.000 -37.988  16.233  14.833  11.283 -33.988  16.233  14.833  11.283  0.5834  1050.0  107.99  2.1887  0.0724  1.5989 
  1050.500 -37.990  16.133  15.200  11.050 -33.990  16.133  15.200  11.050  0.5825  1050.5  107.84  2.1872  0.0772  1.6012 
  1051.000 -37.992  16.033  15.466  10.850 -33.992  16.033  15.466  10.850  0.5817  1051.0  107.69  2.1856  0.0821  1.6035 
  1051.500 -37.910  15.799  16.332  10.683 -33.910  15.799  16.332  10.683  0.5808  1051.5  107.54  2.1841  0.0869  1.6059 
  1052.000 -37.829  15.599  17.065  10.649 -33.829  15.599  17.065  10.649  0.5800  1052.0  107.39  2.1826  0.0918  1.6082 
  1052.500 -37.332  15.132  17.632  10.549 -33.332  15.132  17.632  10.549  0.5792  1052.5  107.24  2.1811  0.0966  1.6106 
  1053.000 -36.918  14.598  17.998  10.482 -32.918  14.598  17.998  10.482  0.5783  1053.0  107.09  2.1796  0.1014  1.6129 
  1053.500 -36.504  12.431  18.398  10.315 -32.504  12.431  18.398  10.315  0.5775  1053.5  106.94  2.1782  0.1062  1.6153 
  1054.000 -35.175  11.964  18.897  10.015 -31.175  11.964  18.897  10.015  0.5767  1054.0  106.79  2.1767  0.1110  1.6177 
  1054.500 -34.845  10.030  18.864  9.3480 -30.845  10.030  18.864  9.3480  0.5758  1054.5  106.64  2.1753  0.1159  1.6201 
  1055.000 -34.514  10.097  18.663  8.4150 -30.514  10.097  18.663  8.4150  0.5750  1055.0  106.49  2.1738  0.1207  1.6225 
  1055.500 -34.349  10.596  18.063  7.8810 -30.349  10.596  18.063  7.8810  0.5742  1055.5  106.34  2.1724  0.1255  1.6249 
  1056.000 -34.683  10.879  17.496  7.4480 -30.683  10.879  17.496  7.4480  0.5733  1056.0  106.19  2.1710  0.1303  1.6273 
  1056.500 -35.017  11.162  16.662  6.8810 -31.017  11.162  16.662  6.8810  0.5725  1056.5  106.04  2.1697  0.1351  1.6297 
  1057.000 -35.518  11.795  16.195  6.8980 -31.518  11.795  16.195  6.8980  0.5717  1057.0  105.89  2.1683  0.1399  1.6321 
  1057.500 -36.185  13.895  15.462  6.9140 -32.185  13.895  15.462  6.9140  0.5708  1057.5  105.74  2.1669  0.1447  1.6346 
  1058.000 -36.851  14.461  13.328  7.0310 -32.851  14.461  13.328  7.0310  0.5700  1058.0  105.59  2.1656  0.1495  1.6370 
  1058.500 -37.102  14.661  13.394  7.1470 -33.102  14.661  13.394  7.1470  0.5692  1058.5  105.44  2.1643  0.1543  1.6394 
  1059.000 -37.353  14.827  13.611  8.0140 -33.353  14.827  13.611  8.0140  0.5683  1059.0  105.29  2.1630  0.1590  1.6419 
  1059.500 -38.020  14.794  13.827  8.7800 -34.020  14.794  13.827  8.7800  0.5675  1059.5  105.14  2.1617  0.1638  1.6444 
  1060.000 -37.855  14.760  15.160  9.1130 -33.855  14.760  15.160  9.1130  0.5667  1060.0  104.99  2.1604  0.1686  1.6468 
  1060.500 -37.691  12.460  15.726  9.5460 -33.691  12.460  15.726  9.5460  0.5658  1060.5  104.84  2.1591  0.1734  1.6493 
  1061.000 -36.861  9.1590  16.126  9.5800 -32.861  9.1590  16.126  9.5800  0.5650  1061.0  104.69  2.1579  0.1781  1.6518 
  1061.500 -35.367  8.6590  15.926  9.5790 -31.367  8.6590  15.926  9.5790  0.5642  1061.5  104.54  2.1566  0.1829  1.6543 
  1062.000 -33.706  7.8590  15.492  9.4790 -29.706  7.8590  15.492  9.4790  0.5633  1062.0  104.39  2.1554  0.1877  1.6568 
  1062.500 -32.544  7.3580  14.792  9.3790 -28.544  7.3580  14.792  9.3790  0.5625  1062.5  104.24  2.1542  0.1924  1.6593 
  1063.000 -31.548  6.9250  13.925  8.6460 -27.548  6.9250  13.925  8.6460  0.5617  1063.0  104.09  2.1530  0.1972  1.6618 
  1063.500 -30.386  6.8240  12.758  8.0450 -26.386  6.8240  12.758  8.0450  0.5608  1063.5  103.94  2.1518  0.2019  1.6644 
  1064.000 -30.387  6.7240  10.191  7.6120 -26.387  6.7240  10.191  7.6120  0.5600  1064.0  103.79  2.1507  0.2067  1.6669 
  1064.500 -29.890  6.5240  9.5570  7.0780 -25.890  6.5240  9.5570  7.0780  0.5592  1064.5  103.64  2.1495  0.2114  1.6694 
  1065.000 -29.726  6.5230  8.7230  6.7120 -25.726  6.5230  8.7230  6.7120  0.5583  1065.0  103.49  2.1484  0.2161  1.6720 
  1065.500 -29.395  6.5230  8.5230  6.7450 -25.395  6.5230  8.5230  6.7450  0.5575  1065.5  103.34  2.1473  0.2209  1.6745 
  1066.000 -30.062  6.5560  8.4560  6.7780 -26.062  6.5560  8.4560  6.7780  0.5567  1066.0  103.19  2.1462  0.2256  1.6771 
  1066.500 -30.728  6.5890  8.8890  6.9780 -26.728  6.5890  8.8890  6.9780  0.5558  1066.5  103.04  2.1451  0.2303  1.6797 
  1067.000 -31.561  6.6220  9.9220  7.1780 -27.561  6.6220  9.9220  7.1780  0.5550  1067.0  102.89  2.1440  0.2351  1.6822 
  1067.500 -32.394  6.7220  10.388  7.3770 -28.394  6.7220  10.388  7.3770  0.5542  1067.5  102.74  2.1429  0.2398  1.6848 
  1068.000 -32.562  6.7550  10.621  7.6770 -28.562  6.7550  10.621  7.6770  0.5533  1068.0  102.59  2.1419  0.2445  1.6874 
  1068.500 -32.397  6.7040  10.688  7.7770 -28.397  6.7040  10.688  7.7770  0.5525  1068.5  102.44  2.1408  0.2492  1.6900 
  1069.000 -32.233  6.6540  10.754  7.9100 -28.233  6.6540  10.754  7.9100  0.5517  1069.0  102.29  2.1398  0.2539  1.6926 
  1069.500 -31.736  6.5870  10.487  7.9430 -27.736  6.5870  10.487  7.9430  0.5508  1069.5  102.14  2.1388  0.2586  1.6952 
  1070.000 -31.239  6.6200  10.153  7.7770 -27.239  6.6200  10.153  7.7770  0.5500  1070.0  101.99  2.1378  0.2633  1.6978 
  1070.500 -30.908  6.6530  9.9530  7.6760 -26.908  6.6530  9.9530  7.6760  0.5492  1070.5  101.84  2.1368  0.2680  1.7004 
  1071.000 -30.244  6.8530  9.8690  7.6100 -26.244  6.8530  9.8690  7.6100  0.5483  1071.0  101.69  2.1358  0.2727  1.7031 
  1071.500 -30.412  6.9520  9.7860  7.6090 -26.412  6.9520  9.7860  7.6090  0.5475  1071.5  101.54  2.1349  0.2774  1.7057 
  1072.000 -30.580  7.1850  9.6190  7.6590 -26.580  7.1850  9.6190  7.6590  0.5467  1072.0  101.39  2.1339  0.2820  1.7084 
  1072.500 -31.081  7.3180  9.5850  7.7090 -27.081  7.3180  9.5850  7.7090  0.5458  1072.5  101.24  2.1330  0.2867  1.7110 
  1073.000 -31.082  7.3510  9.5510  7.9090 -27.082  7.3510  9.5510  7.9090  0.5450  1073.0  101.09  2.1321  0.2914  1.7137 
  1073.500 -30.585  7.4180  9.5180  8.2420 -26.585  7.4180  9.5180  8.2420  0.5442  1073.5  100.94  2.1312  0.2960  1.7163 
  1074.000 -30.254  7.3340  9.4840  8.5750 -26.254  7.3340  9.4840  8.5750  0.5433  1074.0  100.79  2.1303  0.3007  1.7190 
  1074.500 -29.425  7.2500  9.4170  8.7080 -25.425  7.2500  9.4170  8.7080  0.5425  1074.5  100.64  2.1294  0.3053  1.7217 
  1075.000 -28.761  7.1170  9.3830  8.8420 -24.761  7.1170  9.3830  8.8420  0.5417  1075.0  100.49  2.1286  0.3100  1.7243 
  1075.500 -27.766  6.8500  9.3500  9.1410 -23.766  6.8500  9.3500  9.1410  0.5408  1075.5  100.34  2.1277  0.3146  1.7270 
  1076.000 -27.269  6.6160  9.2830  9.3080 -23.269  6.6160  9.2830  9.3080  0.5400  1076.0  100.19  2.1269  0.3193  1.7297 
  1076.500 -26.938  6.2820  9.2160  9.3580 -22.938  6.2820  9.2160  9.3580  0.5392  1076.5  100.04  2.1261  0.3239  1.7324 
  1077.000 -26.773  6.0150  8.9490  9.4080 -22.773  6.0150  8.9490  9.4080  0.5383  1077.0  99.890  2.1253  0.3285  1.7351 
  1077.500 -26.609  5.8820  8.7480  9.0740 -22.609  5.8820  8.7480  9.0740  0.5375  1077.5  99.740  2.1245  0.3332  1.7378 
  1078.000 -26.278  5.7150  8.5810  8.7070 -22.278  5.7150  8.5810  8.7070  0.5367  1078.0  99.590  2.1237  0.3378  1.7405 
  1078.500 -25.947  5.5480  8.2810  8.2740 -21.947  5.5480  8.2810  8.2740  0.5358  1078.5  99.440  2.1229  0.3424  1.7432 
  1079.000 -24.286  5.4140  7.8810  7.7740 -20.286  5.4140  7.8810  7.7740  0.5350  1079.0  99.290  2.1222  0.3470  1.7460 
  1079.500 -22.625  5.2800  7.5140  7.4730 -18.625  5.2800  7.5140  7.4730  0.5342  1079.5  99.140  2.1214  0.3516  1.7487 
  1080.000 -20.798  5.1800  7.2130  7.0730 -16.798  5.1800  7.2130  7.0730  0.5333  1080.0  98.990  2.1207  0.3562  1.7514 
  1080.500 -20.301  5.0800  6.8800  6.7730 -16.301  5.0800  6.8800  6.7730  0.5325  1080.5  98.840  2.1200  0.3608  1.7542 
  1081.000 -19.804  5.2460  6.5790  6.4400 -15.804  5.2460  6.5790  6.4400  0.5317  1081.0  98.690  2.1193  0.3654  1.7569 
  1081.500 -19.972  5.4790  6.4790  6.1730 -15.972  5.4790  6.4790  6.1730  0.5308  1081.5  98.540  2.1186  0.3700  1.7597 
  1082.000 -20.306  5.6120  6.5120  6.2390 -16.306  5.6120  6.5120  6.2390  0.5300  1082.0  98.390  2.1179  0.3745  1.7624 
