~Version Information
VERS.                     2.0: CWLS log ASCII Standard Version 2.00
WRAP.                      NO: One line per depth step
~Well Information Block
#MNEM.UNIT                               Data Type  Information
#---------                               ---------  -----------
STRT.FT                                   530.0000:
STOP.FT                                  8230.0000:
STEP.FT                                     0.5000:
NULL.                 -999.25                     :
COMP.                                             :COMPANY            
WELL.     SAN EMIDIO #61-28 REDRILL               :WELL               
FLD .                                             :FIELD              
CTRY.                                             :COUNTRY            
STAT.                                             :STATE              
LOC .                                             :LOCATION           
UWI .                                             :UNIQUE WELL ID     
SRVC.                                             :Service company    
DATE.                                             :LOG DATE           
~Curve Information
#MNEM.UNIT           API CODE  Curve Description
#---------           --------  -----------------
DEPT.FT                      :   1 DEPTH
SP  .MV                      :   2
2Z18.OHMM                    :   3
31Z9.OHMM                    :   4
31Z1.OHMM                    :   5
SBL .MV                      :   6
RS  .OHMM                    :   7
RM  .OHMM                    :   8
 RD .OHMM                    :   9
DEVI.DEG                     :  10
TVD .FT                      :  11
AZIM.DEG                     :  12
NORT.FT                      :  13
EAST.FT                      :  14
OFFS.FT                      :  15
~A
# ...
  6672.500 -9.0450  1.4760  1.2590  1.4260 -5.0450  1.4760  1.2590  1.4260  10.962  6668.6  302.42  43.168 -11.823  22.164 
  6673.000 -9.0460  1.4920  1.2750  1.4250 -5.0460  1.4920  1.2750  1.4250  10.968  6669.1  302.41  43.219 -11.903  22.144 
  6673.500 -9.0480  1.5250  1.2920  1.4250 -5.0480  1.5250  1.2920  1.4250  10.974  6669.6  302.39  43.270 -11.984  22.123 
  6674.000 -9.0500  1.5570  1.2910  1.4240 -5.0500  1.5570  1.2910  1.4240  10.980  6670.1  302.38  43.321 -12.064  22.102 
  6674.500 -9.0510  1.5570  1.3240  1.4240 -5.0510  1.5570  1.3240  1.4240  10.986  6670.6  302.36  43.372 -12.145  22.081 
  6675.000 -9.0530  1.5560  1.3230  1.4230 -5.0530  1.5560  1.3230  1.4230  10.992  6671.1  302.34  43.423 -12.225  22.060 
  6675.500 -9.1380  1.5560  1.3230  1.4230 -5.1380  1.5560  1.3230  1.4230  10.998  6671.6  302.33  43.474 -12.306  22.039 
  6676.000 -9.2230  1.5550  1.3220  1.4220 -5.2230  1.5550  1.3220  1.4220  11.004  6672.1  302.31  43.525 -12.387  22.018 
  6676.500 -9.3900  1.5550  1.3550  1.4220 -5.3900  1.5550  1.3550  1.4220  11.010  6672.6  302.30  43.576 -12.467  21.997 
  6677.000 -9.5580  1.5540  1.3660  1.4380 -5.5580  1.5540  1.3660  1.4380  11.016  6673.1  302.28  43.627 -12.548  21.976 
  6677.500 -9.7260  1.5540  1.3760  1.4540 -5.7260  1.5540  1.3760  1.4540  11.022  6673.5  302.26  43.678 -12.629  21.955 
  6678.000 -9.8940  1.5530  1.3870  1.4700 -5.8940  1.5530  1.3870  1.4700  11.028  6674.0  302.25  43.729 -12.710  21.934 
  6678.500 -10.477  1.5700  1.4030  1.4860 -6.4770  1.5700  1.4030  1.4860  11.034  6674.5  302.23  43.780 -12.791  21.913 
  6679.000 -11.060  1.5860  1.4190  1.5020 -7.0600  1.5860  1.4190  1.5020  11.040  6675.0  302.21  43.831 -12.872  21.892 
  6679.500 -12.058  1.5850  1.4350  1.5190 -8.0580  1.5850  1.4350  1.5190  11.046  6675.5  302.20  43.882 -12.953  21.871 
  6680.000 -12.392  1.5680  1.4520  1.5180 -8.3920  1.5680  1.4520  1.5180  11.052  6676.0  302.18  43.933 -13.034  21.849 
  6680.500 -12.394  1.5510  1.4510  1.5340 -8.3940  1.5510  1.4510  1.5340  11.058  6676.5  302.17  43.985 -13.115  21.828 
  6681.000 -12.229  1.5500  1.4510  1.5500 -8.2290  1.5500  1.4510  1.5500  11.064  6677.0  302.15  44.036 -13.196  21.807 
  6681.500 -11.899  1.5500  1.4500  1.5500 -7.8990  1.5500  1.4500  1.5500  11.070  6677.5  302.13  44.087 -13.278  21.785 
  6682.000 -11.568  1.5490  1.4500  1.5830 -7.5680  1.5490  1.4500  1.5830  11.077  6678.0  302.12  44.138 -13.359  21.764 
  6682.500 -11.154  1.5160  1.4490  1.5820 -7.1540  1.5160  1.4490  1.5820  11.083  6678.4  302.10  44.189 -13.440  21.742 
  6683.000 -10.741  1.4980  1.4490  1.5820 -6.7410  1.4980  1.4490  1.5820  11.089  6678.9  302.09  44.240 -13.522  21.721 
  6683.500 -9.5800  1.4810  1.4310  1.5810 -5.5800  1.4810  1.4310  1.5810  11.095  6679.4  302.07  44.291 -13.603  21.699 
  6684.000 -8.9170  1.4640  1.4140  1.5810 -4.9170  1.4640  1.4140  1.5810  11.101  6679.9  302.05  44.342 -13.685  21.678 
  6684.500 -8.6700  1.4470  1.4140  1.5800 -4.6700  1.4470  1.4140  1.5800  11.107  6680.4  302.04  44.393 -13.767  21.656 
  6685.000 -8.4220  1.4470  1.4130  1.5800 -4.4220  1.4470  1.4130  1.5800  11.113  6680.9  302.02  44.444 -13.848  21.635 
  6685.500 -8.4240  1.4460  1.4130  1.5790 -4.4240  1.4460  1.4130  1.5790  11.119  6681.4  302.00  44.495 -13.930  21.613 
  6686.000 -8.4250  1.4290  1.4120  1.5790 -4.4250  1.4290  1.4120  1.5790  11.125  6681.9  301.99  44.546 -14.012  21.591 
  6686.500 -8.4270  1.4120  1.4120  1.5780 -4.4270  1.4120  1.4120  1.5780  11.131  6682.4  301.97  44.598 -14.094  21.569 
  6687.000 -8.9270  1.4110  1.4110  1.5780 -4.9270  1.4110  1.4110  1.5780  11.137  6682.9  301.96  44.649 -14.176  21.548 
  6687.500 -8.9290  1.4110  1.4110  1.5770 -4.9290  1.4110  1.4110  1.5770  11.143  6683.4  301.94  44.700 -14.258  21.526 
  6688.000 -9.0130  1.3940  1.4100  1.5770 -5.0130  1.3940  1.4100  1.5770  11.149  6683.8  301.92  44.751 -14.340  21.504 
  6688.500 -9.0980  1.3760  1.3930  1.6090 -5.0980  1.3760  1.3930  1.6090  11.155  6684.3  301.91  44.802 -14.422  21.482 
  6689.000 -9.1000  1.3650  1.3760  1.6090 -5.1000  1.3650  1.3760  1.6090  11.161  6684.8  301.89  44.853 -14.504  21.460 
  6689.500 -8.7690  1.3530  1.3760  1.6080 -4.7690  1.3530  1.3760  1.6080  11.167  6685.3  301.88  44.904 -14.586  21.438 
  6690.000 -8.6050  1.3420  1.3750  1.5910 -4.6050  1.3420  1.3750  1.5910  11.173  6685.8  301.86  44.955 -14.669  21.416 
  6690.500 -8.4400  1.3410  1.3580  1.5740 -4.4400  1.3410  1.3580  1.5740  11.179  6686.3  301.84  45.007 -14.751  21.394 
  6691.000 -7.9440  1.3410  1.3410  1.5740 -3.9440  1.3410  1.3410  1.5740  11.185  6686.8  301.83  45.058 -14.833  21.372 
  6691.500 -7.9450  1.3400  1.3400  1.5730 -3.9450  1.3400  1.3400  1.5730  11.191  6687.3  301.81  45.109 -14.916  21.350 
  6692.000 -7.9470  1.3400  1.3400  1.5730 -3.9470  1.3400  1.3400  1.5730  11.197  6687.8  301.79  45.160 -14.998  21.328 
  6692.500 -7.9490  1.3390  1.3280  1.5720 -3.9490  1.3390  1.3280  1.5720  11.204  6688.3  301.78  45.211 -15.081  21.305 
  6693.000 -8.1990  1.3390  1.3170  1.5550 -4.1990  1.3390  1.3170  1.5550  11.210  6688.8  301.76  45.262 -15.164  21.283 
  6693.500 -8.4500  1.3380  1.3050  1.5380 -4.4500  1.3380  1.3050  1.5380  11.216  6689.2  301.75  45.314 -15.246  21.261 
  6694.000 -8.9500  1.3380  1.2880  1.5540 -4.9500  1.3380  1.2880  1.5540  11.222  6689.7  301.73  45.365 -15.329  21.238 
  6694.500 -8.9520  1.3370  1.2710  1.5700 -4.9520  1.3370  1.2710  1.5700  11.228  6690.2  301.71  45.416 -15.412  21.216 
  6695.000 -8.9540  1.3370  1.2590  1.5700 -4.9540  1.3370  1.2590  1.5700  11.234  6690.7  301.70  45.467 -15.495  21.194 
  6695.500 -8.7060  1.3360  1.2470  1.5360 -4.7060  1.3360  1.2470  1.5360  11.240  6691.2  301.68  45.518 -15.578  21.171 
  6696.000 -8.4580  1.3360  1.2360  1.5690 -4.4580  1.3360  1.2360  1.5690  11.246  6691.7  301.67  45.569 -15.661  21.149 
  6696.500 -8.2940  1.3350  1.2350  1.5350 -4.2940  1.3350  1.2350  1.5350  11.252  6692.2  301.65  45.621 -15.744  21.126 
  6697.000 -8.3790  1.3350  1.2350  1.5010 -4.3790  1.3350  1.2350  1.5010  11.258  6692.7  301.63  45.672 -15.827  21.104 
  6697.500 -8.4630  1.3340  1.2340  1.4840 -4.4630  1.3340  1.2340  1.4840  11.264  6693.2  301.62  45.723 -15.910  21.081 
  6698.000 -8.6310  1.3340  1.2340  1.4670 -4.6310  1.3340  1.2340  1.4670  11.270  6693.7  301.60  45.774 -15.993  21.058 
  6698.500 -9.1310  1.3330  1.2330  1.4500 -5.1310  1.3330  1.2330  1.4500  11.276  6694.1  301.58  45.825 -16.077  21.036 
  6699.000 -9.4650  1.3330  1.2330  1.4330 -5.4650  1.3330  1.2330  1.4330  11.282  6694.6  301.57  45.877 -16.160  21.013 
  6699.500 -9.6330  1.3210  1.2320  1.4320 -5.6330  1.3210  1.2320  1.4320  11.288  6695.1  301.55  45.928 -16.243  20.990 
  6700.000 -9.8010  1.3100  1.2320  1.4320 -5.8010  1.3100  1.2320  1.4320  11.294  6695.6  301.54  45.979 -16.327  20.967 
  6700.500 -10.134  1.2980  1.2210  1.4310 -6.1340  1.2980  1.2210  1.4310  11.300  6696.1  301.52  46.030 -16.410  20.945 
  6701.000 -10.135  1.2980  1.2090  1.4310 -6.1350  1.2980  1.2090  1.4310  11.306  6696.6  301.50  46.082 -16.494  20.922 
  6701.500 -10.135  1.2980  1.1980  1.4310 -6.1350  1.2980  1.1980  1.4310  11.312  6697.1  301.49  46.133 -16.578  20.899 
  6702.000 -10.136  1.2980  1.1980  1.4630 -6.1360  1.2980  1.1980  1.4630  11.318  6697.6  301.47  46.184 -16.661  20.876 
  6702.500 -10.137  1.2980  1.1980  1.4630 -6.1370  1.2980  1.1980  1.4630  11.325  6698.1  301.46  46.235 -16.745  20.853 
  6703.000 -10.138  1.2970  1.1980  1.4630 -6.1380  1.2970  1.1980  1.4630  11.331  6698.6  301.44  46.287 -16.829  20.830 
  6703.500 -10.139  1.2970  1.1970  1.4620 -6.1390  1.2970  1.1970  1.4620  11.337  6699.0  301.42  46.338 -16.913  20.807 
  6704.000 -10.139  1.2970  1.1970  1.4620 -6.1390  1.2970  1.1970  1.4620  11.343  6699.5  301.41  46.389 -16.997  20.784 
  6704.500 -9.9740  1.2970  1.1970  1.4620 -5.9740  1.2970  1.1970  1.4620  11.349  6700.0  301.39  46.440 -17.081  20.760 
