~Version Information
VERS.                     2.0: CWLS log ASCII Standard Version 2.00
WRAP.                      NO: One line per depth step
~Well Information Block
#MNEM.UNIT                               Data Type  Information
#---------                               ---------  -----------
STRT.FT                                   374.0000:
STOP.FT                                  6834.0000:
STEP.FT                                     0.5000:
NULL.                 -999.25                     :
COMP.                                             :COMPANY            
WELL.     SAN EMIDIO A #66-19 REDRILL             :WELL               
FLD .                                             :FIELD              
CTRY.                                             :COUNTRY            
STAT.                                             :STATE              
LOC .                                             :LOCATION           
UWI .                                             :UNIQUE WELL ID     
SRVC.                                             :Service company    
DATE.                                             :LOG DATE           
~Curve Information
#MNEM.UNIT           API CODE  Curve Description
#---------           --------  -----------------
DEPT.FT                      :   1 DEPTH
SP  .MV                      :   2
AM16.OHMM                    :   3
AO10.OHMM                    :   4
AO19.OHMM                    :   5
SBL .MV                      :   6
RS  .OHMM                    :   7
RM  .OHMM                    :   8
RD  .OHMM                    :   9
~A
# ...
  5515.000 -14.532  1.8200  1.9310  1.8810 -5.7790  1.8200  1.9310  1.8810 
  5515.500 -14.862  1.8160  1.9230  1.8800 -6.1069  1.8160  1.9230  1.8800 
  5516.000 -15.226  1.8150  1.9150  1.8720 -6.4689  1.8150  1.9150  1.8720 
  5516.500 -15.555  1.8140  1.9140  1.8710 -6.7959  1.8140  1.9140  1.8710 
  5517.000 -15.381  1.8350  1.9140  1.8710 -6.6199  1.8350  1.9140  1.8710 
  5517.500 -15.315  1.8340  1.9130  1.8700 -6.5518  1.8340  1.9130  1.8700 
  5518.000 -15.320  1.8330  1.9090  1.8690 -6.5548  1.8330  1.9090  1.8690 
  5518.500 -15.469  1.8360  1.9040  1.8610 -6.7018  1.8360  1.9040  1.8610 
  5519.000 -15.798  1.8390  1.9040  1.8390 -7.0288  1.8390  1.9040  1.8390 
  5519.500 -16.055  1.8380  1.9030  1.8310 -7.2837  1.8380  1.9030  1.8310 
  5520.000 -16.275  1.8380  1.9100  1.8160 -7.5017  1.8380  1.9100  1.8160 
  5520.500 -15.917  1.8370  1.9160  1.8170 -7.1417  1.8370  1.9160  1.8170 
  5521.000 -15.593  1.8330  1.9230  1.8040 -6.8157  1.8330  1.9230  1.8040 
  5521.500 -15.665  1.8290  1.9260  1.8050 -6.8856  1.8290  1.9260  1.8050 
  5522.000 -15.880  1.8430  1.9300  1.8350 -7.0986  1.8430  1.9300  1.8350 
  5522.500 -14.802  1.8640  1.9290  1.8790 -6.0186  1.8640  1.9290  1.8790 
  5523.000 -14.084  1.8780  1.9290  1.9090 -5.2986  1.8780  1.9290  1.9090 
  5523.500 -13.653  1.8850  1.9280  1.9170 -4.8656  1.8850  1.9280  1.9170 
  5524.000 -13.437  1.8920  1.9210  1.9250 -4.6475  1.8920  1.9210  1.9250 
  5524.500 -13.329  1.9060  1.9210  1.9330 -4.5375  1.9060  1.9210  1.9330 
  5525.000 -13.330  1.9060  1.9200  1.9490 -4.5365  1.9060  1.9200  1.9490 
  5525.500 -14.300  1.9130  1.9200  1.9710 -5.5045  1.9130  1.9200  1.9710 
  5526.000 -15.306  1.9120  1.9200  1.9830 -6.5084  1.9120  1.9200  1.9830 
  5526.500 -16.060  1.9120  1.9190  1.9950 -7.2604  1.9120  1.9190  1.9950 
  5527.000 -15.701  1.9120  1.9190  2.0030 -6.8994  1.9120  1.9190  2.0030 
  5527.500 -14.264  1.9260  1.9180  2.0040 -5.4604  1.9260  1.9180  2.0040 
  5528.000 -13.689  1.9250  1.9180  2.0050 -4.8833  1.9250  1.9180  2.0050 
  5528.500 -13.545  1.9100  1.9180  1.9990 -4.7373  1.9100  1.9180  1.9990 
  5529.000 -14.444  1.8890  1.9320  2.0010 -5.6343  1.8890  1.9320  2.0010 
  5529.500 -14.875  1.8520  1.9310  2.0020 -6.0633  1.8520  1.9310  2.0020 
  5530.000 -13.905  1.7870  1.9310  2.0030 -5.0912  1.7870  1.9310  2.0030 
  5530.500 -14.007  1.7660  1.9380  2.0030 -5.1912  1.7660  1.9380  2.0030 
  5531.000 -14.397  1.7440  1.9420  2.0030 -5.5792  1.7440  1.9420  2.0030 
  5531.500 -14.751  1.7660  1.9450  2.0100 -5.9312  1.7660  1.9450  2.0100 
  5532.000 -15.068  1.7800  1.9450  2.0100 -6.2461  1.7800  1.9450  2.0100 
  5532.500 -15.027  1.7910  1.9520  2.0100 -6.2031  1.7910  1.9520  2.0100 
  5533.000 -14.590  1.8020  1.9520  2.0170 -5.7641  1.8020  1.9520  2.0170 
  5533.500 -14.191  1.8230  1.9530  2.0100 -5.3631  1.8230  1.9530  2.0100 
  5534.000 -14.113  1.8300  1.9670  2.0100 -5.2830  1.8300  1.9670  2.0100 
  5534.500 -14.108  1.8450  1.9700  2.0100 -5.2760  1.8450  1.9700  2.0100 
  5535.000 -13.707  1.8660  1.9740  2.0100 -4.8730  1.8660  1.9740  2.0100 
  5535.500 -13.270  1.8660  1.9740  2.0100 -4.4340  1.8660  1.9740  2.0100 
  5536.000 -12.870  1.8660  1.9950  1.9810 -4.0319  1.8660  1.9950  1.9810 
  5536.500 -12.505  1.8520  1.9950  1.9880 -3.6649  1.8520  1.9950  1.9880 
  5537.000 -12.464  1.8450  1.9960  2.0100 -3.6219  1.8450  1.9960  2.0100 
  5537.500 -12.566  1.8300  2.0030  2.0460 -3.7219  1.8300  2.0030  2.0460 
  5538.000 -12.740  1.8230  2.0100  2.0460 -3.8938  1.8230  2.0100  2.0460 
  5538.500 -12.807  1.8090  2.0240  2.0170 -3.9588  1.8090  2.0240  2.0170 
  5539.000 -12.370  1.8020  2.0240  1.9950 -3.5198  1.8020  2.0240  1.9950 
  5539.500 -11.898  1.8300  2.0240  1.9880 -3.0458  1.8300  2.0240  1.9880 
  5540.000 -11.498  1.8810  1.9740  1.9740 -2.6437  1.8810  1.9740  1.9740 
  5540.500 -11.287  1.9230  1.9870  2.0010 -2.4307  1.9230  1.9870  2.0010 
  5541.000 -11.544  1.9720  2.0000  2.0360 -2.6857  1.9720  2.0000  2.0360 
  5541.500 -12.196  1.9990  2.0140  2.0560 -3.3357  1.9990  2.0140  2.0560 
  5542.000 -13.064  2.0130  2.0560  2.0760 -4.2017  2.0130  2.0560  2.0760 
  5542.500 -13.536  2.0330  2.0620  2.1030 -4.6716  2.0330  2.0620  2.1030 
  5543.000 -13.002  2.0320  2.0460  2.0370 -4.1356  2.0320  2.0460  2.0370 
  5543.500 -12.756  1.9880  2.0450  2.0000 -3.8876  1.9880  2.0450  2.0000 
  5544.000 -12.834  1.9510  2.0410  1.9410 -3.9636  1.9510  2.0410  1.9410 
  5544.500 -13.019  1.9140  2.0360  1.8820 -4.1465  1.9140  2.0360  1.8820 
  5545.000 -13.024  1.8840  2.0210  1.8590 -4.1495  1.8840  2.0210  1.8590 
  5545.500 -12.922  1.8650  2.0190  1.8360 -4.0455  1.8650  2.0190  1.8360 
  5546.000 -12.424  1.8460  2.0180  1.8560 -3.5455  1.8460  2.0180  1.8560 
  5546.500 -11.747  1.8160  2.0170  1.8690 -2.8664  1.8160  2.0170  1.8690 
  5547.000 -11.429  1.7940  2.0160  1.8890 -2.5464  1.7940  2.0160  1.8890 
  5547.500 -11.327  1.7850  2.0150  1.8950 -2.4424  1.7850  2.0150  1.8950 
  5548.000 -11.368  1.7840  2.0000  1.9010 -2.4814  1.7840  2.0000  1.9010 
  5548.500 -11.445  1.7830  1.9910  1.9060 -2.5563  1.7830  1.9910  1.9060 
  5549.000 -11.630  1.7820  1.9760  1.9050 -2.7393  1.7820  1.9760  1.9050 
  5549.500 -11.959  1.7740  1.9750  1.9110 -3.0663  1.7740  1.9750  1.9110 
  5550.000 -12.324  1.8020  1.9740  1.9100 -3.4293  1.8020  1.9740  1.9100 
  5550.500 -12.692  1.8440  2.0020  1.9090 -3.7952  1.8440  2.0020  1.9090 
  5551.000 -13.132  1.8660  2.0160  1.9080 -4.2332  1.8660  2.0160  1.9080 
  5551.500 -13.536  1.8940  2.0370  1.9070 -4.6352  1.8940  2.0370  1.9070 
  5552.000 -13.761  1.8940  2.0510  1.9030 -4.8582  1.8940  2.0510  1.9030 
  5552.500 -13.913  1.8930  2.0580  1.8990 -5.0081  1.8930  2.0580  1.8990 
  5553.000 -14.066  1.8500  2.0690  1.8980 -5.1591  1.8500  2.0690  1.8980 
  5553.500 -14.200  1.8420  2.0790  1.8900 -5.2911  1.8420  2.0790  1.8900 
  5554.000 -14.335  1.8270  2.0640  1.8890 -5.4241  1.8270  2.0640  1.8890 
  5554.500 -14.560  1.8130  2.0600  1.8890 -5.6470  1.8130  2.0600  1.8890 
  5555.000 -13.815  1.8050  2.0570  1.8880 -4.9000  1.8050  2.0570  1.8880 
  5555.500 -13.249  1.7900  2.0450  1.8800 -4.3320  1.7900  2.0450  1.8800 
  5556.000 -12.504  1.7760  2.0340  1.8790 -3.5850  1.7760  2.0340  1.8790 
  5556.500 -12.153  1.7750  2.0200  1.8780 -3.2319  1.7750  2.0200  1.8780 
  5557.000 -11.802  1.7750  2.0050  1.8780 -2.8789  1.7750  2.0050  1.8780 
  5557.500 -11.668  1.7750  1.9900  1.8840 -2.7429  1.7750  1.9900  1.8840 
  5558.000 -11.605  1.7750  1.9900  1.8910 -2.6779  1.7750  1.9900  1.8910 
  5558.500 -11.578  1.7740  1.9750  1.8970 -2.6489  1.7740  1.9750  1.8970 
  5559.000 -11.659  1.7740  1.9750  1.8680 -2.7278  1.7740  1.9750  1.8680 
  5559.500 -11.776  1.7730  1.9740  1.8450 -2.8428  1.7730  1.9740  1.8450 
  5560.000 -12.036  1.7730  1.9740  1.8380 -3.1008  1.7730  1.9740  1.8380 
  5560.500 -11.886  1.7730  1.9810  1.8680 -2.9488  1.7730  1.9810  1.8680 
  5561.000 -11.842  1.7730  1.9810  1.8760 -2.9027  1.7730  1.9810  1.8760 
  5561.500 -11.727  1.7770  1.9810  1.8780 -2.7857  1.7770  1.9810  1.8780 
  5562.000 -11.684  1.7800  1.9880  1.8790 -2.7407  1.7800  1.9880  1.8790 
  5562.500 -11.713  1.7950  1.9880  1.8950 -2.7677  1.7950  1.9880  1.8950 
  5563.000 -11.813  1.7940  1.9880  1.9040 -2.8656  1.7940  1.9880  1.9040 
  5563.500 -11.913  1.7940  1.9880  1.9340 -2.9636  1.7940  1.9880  1.9340 
  5564.000 -12.482  1.7940  2.0030  1.9500 -3.5306  1.7940  2.0030  1.9500 
  5564.500 -12.834  1.7940  2.0030  1.9580 -3.8806  1.7940  2.0030  1.9580 
  5565.000 -13.186  1.8020  2.0030  1.9600 -4.2305  1.8020  2.0030  1.9600 
  5565.500 -13.466  1.8020  2.0030  1.9110 -4.5085  1.8020  2.0030  1.9110 
  5566.000 -13.566  1.7980  2.0030  1.8760 -4.6065  1.7980  2.0030  1.8760 
  5566.500 -13.666  1.7950  2.0030  1.8780 -4.7045  1.7950  2.0030  1.8780 
  5567.000 -13.408  1.7940  2.0030  1.9150 -4.4444  1.7940  2.0030  1.9150 
  5567.500 -12.575  1.7800  2.0030  1.9170 -3.6094  1.7800  2.0030  1.9170 
