~Version Information
VERS.                     2.0: CWLS log ASCII Standard Version 2.00
WRAP.                      NO: One line per depth step
~Well Information Block
#MNEM.UNIT                               Data Type  Information
#---------                               ---------  -----------
STRT.FT                                   530.0000:
STOP.FT                                  8230.0000:
STEP.FT                                     0.5000:
NULL.                 -999.25                     :
COMP.                                             :COMPANY            
WELL.     SAN EMIDIO #61-28 REDRILL               :WELL               
FLD .                                             :FIELD              
CTRY.                                             :COUNTRY            
STAT.                                             :STATE              
LOC .                                             :LOCATION           
UWI .                                             :UNIQUE WELL ID     
SRVC.                                             :Service company    
DATE.                                             :LOG DATE           
~Curve Information
#MNEM.UNIT           API CODE  Curve Description
#---------           --------  -----------------
DEPT.FT                      :   1 DEPTH
SP  .MV                      :   2
2Z18.OHMM                    :   3
31Z9.OHMM                    :   4
31Z1.OHMM                    :   5
SBL .MV                      :   6
RS  .OHMM                    :   7
RM  .OHMM                    :   8
 RD .OHMM                    :   9
DEVI.DEG                     :  10
TVD .FT                      :  11
AZIM.DEG                     :  12
NORT.FT                      :  13
EAST.FT                      :  14
OFFS.FT                      :  15
~A
# ...
  7680.000 -60.763  8.7830  4.2850  3.4850 -56.763  8.7830  4.2850  3.4850  14.750  7644.3  299.99  169.15 -228.63 -42.059 
  7680.500 -61.099  8.7990  4.1510  3.3520 -57.099  8.7990  4.1510  3.3520  14.750  7644.8  299.99  169.21 -228.74 -42.092 
  7681.000 -61.273  8.8160  4.0340  3.2680 -57.273  8.8160  4.0340  3.2680  14.750  7645.3  299.99  169.28 -228.85 -42.125 
  7681.500 -61.528  9.1150  3.9170  3.1840 -57.528  9.1150  3.9170  3.1840  14.750  7645.7  299.99  169.34 -228.96 -42.158 
  7682.000 -61.782  9.2480  3.7830  3.1330 -57.782  9.2480  3.7830  3.1330  14.750  7646.2  299.99  169.40 -229.07 -42.191 
  7682.500 -61.788  9.3800  3.6820  3.0830 -57.788  9.3800  3.6820  3.0830  14.750  7646.7  299.99  169.47 -229.18 -42.224 
  7683.000 -61.960  9.3800  3.7820  2.9820 -57.960  9.3800  3.7820  2.9820  14.750  7647.2  299.99  169.53 -229.29 -42.257 
  7683.500 -62.132  9.2790  3.8480  2.9480 -58.132  9.2790  3.8480  2.9480  14.750  7647.7  299.99  169.59 -229.40 -42.290 
  7684.000 -62.303  7.8790  3.9470  2.8810 -58.303  7.8790  3.9470  2.8810  14.750  7648.2  299.99  169.66 -229.51 -42.323 
  7684.500 -62.474  7.5120  4.1140  2.8140 -58.474  7.5120  4.1140  2.8140  14.750  7648.6  299.99  169.72 -229.62 -42.356 
  7685.000 -63.977  7.4120  4.3130  2.7810 -59.977  7.4120  4.3130  2.7810  14.750  7649.1  299.99  169.79 -229.73 -42.389 
  7685.500 -65.310  7.3780  4.4790  2.7470 -61.310  7.3780  4.4790  2.7470  14.750  7649.6  299.99  169.85 -229.84 -42.421 
  7686.000 -66.478  7.4110  4.6120  2.6790 -62.478  7.4110  4.6120  2.6790  14.750  7650.1  299.99  169.91 -229.95 -42.454 
  7686.500 -67.645  7.4100  4.7450  2.7120 -63.645  7.4100  4.7450  2.7120  14.750  7650.6  299.99  169.98 -230.06 -42.487 
  7687.000 -67.817  7.3430  4.7780  2.7620 -63.817  7.3430  4.7780  2.7620  14.750  7651.1  299.99  170.04 -230.17 -42.520 
  7687.500 -67.823  7.3090  4.8110  2.8120 -63.823  7.3090  4.8110  2.8120  14.750  7651.5  299.99  170.10 -230.28 -42.553 
  7688.000 -67.829  7.2420  4.8760  2.8940 -63.829  7.2420  4.8760  2.8940  14.750  7652.0  299.99  170.17 -230.39 -42.586 
  7688.500 -68.332  7.2080  4.8760  2.9770 -64.332  7.2080  4.8760  2.9770  14.750  7652.5  299.99  170.23 -230.50 -42.619 
  7689.000 -68.670  7.2080  4.8750  3.0100 -64.670  7.2080  4.8750  3.0100  14.750  7653.0  299.99  170.29 -230.61 -42.652 
  7689.500 -69.506  7.2070  4.8920  3.1090 -65.506  7.2070  4.8920  3.1090  14.750  7653.5  299.99  170.36 -230.72 -42.685 
  7690.000 -70.507  7.2070  4.9080  3.1420 -66.507  7.2070  4.9080  3.1420  14.750  7654.0  299.99  170.42 -230.83 -42.718 
  7690.500 -71.509  7.5400  4.9070  3.2080 -67.509  7.5400  4.9070  3.2080  14.750  7654.4  299.99  170.49 -230.94 -42.751 
  7691.000 -72.345  8.0720  4.9070  3.4070 -68.345  8.0720  4.9070  3.4070  14.750  7654.9  299.99  170.55 -231.06 -42.784 
  7691.500 -74.342  8.3050  4.9230  3.4740 -70.342  8.3050  4.9230  3.4740  14.750  7655.4  299.99  170.61 -231.17 -42.817 
  7692.000 -74.846  8.3710  4.9390  3.6060 -70.846  8.3710  4.9390  3.6060  14.750  7655.9  299.99  170.68 -231.28 -42.850 
  7692.500 -75.515  8.2870  4.9050  3.7720 -71.515  8.2870  4.9050  3.7720  14.750  7656.4  299.99  170.74 -231.39 -42.883 
  7693.000 -75.853  8.2040  4.8050  3.8720 -71.853  8.2040  4.8050  3.8720  14.750  7656.9  299.99  170.80 -231.50 -42.916 
  7693.500 -76.025  8.0360  4.6710  3.9050 -72.025  8.0360  4.6710  3.9050  14.750  7657.3  299.99  170.87 -231.61 -42.949 
  7694.000 -75.615  7.9030  4.6040  3.8710 -71.615  7.9030  4.6040  3.8710  14.750  7657.8  299.99  170.93 -231.72 -42.982 
  7694.500 -75.205  7.7350  4.5370  3.8370 -71.205  7.7350  4.5370  3.8370  14.750  7658.3  299.99  170.99 -231.83 -43.015 
  7695.000 -73.387  7.6350  4.4030  3.7700 -69.387  7.6350  4.4030  3.7700  14.750  7658.8  299.99  171.06 -231.94 -43.048 
  7695.500 -71.401  7.4350  4.3030  3.6700 -67.401  7.4350  4.3030  3.6700  14.750  7659.3  299.99  171.12 -232.05 -43.081 
  7696.000 -68.586  7.2510  4.1860  3.6020 -64.586  7.2510  4.1860  3.6020  14.750  7659.8  299.99  171.19 -232.16 -43.114 
  7696.500 -67.262  7.0670  4.0690  3.6020 -63.262  7.0670  4.0690  3.6020  14.750  7660.2  299.99  171.25 -232.27 -43.147 
  7697.000 -61.294  6.5000  3.9350  3.5680 -57.294  6.5000  3.9350  3.5680  14.750  7660.7  299.99  171.31 -232.38 -43.180 
  7697.500 -59.142  5.7670  3.8010  3.5010 -55.142  5.7670  3.8010  3.5010  14.750  7661.2  299.99  171.38 -232.49 -43.213 
  7698.000 -56.825  5.4660  3.7340  3.4840 -52.825  5.4660  3.7340  3.4840  14.750  7661.7  299.99  171.44 -232.60 -43.246 
  7698.500 -53.012  5.2990  3.6670  3.4670 -49.012  5.2990  3.6670  3.4670  14.750  7662.2  299.99  171.50 -232.71 -43.279 
  7699.000 -48.039  5.0650  3.5990  3.4160 -44.039  5.0650  3.5990  3.4160  14.750  7662.7  299.99  171.57 -232.82 -43.312 
  7699.500 -44.394  4.9650  3.6160  3.3660 -40.394  4.9650  3.6160  3.3660  14.750  7663.1  299.99  171.63 -232.93 -43.345 
  7700.000 -42.574  4.8650  3.6320  3.2980 -38.574  4.8650  3.6320  3.2980  14.750  7663.6  299.99  171.69 -233.04 -43.378 
  7700.500 -40.583  4.6640  3.6310  3.1980 -36.583  4.6640  3.6310  3.1980  14.750  7664.1  299.99  171.76 -233.15 -43.411 
  7701.000 -38.592  4.5300  3.6300  3.1300 -34.592  4.5300  3.6300  3.1300  14.750  7664.6  299.99  171.82 -233.26 -43.444 
  7701.500 -28.473  4.4290  3.5290  3.0960 -24.473  4.4290  3.5290  3.0960  14.750  7665.1  299.99  171.89 -233.37 -43.477 
  7702.000 -25.653  4.3280  3.5120  3.0620 -21.653  4.3280  3.5120  3.0620  14.750  7665.6  299.99  171.95 -233.48 -43.510 
  7702.500 -22.832  4.1940  3.4940  2.9610 -18.832  4.1940  3.4940  2.9610  14.750  7666.0  299.99  172.01 -233.59 -43.543 
  7703.000 -20.679  4.0930  3.4600  2.9270 -16.679  4.0930  3.4600  2.9270  14.750  7666.5  299.99  172.08 -233.70 -43.576 
  7703.500 -19.354  4.0760  3.4260  2.9430 -15.354  4.0760  3.4260  2.9430  14.750  7667.0  299.99  172.14 -233.81 -43.609 
  7704.000 -17.863  4.0580  3.3920  2.9590 -13.863  4.0580  3.3920  2.9590  14.750  7667.5  299.99  172.20 -233.92 -43.642 
  7704.500 -17.533  4.0240  3.3910  2.9580 -13.533  4.0240  3.3910  2.9580  14.750  7668.0  299.99  172.27 -234.03 -43.675 
  7705.000 -17.535  3.9230  3.3900  2.9570 -13.535  3.9230  3.3900  2.9570  14.750  7668.5  299.99  172.33 -234.14 -43.708 
  7705.500 -17.536  3.8890  3.4060  2.9730 -13.536  3.8890  3.4060  2.9730  14.750  7668.9  299.99  172.39 -234.25 -43.741 
  7706.000 -19.532  3.8550  3.4220  2.9890 -15.532  3.8550  3.4220  2.9890  14.750  7669.4  299.99  172.46 -234.36 -43.774 
  7706.500 -21.360  3.9540  3.4210  3.0210 -17.360  3.9540  3.4210  3.0210  14.750  7669.9  299.99  172.52 -234.47 -43.807 
  7707.000 -23.688  4.0530  3.4200  3.0870 -19.688  4.0530  3.4200  3.0870  14.750  7670.4  299.99  172.59 -234.58 -43.840 
  7707.500 -25.184  4.0520  3.4030  3.1190 -21.184  4.0520  3.4030  3.1190  14.750  7670.9  299.99  172.65 -234.69 -43.872 
  7708.000 -25.518  4.0520  3.3850  3.1850 -21.518  4.0520  3.3850  3.1850  14.750  7671.4  299.99  172.71 -234.80 -43.905 
  7708.500 -25.853  3.9840  3.3840  3.2180 -21.853  3.9840  3.3840  3.2180  14.750  7671.8  299.99  172.78 -234.91 -43.938 
  7709.000 -26.021  3.9830  3.3500  3.2830 -22.021  3.9830  3.3500  3.2830  14.750  7672.3  299.99  172.84 -235.02 -43.971 
  7709.500 -26.687  4.0160  3.3490  3.3830 -22.687  4.0160  3.3490  3.3830  14.750  7672.8  299.99  172.90 -235.13 -44.004 
  7710.000 -27.520  4.2150  3.3320  3.4650 -23.520  4.2150  3.3320  3.4650  14.750  7673.3  299.99  172.97 -235.25 -44.037 
  7710.500 -28.186  4.3140  3.3150  3.5480 -24.186  4.3140  3.3150  3.5480  14.750  7673.8  299.99  173.03 -235.36 -44.070 
  7711.000 -28.686  4.5790  3.5130  3.7130 -24.686  4.5790  3.5130  3.7130  14.750  7674.3  299.99  173.09 -235.47 -44.103 
  7711.500 -26.531  4.9790  3.6460  4.0460 -22.531  4.9790  3.6460  4.0460  14.750  7674.7  299.99  173.16 -235.58 -44.136 
  7712.000 -24.708  5.3440  3.7780  4.2780 -20.708  5.3440  3.7780  4.2780  14.750  7675.2  299.99  173.22 -235.69 -44.169 
