~Version Information
VERS.                     2.0: CWLS log ASCII Standard Version 2.00
WRAP.                      NO: One line per depth step
~Well Information Block
#MNEM.UNIT                               Data Type  Information
#---------                               ---------  -----------
STRT.FT                                   530.0000:
STOP.FT                                  8230.0000:
STEP.FT                                     0.5000:
NULL.                 -999.25                     :
COMP.                                             :COMPANY            
WELL.     SAN EMIDIO #61-28 REDRILL               :WELL               
FLD .                                             :FIELD              
CTRY.                                             :COUNTRY            
STAT.                                             :STATE              
LOC .                                             :LOCATION           
UWI .                                             :UNIQUE WELL ID     
SRVC.                                             :Service company    
DATE.                                             :LOG DATE           
~Curve Information
#MNEM.UNIT           API CODE  Curve Description
#---------           --------  -----------------
DEPT.FT                      :   1 DEPTH
SP  .MV                      :   2
2Z18.OHMM                    :   3
31Z9.OHMM                    :   4
31Z1.OHMM                    :   5
SBL .MV                      :   6
RS  .OHMM                    :   7
RM  .OHMM                    :   8
 RD .OHMM                    :   9
DEVI.DEG                     :  10
TVD .FT                      :  11
AZIM.DEG                     :  12
NORT.FT                      :  13
EAST.FT                      :  14
OFFS.FT                      :  15
~A
# ...
  4105.000 -46.861  6.2160  4.4540  2.6270 -41.356  6.2160  4.4540  2.6270  0.5791  4104.7  39.140  10.233  31.047  29.190 
  4105.500 -45.866  5.9830  4.4700  2.5940 -40.361  5.9830  4.4700  2.5940  0.5787  4105.2  39.455  10.237  31.051  29.195 
  4106.000 -44.206  5.8170  4.4870  2.5940 -38.702  5.8170  4.4870  2.5940  0.5783  4105.7  39.770  10.241  31.054  29.200 
  4106.500 -43.544  5.5840  4.4530  2.5770 -38.040  5.5840  4.4530  2.5770  0.5779  4106.2  40.085  10.245  31.057  29.205 
  4107.000 -42.383  5.3840  4.4200  2.5600 -36.879  5.3840  4.4200  2.5600  0.5775  4106.7  40.400  10.249  31.060  29.210 
  4107.500 -41.388  5.3510  4.4200  2.5270 -35.885  5.3510  4.4200  2.5270  0.5771  4107.2  40.715  10.253  31.064  29.215 
  4108.000 -42.386  5.4840  4.4200  2.4940 -36.883  5.4840  4.4200  2.4940  0.5766  4107.7  41.030  10.256  31.067  29.220 
  4108.500 -43.384  5.6830  4.4200  2.5270 -37.881  5.6830  4.4200  2.5270  0.5762  4108.2  41.345  10.260  31.070  29.225 
  4109.000 -43.884  5.9150  4.4520  2.5600 -38.382  5.9150  4.4520  2.5600  0.5758  4108.7  41.660  10.264  31.074  29.230 
  4109.500 -44.383  6.0480  4.4860  2.7260 -38.881  6.0480  4.4860  2.7260  0.5754  4109.2  41.975  10.268  31.077  29.235 
  4110.000 -45.216  6.1810  4.5850  2.8590 -39.715  6.1810  4.5850  2.8590  0.5750  4109.7  42.290  10.271  31.080  29.240 
  4110.500 -39.903  6.0480  4.7180  3.1250 -34.402  6.0480  4.7180  3.1250  0.5746  4110.2  42.605  10.275  31.084  29.245 
  4111.000 -35.585  5.9150  4.8840  3.3580 -30.084  5.9150  4.8840  3.3580  0.5741  4110.7  42.920  10.279  31.087  29.250 
  4111.500 -31.102  5.7820  5.1500  3.3580 -25.602  5.7820  5.1500  3.3580  0.5737  4111.2  43.235  10.282  31.091  29.255 
  4112.000 -28.611  5.5150  5.2490  3.3250 -23.111  5.5150  5.2490  3.3250  0.5733  4111.7  43.550  10.286  31.094  29.260 
  4112.500 -23.464  4.9170  5.1830  3.2250 -17.964  4.9170  5.1830  3.2250  0.5729  4112.2  43.865  10.290  31.097  29.265 
  4113.000 -18.316  4.4180  5.0160  3.1250 -12.817  4.4180  5.0160  3.1250  0.5725  4112.7  44.180  10.293  31.101  29.270 
  4113.500 -15.328  3.8190  4.7830  2.9590 -9.8291  3.8190  4.7830  2.9590  0.5721  4113.2  44.495  10.297  31.104  29.275 
  4114.000 -13.668  3.3540  4.4840  2.7600 -8.1694  3.3540  4.4840  2.7600  0.5716  4113.7  44.810  10.300  31.108  29.280 
  4114.500 -11.843  2.8210  4.1510  2.5270 -6.3448  2.8210  4.1510  2.5270  0.5712  4114.2  45.125  10.304  31.111  29.285 
  4115.000 -11.096  2.6720  3.7190  2.2610 -5.5982  2.6720  3.7190  2.2610  0.5708  4114.7  45.440  10.307  31.115  29.290 
  4115.500 -10.350  2.5220  3.3860  2.0280 -4.8525  2.5220  3.3860  2.0280  0.5704  4115.2  45.755  10.311  31.119  29.295 
  4116.000 -9.6880  2.4050  2.6550  1.8290 -4.1909  2.4050  2.6550  1.8290  0.5700  4115.7  46.070  10.314  31.122  29.300 
  4116.500 -9.6900  2.2890  2.5550  1.7950 -4.1932  2.2890  2.5550  1.7950  0.5696  4116.2  46.385  10.318  31.126  29.305 
  4117.000 -9.8580  2.2550  2.4550  1.7950 -4.3616  2.2550  2.4550  1.7950  0.5691  4116.7  46.700  10.321  31.129  29.310 
  4117.500 -10.274  2.2390  2.3880  1.7950 -4.7780  2.2390  2.3880  1.7950  0.5687  4117.2  47.015  10.324  31.133  29.315 
  4118.000 -10.691  2.2220  2.4050  1.7950 -5.1953  2.2220  2.4050  1.7950  0.5683  4117.7  47.330  10.328  31.137  29.320 
  4118.500 -11.856  2.2880  2.4210  1.7960 -6.3607  2.2880  2.4210  1.7960  0.5679  4118.2  47.645  10.331  31.140  29.325 
  4119.000 -13.020  2.3540  2.5870  1.7960 -7.5250  2.3540  2.5870  1.7960  0.5675  4118.7  47.960  10.334  31.144  29.330 
  4119.500 -14.351  2.4210  2.6870  1.8950 -8.8564  2.4210  2.6870  1.8950  0.5671  4119.2  48.275  10.338  31.148  29.335 
  4120.000 -16.512  2.6530  2.9530  1.9620 -11.018  2.6530  2.9530  1.9620  0.5666  4119.7  48.590  10.341  31.151  29.340 
  4120.500 -17.676  2.9190  3.1190  2.0950 -12.182  2.9190  3.1190  2.0950  0.5662  4120.2  48.905  10.344  31.155  29.344 
  4121.000 -19.671  3.2520  3.3180  2.2280 -14.177  3.2520  3.3180  2.2280  0.5658  4120.7  49.220  10.347  31.159  29.349 
  4121.500 -21.334  3.5170  3.4840  2.3610 -15.841  3.5170  3.4840  2.3610  0.5654  4121.2  49.535  10.351  31.163  29.354 
  4122.000 -25.488  3.9490  3.6830  2.5270 -19.995  3.9490  3.6830  2.5270  0.5650  4121.7  49.850  10.354  31.166  29.359 
  4122.500 -37.285  4.5150  3.7830  2.7600 -31.793  4.5150  3.7830  2.7600  0.5646  4122.2  50.165  10.357  31.170  29.364 
  4123.000 -38.283  4.9130  3.8830  2.9260 -32.791  4.9130  3.8830  2.9260  0.5641  4122.7  50.480  10.360  31.174  29.369 
  4123.500 -39.281  5.3790  3.9160  3.1250 -33.789  5.3790  3.9160  3.1250  0.5637  4123.2  50.795  10.363  31.178  29.374 
  4124.000 -40.279  5.7110  3.9490  3.2250 -34.788  5.7110  3.9490  3.2250  0.5633  4123.7  51.110  10.366  31.182  29.379 
  4124.500 -41.942  6.0430  3.9380  3.2920 -36.451  6.0430  3.9380  3.2920  0.5629  4124.2  51.425  10.369  31.185  29.384 
  4125.000 -42.941  6.1100  3.9260  3.3580 -37.450  6.1100  3.9260  3.3580  0.5625  4124.7  51.740  10.372  31.189  29.389 
  4125.500 -43.939  6.0260  3.9150  3.4080 -38.449  6.0260  3.9150  3.4080  0.5621  4125.2  52.055  10.375  31.193  29.393 
  4126.000 -44.937  5.9430  3.8820  3.4580 -39.447  5.9430  3.8820  3.4580  0.5617  4125.7  52.370  10.378  31.197  29.398 
  4126.500 -45.686  5.7100  3.8480  3.4750 -40.196  5.7100  3.8480  3.4750  0.5612  4126.2  52.685  10.381  31.201  29.403 
  4127.000 -46.436  5.7770  3.6820  3.4910 -40.947  5.7770  3.6820  3.4910  0.5608  4126.7  53.000  10.384  31.205  29.408 
  4127.500 -47.102  6.0090  3.5820  3.4910 -41.613  6.0090  3.5820  3.4910  0.5604  4127.2  53.315  10.387  31.209  29.413 
  4128.000 -45.276  5.9090  3.4490  3.4580 -39.788  5.9090  3.4490  3.4580  0.5600  4127.7  53.630  10.390  31.213  29.418 
  4128.500 -43.783  5.6100  3.3490  3.4250 -38.295  5.6100  3.3490  3.4250  0.5596  4128.2  53.945  10.393  31.217  29.423 
  4129.000 -42.622  5.3100  3.3150  3.3090 -37.134  5.3100  3.3150  3.3090  0.5592  4128.7  54.260  10.396  31.221  29.427 
  4129.500 -41.793  5.2440  3.2820  3.1920 -36.306  5.2440  3.2820  3.1920  0.5587  4129.2  54.575  10.399  31.225  29.432 
  4130.000 -40.964  5.1440  3.2150  2.8930 -35.477  5.1440  3.2150  2.8930  0.5583  4129.7  54.890  10.402  31.229  29.437 
  4130.500 -40.633  5.0440  3.2480  2.7600 -35.146  5.0440  3.2480  2.7600  0.5579  4130.2  55.205  10.404  31.233  29.442 
  4131.000 -40.469  4.8440  3.4140  2.6770 -34.983  4.8440  3.4140  2.6770  0.5575  4130.7  55.520  10.407  31.237  29.447 
  4131.500 -40.221  4.7440  3.4970  2.5940 -34.735  4.7440  3.4970  2.5940  0.5571  4131.2  55.835  10.410  31.241  29.451 
  4132.000 -39.973  4.5780  3.5800  2.3610 -34.487  4.5780  3.5800  2.3610  0.5567  4131.7  56.150  10.412  31.245  29.456 
  4132.500 -38.315  4.4110  3.6630  2.2940 -32.830  4.4110  3.6630  2.2940  0.5562  4132.2  56.465  10.415  31.249  29.461 
  4133.000 -37.818  4.4110  3.7460  2.2280 -32.333  4.4110  3.7460  2.2280  0.5558  4132.7  56.780  10.418  31.253  29.466 
  4133.500 -40.311  4.4440  3.7630  2.1940 -34.827  4.4440  3.7630  2.1940  0.5554  4133.2  57.095  10.420  31.257  29.470 
  4134.000 -42.638  4.4780  3.7790  2.1610 -37.154  4.4780  3.7790  2.1610  0.5550  4133.7  57.410  10.423  31.261  29.475 
  4134.500 -44.467  4.8600  3.7460  2.1280 -38.983  4.8600  3.7460  2.1280  0.5546  4134.2  57.725  10.426  31.265  29.480 
  4135.000 -50.781  5.2420  3.7120  2.1450 -45.298  5.2420  3.7120  2.1450  0.5542  4134.7  58.040  10.428  31.269  29.484 
  4135.500 -52.610  6.0730  3.7450  2.1610 -47.127  6.0730  3.7450  2.1610  0.5537  4135.2  58.355  10.431  31.273  29.489 
  4136.000 -53.940  6.4390  3.7790  2.1950 -48.457  6.4390  3.7790  2.1950  0.5533  4135.7  58.670  10.433  31.277  29.494 
  4136.500 -54.773  6.8370  3.9280  2.2280 -49.291  6.8370  3.9280  2.2280  0.5529  4136.2  58.985  10.436  31.281  29.499 
  4137.000 -55.605  7.2360  4.0770  2.2940 -50.123  7.2360  4.0770  2.2940  0.5525  4136.7  59.300  10.438  31.286  29.503 
