~Version Information
VERS.                     2.0: CWLS log ASCII Standard Version 2.00
WRAP.                      NO: One line per depth step
~Well Information Block
#MNEM.UNIT                               Data Type  Information
#---------                               ---------  -----------
STRT.FT                                   530.0000:
STOP.FT                                  8230.0000:
STEP.FT                                     0.5000:
NULL.                 -999.25                     :
COMP.                                             :COMPANY            
WELL.     SAN EMIDIO #61-28 REDRILL               :WELL               
FLD .                                             :FIELD              
CTRY.                                             :COUNTRY            
STAT.                                             :STATE              
LOC .                                             :LOCATION           
UWI .                                             :UNIQUE WELL ID     
SRVC.                                             :Service company    
DATE.                                             :LOG DATE           
~Curve Information
#MNEM.UNIT           API CODE  Curve Description
#---------           --------  -----------------
DEPT.FT                      :   1 DEPTH
SP  .MV                      :   2
2Z18.OHMM                    :   3
31Z9.OHMM                    :   4
31Z1.OHMM                    :   5
SBL .MV                      :   6
RS  .OHMM                    :   7
RM  .OHMM                    :   8
 RD .OHMM                    :   9
DEVI.DEG                     :  10
TVD .FT                      :  11
AZIM.DEG                     :  12
NORT.FT                      :  13
EAST.FT                      :  14
OFFS.FT                      :  15
~A
# ...
  2057.500 -5.7280  2.6880  3.3550  3.1530 -5.4507  2.6880  3.3550  3.1530  0.4290  2057.4  91.666 -0.0089  8.6413  6.1040 
  2058.000 -6.2260  2.6880  3.2220  3.0700 -5.9507  2.6880  3.2220  3.0700  0.4298  2057.9  92.011 -0.0091  8.6451  6.1066 
  2058.500 -7.5560  2.6880  3.2560  2.9870 -7.2828  2.6880  3.2560  2.9870  0.4307  2058.4  92.356 -0.0092  8.6489  6.1091 
  2059.000 -8.7200  2.7550  3.2890  3.0050 -8.4488  2.7550  3.2890  3.0050  0.4315  2058.9  92.701 -0.0094  8.6526  6.1117 
  2059.500 -10.716  2.7890  3.3230  3.0220 -10.447  2.7890  3.3230  3.0220  0.4324  2059.4  93.046 -0.0096  8.6564  6.1142 
  2060.000 -11.381  2.9560  3.3560  3.1890 -11.114  2.9560  3.3560  3.1890  0.4332  2059.9  93.391 -0.0098  8.6602  6.1167 
  2060.500 -15.872  3.1230  3.4560  3.2570 -15.607  3.1230  3.4560  3.2570  0.4340  2060.4  93.736 -0.0101  8.6639  6.1192 
  2061.000 -17.036  3.4230  3.5570  3.3910 -16.773  3.4230  3.5570  3.3910  0.4349  2060.9  94.081 -0.0103  8.6677  6.1217 
  2061.500 -17.535  3.6240  3.6400  3.4910 -17.274  3.6240  3.6400  3.4910  0.4357  2061.4  94.426 -0.0106  8.6715  6.1242 
  2062.000 -17.534  3.7400  3.7240  3.5750 -17.275  3.7400  3.7240  3.5750  0.4365  2061.9  94.771 -0.0110  8.6753  6.1266 
  2062.500 -17.367  3.8570  3.8240  3.6590 -17.110  3.8570  3.8240  3.6590  0.4374  2062.4  95.116 -0.0113  8.6791  6.1291 
  2063.000 -18.697  4.1910  3.9240  3.7770 -18.442  4.1910  3.9240  3.7770  0.4382  2062.9  95.461 -0.0116  8.6829  6.1315 
  2063.500 -19.695  4.2910  4.1910  3.8940 -19.442  4.2910  4.1910  3.8940  0.4390  2063.4  95.806 -0.0120  8.6867  6.1339 
  2064.000 -21.191  4.3920  4.2920  3.9950 -20.940  4.3920  4.2920  3.9950  0.4399  2063.9  96.151 -0.0125  8.6905  6.1363 
  2064.500 -21.523  4.5920  4.4920  4.0950 -21.274  4.5920  4.4920  4.0950  0.4407  2064.4  96.496 -0.0129  8.6944  6.1387 
  2065.000 -21.856  4.7920  4.6590  4.3290 -21.609  4.7920  4.6590  4.3290  0.4415  2064.9  96.841 -0.0133  8.6982  6.1411 
  2065.500 -22.187  5.2260  4.7590  4.4300 -21.943  5.2260  4.7590  4.4300  0.4424  2065.4  97.186 -0.0138  8.7020  6.1435 
  2066.000 -22.519  5.5930  4.8590  4.4970 -22.277  5.5930  4.8590  4.4970  0.4432  2065.9  97.531 -0.0143  8.7059  6.1458 
  2066.500 -22.685  5.7270  4.9260  4.6310 -22.445  5.7270  4.9260  4.6310  0.4440  2066.4  97.876 -0.0149  8.7097  6.1482 
  2067.000 -22.850  5.9610  5.0270  4.7320 -22.612  5.9610  5.0270  4.7320  0.4449  2066.9  98.221 -0.0154  8.7135  6.1505 
  2067.500 -23.099  6.0940  5.1270  4.8330 -22.863  6.0940  5.1270  4.8330  0.4457  2067.4  98.566 -0.0160  8.7174  6.1528 
  2068.000 -23.348  6.2280  5.1940  5.0000 -23.114  6.2280  5.1940  5.0000  0.4465  2067.9  98.911 -0.0166  8.7212  6.1551 
  2068.500 -23.929  6.4950  5.2610  5.2010 -23.697  6.4950  5.2610  5.2010  0.4474  2068.4  99.256 -0.0172  8.7251  6.1574 
  2069.000 -24.511  6.6620  5.4440  5.3680 -24.281  6.6620  5.4440  5.3680  0.4482  2068.9  99.601 -0.0179  8.7289  6.1596 
  2069.500 -24.676  6.7620  5.6280  5.4690 -24.448  6.7620  5.6280  5.4690  0.4491  2069.4  99.946 -0.0186  8.7328  6.1619 
  2070.000 -24.842  6.5620  6.1620  5.7700 -24.616  6.5620  6.1620  5.7700  0.4499  2069.9  100.29 -0.0193  8.7367  6.1641 
  2070.500 -24.841  6.3290  6.4960  6.1710 -24.617  6.3290  6.4960  6.1710  0.4507  2070.4  100.64 -0.0200  8.7405  6.1664 
  2071.000 -24.757  5.9950  6.7960  6.3050 -24.535  5.9950  6.7960  6.3050  0.4516  2070.9  100.98 -0.0207  8.7444  6.1686 
  2071.500 -24.674  5.5290  6.7960  6.1390 -24.454  5.5290  6.7960  6.1390  0.4524  2071.4  101.33 -0.0215  8.7483  6.1707 
  2072.000 -23.008  4.8950  6.6300  6.0060 -22.790  4.8950  6.6300  6.0060  0.4532  2071.9  101.67 -0.0223  8.7521  6.1729 
  2072.500 -20.179  4.4950  6.4630  5.5730 -19.963  4.4950  6.4630  5.5730  0.4541  2072.4  102.02 -0.0231  8.7560  6.1751 
  2073.000 -16.517  4.1610  6.0960  5.2060 -16.303  4.1610  6.0960  5.2060  0.4549  2072.9  102.36 -0.0240  8.7599  6.1772 
  2073.500 -15.019  3.9610  5.7630  4.8400 -14.807  3.9610  5.7630  4.8400  0.4557  2073.4  102.71 -0.0249  8.7638  6.1793 
  2074.000 -13.687  3.8110  5.1290  4.3400 -13.477  3.8110  5.1290  4.3400  0.4566  2073.9  103.05 -0.0258  8.7677  6.1815 
  2074.500 -13.520  3.6610  4.9290  3.8070 -13.313  3.6610  4.9290  3.8070  0.4574  2074.4  103.40 -0.0267  8.7715  6.1835 
  2075.000 -13.852  3.4780  4.6620  3.4400 -13.647  3.4780  4.6620  3.4400  0.4582  2074.9  103.74 -0.0276  8.7754  6.1856 
  2075.500 -14.350  3.2950  4.3290  3.0740 -14.147  3.2950  4.3290  3.0740  0.4591  2075.4  104.09 -0.0286  8.7793  6.1877 
  2076.000 -15.514  3.1610  4.1620  2.7410 -15.313  3.1610  4.1620  2.7410  0.4599  2075.9  104.43 -0.0296  8.7832  6.1897 
  2076.500 -16.844  3.1280  4.0290  2.8750 -16.645  3.1280  4.0290  2.8750  0.4607  2076.4  104.78 -0.0306  8.7871  6.1917 
  2077.000 -17.842  3.0950  4.1290  2.9260 -17.645  3.0950  4.1290  2.9260  0.4616  2076.9  105.12 -0.0317  8.7910  6.1937 
  2077.500 -18.506  3.0620  4.3290  2.9760 -18.311  3.0620  4.3290  2.9760  0.4624  2077.4  105.47 -0.0328  8.7949  6.1957 
  2078.000 -18.838  3.0280  4.5630  3.1100 -18.645  3.0280  4.5630  3.1100  0.4632  2077.9  105.81 -0.0339  8.7988  6.1977 
  2078.500 -18.837  2.9950  4.7970  3.1440 -18.646  2.9950  4.7970  3.1440  0.4641  2078.4  106.16 -0.0350  8.8026  6.1997 
  2079.000 -18.005  2.9620  4.8640  3.1780 -17.816  2.9620  4.8640  3.1780  0.4649  2078.9  106.50 -0.0362  8.8065  6.2016 
  2079.500 -16.839  2.9290  4.8970  3.1790 -16.652  2.9290  4.8970  3.1790  0.4658  2079.4  106.85 -0.0373  8.8104  6.2035 
  2080.000 -15.840  2.8960  4.8970  3.1460 -15.655  2.8960  4.8970  3.1460  0.4666  2079.9  107.19 -0.0385  8.8143  6.2054 
  2080.500 -15.673  2.8630  4.8640  3.1460 -15.490  2.8630  4.8640  3.1460  0.4674  2080.4  107.54 -0.0398  8.8182  6.2073 
  2081.000 -15.838  2.8290  4.8480  3.1470 -15.657  2.8290  4.8480  3.1470  0.4683  2080.9  107.88 -0.0410  8.8221  6.2092 
  2081.500 -16.004  2.7960  4.8310  3.1480 -15.825  2.7960  4.8310  3.1480  0.4691  2081.4  108.23 -0.0423  8.8260  6.2110 
  2082.000 -16.502  2.7800  4.7810  3.1480 -16.325  2.7800  4.7810  3.1480  0.4699  2081.9  108.57 -0.0436  8.8299  6.2128 
  2082.500 -16.501  2.7630  4.7310  3.3490 -16.326  2.7630  4.7310  3.3490  0.4708  2082.4  108.92 -0.0449  8.8338  6.2146 
  2083.000 -16.168  2.7300  4.5650  3.3830 -15.995  2.7300  4.5650  3.3830  0.4716  2082.9  109.26 -0.0463  8.8376  6.2164 
  2083.500 -15.834  2.7300  4.4650  3.4170 -15.663  2.7300  4.4650  3.4170  0.4724  2083.4  109.61 -0.0477  8.8415  6.2182 
  2084.000 -15.251  2.7640  4.3650  3.3840 -15.083  2.7640  4.3650  3.3840  0.4733  2083.9  109.95 -0.0491  8.8454  6.2199 
  2084.500 -14.669  2.7640  4.0650  3.3850 -14.503  2.7640  4.0650  3.3850  0.4741  2084.4  110.30 -0.0505  8.8493  6.2217 
  2085.000 -14.667  2.7310  3.8650  3.3850 -14.503  2.7310  3.8650  3.3850  0.4749  2084.9  110.64 -0.0520  8.8532  6.2234 
  2085.500 -15.165  2.7310  3.7980  3.4860 -15.003  2.7310  3.7980  3.4860  0.4758  2085.4  110.99 -0.0535  8.8570  6.2251 
  2086.000 -15.997  2.7640  3.7320  3.6200 -15.837  2.7640  3.7320  3.6200  0.4766  2085.9  111.33 -0.0550  8.8609  6.2267 
  2086.500 -16.495  2.7810  3.7650  3.9540 -16.337  2.7810  3.7650  3.9540  0.4774  2086.4  111.68 -0.0565  8.8648  6.2284 
  2087.000 -17.326  2.7980  3.9660  4.0550 -17.170  2.7980  3.9660  4.0550  0.4783  2086.9  112.02 -0.0581  8.8687  6.2300 
  2087.500 -17.824  2.8650  4.0660  4.1560 -17.670  2.8650  4.0660  4.1560  0.4791  2087.4  112.37 -0.0597  8.8725  6.2316 
  2088.000 -18.156  2.8980  4.0490  4.1900 -18.004  2.8980  4.0490  4.1900  0.4799  2087.9  112.71 -0.0613  8.8764  6.2332 
  2088.500 -17.323  2.9320  4.0330  4.1900 -17.173  2.9320  4.0330  4.1900  0.4808  2088.4  113.06 -0.0629  8.8802  6.2348 
  2089.000 -16.824  2.9650  3.8660  4.1410 -16.676  2.9650  3.8660  4.1410  0.4816  2088.9  113.40 -0.0646  8.8841  6.2363 
  2089.500 -16.324  3.0160  3.8160  4.0910 -16.178  3.0160  3.8160  4.0910  0.4825  2089.4  113.75 -0.0663  8.8880  6.2379 
