~Version Information
VERS.                     2.0: CWLS log ASCII Standard Version 2.00
WRAP.                      NO: One line per depth step
~Well Information Block
#MNEM.UNIT                               Data Type  Information
#---------                               ---------  -----------
STRT.FT                                   419.0000:
STOP.FT                                  7100.0000:
STEP.FT                                     0.5000:
NULL.                 -999.25                     :
COMP.                                             :COMPANY            
WELL.     SAN EMIDIO A #62-28                     :WELL               
FLD .                                             :FIELD              
CTRY.                                             :COUNTRY            
STAT.                                             :STATE              
LOC .                                             :LOCATION           
UWI .                                             :UNIQUE WELL ID     
SRVC.                                             :Service company    
DATE.                                             :LOG DATE           
~Curve Information
#MNEM.UNIT           API CODE  Curve Description
#---------           --------  -----------------
DEPT.FT                      :   1 DEPTH
SP  .MV                      :   2
AM16.OHMM                    :   3
AO10.OHMM                    :   4
AO19.OHMM                    :   5
SBL .MV                      :   6
RS  .OHMM                    :   7
RM  .OHMM                    :   8
RD  .OHMM                    :   9
DEVI.DEG                     :  10
TVD .FT                      :  11
AZIM.DEG                     :  12
NORT.FT                      :  13
EAST.FT                      :  14
OFFS.FT                      :  15
~A
# ...
  2629.000 -23.127  4.8800  6.4460  6.3280 -13.395  4.8800  6.4460  6.3280  0.9084  2628.8  90.073  13.199  24.837  26.896 
  2629.500 -22.663  4.7860  6.2730  6.1420 -12.928  4.7860  6.2730  6.1420  0.9125  2629.3  89.988  13.199  24.845  26.902 
  2630.000 -22.343  4.7940  6.1650  6.0060 -12.605  4.7940  6.1650  6.0060  0.9167  2629.8  89.903  13.199  24.853  26.907 
  2630.500 -22.275  4.8940  6.2150  5.8910 -12.534  4.8940  6.2150  5.8910  0.9209  2630.3  89.818  13.199  24.861  26.913 
  2631.000 -22.350  5.0370  6.4160  5.7910 -12.606  5.0370  6.4160  5.7910  0.9250  2630.8  89.733  13.199  24.869  26.919 
  2631.500 -23.288  5.2380  6.7610  5.8020 -13.541  5.2380  6.7610  5.8020  0.9292  2631.3  89.648  13.199  24.878  26.924 
  2632.000 -24.694  5.4750  7.0480  5.8130 -14.944  5.4750  7.0480  5.8130  0.9334  2631.8  89.563  13.199  24.886  26.930 
  2632.500 -25.920  5.7760  7.2560  5.9140 -16.167  5.7760  7.2560  5.9140  0.9375  2632.3  89.478  13.199  24.894  26.936 
  2633.000 -26.642  6.0560  7.4640  6.0800 -16.886  6.0560  7.4640  6.0800  0.9417  2632.8  89.393  13.200  24.902  26.942 
  2633.500 -27.797  6.4010  7.8010  6.2960 -18.038  6.4010  7.8010  6.2960  0.9459  2633.3  89.308  13.200  24.910  26.948 
  2634.000 -28.339  6.7810  8.1240  6.5620 -18.577  6.7810  8.1240  6.5620  0.9500  2633.8  89.223  13.200  24.919  26.954 
  2634.500 -29.314  7.1900  8.3070  6.7990 -19.549  7.1900  8.3070  6.7990  0.9542  2634.3  89.138  13.200  24.927  26.960 
  2635.000 -29.964  7.4130  8.4900  7.0010 -20.196  7.4130  8.4900  7.0010  0.9584  2634.8  89.053  13.200  24.935  26.966 
  2635.500 -30.651  7.6640  8.9570  7.2450 -20.880  7.6640  8.9570  7.2450  0.9625  2635.3  88.968  13.200  24.944  26.972 
  2636.000 -31.230  7.9150  9.1720  7.3250 -21.456  7.9150  9.1720  7.3250  0.9667  2635.8  88.883  13.200  24.952  26.978 
  2636.500 -31.665  8.2380  9.4020  7.4540 -21.888  8.2380  9.4020  7.4540  0.9709  2636.3  88.798  13.200  24.961  26.984 
  2637.000 -31.668  8.4180  9.5950  7.5550 -21.888  8.4180  9.5950  7.5550  0.9750  2636.8  88.713  13.201  24.969  26.990 
  2637.500 -30.917  8.5820  9.7460  7.6350 -21.134  8.5820  9.7460  7.6350  0.9792  2637.3  88.628  13.201  24.978  26.996 
  2638.000 -30.202  8.6610  9.8250  7.7430 -20.416  8.6610  9.8250  7.7430  0.9834  2637.8  88.543  13.201  24.986  27.003 
  2638.500 -29.738  8.7330  9.8960  7.8580 -19.949  8.7330  9.8960  7.8580  0.9875  2638.3  88.458  13.201  24.995  27.009 
  2639.000 -29.741  8.8050  9.9540  7.9590 -19.949  8.8050  9.9540  7.9590  0.9917  2638.8  88.373  13.202  25.004  27.015 
  2639.500 -29.997  8.8330  10.011  8.0600 -20.202  8.8330  10.011  8.0600  0.9959  2639.3  88.288  13.202  25.012  27.021 
  2640.000 -29.641  8.8040  10.068  8.2470 -19.843  8.8040  10.068  8.2470  1.0000  2639.8  88.203  13.202  25.021  27.028 
  2640.500 -29.206  8.7180  10.075  8.3830 -19.406  8.7180  10.075  8.3830  1.0042  2640.3  88.118  13.202  25.030  27.034 
  2641.000 -29.094  8.5670  10.075  8.4830 -19.291  8.5670  10.075  8.4830  1.0084  2640.8  88.033  13.203  25.038  27.041 
  2641.500 -29.234  8.1140  10.089  8.6120 -19.428  8.1140  10.089  8.6120  1.0125  2641.3  87.948  13.203  25.047  27.047 
  2642.000 -29.267  7.8050  10.131  8.6980 -19.458  7.8050  10.131  8.6980  1.0167  2641.8  87.863  13.203  25.056  27.054 
  2642.500 -29.155  7.6250  10.145  8.8060 -19.343  7.6250  10.145  8.8060  1.0209  2642.3  87.778  13.204  25.065  27.060 
  2643.000 -28.936  7.3660  10.192  8.8910 -19.121  7.3660  10.192  8.8910  1.0250  2642.8  87.693  13.204  25.074  27.067 
  2643.500 -28.716  7.1570  10.238  8.9630 -18.898  7.1570  10.238  8.9630  1.0292  2643.3  87.608  13.204  25.083  27.073 
  2644.000 -28.174  6.9130  10.266  8.8690 -18.353  6.9130  10.266  8.8690  1.0334  2643.8  87.523  13.205  25.092  27.080 
  2644.500 -27.415  6.5820  10.331  8.6250 -17.591  6.5820  10.331  8.6250  1.0375  2644.3  87.438  13.205  25.101  27.087 
  2645.000 -26.585  6.3230  10.424  8.4230 -16.758  6.3230  10.424  8.4230  1.0417  2644.8  87.353  13.206  25.110  27.093 
  2645.500 -25.827  6.0790  10.811  8.4010 -15.997  6.0790  10.811  8.4010  1.0459  2645.3  87.268  13.206  25.119  27.100 
  2646.000 -26.002  5.8990  11.335  8.7030 -16.169  5.8990  11.335  8.7030  1.0500  2645.8  87.183  13.207  25.128  27.107 
  2646.500 -27.257  5.5970  11.557  8.8670 -17.421  5.5970  11.557  8.8670  1.0542  2646.3  87.098  13.207  25.138  27.114 
  2647.000 -28.080  5.3810  11.736  8.8670 -18.241  5.3810  11.736  8.8670  1.0584  2646.8  87.013  13.207  25.147  27.121 
  2647.500 -26.963  5.1080  11.822  8.5220 -17.121  5.1080  11.822  8.5220  1.0625  2647.3  86.928  13.208  25.156  27.127 
  2648.000 -25.701  4.8420  11.894  7.4510 -15.856  4.8420  11.894  7.4510  1.0667  2647.8  86.843  13.208  25.165  27.134 
  2648.500 -24.583  4.6110  11.024  6.6320 -14.735  4.6110  11.024  6.6320  1.0709  2648.3  86.758  13.209  25.175  27.141 
  2649.000 -23.357  4.5320  10.213  6.1860 -13.506  4.5320  10.213  6.1860  1.0750  2648.8  86.673  13.210  25.184  27.148 
  2649.500 -22.239  4.4100  7.9640  5.7760 -12.385  4.4100  7.9640  5.7760  1.0792  2649.3  86.588  13.210  25.193  27.155 
  2650.000 -21.624  4.3300  7.7560  5.5170 -11.767  4.3300  7.7560  5.5170  1.0834  2649.8  86.503  13.211  25.203  27.163 
  2650.500 -21.081  4.3980  7.6260  5.3090 -11.221  4.3980  7.6260  5.3090  1.0875  2650.3  86.418  13.211  25.212  27.170 
  2651.000 -21.078  4.4660  7.5180  5.1210 -11.215  4.4660  7.5180  5.1210  1.0917  2650.8  86.333  13.212  25.222  27.177 
  2651.500 -21.541  4.6670  7.6400  4.9770 -11.675  4.6670  7.6400  4.9770  1.0959  2651.3  86.248  13.213  25.231  27.184 
  2652.000 -22.400  4.7960  7.8910  5.1640 -12.531  4.7960  7.8910  5.1640  1.1000  2651.8  86.163  13.213  25.241  27.191 
  2652.500 -23.619  4.8530  8.0840  5.4080 -13.747  4.8530  8.0840  5.4080  1.1042  2652.3  86.078  13.214  25.251  27.198 
  2653.000 -24.838  4.9310  8.2130  5.5800 -14.963  4.9310  8.2130  5.5800  1.1084  2652.8  85.993  13.215  25.260  27.206 
  2653.500 -25.301  4.9880  8.3310  5.7880 -15.423  4.9880  8.3310  5.7880  1.1125  2653.3  85.908  13.215  25.270  27.213 
  2654.000 -26.628  5.0170  8.4500  6.0170 -16.747  5.0170  8.4500  6.0170  1.1167  2653.8  85.823  13.216  25.280  27.220 
  2654.500 -27.092  4.9520  8.5930  6.2110 -17.208  4.9520  8.5930  6.2110  1.1209  2654.3  85.738  13.217  25.289  27.228 
  2655.000 -27.196  4.6500  8.6500  6.3970 -17.309  4.6500  8.6500  6.3970  1.1250  2654.8  85.653  13.217  25.299  27.235 
  2655.500 -25.431  4.4480  8.6850  6.5690 -15.541  4.4480  8.6850  6.5690  1.1292  2655.3  85.568  13.218  25.309  27.243 
  2656.000 -24.349  4.2180  8.6130  6.6300 -14.456  4.2180  8.6130  6.6300  1.1334  2655.8  85.483  13.219  25.319  27.250 
  2656.500 -23.303  3.9590  8.3760  6.6910 -13.407  3.9590  8.3760  6.6910  1.1375  2656.3  85.398  13.220  25.329  27.258 
  2657.000 -22.293  3.7790  7.9880  6.4170 -12.394  3.7790  7.9880  6.4170  1.1417  2656.8  85.313  13.221  25.339  27.265 
  2657.500 -21.750  3.5850  7.4490  6.1080 -11.848  3.5850  7.4490  6.1080  1.1459  2657.3  85.228  13.221  25.349  27.273 
  2658.000 -21.063  3.4840  6.9820  5.8850 -11.158  3.4840  6.9820  5.8850  1.1500  2657.8  85.143  13.222  25.359  27.281 
  2658.500 -20.718  3.4340  6.6510  5.7410 -10.810  3.4340  6.6510  5.7410  1.1542  2658.3  85.058  13.223  25.369  27.288 
  2659.000 -20.372  3.3260  6.1340  5.5830 -10.461  3.3260  6.1340  5.5830  1.1584  2658.8  84.973  13.224  25.379  27.296 
  2659.500 -19.651  3.2820  5.8460  5.4170 -9.7368  3.2820  5.8460  5.4170  1.1625  2659.3  84.888  13.225  25.389  27.304 
  2660.000 -19.539  3.2310  5.7020  5.3160 -9.6218  3.2310  5.7020  5.3160  1.1667  2659.8  84.803  13.226  25.399  27.312 
  2660.500 -19.250  3.2240  5.5580  5.2800 -9.3298  3.2240  5.5580  5.2800  1.1709  2660.3  84.718  13.227  25.409  27.320 
  2661.000 -19.123  3.1880  5.4290  5.3240 -9.1998  3.1880  5.4290  5.3240  1.1750  2660.8  84.633  13.228  25.419  27.328 
