~Version Information
VERS.                     2.0: CWLS log ASCII Standard Version 2.00
WRAP.                      NO: One line per depth step
~Well Information Block
#MNEM.UNIT                               Data Type  Information
#---------                               ---------  -----------
STRT.FT                                   530.0000:
STOP.FT                                  8230.0000:
STEP.FT                                     0.5000:
NULL.                 -999.25                     :
COMP.                                             :COMPANY            
WELL.     SAN EMIDIO #61-28 REDRILL               :WELL               
FLD .                                             :FIELD              
CTRY.                                             :COUNTRY            
STAT.                                             :STATE              
LOC .                                             :LOCATION           
UWI .                                             :UNIQUE WELL ID     
SRVC.                                             :Service company    
DATE.                                             :LOG DATE           
~Curve Information
#MNEM.UNIT           API CODE  Curve Description
#---------           --------  -----------------
DEPT.FT                      :   1 DEPTH
SP  .MV                      :   2
2Z18.OHMM                    :   3
31Z9.OHMM                    :   4
31Z1.OHMM                    :   5
SBL .MV                      :   6
RS  .OHMM                    :   7
RM  .OHMM                    :   8
 RD .OHMM                    :   9
DEVI.DEG                     :  10
TVD .FT                      :  11
AZIM.DEG                     :  12
NORT.FT                      :  13
EAST.FT                      :  14
OFFS.FT                      :  15
~A
# ...
  6152.500 -12.371  1.4160  1.5490  1.7640 -8.3422  1.4160  1.5490  1.7640  3.4583  6152.1  278.40  13.330  32.926  32.708 
  6153.000 -11.955  1.4160  1.5490  1.7810 -7.9265  1.4160  1.5490  1.7810  3.4667  6152.6  278.32  13.334  32.896  32.690 
  6153.500 -11.539  1.4160  1.5830  1.7980 -7.5109  1.4160  1.5830  1.7980  3.4750  6153.1  278.24  13.338  32.866  32.671 
  6154.000 -11.206  1.4330  1.6160  1.8310 -7.1782  1.4330  1.6160  1.8310  3.4833  6153.6  278.15  13.343  32.836  32.653 
  6154.500 -10.873  1.4500  1.6830  1.8310 -6.8456  1.4500  1.6830  1.8310  3.4917  6154.1  278.07  13.347  32.806  32.635 
  6155.000 -10.540  1.4500  1.7160  1.8310 -6.5130  1.4500  1.7160  1.8310  3.5000  6154.6  277.99  13.351  32.775  32.616 
  6155.500 -10.539  1.4500  1.7830  1.8140 -6.5123  1.4500  1.7830  1.8140  3.5063  6155.1  277.96  13.356  32.745  32.598 
  6156.000 -10.372  1.4500  1.7830  1.7980 -6.3457  1.4500  1.7830  1.7980  3.5125  6155.6  277.94  13.360  32.715  32.580 
  6156.500 -10.205  1.4670  1.7830  1.7980 -6.1790  1.4670  1.7830  1.7980  3.5188  6156.1  277.91  13.364  32.684  32.561 
  6157.000 -10.038  1.4840  1.7500  1.7640 -6.0124  1.4840  1.7500  1.7640  3.5250  6156.6  277.89  13.368  32.654  32.543 
  6157.500 -10.120  1.4840  1.7170  1.7310 -6.0948  1.4840  1.7170  1.7310  3.5313  6157.1  277.86  13.372  32.623  32.524 
  6158.000 -10.203  1.4840  1.6510  1.6980 -6.1781  1.4840  1.6510  1.6980  3.5375  6157.6  277.84  13.377  32.593  32.505 
  6158.500 -10.368  1.4840  1.6170  1.7140 -6.3435  1.4840  1.6170  1.7140  3.5438  6158.1  277.81  13.381  32.562  32.487 
  6159.000 -10.367  1.4850  1.5840  1.7310 -6.3428  1.4850  1.5840  1.7310  3.5500  6158.6  277.79  13.385  32.532  32.468 
  6159.500 -10.366  1.4850  1.5510  1.7310 -6.3422  1.4850  1.5510  1.7310  3.5563  6159.1  277.76  13.389  32.501  32.449 
  6160.000 -10.532  1.4850  1.4850  1.6980 -6.5086  1.4850  1.4850  1.6980  3.5625  6159.6  277.74  13.393  32.470  32.430 
  6160.500 -10.531  1.4850  1.4850  1.6650 -6.5079  1.4850  1.4850  1.6650  3.5688  6160.1  277.71  13.398  32.439  32.411 
  6161.000 -10.696  1.4850  1.4680  1.6650 -6.6733  1.4850  1.4680  1.6650  3.5750  6160.6  277.69  13.402  32.408  32.393 
  6161.500 -10.861  1.4850  1.4520  1.6650 -6.8386  1.4850  1.4520  1.6650  3.5813  6161.1  277.66  13.406  32.377  32.374 
  6162.000 -11.026  1.4860  1.4410  1.6650 -7.0040  1.4860  1.4410  1.6650  3.5875  6161.6  277.64  13.410  32.346  32.355 
  6162.500 -11.275  1.4860  1.4300  1.6810 -7.2534  1.4860  1.4300  1.6810  3.5938  6162.1  277.61  13.414  32.315  32.336 
  6163.000 -11.523  1.4860  1.4190  1.6980 -7.5017  1.4860  1.4190  1.6980  3.6000  6162.6  277.59  13.418  32.284  32.317 
  6163.500 -12.021  1.4860  1.3860  1.7640 -8.0001  1.4860  1.3860  1.7640  3.6063  6163.1  277.56  13.422  32.253  32.297 
  6164.000 -12.186  1.4860  1.3530  1.7640 -8.1655  1.4860  1.3530  1.7640  3.6125  6163.6  277.54  13.427  32.222  32.278 
  6164.500 -12.185  1.4860  1.3360  1.7980 -8.1648  1.4860  1.3360  1.7980  3.6188  6164.1  277.51  13.431  32.190  32.259 
  6165.000 -12.018  1.4860  1.3200  1.7980 -7.9982  1.4860  1.3200  1.7980  3.6250  6164.6  277.49  13.435  32.159  32.240 
  6165.500 -11.851  1.4760  1.3200  1.7980 -7.8315  1.4760  1.3200  1.7980  3.6313  6165.1  277.46  13.439  32.128  32.221 
  6166.000 -11.685  1.4650  1.3200  1.7640 -7.6659  1.4650  1.3200  1.7640  3.6375  6165.6  277.44  13.443  32.096  32.201 
  6166.500 -11.351  1.4540  1.2870  1.7640 -7.3323  1.4540  1.2870  1.7640  3.6438  6166.1  277.41  13.447  32.065  32.182 
  6167.000 -11.185  1.4540  1.2870  1.6980 -7.1666  1.4540  1.2870  1.6980  3.6500  6166.6  277.39  13.451  32.033  32.162 
  6167.500 -11.018  1.4540  1.2880  1.6650 -7.0000  1.4540  1.2880  1.6650  3.6563  6167.1  277.36  13.455  32.002  32.143 
  6168.000 -11.681  1.4540  1.2880  1.6650 -7.6633  1.4540  1.2880  1.6650  3.6625  6167.6  277.34  13.459  31.970  32.123 
  6168.500 -11.846  1.4540  1.2880  1.6650 -7.8287  1.4540  1.2880  1.6650  3.6688  6168.1  277.31  13.464  31.938  32.104 
  6169.000 -12.011  1.4550  1.2880  1.6310 -7.9941  1.4550  1.2880  1.6310  3.6750  6168.6  277.29  13.468  31.906  32.084 
  6169.500 -12.011  1.4550  1.2880  1.5980 -7.9944  1.4550  1.2880  1.5980  3.6813  6169.1  277.26  13.472  31.875  32.065 
  6170.000 -12.093  1.4470  1.2880  1.5980 -8.0768  1.4470  1.2880  1.5980  3.6875  6169.6  277.24  13.476  31.843  32.045 
  6170.500 -12.175  1.4380  1.2720  1.5980 -8.1591  1.4380  1.2720  1.5980  3.6938  6170.1  277.21  13.480  31.811  32.025 
  6171.000 -12.341  1.4300  1.2550  1.6310 -8.3255  1.4300  1.2550  1.6310  3.7000  6170.6  277.19  13.484  31.779  32.005 
  6171.500 -12.423  1.4220  1.2560  1.6310 -8.4079  1.4220  1.2560  1.6310  3.7063  6171.1  277.16  13.488  31.747  31.986 
  6172.000 -12.505  1.4220  1.2560  1.6310 -8.4902  1.4220  1.2560  1.6310  3.7125  6171.6  277.14  13.492  31.714  31.966 
  6172.500 -12.587  1.4220  1.2560  1.6310 -8.5726  1.4220  1.2560  1.6310  3.7188  6172.1  277.11  13.496  31.682  31.946 
  6173.000 -12.670  1.4230  1.2560  1.6310 -8.6559  1.4230  1.2560  1.6310  3.7250  6172.6  277.09  13.500  31.650  31.926 
  6173.500 -12.752  1.4230  1.2560  1.6310 -8.7383  1.4230  1.2560  1.6310  3.7313  6173.1  277.06  13.504  31.618  31.906 
  6174.000 -12.834  1.4230  1.2900  1.6150 -8.8207  1.4230  1.2900  1.6150  3.7375  6173.6  277.04  13.508  31.585  31.886 
  6174.500 -13.165  1.3900  1.2570  1.5980 -9.1520  1.3900  1.2570  1.5980  3.7438  6174.0  277.01  13.512  31.553  31.866 
  6175.000 -13.247  1.3900  1.2570  1.6310 -9.2344  1.3900  1.2570  1.6310  3.7500  6174.5  276.99  13.516  31.521  31.845 
  6175.500 -13.330  1.3900  1.2570  1.6310 -9.3177  1.3900  1.2570  1.6310  3.7563  6175.0  276.96  13.520  31.488  31.825 
  6176.000 -13.495  1.4240  1.2900  1.6310 -9.4831  1.4240  1.2900  1.6310  3.7625  6175.5  276.94  13.524  31.455  31.805 
  6176.500 -13.660  1.4400  1.3070  1.6650 -9.6485  1.4400  1.3070  1.6650  3.7688  6176.0  276.91  13.528  31.423  31.785 
  6177.000 -13.826  1.4570  1.3240  1.6650 -9.8148  1.4570  1.3240  1.6650  3.7750  6176.5  276.89  13.532  31.390  31.764 
  6177.500 -13.908  1.4740  1.3740  1.6650 -9.8972  1.4740  1.3740  1.6650  3.7813  6177.0  276.86  13.536  31.357  31.744 
  6178.000 -13.990  1.4910  1.4240  1.6980 -9.9795  1.4910  1.4240  1.6980  3.7875  6177.5  276.84  13.540  31.325  31.724 
  6178.500 -14.155  1.5080  1.5580  1.7640 -10.145  1.5080  1.5580  1.7640  3.7938  6178.0  276.81  13.543  31.292  31.703 
  6179.000 -14.320  1.5240  1.5580  1.8310 -10.310  1.5240  1.5580  1.8310  3.8000  6178.5  276.79  13.547  31.259  31.683 
  6179.500 -14.486  1.5580  1.5580  1.8140 -10.477  1.5580  1.5580  1.8140  3.8063  6179.0  276.76  13.551  31.226  31.662 
  6180.000 -14.651  1.5910  1.5580  1.7980 -10.642  1.5910  1.5580  1.7980  3.8125  6179.5  276.74  13.555  31.193  31.642 
  6180.500 -14.816  1.6250  1.5580  1.7810 -10.807  1.6250  1.5580  1.7810  3.8188  6180.0  276.71  13.559  31.160  31.621 
  6181.000 -14.899  1.6250  1.5580  1.7640 -10.891  1.6250  1.5580  1.7640  3.8250  6180.5  276.69  13.563  31.127  31.600 
  6181.500 -14.981  1.5920  1.5590  1.7310 -10.973  1.5920  1.5590  1.7310  3.8313  6181.0  276.66  13.567  31.093  31.580 
  6182.000 -15.146  1.5750  1.5590  1.6980 -11.138  1.5750  1.5590  1.6980  3.8375  6181.5  276.64  13.571  31.060  31.559 
  6182.500 -15.311  1.5590  1.5370  1.6980 -11.304  1.5590  1.5370  1.6980  3.8438  6182.0  276.61  13.575  31.027  31.538 
  6183.000 -15.643  1.5420  1.5150  1.6650 -11.636  1.5420  1.5150  1.6650  3.8500  6182.5  276.59  13.578  30.994  31.517 
  6183.500 -15.642  1.5260  1.4930  1.6650 -11.636  1.5260  1.4930  1.6650  3.8563  6183.0  276.56  13.582  30.960  31.496 
  6184.000 -15.807  1.4930  1.4820  1.6650 -11.801  1.4930  1.4820  1.6650  3.8625  6183.5  276.54  13.586  30.927  31.475 
  6184.500 -15.806  1.4930  1.4710  1.6650 -11.800  1.4930  1.4710  1.6650  3.8688  6184.0  276.51  13.590  30.893  31.454 
