~Version Information
VERS.                     2.0: CWLS log ASCII Standard Version 2.00
WRAP.                      NO: One line per depth step
~Well Information Block
#MNEM.UNIT                               Data Type  Information
#---------                               ---------  -----------
STRT.FT                                   374.0000:
STOP.FT                                  6834.0000:
STEP.FT                                     0.5000:
NULL.                 -999.25                     :
COMP.                                             :COMPANY            
WELL.     SAN EMIDIO A #66-19 REDRILL             :WELL               
FLD .                                             :FIELD              
CTRY.                                             :COUNTRY            
STAT.                                             :STATE              
LOC .                                             :LOCATION           
UWI .                                             :UNIQUE WELL ID     
SRVC.                                             :Service company    
DATE.                                             :LOG DATE           
~Curve Information
#MNEM.UNIT           API CODE  Curve Description
#---------           --------  -----------------
DEPT.FT                      :   1 DEPTH
SP  .MV                      :   2
AM16.OHMM                    :   3
AO10.OHMM                    :   4
AO19.OHMM                    :   5
SBL .MV                      :   6
RS  .OHMM                    :   7
RM  .OHMM                    :   8
RD  .OHMM                    :   9
~A
# ...
  4243.000 -13.403  4.9140  5.2220  6.8910 -5.4030  4.9140  5.2220  6.8910 
  4243.500 -14.089  5.3240  5.3450  7.3770 -6.0890  5.3240  5.3450  7.3770 
  4244.000 -16.646  5.6190  5.6050  7.8200 -8.6460  5.6190  5.6050  7.8200 
  4244.500 -19.564  5.8780  6.1720  8.2060 -11.564  5.8780  6.1720  8.2060 
  4245.000 -23.742  6.2600  6.5610  8.4760 -15.742  6.2600  6.5610  8.4760 
  4245.500 -26.984  6.5620  6.8990  8.6180 -18.984  6.5620  6.8990  8.6180 
  4246.000 -29.326  6.8710  7.1150  8.6770 -21.326  6.8710  7.1150  8.6770 
  4246.500 -30.695  7.0730  7.3030  8.7370 -22.695  7.0730  7.3030  8.7370 
  4247.000 -31.489  7.2970  7.3690  8.8570 -23.489  7.2970  7.3690  8.8570 
  4247.500 -31.995  7.5490  7.4990  8.9050 -23.995  7.5490  7.4990  8.9050 
  4248.000 -32.465  7.7650  7.5430  9.0040 -24.465  7.7650  7.5430  9.0040 
  4248.500 -32.971  7.9890  7.5940  9.0810 -24.971  7.9890  7.5940  9.0810 
  4249.000 -33.369  8.9660  7.6240  9.1720 -25.369  8.9660  7.6240  9.1720 
  4249.500 -33.982  9.6200  7.6750  9.2280 -25.982  9.6200  7.6750  9.2280 
  4250.000 -35.784  9.8790  7.7190  9.3410 -27.784  9.8790  7.7190  9.3410 
  4250.500 -37.190  10.072  7.8200  9.5640 -29.190  10.072  7.8200  9.5640 
  4251.000 -37.768  10.388  7.8910  9.7360 -29.768  10.388  7.8910  9.7360 
  4251.500 -38.669  10.574  8.0270  10.088 -30.669  10.574  8.0270  10.088 
  4252.000 -39.535  10.710  8.2130  10.404 -31.535  10.710  8.2130  10.404 
  4252.500 -40.077  10.817  8.3780  10.541 -32.077  10.817  8.3780  10.541 
  4253.000 -40.187  10.910  8.4630  10.649 -32.187  10.910  8.4630  10.649 
  4253.500 -39.829  10.881  8.4990  10.671 -31.829  10.881  8.4990  10.671 
  4254.000 -37.131  10.665  8.3980  10.585 -29.131  10.665  8.3980  10.585 
  4254.500 -35.188  10.457  8.3440  10.449 -27.188  10.457  8.3440  10.449 
  4255.000 -33.714  9.9900  8.2900  10.299 -25.714  9.9900  8.2900  10.299 
  4255.500 -32.996  9.5520  8.1240  10.019 -24.996  9.5520  8.1240  10.019 
  4256.000 -32.530  8.7630  8.0090  9.6970 -24.530  8.7630  8.0090  9.6970 
  4256.500 -32.208  8.3390  7.8080  9.2740 -24.208  8.3390  7.8080  9.2740 
  4257.000 -31.993  8.0010  7.5920  8.9300 -23.993  8.0010  7.5920  8.9300 
  4257.500 -31.959  7.6930  7.4840  8.5710 -23.959  7.6930  7.4840  8.5710 
  4258.000 -32.537  7.4910  7.3330  8.3130 -24.537  7.4910  7.3330  8.3130 
  4258.500 -32.971  7.1610  7.2760  8.1350 -24.971  7.1610  7.2760  8.1350 
  4259.000 -32.217  6.8380  7.1960  7.8690 -24.217  6.8380  7.1960  7.8690 
  4259.500 -30.922  6.6220  7.1820  7.7050 -22.922  6.6220  7.1820  7.7050 
  4260.000 -29.628  6.4210  7.1810  7.5260 -21.628  6.4210  7.1810  7.5260 
  4260.500 -28.874  6.2900  7.1800  7.4100 -20.874  6.2900  7.1800  7.4100 
  4261.000 -26.140  6.1170  7.1570  7.2010 -18.140  6.1170  7.1570  7.2010 
  4261.500 -22.253  5.8860  7.1270  7.0280 -14.253  5.8860  7.1270  7.0280 
  4262.000 -19.303  5.6830  7.0820  6.8110 -11.303  5.6830  7.0820  6.8110 
  4262.500 -17.685  5.5460  6.9880  6.6160 -9.6850  5.5460  6.9880  6.6160 
  4263.000 -16.751  5.4730  6.9290  6.3070 -8.7510  5.4730  6.9290  6.3070 
  4263.500 -16.213  5.5140  6.8410  6.0550 -8.2130  5.5140  6.8410  6.0550 
  4264.000 -15.891  5.6200  6.7390  5.9240 -7.8910  5.6200  6.7390  5.9240 
  4264.500 -15.964  5.8560  6.7170  6.0880 -7.9640  5.8560  6.7170  6.0880 
  4265.000 -16.542  6.2270  6.9810  6.5320 -8.5420  6.2270  6.9810  6.5320 
  4265.500 -17.408  6.6420  7.1510  6.9260 -9.4080  6.6420  7.1510  6.9260 
  4266.000 -18.526  7.3150  7.6160  7.3330 -10.526  7.3150  7.6160  7.3330 
  4266.500 -28.067  7.8800  7.9160  7.6910 -20.067  7.8800  7.9160  7.6910 
  4267.000 -30.733  8.4380  8.2590  8.0850 -22.733  8.4380  8.2590  8.0850 
  4267.500 -32.823  8.6230  8.8030  8.4570 -24.823  8.6230  8.8030  8.4570 
  4268.000 -34.085  8.7220  9.2320  8.7140 -26.085  8.7220  9.2320  8.7140 
  4268.500 -34.987  8.7640  9.4530  8.9850 -26.987  8.7640  9.4530  8.9850 
  4269.000 -35.744  8.7630  9.6090  9.2350 -27.744  8.7630  9.6090  9.2350 
  4269.500 -36.322  8.6750  9.7440  9.3920 -28.322  8.6750  9.7440  9.3920 
  4270.000 -36.396  8.3720  9.8720  9.5490 -28.396  8.3720  9.8720  9.5490 
  4270.500 -32.694  7.3890  9.9220  9.5350 -24.694  7.3890  9.9220  9.5350 
  4271.000 -28.415  6.3780  9.7210  9.3630 -20.415  6.3780  9.7210  9.3630 
  4271.500 -19.168  5.9120  8.8310  8.4950 -11.168  5.9120  8.8310  8.4950 
  4272.000 -18.094  5.6030  7.8200  7.6130 -10.094  5.6030  7.8200  7.6130 
  4272.500 -17.091  5.3090  6.6790  6.9320 -9.0910  5.3090  6.6790  6.9320 
  4273.000 -16.412  5.0650  6.1910  6.5240 -8.4120  5.0650  6.1910  6.5240 
  4273.500 -15.878  4.8500  5.7610  6.3300 -7.8780  4.8500  5.7610  6.3300 
  4274.000 -15.379  4.7850  5.2800  6.2300 -7.3790  4.7850  5.2800  6.2300 
  4274.500 -15.061  4.7920  5.0940  6.2380 -7.0610  4.7920  5.0940  6.2380 
  4275.000 -14.778  4.8780  4.9650  6.3030 -6.7780  4.8780  4.9650  6.3030 
  4275.500 -14.675  4.9500  4.9430  6.4540 -6.6750  4.9500  4.9430  6.4540 
  4276.000 -14.537  5.0220  5.4170  6.6620 -6.5370  5.0220  5.4170  6.6620 
  4276.500 -14.362  5.0720  5.9190  6.9570 -6.3620  5.0720  5.9190  6.9570 
  4277.000 -14.296  5.0080  6.3710  7.3370 -6.2960  5.0080  6.3710  7.3370 
  4277.500 -14.481  4.9140  6.6360  7.5600 -6.4810  4.9140  6.6360  7.5600 
  4278.000 -14.594  4.7850  6.7940  7.6750 -6.5940  4.7850  6.7940  7.6750 
  4278.500 -14.672  4.7350  6.9160  7.6540 -6.6720  4.7350  6.9160  7.6540 
  4279.000 -14.533  4.8280  6.9880  7.5820 -6.5330  4.8280  6.9880  7.5820 
  4279.500 -14.323  4.8710  6.9880  7.4540 -6.3230  4.8710  6.9880  7.4540 
  4280.000 -14.112  4.9360  6.8730  7.1240 -6.1120  4.9360  6.8730  7.1240 
  4280.500 -14.036  4.9790  6.7730  6.8450 -6.0360  4.9790  6.7730  6.8450 
  4281.000 -13.960  4.9870  6.7230  6.7310 -5.9600  4.9870  6.7230  6.7310 
  4281.500 -13.777  5.0010  6.7380  6.6670 -5.7770  5.0010  6.7380  6.6670 
  4282.000 -13.684  5.0160  6.7450  6.5890 -5.6840  5.0160  6.7450  6.5890 
  4282.500 -13.590  5.0380  6.7100  6.5110 -5.5900  5.0380  6.7100  6.5110 
  4283.000 -13.551  5.0420  6.6310  6.4470 -5.5510  5.0420  6.6310  6.4470 
  4283.500 -13.547  5.0460  6.5310  6.4120 -5.5470  5.0460  6.5310  6.4120 
  4284.000 -13.651  5.0610  6.4090  6.3840 -5.6510  5.0610  6.4090  6.3840 
  4284.500 -13.828  5.0540  6.3450  6.4130 -5.8280  5.0540  6.3450  6.4130 
  4285.000 -14.040  5.0610  6.3060  6.4210 -6.0400  5.0610  6.3060  6.4210 
  4285.500 -14.073  5.1050  6.2670  6.4430 -6.0730  5.1050  6.2670  6.4430 
  4286.000 -13.673  5.1700  6.1530  6.4580 -5.6730  5.1700  6.1530  6.4580 
  4286.500 -13.597  5.2560  6.0740  6.4730 -5.5970  5.2560  6.0740  6.4730 
  4287.000 -13.486  5.3430  5.8660  6.4880 -5.4860  5.3430  5.8660  6.4880 
  4287.500 -13.410  5.4360  5.7880  6.4960 -5.4100  5.4360  5.7880  6.4960 
  4288.000 -13.334  5.5010  5.7740  6.6190 -5.3340  5.5010  5.7740  6.6190 
  4288.500 -13.259  5.5950  5.9030  6.9780 -5.2590  5.5950  5.9030  6.9780 
  4289.000 -13.363  5.5660  6.3990  7.4170 -5.3630  5.5660  6.3990  7.4170 
  4289.500 -13.612  5.3950  6.6570  7.7120 -5.6120  5.3950  6.6570  7.7120 
  4290.000 -13.788  5.1580  6.9370  7.9780 -5.7880  5.1580  6.9370  7.9780 
  4290.500 -13.974  5.2300  7.0880  8.0770 -5.9740  5.2300  7.0880  8.0770 
  4291.000 -13.655  5.3230  7.0730  8.0260 -5.6550  5.3230  7.0730  8.0260 
  4291.500 -13.373  5.2430  6.9580  7.9240 -5.3730  5.2430  6.9580  7.9240 
  4292.000 -13.234  5.0920  6.4200  7.6220 -5.2340  5.0920  6.4200  7.6220 
  4292.500 -13.059  4.9700  5.7520  6.8530 -5.0590  4.9700  5.7520  6.8530 
  4293.000 -13.028  4.8550  5.5720  6.6580 -5.0280  4.8550  5.5720  6.6580 
  4293.500 -12.998  4.7250  5.4360  6.5210 -4.9980  4.7250  5.4360  6.5210 
  4294.000 -12.967  4.6460  5.3280  6.3260 -4.9670  4.6460  5.3280  6.3260 
  4294.500 -12.973  4.5950  5.2630  6.1960 -4.9730  4.5950  5.2630  6.1960 
  4295.000 -12.978  4.6020  5.1760  6.0870 -4.9780  4.6020  5.1760  6.0870 
  4295.500 -13.127  4.6880  5.1610  6.0220 -5.1270  4.6880  5.1610  6.0220 
