~Version Information
VERS.                     2.0: CWLS log ASCII Standard Version 2.00
WRAP.                      NO: One line per depth step
~Well Information Block
#MNEM.UNIT                               Data Type  Information
#---------                               ---------  -----------
STRT.FT                                   530.0000:
STOP.FT                                  8230.0000:
STEP.FT                                     0.5000:
NULL.                 -999.25                     :
COMP.                                             :COMPANY            
WELL.     SAN EMIDIO #61-28 REDRILL               :WELL               
FLD .                                             :FIELD              
CTRY.                                             :COUNTRY            
STAT.                                             :STATE              
LOC .                                             :LOCATION           
UWI .                                             :UNIQUE WELL ID     
SRVC.                                             :Service company    
DATE.                                             :LOG DATE           
~Curve Information
#MNEM.UNIT           API CODE  Curve Description
#---------           --------  -----------------
DEPT.FT                      :   1 DEPTH
SP  .MV                      :   2
2Z18.OHMM                    :   3
31Z9.OHMM                    :   4
31Z1.OHMM                    :   5
SBL .MV                      :   6
RS  .OHMM                    :   7
RM  .OHMM                    :   8
 RD .OHMM                    :   9
DEVI.DEG                     :  10
TVD .FT                      :  11
AZIM.DEG                     :  12
NORT.FT                      :  13
EAST.FT                      :  14
OFFS.FT                      :  15
~A
# ...
  5632.500 -35.100  3.7020  1.9730  1.8400 -30.696  3.7020  1.9730  1.8400  0.4438  5632.2  96.815  13.332  34.623  33.909 
  5633.000 -35.931  3.7020  2.0400  1.8730 -31.528  3.7020  2.0400  1.8730  0.4442  5632.7  96.920  13.331  34.626  33.911 
  5633.500 -35.601  3.6350  2.0720  1.8400 -31.198  3.6350  2.0720  1.8400  0.4446  5633.2  97.025  13.331  34.630  33.914 
  5634.000 -35.022  3.5680  2.1390  1.8060 -30.619  3.5680  2.1390  1.8060  0.4450  5633.7  97.130  13.330  34.634  33.916 
  5634.500 -34.443  3.0360  2.1720  1.7730 -30.041  3.0360  2.1720  1.7730  0.4454  5634.2  97.235  13.330  34.638  33.918 
  5635.000 -32.289  2.7700  2.1710  1.7390 -27.887  2.7700  2.1710  1.7390  0.4459  5634.7  97.340  13.329  34.642  33.921 
  5635.500 -29.803  2.6700  2.1710  1.7050 -25.401  2.6700  2.1710  1.7050  0.4463  5635.2  97.445  13.329  34.646  33.923 
  5636.000 -27.980  2.4370  2.1710  1.6550 -23.579  2.4370  2.1710  1.6550  0.4467  5635.7  97.550  13.328  34.650  33.925 
  5636.500 -25.992  2.4030  2.1700  1.6050 -21.591  2.4030  2.1700  1.6050  0.4471  5636.2  97.655  13.328  34.653  33.928 
  5637.000 -24.667  2.2360  2.1700  1.5050 -20.266  2.2360  2.1700  1.5050  0.4475  5636.7  97.760  13.327  34.657  33.930 
  5637.500 -22.347  2.2030  2.2030  1.4050 -17.947  2.2030  2.2030  1.4050  0.4479  5637.2  97.865  13.327  34.661  33.932 
  5638.000 -21.354  2.1690  2.2360  1.3050 -16.954  2.1690  2.2360  1.3050  0.4484  5637.7  97.970  13.326  34.665  33.935 
  5638.500 -20.526  2.2350  2.2850  1.3040 -16.127  2.2350  2.2850  1.3040  0.4488  5638.2  98.075  13.326  34.669  33.937 
  5639.000 -20.030  2.2680  2.3350  1.3040 -15.631  2.2680  2.3350  1.3040  0.4492  5638.7  98.180  13.325  34.673  33.940 
  5639.500 -19.866  2.3510  2.4010  1.3040 -15.467  2.3510  2.4010  1.3040  0.4496  5639.2  98.285  13.324  34.677  33.942 
  5640.000 -22.355  2.4340  2.4340  1.3030 -17.957  2.4340  2.4340  1.3030  0.4500  5639.7  98.390  13.324  34.681  33.944 
  5640.500 -23.518  2.5670  2.4340  1.3200 -19.120  2.5670  2.4340  1.3200  0.4504  5640.2  98.495  13.323  34.684  33.947 
  5641.000 -24.348  2.6660  2.4330  1.3360 -19.950  2.6660  2.4330  1.3360  0.4509  5640.7  98.600  13.323  34.688  33.949 
  5641.500 -25.179  2.7990  2.4330  1.3690 -20.782  2.7990  2.4330  1.3690  0.4513  5641.2  98.705  13.322  34.692  33.951 
  5642.000 -26.508  2.8980  2.4330  1.4020 -22.111  2.8980  2.4330  1.4020  0.4517  5641.7  98.810  13.321  34.696  33.954 
  5642.500 -27.504  2.9640  2.3660  1.4350 -23.107  2.9640  2.3660  1.4350  0.4521  5642.2  98.915  13.321  34.700  33.956 
  5643.000 -28.169  3.1300  2.3650  1.4340 -23.773  3.1300  2.3650  1.4340  0.4525  5642.7  99.020  13.320  34.704  33.958 
  5643.500 -29.498  3.2300  2.4320  1.4340 -25.102  3.2300  2.4320  1.4340  0.4529  5643.2  99.125  13.320  34.708  33.961 
  5644.000 -30.495  3.2960  2.4310  1.5330 -26.100  3.2960  2.4310  1.5330  0.4534  5643.7  99.230  13.319  34.712  33.963 
  5644.500 -32.984  3.3950  2.4310  1.6160 -28.589  3.3950  2.4310  1.6160  0.4538  5644.2  99.335  13.318  34.716  33.965 
  5645.000 -35.141  3.1950  2.4640  1.6990 -30.746  3.1950  2.4640  1.6990  0.4542  5644.7  99.440  13.318  34.720  33.967 
  5645.500 -37.465  3.0290  2.4970  1.8650 -33.071  3.0290  2.4970  1.8650  0.4546  5645.2  99.545  13.317  34.723  33.970 
  5646.000 -35.642  2.6960  2.5300  1.8810 -31.248  2.6960  2.5300  1.8810  0.4550  5645.7  99.650  13.316  34.727  33.972 
  5646.500 -32.990  2.4960  2.5630  1.8980 -28.596  2.4960  2.5630  1.8980  0.4554  5646.2  99.755  13.316  34.731  33.974 
  5647.000 -31.168  2.3290  2.4620  1.8970 -26.775  2.3290  2.4620  1.8970  0.4559  5646.7  99.860  13.315  34.735  33.977 
  5647.500 -29.925  2.1960  2.2960  1.8970 -25.532  2.1960  2.2960  1.8970  0.4563  5647.2  99.965  13.314  34.739  33.979 
  5648.000 -28.683  2.0960  2.0960  1.6640 -24.290  2.0960  2.0960  1.6640  0.4567  5647.7  100.07  13.314  34.743  33.981 
  5648.500 -26.363  2.0290  1.9960  1.5640 -21.971  2.0290  1.9960  1.5640  0.4571  5648.2  100.18  13.313  34.747  33.983 
  5649.000 -24.872  1.9620  1.8960  1.4640 -20.480  1.9620  1.8960  1.4640  0.4575  5648.7  100.28  13.312  34.751  33.986 
  5649.500 -23.713  1.8960  1.8290  1.4300 -19.322  1.8960  1.8290  1.4300  0.4579  5649.2  100.39  13.311  34.755  33.988 
  5650.000 -21.559  1.8620  1.7620  1.3970 -17.168  1.8620  1.7620  1.3970  0.4584  5649.7  100.49  13.311  34.759  33.990 
  5650.500 -22.058  1.8280  1.6950  1.3630 -17.667  1.8280  1.6950  1.3630  0.4588  5650.2  100.60  13.310  34.763  33.993 
  5651.000 -22.723  1.8280  1.6950  1.3630 -18.333  1.8280  1.6950  1.3630  0.4592  5650.7  100.70  13.309  34.767  33.995 
  5651.500 -20.403  1.8280  1.7280  1.3620 -16.013  1.8280  1.7280  1.3620  0.4596  5651.2  100.81  13.309  34.771  33.997 
  5652.000 -18.746  1.8610  1.7280  1.3950 -14.356  1.8610  1.7280  1.3950  0.4600  5651.7  100.91  13.308  34.775  33.999 
  5652.500 -17.421  1.9270  1.7270  1.3950 -13.032  1.9270  1.7270  1.3950  0.4604  5652.2  101.02  13.307  34.778  34.002 
  5653.000 -14.438  2.0590  1.7930  1.3940 -10.049  2.0590  1.7930  1.3940  0.4609  5652.7  101.12  13.306  34.782  34.004 
  5653.500 -14.108  2.1260  1.8260  1.3610 -9.7194  2.1260  1.8260  1.3610  0.4613  5653.2  101.23  13.305  34.786  34.006 
  5654.000 -15.436  2.4250  1.8430  1.3610 -11.048  2.4250  1.8430  1.3610  0.4617  5653.7  101.33  13.305  34.790  34.008 
  5654.500 -16.101  2.6240  1.8590  1.3600 -11.713  2.6240  1.8590  1.3600  0.4621  5654.2  101.44  13.304  34.794  34.011 
  5655.000 -16.766  3.0220  1.9920  1.3600 -12.378  3.0220  1.9920  1.3600  0.4625  5654.7  101.54  13.303  34.798  34.013 
  5655.500 -22.572  3.3550  2.0580  1.3930 -18.185  3.3550  2.0580  1.3930  0.4629  5655.2  101.65  13.302  34.802  34.015 
  5656.000 -26.056  3.6200  2.1240  1.4260 -21.669  3.6200  2.1240  1.4260  0.4634  5655.7  101.75  13.301  34.806  34.017 
  5656.500 -29.541  3.9190  2.1900  1.4920 -25.155  3.9190  2.1900  1.4920  0.4638  5656.2  101.86  13.301  34.810  34.019 
  5657.000 -36.839  4.1850  2.2230  1.5580 -32.453  4.1850  2.2230  1.5580  0.4642  5656.7  101.96  13.300  34.814  34.022 
  5657.500 -42.811  4.6830  2.2560  1.6570 -38.425  4.6830  2.2560  1.6570  0.4646  5657.2  102.07  13.299  34.818  34.024 
  5658.000 -50.607  5.2480  2.2220  1.6900 -46.222  5.2480  2.2220  1.6900  0.4650  5657.7  102.17  13.298  34.822  34.026 
  5658.500 -51.936  5.5140  2.2220  1.7230 -47.551  5.5140  2.2220  1.7230  0.4654  5658.2  102.28  13.297  34.826  34.028 
  5659.000 -54.757  5.9460  2.2380  1.7900 -50.372  5.9460  2.2380  1.7900  0.4659  5658.7  102.38  13.296  34.830  34.030 
  5659.500 -56.085  6.0120  2.2550  1.8560 -51.701  6.0120  2.2550  1.8560  0.4663  5659.2  102.49  13.295  34.834  34.033 
  5660.000 -56.087  6.0780  2.3040  1.8890 -51.703  6.0780  2.3040  1.8890  0.4667  5659.7  102.59  13.295  34.838  34.035 
  5660.500 -55.259  5.6790  2.3540  1.9220 -50.875  5.6790  2.3540  1.9220  0.4671  5660.2  102.70  13.294  34.842  34.037 
  5661.000 -47.466  4.0490  2.4200  1.9880 -43.083  4.0490  2.4200  1.9880  0.4675  5660.7  102.80  13.293  34.846  34.039 
  5661.500 -41.000  3.8160  2.4530  2.0210 -36.617  3.8160  2.4530  2.0210  0.4679  5661.2  102.91  13.292  34.850  34.041 
  5662.000 -39.343  3.3500  2.4530  2.0200 -34.961  3.3500  2.4530  2.0200  0.4684  5661.7  103.01  13.291  34.854  34.043 
  5662.500 -37.023  3.0840  2.4520  2.0530 -32.641  3.0840  2.4520  2.0530  0.4688  5662.2  103.12  13.290  34.858  34.046 
  5663.000 -33.542  2.9170  2.4520  1.9200 -29.160  2.9170  2.4520  1.9200  0.4692  5662.7  103.22  13.289  34.862  34.048 
  5663.500 -31.222  2.7180  2.2520  1.7870 -26.841  2.7180  2.2520  1.7870  0.4696  5663.2  103.33  13.288  34.866  34.050 
  5664.000 -28.736  2.6170  2.1850  1.7200 -24.355  2.6170  2.1850  1.7200  0.4700  5663.7  103.43  13.287  34.870  34.052 
  5664.500 -25.753  2.5170  2.1180  1.6530 -21.372  2.5170  2.1180  1.6530  0.4704  5664.2  103.54  13.286  34.874  34.054 
