~Version Information
VERS.                     2.0: CWLS log ASCII Standard Version 2.00
WRAP.                      NO: One line per depth step
~Well Information Block
#MNEM.UNIT                               Data Type  Information
#---------                               ---------  -----------
STRT.FT                                   530.0000:
STOP.FT                                  8230.0000:
STEP.FT                                     0.5000:
NULL.                 -999.25                     :
COMP.                                             :COMPANY            
WELL.     SAN EMIDIO #61-28 REDRILL               :WELL               
FLD .                                             :FIELD              
CTRY.                                             :COUNTRY            
STAT.                                             :STATE              
LOC .                                             :LOCATION           
UWI .                                             :UNIQUE WELL ID     
SRVC.                                             :Service company    
DATE.                                             :LOG DATE           
~Curve Information
#MNEM.UNIT           API CODE  Curve Description
#---------           --------  -----------------
DEPT.FT                      :   1 DEPTH
SP  .MV                      :   2
2Z18.OHMM                    :   3
31Z9.OHMM                    :   4
31Z1.OHMM                    :   5
SBL .MV                      :   6
RS  .OHMM                    :   7
RM  .OHMM                    :   8
 RD .OHMM                    :   9
DEVI.DEG                     :  10
TVD .FT                      :  11
AZIM.DEG                     :  12
NORT.FT                      :  13
EAST.FT                      :  14
OFFS.FT                      :  15
~A
# ...
  5145.000 -33.408  3.3100  3.1440  2.7960 -28.653  3.3100  3.1440  2.7960  0.3790  5144.7  42.739  12.819  33.488  32.744 
  5145.500 -30.092  3.2430  3.1940  2.7300 -25.337  3.2430  3.1940  2.7300  0.3786  5145.2  43.014  12.821  33.490  32.747 
  5146.000 -27.605  3.0770  3.2430  2.6630 -22.850  3.0770  3.2430  2.6630  0.3782  5145.7  43.289  12.824  33.492  32.750 
  5146.500 -23.294  2.8440  3.3100  2.4960 -18.540  2.8440  3.3100  2.4960  0.3778  5146.2  43.564  12.826  33.495  32.754 
  5147.000 -21.139  2.6440  2.9440  2.1630 -16.385  2.6440  2.9440  2.1630  0.3774  5146.7  43.839  12.829  33.497  32.757 
  5147.500 -18.818  2.5110  2.7770  2.0960 -14.065  2.5110  2.7770  2.0960  0.3769  5147.2  44.114  12.831  33.499  32.760 
  5148.000 -16.332  2.4450  2.6770  1.9960 -11.579  2.4450  2.6770  1.9960  0.3765  5147.7  44.389  12.833  33.501  32.764 
  5148.500 -14.840  2.4110  2.5770  1.9290 -10.087  2.4110  2.5770  1.9290  0.3761  5148.2  44.664  12.836  33.504  32.767 
  5149.000 -14.675  2.4770  2.4770  1.8960 -9.9227  2.4770  2.4770  1.8960  0.3757  5148.7  44.939  12.838  33.506  32.770 
  5149.500 -16.334  2.5440  2.4770  1.8620 -11.582  2.5440  2.4770  1.8620  0.3753  5149.2  45.214  12.840  33.508  32.773 
  5150.000 -18.657  2.6100  2.4770  1.8620 -13.905  2.6100  2.4770  1.8620  0.3749  5149.7  45.489  12.843  33.511  32.777 
  5150.500 -19.984  2.8430  2.4770  1.8950 -15.233  2.8430  2.4770  1.8950  0.3744  5150.2  45.764  12.845  33.513  32.780 
  5151.000 -20.648  3.0090  2.5430  1.9280 -15.897  3.0090  2.5430  1.9280  0.3740  5150.7  46.039  12.847  33.515  32.783 
  5151.500 -22.473  3.1080  2.5930  1.9610 -17.722  3.1080  2.5930  1.9610  0.3736  5151.2  46.314  12.849  33.518  32.787 
  5152.000 -25.294  3.3410  2.6430  2.0270 -20.544  3.3410  2.6430  2.0270  0.3732  5151.7  46.589  12.852  33.520  32.790 
  5152.500 -34.084  3.4410  2.7420  2.0930 -29.334  3.4410  2.7420  2.0930  0.3728  5152.2  46.864  12.854  33.522  32.793 
  5153.000 -35.743  3.6730  2.8250  2.1930 -30.994  3.6730  2.8250  2.1930  0.3723  5152.7  47.139  12.856  33.525  32.796 
  5153.500 -36.242  3.8720  2.9080  2.2920 -31.493  3.8720  2.9080  2.2920  0.3719  5153.2  47.414  12.858  33.527  32.800 
  5154.000 -35.911  4.0390  3.1070  2.3910 -31.162  4.0390  3.1070  2.3910  0.3715  5153.7  47.689  12.860  33.530  32.803 
  5154.500 -35.746  4.3380  3.2070  2.4240 -30.998  4.3380  3.2070  2.4240  0.3711  5154.2  47.964  12.863  33.532  32.806 
  5155.000 -37.073  4.5370  3.2730  2.4900 -32.325  4.5370  3.2730  2.4900  0.3707  5154.7  48.239  12.865  33.534  32.809 
  5155.500 -38.567  4.8360  3.3060  2.5570 -33.819  4.8360  3.3060  2.5570  0.3703  5155.2  48.514  12.867  33.537  32.812 
  5156.000 -40.226  5.1350  3.3060  2.6560 -35.479  5.1350  3.3060  2.6560  0.3698  5155.7  48.789  12.869  33.539  32.816 
  5156.500 -42.548  5.4340  3.3390  2.7550 -37.801  5.4340  3.3390  2.7550  0.3694  5156.2  49.064  12.871  33.542  32.819 
  5157.000 -44.705  6.0990  3.4390  2.8550 -39.958  6.0990  3.4390  2.8550  0.3690  5156.7  49.339  12.873  33.544  32.822 
  5157.500 -46.696  6.6970  3.5050  2.9540 -41.950  6.6970  3.5050  2.9540  0.3686  5157.2  49.614  12.875  33.547  32.825 
  5158.000 -48.023  6.5310  3.6050  3.0540 -43.277  6.5310  3.6050  3.0540  0.3682  5157.7  49.889  12.877  33.549  32.829 
  5158.500 -49.185  6.3980  3.9040  3.2530 -44.440  6.3980  3.9040  3.2530  0.3677  5158.2  50.164  12.879  33.552  32.832 
  5159.000 -49.683  6.1650  4.2030  3.4520 -44.938  6.1650  4.2030  3.4520  0.3673  5158.7  50.439  12.882  33.554  32.835 
  5159.500 -50.181  6.0320  4.2360  3.5850 -45.436  6.0320  4.2360  3.5850  0.3669  5159.2  50.714  12.884  33.557  32.838 
  5160.000 -50.183  5.6990  4.1360  3.6510 -45.439  5.6990  4.1360  3.6510  0.3665  5159.7  50.989  12.886  33.559  32.841 
  5160.500 -49.520  5.4990  4.0700  3.6840 -44.776  5.4990  4.0700  3.6840  0.3661  5160.2  51.264  12.888  33.562  32.844 
  5161.000 -49.023  5.3990  4.0030  3.6000 -44.279  5.3990  4.0030  3.6000  0.3656  5160.7  51.539  12.890  33.564  32.848 
  5161.500 -48.195  5.3660  3.9030  3.5170 -43.452  5.3660  3.9030  3.5170  0.3652  5161.2  51.814  12.892  33.567  32.851 
  5162.000 -47.367  5.4320  3.8030  3.2170 -42.624  5.4320  3.8030  3.2170  0.3648  5161.7  52.089  12.893  33.569  32.854 
  5162.500 -47.699  5.4990  3.6700  2.9840 -42.956  5.4990  3.6700  2.9840  0.3644  5162.2  52.364  12.895  33.572  32.857 
  5163.000 -48.198  5.5980  3.5700  2.8510 -43.456  5.5980  3.5700  2.8510  0.3640  5162.7  52.639  12.897  33.574  32.860 
  5163.500 -47.867  5.5320  3.4700  2.7840 -43.125  5.5320  3.4700  2.7840  0.3636  5163.2  52.914  12.899  33.577  32.863 
  5164.000 -46.955  5.3320  3.3370  2.6670 -42.213  5.3320  3.3370  2.6670  0.3631  5163.7  53.189  12.901  33.579  32.867 
  5164.500 -46.044  5.0660  3.3370  2.5510 -41.303  5.0660  3.3370  2.5510  0.3627  5164.2  53.464  12.903  33.582  32.870 
  5165.000 -43.060  4.8330  3.3370  2.4340 -38.319  4.8330  3.3370  2.4340  0.3623  5164.7  53.739  12.905  33.584  32.873 
  5165.500 -40.573  4.4000  3.5690  2.3170 -35.833  4.4000  3.5690  2.3170  0.3619  5165.2  54.014  12.907  33.587  32.876 
  5166.000 -39.081  4.0010  3.6690  2.2170 -34.341  4.0010  3.6690  2.2170  0.3615  5165.7  54.289  12.909  33.589  32.879 
  5166.500 -37.424  3.7680  3.6350  2.1500 -32.684  3.7680  3.6350  2.1500  0.3610  5166.2  54.564  12.910  33.592  32.882 
  5167.000 -34.771  3.6020  3.6020  1.9500 -30.032  3.6020  3.6020  1.9500  0.3606  5166.7  54.839  12.912  33.594  32.885 
  5167.500 -29.797  3.4020  3.5350  1.8500 -25.058  3.4020  3.5350  1.8500  0.3602  5167.2  55.114  12.914  33.597  32.888 
  5168.000 -27.808  3.3520  3.4690  1.7830 -23.069  3.3520  3.4690  1.7830  0.3598  5167.7  55.389  12.916  33.600  32.891 
  5168.500 -27.477  3.3020  3.3350  1.6830 -22.739  3.3020  3.3350  1.6830  0.3594  5168.2  55.664  12.918  33.602  32.894 
  5169.000 -27.478  3.1860  3.2690  1.6170 -22.740  3.1860  3.2690  1.6170  0.3590  5168.7  55.939  12.919  33.605  32.898 
  5169.500 -27.479  3.0690  3.2020  1.6160 -22.741  3.0690  3.2020  1.6160  0.3585  5169.2  56.214  12.921  33.607  32.901 
  5170.000 -26.816  3.0030  3.1690  1.5830 -22.079  3.0030  3.1690  1.5830  0.3581  5169.7  56.489  12.923  33.610  32.904 
  5170.500 -25.988  2.9360  3.1690  1.5820 -21.251  2.9360  3.1690  1.5820  0.3577  5170.2  56.764  12.925  33.613  32.907 
  5171.000 -25.657  2.9360  3.2020  1.6150 -20.921  2.9360  3.2020  1.6150  0.3573  5170.7  57.039  12.926  33.615  32.910 
  5171.500 -25.326  2.9690  3.2180  1.6480 -20.590  2.9690  3.2180  1.6480  0.3569  5171.2  57.314  12.928  33.618  32.913 
  5172.000 -25.327  2.9690  3.2350  1.7480 -20.591  2.9690  3.2350  1.7480  0.3564  5171.7  57.589  12.930  33.621  32.916 
  5172.500 -25.327  3.0350  3.2680  1.8140 -20.592  3.0350  3.2680  1.8140  0.3560  5172.2  57.864  12.931  33.623  32.919 
  5173.000 -26.324  3.1340  3.3010  1.9130 -21.589  3.1340  3.3010  1.9130  0.3556  5172.7  58.139  12.933  33.626  32.922 
  5173.500 -27.485  3.1840  3.3840  1.9960 -22.750  3.1840  3.3840  1.9960  0.3552  5173.2  58.414  12.934  33.628  32.925 
  5174.000 -30.471  3.2340  3.4670  2.0790 -25.737  3.2340  3.4670  2.0790  0.3548  5173.7  58.689  12.936  33.631  32.928 
  5174.500 -33.291  3.4660  3.5330  2.3440 -28.557  3.4660  3.5330  2.3440  0.3543  5174.2  58.964  12.938  33.634  32.931 
  5175.000 -35.614  3.6990  3.5330  2.5100 -30.880  3.6990  3.5330  2.5100  0.3539  5174.7  59.239  12.939  33.636  32.934 
  5175.500 -37.439  4.4970  3.5330  2.6430 -32.706  4.4970  3.5330  2.6430  0.3535  5175.2  59.514  12.941  33.639  32.937 
  5176.000 -39.430  4.7130  3.4660  2.7760 -34.697  4.7130  3.4660  2.7760  0.3531  5175.7  59.789  12.942  33.642  32.940 
  5176.500 -41.586  4.9290  3.4490  2.9420 -36.853  4.9290  3.4490  2.9420  0.3527  5176.2  60.064  12.944  33.644  32.943 
  5177.000 -44.241  5.3280  3.4320  3.0410 -39.509  5.3280  3.4320  3.0410  0.3523  5176.7  60.339  12.945  33.647  32.946 
