~Version Information
VERS.                     2.0: CWLS log ASCII Standard Version 2.00
WRAP.                      NO: One line per depth step
~Well Information Block
#MNEM.UNIT                               Data Type  Information
#---------                               ---------  -----------
STRT.FT                                   419.0000:
STOP.FT                                  7100.0000:
STEP.FT                                     0.5000:
NULL.                 -999.25                     :
COMP.                                             :COMPANY            
WELL.     SAN EMIDIO A #62-28                     :WELL               
FLD .                                             :FIELD              
CTRY.                                             :COUNTRY            
STAT.                                             :STATE              
LOC .                                             :LOCATION           
UWI .                                             :UNIQUE WELL ID     
SRVC.                                             :Service company    
DATE.                                             :LOG DATE           
~Curve Information
#MNEM.UNIT           API CODE  Curve Description
#---------           --------  -----------------
DEPT.FT                      :   1 DEPTH
SP  .MV                      :   2
AM16.OHMM                    :   3
AO10.OHMM                    :   4
AO19.OHMM                    :   5
SBL .MV                      :   6
RS  .OHMM                    :   7
RM  .OHMM                    :   8
RD  .OHMM                    :   9
DEVI.DEG                     :  10
TVD .FT                      :  11
AZIM.DEG                     :  12
NORT.FT                      :  13
EAST.FT                      :  14
OFFS.FT                      :  15
~A
# ...
  5294.000 -23.126  1.7850  1.9930  1.6020 -10.942  1.7850  1.9930  1.6020  2.2350  5293.0  149.48 -2.3897  79.073  54.223 
  5294.500 -23.350  1.7840  1.9920  1.5880 -11.170  1.7840  1.9920  1.5880  2.2363  5293.5  149.44 -2.4066  79.083  54.218 
  5295.000 -23.720  1.7830  1.9910  1.5770 -11.543  1.7830  1.9910  1.5770  2.2375  5294.0  149.40 -2.4234  79.093  54.213 
  5295.500 -24.017  1.7790  1.9900  1.5660 -11.844  1.7790  1.9900  1.5660  2.2388  5294.5  149.36 -2.4402  79.103  54.209 
  5296.000 -23.775  1.7740  2.0030  1.5300 -11.606  1.7740  2.0030  1.5300  2.2400  5295.0  149.32 -2.4570  79.113  54.204 
  5296.500 -23.243  1.7730  2.0020  1.5220 -11.078  1.7730  2.0020  1.5220  2.2413  5295.5  149.28 -2.4738  79.123  54.199 
  5297.000 -22.712  1.7720  2.0010  1.5720 -10.551  1.7720  2.0010  1.5720  2.2425  5296.0  149.24 -2.4906  79.133  54.194 
  5297.500 -22.217  1.7850  2.0000  1.6150 -10.059  1.7850  2.0000  1.6150  2.2438  5296.5  149.20 -2.5074  79.143  54.189 
  5298.000 -21.902  1.7980  2.0560  1.6440 -9.7482  1.7980  2.0560  1.6440  2.2450  5297.0  149.16 -2.5242  79.153  54.185 
  5298.500 -21.803  1.7970  2.1420  1.7080 -9.6529  1.7970  2.1420  1.7080  2.2463  5297.5  149.12 -2.5410  79.163  54.180 
  5299.000 -22.532  1.8100  2.2190  1.7580 -10.386  1.8100  2.2190  1.7580  2.2475  5298.0  149.08 -2.5579  79.173  54.175 
  5299.500 -23.189  1.8090  2.3110  1.8010 -11.047  1.8090  2.3110  1.8010  2.2488  5298.5  149.04 -2.5747  79.183  54.170 
  5300.000 -23.630  1.7940  2.3530  1.8440 -11.491  1.7940  2.3530  1.8440  2.2500  5299.0  149.00 -2.5915  79.193  54.165 
  5300.500 -23.991  1.7850  2.3950  1.9930 -11.856  1.7850  2.3950  1.9930  2.2521  5299.5  149.02 -2.6084  79.203  54.161 
  5301.000 -23.705  1.7840  2.4230  2.0350 -11.574  1.7840  2.4230  2.0350  2.2542  5300.0  149.04 -2.6252  79.213  54.156 
  5301.500 -22.807  1.7550  2.4220  1.9470 -10.680  1.7550  2.4220  1.9470  2.2563  5300.5  149.06 -2.6421  79.223  54.151 
  5302.000 -22.322  1.7290  2.2560  1.8450 -10.198  1.7290  2.2560  1.8450  2.2583  5301.0  149.08 -2.6590  79.233  54.146 
  5302.500 -21.837  1.7020  2.1400  1.6860 -9.7172  1.7020  2.1400  1.6860  2.2604  5301.5  149.10 -2.6759  79.244  54.142 
  5303.000 -21.122  1.6800  2.0240  1.6200 -9.0060  1.6800  2.0240  1.6200  2.2625  5302.0  149.12 -2.6929  79.254  54.137 
  5303.500 -21.159  1.6540  1.9510  1.5320 -9.0468  1.6540  1.9510  1.5320  2.2646  5302.5  149.14 -2.7098  79.264  54.132 
  5304.000 -20.945  1.6280  1.9000  1.5020 -8.8366  1.6280  1.9000  1.5020  2.2667  5303.0  149.16 -2.7268  79.274  54.127 
  5304.500 -20.730  1.5900  1.8850  1.4720 -8.6253  1.5900  1.8850  1.4720  2.2688  5303.5  149.18 -2.7438  79.284  54.122 
  5305.000 -20.192  1.5890  1.8690  1.4430 -8.0911  1.5890  1.8690  1.4430  2.2708  5304.0  149.20 -2.7608  79.294  54.117 
  5305.500 -19.799  1.5810  1.8470  1.4340 -7.7019  1.5810  1.8470  1.4340  2.2729  5304.5  149.22 -2.7779  79.304  54.112 
  5306.000 -19.477  1.5660  1.8310  1.4320 -7.3837  1.5660  1.8310  1.4320  2.2750  5305.0  149.24 -2.7949  79.315  54.108 
  5306.500 -19.351  1.5580  1.8230  1.4310 -7.2615  1.5580  1.8230  1.4310  2.2771  5305.5  149.26 -2.8120  79.325  54.103 
  5307.000 -19.226  1.5490  1.8360  1.4290 -7.1402  1.5490  1.8360  1.4290  2.2792  5306.0  149.28 -2.8291  79.335  54.098 
  5307.500 -18.941  1.5340  1.8350  1.4280 -6.8590  1.5340  1.8350  1.4280  2.2813  5306.5  149.30 -2.8462  79.345  54.093 
  5308.000 -18.799  1.5260  1.8450  1.4270 -6.7208  1.5260  1.8450  1.4270  2.2833  5307.0  149.32 -2.8633  79.355  54.088 
  5308.500 -18.801  1.5240  1.8550  1.4320 -6.7266  1.5240  1.8550  1.4320  2.2854  5307.5  149.34 -2.8805  79.365  54.083 
  5309.000 -18.947  1.5230  1.9180  1.4380 -6.8764  1.5230  1.9180  1.4380  2.2875  5308.0  149.36 -2.8977  79.376  54.078 
  5309.500 -19.021  1.5080  1.9530  1.4290 -6.9542  1.5080  1.9530  1.4290  2.2896  5308.5  149.38 -2.9149  79.386  54.073 
  5310.000 -19.022  1.4920  1.9880  1.4280 -6.9589  1.4920  1.9880  1.4280  2.2917  5309.0  149.40 -2.9321  79.396  54.068 
  5310.500 -19.025  1.4910  2.0510  1.4410 -6.9657  1.4910  2.0510  1.4410  2.2938  5309.5  149.42 -2.9493  79.406  54.063 
  5311.000 -19.026  1.4760  2.0720  1.4390 -6.9705  1.4760  2.0720  1.4390  2.2958  5310.0  149.44 -2.9665  79.416  54.058 
  5311.500 -19.027  1.4610  2.0990  1.4380 -6.9753  1.4610  2.0990  1.4380  2.2979  5310.5  149.46 -2.9838  79.426  54.053 
  5312.000 -19.138  1.4590  2.1270  1.4440 -7.0901  1.4590  2.1270  1.4440  2.3000  5311.0  149.48 -3.0011  79.437  54.048 
  5312.500 -19.265  1.4550  2.1440  1.4500 -7.2209  1.4550  2.1440  1.4500  2.3021  5311.5  149.50 -3.0184  79.447  54.043 
  5313.000 -19.392  1.4500  2.1610  1.4620 -7.3516  1.4500  2.1610  1.4620  2.3042  5312.0  149.52 -3.0357  79.457  54.038 
  5313.500 -19.483  1.4390  2.1520  1.4610 -7.4464  1.4390  2.1520  1.4610  2.3063  5312.5  149.54 -3.0531  79.467  54.033 
  5314.000 -19.575  1.4270  2.1150  1.4630 -7.5422  1.4270  2.1150  1.4630  2.3083  5313.0  149.56 -3.0704  79.477  54.028 
  5314.500 -19.724  1.3970  2.0780  1.4650 -7.6950  1.3970  2.0780  1.4650  2.3104  5313.5  149.58 -3.0878  79.488  54.023 
  5315.000 -19.617  1.3810  2.0560  1.4600 -7.5918  1.3810  2.0560  1.4600  2.3125  5314.0  149.60 -3.1052  79.498  54.018 
  5315.500 -19.474  1.4160  2.0330  1.4550 -7.4526  1.4160  2.0330  1.4550  2.3146  5314.5  149.62 -3.1226  79.508  54.013 
  5316.000 -19.153  1.4290  2.0110  1.4540 -7.1353  1.4290  2.0110  1.4540  2.3167  5315.0  149.64 -3.1401  79.518  54.008 
  5316.500 -18.615  1.4610  2.0060  1.4740 -6.6011  1.4610  2.0060  1.4740  2.3188  5315.5  149.66 -3.1575  79.528  54.002 
  5317.000 -18.976  1.4920  2.0020  1.4940 -6.9659  1.4920  2.0020  1.4940  2.3208  5316.0  149.68 -3.1750  79.539  53.997 
  5317.500 -19.481  1.5840  1.9900  1.5210 -7.4747  1.5840  1.9900  1.5210  2.3229  5316.5  149.70 -3.1925  79.549  53.992 
  5318.000 -19.842  1.6260  1.9780  1.5480 -7.8395  1.6260  1.9780  1.5480  2.3250  5317.0  149.72 -3.2100  79.559  53.987 
  5318.500 -20.203  1.6610  1.9760  1.5760 -8.2043  1.6610  1.9760  1.5760  2.3271  5317.5  149.74 -3.2276  79.569  53.982 
  5319.000 -21.323  1.6380  1.9820  1.6170 -9.3280  1.6380  1.9820  1.6170  2.3292  5318.0  149.76 -3.2451  79.580  53.977 
  5319.500 -20.713  1.6230  1.9810  1.6520 -8.7218  1.6230  1.9810  1.6520  2.3313  5318.5  149.78 -3.2627  79.590  53.971 
  5320.000 -20.373  1.6000  1.9800  1.7430 -8.3856  1.6000  1.9800  1.7430  2.3333  5319.0  149.80 -3.2803  79.600  53.966 
  5320.500 -20.033  1.5930  1.9810  1.7790 -8.0494  1.5930  1.9810  1.7790  2.3354  5319.5  149.82 -3.2979  79.610  53.961 
  5321.000 -19.641  1.6150  1.9810  1.8210 -7.6612  1.6150  1.9810  1.8210  2.3375  5320.0  149.84 -3.3156  79.621  53.956 
  5321.500 -19.447  1.6160  1.9820  1.8500 -7.4710  1.6160  1.9820  1.8500  2.3396  5320.5  149.86 -3.3332  79.631  53.951 
  5322.000 -19.252  1.6170  1.9970  1.8780 -7.2797  1.6170  1.9970  1.8780  2.3417  5321.0  149.88 -3.3509  79.641  53.945 
  5322.500 -19.328  1.6170  1.9970  1.8270 -7.3595  1.6170  1.9970  1.8270  2.3438  5321.5  149.90 -3.3686  79.651  53.940 
  5323.000 -19.457  1.5960  1.9980  1.7770 -7.4923  1.5960  1.9980  1.7770  2.3458  5322.0  149.92 -3.3863  79.662  53.935 
  5323.500 -19.586  1.5930  1.9990  1.7190 -7.6251  1.5930  1.9990  1.7190  2.3479  5322.5  149.94 -3.4040  79.672  53.930 
  5324.000 -19.699  1.5900  1.9850  1.6610 -7.7419  1.5900  1.9850  1.6610  2.3500  5323.0  149.96 -3.4218  79.682  53.924 
  5324.500 -19.812  1.5620  1.9710  1.6130 -7.8587  1.5620  1.9710  1.6130  2.3521  5323.5  149.98 -3.4395  79.692  53.919 
  5325.000 -19.886  1.5480  1.9610  1.5660 -7.9364  1.5480  1.9610  1.5660  2.3542  5324.0  150.00 -3.4573  79.703  53.914 
  5325.500 -19.422  1.5200  1.9510  1.5440 -7.4762  1.5200  1.9510  1.5440  2.3563  5324.5  150.02 -3.4751  79.713  53.908 
  5326.000 -18.778  1.5060  1.9220  1.5430 -6.8360  1.5060  1.9220  1.5430  2.3583  5325.0  150.04 -3.4929  79.723  53.903 
