~Version Information
VERS.                     2.0: CWLS log ASCII Standard Version 2.00
WRAP.                      NO: One line per depth step
~Well Information Block
#MNEM.UNIT                               Data Type  Information
#---------                               ---------  -----------
STRT.FT                                   419.0000:
STOP.FT                                  7100.0000:
STEP.FT                                     0.5000:
NULL.                 -999.25                     :
COMP.                                             :COMPANY            
WELL.     SAN EMIDIO A #62-28                     :WELL               
FLD .                                             :FIELD              
CTRY.                                             :COUNTRY            
STAT.                                             :STATE              
LOC .                                             :LOCATION           
UWI .                                             :UNIQUE WELL ID     
SRVC.                                             :Service company    
DATE.                                             :LOG DATE           
~Curve Information
#MNEM.UNIT           API CODE  Curve Description
#---------           --------  -----------------
DEPT.FT                      :   1 DEPTH
SP  .MV                      :   2
AM16.OHMM                    :   3
AO10.OHMM                    :   4
AO19.OHMM                    :   5
SBL .MV                      :   6
RS  .OHMM                    :   7
RM  .OHMM                    :   8
RD  .OHMM                    :   9
DEVI.DEG                     :  10
TVD .FT                      :  11
AZIM.DEG                     :  12
NORT.FT                      :  13
EAST.FT                      :  14
OFFS.FT                      :  15
~A
# ...
  3539.000 -62.319  4.9630  4.0230  3.4330 -51.567  4.9630  4.0230  3.4330  1.0325  3538.6  109.49  10.311  42.971  37.676 
  3539.500 -66.058  5.0130  4.0870  3.4190 -55.307  5.0130  4.0870  3.4190  1.0329  3539.1  109.45  10.308  42.979  37.680 
  3540.000 -69.617  5.0560  4.1580  3.4050 -58.868  5.0560  4.1580  3.4050  1.0333  3539.6  109.40  10.305  42.988  37.684 
  3540.500 -71.022  5.0700  4.1790  3.3620 -60.274  5.0700  4.1790  3.3620  1.0337  3540.1  109.36  10.302  42.996  37.687 
  3541.000 -71.961  5.0330  4.2150  3.3470 -61.214  5.0330  4.2150  3.3470  1.0342  3540.6  109.31  10.299  43.005  37.691 
  3541.500 -73.150  4.9610  4.2430  3.3330 -62.404  4.9610  4.2430  3.3330  1.0346  3541.1  109.27  10.296  43.013  37.695 
  3542.000 -74.305  4.9540  4.2860  3.3360 -63.560  4.9540  4.2860  3.3360  1.0350  3541.6  109.22  10.293  43.022  37.699 
  3542.500 -75.099  5.0390  4.3720  3.3400 -64.356  5.0390  4.3720  3.3400  1.0354  3542.1  109.18  10.290  43.030  37.703 
  3543.000 -75.822  5.1040  4.4720  3.3680 -65.080  5.1040  4.4720  3.3680  1.0358  3542.6  109.13  10.287  43.039  37.707 
  3543.500 -76.059  5.1540  4.5860  3.3890 -65.318  5.1540  4.5860  3.3890  1.0362  3543.1  109.09  10.284  43.047  37.711 
  3544.000 -76.296  5.0670  4.6650  3.3930 -65.556  5.0670  4.6650  3.3930  1.0367  3543.6  109.04  10.281  43.056  37.715 
  3544.500 -74.862  4.9810  4.7720  3.3960 -64.123  4.9810  4.7720  3.3960  1.0371  3544.1  109.00  10.278  43.065  37.719 
  3545.000 -71.091  4.8870  4.8370  3.3530 -60.353  4.8870  4.8370  3.3530  1.0375  3544.6  108.95  10.275  43.073  37.723 
  3545.500 -62.574  4.8220  4.8720  3.3170 -51.838  4.8220  4.8720  3.3170  1.0379  3545.1  108.91  10.272  43.082  37.727 
  3546.000 -56.970  4.8000  4.8860  3.2590 -46.235  4.8000  4.8860  3.2590  1.0383  3545.6  108.86  10.269  43.090  37.731 
  3546.500 -50.754  4.7640  4.8860  3.2380 -40.020  4.7640  4.8860  3.2380  1.0387  3546.1  108.82  10.266  43.099  37.735 
  3547.000 -47.846  4.7780  4.9210  3.2010 -37.113  4.7780  4.9210  3.2010  1.0392  3546.6  108.77  10.264  43.107  37.739 
  3547.500 -46.195  4.8780  4.9780  3.2080 -35.463  4.8780  4.9780  3.2080  1.0396  3547.1  108.73  10.261  43.116  37.743 
  3548.000 -45.264  4.9490  5.0570  3.2660 -34.533  4.9490  5.0570  3.2660  1.0400  3547.6  108.68  10.258  43.125  37.747 
  3548.500 -45.699  5.0640  5.1500  3.3160 -34.970  5.0640  5.1500  3.3160  1.0404  3548.1  108.64  10.255  43.133  37.751 
  3549.000 -46.602  5.2070  5.2210  3.4020 -35.874  5.2070  5.2210  3.4020  1.0408  3548.6  108.59  10.252  43.142  37.755 
  3549.500 -47.468  5.3000  5.2930  3.4810 -36.741  5.3000  5.2930  3.4810  1.0412  3549.1  108.55  10.249  43.150  37.759 
  3550.000 -48.658  5.4080  5.3290  3.5380 -37.932  5.4080  5.3290  3.5380  1.0417  3549.6  108.50  10.246  43.159  37.763 
  3550.500 -50.387  5.4650  5.3780  3.6100 -39.662  5.4650  5.3780  3.6100  1.0421  3550.1  108.46  10.243  43.168  37.767 
  3551.000 -52.763  5.4710  5.3780  3.6380 -42.040  5.4710  5.3780  3.6380  1.0425  3550.6  108.41  10.240  43.176  37.771 
  3551.500 -51.006  5.4710  5.3350  3.5950 -40.284  5.4710  5.3350  3.5950  1.0429  3551.1  108.37  10.237  43.185  37.775 
  3552.000 -49.032  5.4420  5.2980  3.5980 -38.311  5.4420  5.2980  3.5980  1.0433  3551.6  108.32  10.235  43.194  37.779 
  3552.500 -47.094  5.4130  5.2760  3.6020 -36.374  5.4130  5.2760  3.6020  1.0437  3552.1  108.28  10.232  43.202  37.784 
  3553.000 -45.732  5.3340  5.2760  3.6300 -35.013  5.3340  5.2760  3.6300  1.0442  3552.6  108.23  10.229  43.211  37.788 
  3553.500 -45.340  5.2400  5.3620  3.7090 -34.622  5.2400  5.3620  3.7090  1.0446  3553.1  108.19  10.226  43.220  37.792 
  3554.000 -45.092  5.1250  5.4120  3.7810 -34.376  5.1250  5.4120  3.7810  1.0450  3553.6  108.14  10.223  43.228  37.796 
  3554.500 -44.340  4.9950  5.4620  3.8450 -33.625  4.9950  5.4620  3.8450  1.0454  3554.1  108.10  10.220  43.237  37.800 
  3555.000 -41.253  4.8650  5.4330  3.8310 -30.539  4.8650  5.4330  3.8310  1.0458  3554.6  108.05  10.218  43.246  37.804 
  3555.500 -40.178  4.7570  5.4040  3.7950 -29.465  4.7570  5.4040  3.7950  1.0462  3555.1  108.01  10.215  43.254  37.808 
  3556.000 -39.642  4.6780  5.3710  3.7870 -28.930  4.6780  5.3710  3.7870  1.0466  3555.6  107.96  10.212  43.263  37.812 
  3556.500 -38.783  4.5990  5.3380  3.7940 -28.072  4.5990  5.3380  3.7940  1.0471  3556.1  107.92  10.209  43.272  37.817 
  3557.000 -37.672  4.3610  5.3020  3.8050 -26.963  4.3610  5.3020  3.8050  1.0475  3556.6  107.87  10.206  43.280  37.821 
  3557.500 -36.884  4.1960  5.2660  3.8160 -26.176  4.1960  5.2660  3.8160  1.0479  3557.1  107.83  10.204  43.289  37.825 
  3558.000 -35.235  3.9370  5.2650  3.8150 -24.528  3.9370  5.2650  3.8150  1.0483  3557.6  107.78  10.201  43.298  37.829 
  3558.500 -34.375  3.7500  5.2870  3.8010 -23.669  3.7500  5.2870  3.8010  1.0487  3558.1  107.74  10.198  43.306  37.833 
  3559.000 -31.215  3.2970  5.3000  3.7860 -20.510  3.2970  5.3000  3.7860  1.0491  3558.6  107.69  10.195  43.315  37.838 
  3559.500 -28.271  2.9370  5.2280  3.5200 -17.568  2.9370  5.2280  3.5200  1.0496  3559.1  107.65  10.192  43.324  37.842 
  3560.000 -25.902  2.5710  4.8400  3.3050 -15.200  2.5710  4.8400  3.3050  1.0500  3559.6  107.60  10.190  43.333  37.846 
  3560.500 -23.309  2.3770  4.4520  3.0600 -12.608  2.3770  4.4520  3.0600  1.0504  3560.1  107.56  10.187  43.341  37.850 
  3561.000 -21.004  2.2900  4.0420  2.8650 -10.304  2.2900  4.0420  2.8650  1.0508  3560.6  107.51  10.184  43.350  37.854 
  3561.500 -19.849  2.2110  3.7480  2.6770 -9.1502  2.2110  3.7480  2.6770  1.0512  3561.1  107.47  10.181  43.359  37.859 
  3562.000 -19.341  2.1740  3.5820  2.5400 -8.6434  2.1740  3.5820  2.5400  1.0516  3561.6  107.42  10.179  43.368  37.863 
  3562.500 -19.085  2.2320  3.4170  2.5110 -8.3886  2.2320  3.4170  2.5110  1.0521  3562.1  107.38  10.176  43.376  37.867 
  3563.000 -19.080  2.2890  3.2580  2.6030 -8.3847  2.2890  3.2580  2.6030  1.0525  3562.6  107.33  10.173  43.385  37.871 
  3563.500 -19.220  2.4250  3.1790  2.7540 -8.5259  2.4250  3.1790  2.7540  1.0529  3563.1  107.29  10.170  43.394  37.876 
  3564.000 -19.395  2.5610  3.4080  2.9180 -8.7021  2.5610  3.4080  2.9180  1.0533  3563.6  107.24  10.168  43.403  37.880 
  3564.500 -20.074  2.7540  3.6810  3.1330 -9.3823  2.7540  3.6810  3.1330  1.0537  3564.1  107.20  10.165  43.412  37.884 
  3565.000 -21.327  2.8690  3.9100  3.2970 -10.636  2.8690  3.9100  3.2970  1.0541  3564.6  107.15  10.162  43.420  37.889 
  3565.500 -22.473  2.9910  4.0750  3.4120 -11.784  2.9910  4.0750  3.4120  1.0546  3565.1  107.11  10.160  43.429  37.893 
  3566.000 -24.877  3.0620  4.2760  3.5040 -14.189  3.0620  4.2760  3.5040  1.0550  3565.6  107.06  10.157  43.438  37.897 
  3566.500 -26.131  3.1050  4.3330  3.5900 -15.444  3.1050  4.3330  3.5900  1.0554  3566.1  107.02  10.154  43.447  37.901 
  3567.000 -26.738  3.0680  4.3970  3.6110 -16.052  3.0680  4.3970  3.6110  1.0558  3566.6  106.97  10.151  43.456  37.906 
  3567.500 -24.864  3.0320  4.3750  3.6320 -14.179  3.0320  4.3750  3.6320  1.0562  3567.1  106.93  10.149  43.464  37.910 
  3568.000 -23.457  2.9890  4.3250  3.4800 -12.773  2.9890  4.3250  3.4800  1.0566  3567.6  106.88  10.146  43.473  37.915 
  3568.500 -22.123  2.9460  4.1880  3.3000 -11.441  2.9460  4.1880  3.3000  1.0571  3568.1  106.84  10.143  43.482  37.919 
  3569.000 -20.932  2.8450  3.9860  3.1700 -10.251  2.8450  3.9860  3.1700  1.0575  3568.6  106.79  10.141  43.491  37.923 
  3569.500 -20.280  2.7580  3.8140  3.0470 -9.6000  2.7580  3.8140  3.0470  1.0579  3569.1  106.75  10.138  43.500  37.928 
  3570.000 -19.413  2.7720  3.6480  2.9240 -8.7342  2.7720  3.6480  2.9240  1.0583  3569.6  106.70  10.135  43.508  37.932 
  3570.500 -19.085  2.8150  3.4970  2.8370 -8.4074  2.8150  3.4970  2.8370  1.0587  3570.1  106.66  10.133  43.517  37.936 
  3571.000 -18.685  2.8500  3.4460  2.9510 -8.0085  2.8500  3.4460  2.9510  1.0591  3570.6  106.61  10.130  43.526  37.941 
