~Version Information
VERS.                     2.0: CWLS log ASCII Standard Version 2.00
WRAP.                      NO: One line per depth step
~Well Information Block
#MNEM.UNIT                               Data Type  Information
#---------                               ---------  -----------
STRT.FT                                   419.0000:
STOP.FT                                  7100.0000:
STEP.FT                                     0.5000:
NULL.                 -999.25                     :
COMP.                                             :COMPANY            
WELL.     SAN EMIDIO A #62-28                     :WELL               
FLD .                                             :FIELD              
CTRY.                                             :COUNTRY            
STAT.                                             :STATE              
LOC .                                             :LOCATION           
UWI .                                             :UNIQUE WELL ID     
SRVC.                                             :Service company    
DATE.                                             :LOG DATE           
~Curve Information
#MNEM.UNIT           API CODE  Curve Description
#---------           --------  -----------------
DEPT.FT                      :   1 DEPTH
SP  .MV                      :   2
AM16.OHMM                    :   3
AO10.OHMM                    :   4
AO19.OHMM                    :   5
SBL .MV                      :   6
RS  .OHMM                    :   7
RM  .OHMM                    :   8
RD  .OHMM                    :   9
DEVI.DEG                     :  10
TVD .FT                      :  11
AZIM.DEG                     :  12
NORT.FT                      :  13
EAST.FT                      :  14
OFFS.FT                      :  15
~A
# ...
  3084.000 -14.290  2.4920  4.0720  3.7920 -2.4687  2.4920  4.0720  3.7920  1.3900  3083.7  106.20  12.881  34.595  33.571 
  3084.500 -14.222  2.5410  4.0920  3.8270 -2.4018  2.5410  4.0920  3.8270  1.3909  3084.2  106.23  12.878  34.607  33.577 
  3085.000 -14.137  2.5620  4.1270  3.8490 -2.3180  2.5620  4.1270  3.8490  1.3917  3084.7  106.25  12.874  34.619  33.583 
  3085.500 -14.051  2.5900  4.1480  3.8770 -2.2332  2.5900  4.1480  3.8770  1.3925  3085.2  106.28  12.871  34.630  33.588 
  3086.000 -13.913  2.6180  4.1110  3.8840 -2.0964  2.6180  4.1110  3.8840  1.3934  3085.7  106.30  12.867  34.642  33.594 
  3086.500 -13.917  2.6450  4.0740  3.9060 -2.1015  2.6450  4.0740  3.9060  1.3942  3086.2  106.33  12.864  34.654  33.600 
  3087.000 -13.958  2.6730  3.9870  3.9200 -2.1437  2.6730  3.9870  3.9200  1.3950  3086.7  106.35  12.861  34.665  33.606 
  3087.500 -14.034  2.6940  3.8790  3.9340 -2.2209  2.6940  3.8790  3.9340  1.3959  3087.2  106.38  12.857  34.677  33.612 
  3088.000 -14.254  2.7000  3.8200  3.9340 -2.4421  2.7000  3.8200  3.9340  1.3967  3087.7  106.40  12.854  34.689  33.618 
  3088.500 -14.474  2.6920  3.7120  3.9260 -2.6632  2.6920  3.7120  3.9260  1.3975  3088.2  106.43  12.850  34.700  33.623 
  3089.000 -14.784  2.6840  3.6390  3.9050 -2.9744  2.6840  3.6390  3.9050  1.3984  3088.7  106.45  12.847  34.712  33.629 
  3089.500 -15.094  2.6830  3.5660  3.8830 -3.2856  2.6830  3.5660  3.8830  1.3992  3089.2  106.48  12.843  34.724  33.635 
  3090.000 -15.530  2.6680  3.5370  3.8540 -3.7228  2.6680  3.5370  3.8540  1.4000  3089.7  106.50  12.840  34.736  33.641 
  3090.500 -16.038  2.6670  3.5140  3.8320 -4.2319  2.6670  3.5140  3.8320  1.4009  3090.2  106.53  12.836  34.747  33.647 
  3091.000 -16.366  2.6950  3.4920  3.8250 -4.5611  2.6950  3.4920  3.8250  1.4017  3090.7  106.55  12.833  34.759  33.653 
  3091.500 -16.119  2.7230  3.4910  3.8390 -4.3153  2.7230  3.4910  3.8390  1.4025  3091.2  106.58  12.829  34.771  33.658 
  3092.000 -15.926  2.8080  3.5480  3.8970 -4.1235  2.8080  3.5480  3.8970  1.4034  3091.7  106.60  12.826  34.782  33.664 
  3092.500 -15.733  2.8430  3.6040  3.9540 -3.9316  2.8430  3.6040  3.9540  1.4042  3092.2  106.63  12.822  34.794  33.670 
  3093.000 -15.522  2.8710  3.8980  4.0330 -3.7218  2.8710  3.8980  4.0330  1.4050  3092.7  106.65  12.819  34.806  33.676 
  3093.500 -15.275  2.9380  3.9690  4.1120 -3.4760  2.9380  3.9690  4.1120  1.4059  3093.2  106.68  12.815  34.818  33.682 
  3094.000 -15.063  3.0050  4.0400  4.2980 -3.2652  3.0050  4.0400  4.2980  1.4067  3093.7  106.70  12.812  34.829  33.688 
  3094.500 -14.924  3.0660  4.1890  4.4060 -3.1273  3.0660  4.1890  4.4060  1.4075  3094.2  106.73  12.808  34.841  33.693 
  3095.000 -15.144  3.1260  4.2750  4.5130 -3.3485  3.1260  4.2750  4.5130  1.4084  3094.7  106.75  12.805  34.853  33.699 
  3095.500 -15.364  3.2320  4.3890  4.6210 -3.5697  3.2320  4.3890  4.6210  1.4092  3095.2  106.78  12.801  34.865  33.705 
  3096.000 -15.908  3.3320  4.4880  4.6490 -4.1149  3.3320  4.4880  4.6490  1.4100  3095.7  106.80  12.798  34.877  33.711 
  3096.500 -16.200  3.3820  4.5090  4.4910 -4.4081  3.3820  4.5090  4.4910  1.4109  3096.2  106.83  12.794  34.888  33.717 
  3097.000 -16.528  3.4310  4.4430  4.2540 -4.7372  3.4310  4.4430  4.2540  1.4117  3096.7  106.85  12.791  34.900  33.722 
  3097.500 -16.748  3.4120  4.3630  3.9810 -4.9584  3.4120  4.3630  3.9810  1.4125  3097.2  106.88  12.787  34.912  33.728 
  3098.000 -16.393  3.3930  4.3200  3.7870 -4.6046  3.3930  4.3200  3.7870  1.4134  3097.7  106.90  12.783  34.924  33.734 
  3098.500 -16.074  3.2270  4.1750  3.6500 -4.2868  3.2270  4.1750  3.6500  1.4142  3098.2  106.93  12.780  34.936  33.740 
  3099.000 -15.827  3.1180  4.0380  3.4920 -4.0409  3.1180  4.0380  3.4920  1.4150  3098.7  106.95  12.776  34.947  33.746 
  3099.500 -15.616  3.0170  3.8500  3.3330 -3.8311  3.0170  3.8500  3.3330  1.4159  3099.2  106.98  12.773  34.959  33.751 
  3100.000 -15.368  2.9010  3.5480  3.1610 -3.5843  2.9010  3.5480  3.1610  1.4167  3099.7  107.00  12.769  34.971  33.757 
  3100.500 -15.006  2.8360  3.3890  3.0020 -3.2235  2.8360  3.3890  3.0020  1.4159  3100.2  107.01  12.765  34.983  33.763 
  3101.000 -15.577  2.7430  3.2880  2.8010 -3.7956  2.7430  3.2880  2.8010  1.4150  3100.7  107.02  12.762  34.995  33.769 
  3101.500 -15.861  2.6920  3.2310  2.7070 -4.0808  2.6920  3.2310  2.7070  1.4142  3101.2  107.03  12.758  35.006  33.775 
  3102.000 -15.965  2.6410  3.1440  2.6920 -4.1860  2.6410  3.1440  2.6920  1.4134  3101.7  107.04  12.755  35.018  33.780 
  3102.500 -16.069  2.6190  3.0930  2.6480 -4.2912  2.6190  3.0930  2.6480  1.4125  3102.2  107.05  12.751  35.030  33.786 
  3103.000 -15.904  2.6050  3.0860  2.6480 -4.1273  2.6050  3.0860  2.6480  1.4117  3102.7  107.06  12.747  35.042  33.792 
  3103.500 -15.739  2.6190  3.1430  2.6610 -3.9635  2.6190  3.1430  2.6610  1.4109  3103.2  107.07  12.744  35.054  33.798 
  3104.000 -15.125  2.6330  3.1930  2.6930 -3.3507  2.6330  3.1930  2.6930  1.4100  3103.7  107.08  12.740  35.065  33.803 
  3104.500 -15.049  2.6790  3.2430  2.7250 -3.2759  2.6790  3.2430  2.7250  1.4092  3104.2  107.09  12.736  35.077  33.809 
  3105.000 -14.793  2.7250  3.3640  2.7680 -3.0210  2.7250  3.3640  2.7680  1.4084  3104.7  107.10  12.733  35.089  33.815 
  3105.500 -14.574  2.7680  3.4220  2.8030 -2.8032  2.7680  3.4220  2.8030  1.4075  3105.2  107.11  12.729  35.100  33.821 
  3106.000 -14.355  2.8110  3.5070  2.8170 -2.5854  2.8110  3.5070  2.8170  1.4067  3105.7  107.12  12.726  35.112  33.826 
  3106.500 -14.189  2.8890  3.5790  2.8380 -2.4206  2.8890  3.5790  2.8380  1.4059  3106.2  107.13  12.722  35.124  33.832 
  3107.000 -14.024  3.0110  3.6570  2.8550 -2.2567  3.0110  3.6570  2.8550  1.4050  3106.7  107.14  12.718  35.136  33.838 
  3107.500 -14.128  3.1110  3.6860  2.8730 -2.3619  3.1110  3.6860  2.8730  1.4042  3107.1  107.15  12.715  35.147  33.844 
  3108.000 -14.161  3.2830  3.7140  2.9220 -2.3961  3.2830  3.7140  2.9220  1.4034  3107.6  107.16  12.711  35.159  33.849 
  3108.500 -14.157  3.4340  3.7530  2.9580 -2.3933  3.4340  3.7530  2.9580  1.4025  3108.1  107.17  12.708  35.171  33.855 
  3109.000 -14.441  3.5770  3.7930  2.9860 -2.6784  3.5770  3.7930  2.9860  1.4017  3108.6  107.18  12.704  35.182  33.861 
  3109.500 -15.013  3.8140  3.9570  3.0140 -3.2516  3.8140  3.9570  3.0140  1.4009  3109.1  107.19  12.700  35.194  33.866 
  3110.000 -15.944  4.1000  4.2010  3.1140 -4.1838  4.1000  4.2010  3.1140  1.4000  3109.6  107.20  12.697  35.206  33.872 
  3110.500 -16.731  4.2260  4.3590  3.1850 -4.9720  4.2260  4.3590  3.1850  1.3992  3110.1  107.21  12.693  35.217  33.878 
  3111.000 -17.914  4.3510  4.4370  3.3140 -6.1561  4.3510  4.4370  3.3140  1.3984  3110.6  107.22  12.689  35.229  33.884 
  3111.500 -19.312  4.6020  4.5160  3.4930 -7.5553  4.6020  4.5160  3.4930  1.3975  3111.1  107.23  12.686  35.241  33.889 
  3112.000 -21.358  4.9180  4.6230  3.6220 -9.6025  4.9180  4.6230  3.6220  1.3967  3111.6  107.24  12.682  35.252  33.895 
  3112.500 -23.655  5.2120  4.6880  3.8370 -11.901  5.2120  4.6880  3.8370  1.3959  3112.1  107.25  12.679  35.264  33.901 
  3113.000 -25.557  5.5920  4.7520  4.0230 -13.804  5.5920  4.7520  4.0230  1.3950  3112.6  107.26  12.675  35.276  33.906 
  3113.500 -26.776  5.9080  4.8880  4.1660 -15.024  5.9080  4.8880  4.1660  1.3942  3113.1  107.27  12.671  35.287  33.912 
  3114.000 -27.419  6.1010  5.0380  4.3100 -15.668  6.1010  5.0380  4.3100  1.3934  3113.6  107.28  12.668  35.299  33.918 
  3114.500 -28.494  6.3090  5.1890  4.4310 -16.744  6.3090  5.1890  4.4310  1.3925  3114.1  107.29  12.664  35.310  33.923 
  3115.000 -29.605  6.4160  5.2530  4.5530 -17.857  6.4160  5.2530  4.5530  1.3917  3114.6  107.30  12.661  35.322  33.929 
  3115.500 -30.068  6.4950  5.3170  4.6240 -18.321  6.4950  5.3170  4.6240  1.3909  3115.1  107.31  12.657  35.334  33.935 
  3116.000 -30.388  6.5740  5.4000  4.6960 -18.642  6.5740  5.4000  4.6960  1.3900  3115.6  107.32  12.653  35.345  33.940 
