~Version Information
VERS.                     2.0: CWLS log ASCII Standard Version 2.00
WRAP.                      NO: One line per depth step
~Well Information Block
#MNEM.UNIT                               Data Type  Information
#---------                               ---------  -----------
STRT.FT                                   374.0000:
STOP.FT                                  6834.0000:
STEP.FT                                     0.5000:
NULL.                 -999.25                     :
COMP.                                             :COMPANY            
WELL.     SAN EMIDIO A #66-19 REDRILL             :WELL               
FLD .                                             :FIELD              
CTRY.                                             :COUNTRY            
STAT.                                             :STATE              
LOC .                                             :LOCATION           
UWI .                                             :UNIQUE WELL ID     
SRVC.                                             :Service company    
DATE.                                             :LOG DATE           
~Curve Information
#MNEM.UNIT           API CODE  Curve Description
#---------           --------  -----------------
DEPT.FT                      :   1 DEPTH
SP  .MV                      :   2
AM16.OHMM                    :   3
AO10.OHMM                    :   4
AO19.OHMM                    :   5
SBL .MV                      :   6
RS  .OHMM                    :   7
RM  .OHMM                    :   8
RD  .OHMM                    :   9
~A
# ...
  6363.000 -15.425  1.8420  1.7560  2.1020 -5.4250  1.8420  1.7560  2.1020 
  6363.500 -15.424  1.8420  1.7920  2.1660 -5.4240  1.8420  1.7920  2.1660 
  6364.000 -15.421  1.8430  1.8140  2.0660 -5.4210  1.8430  1.8140  2.0660 
  6364.500 -15.419  1.8430  1.8210  1.9790 -5.4190  1.8430  1.8210  1.9790 
  6365.000 -15.418  1.8790  1.8060  1.8710 -5.4180  1.8790  1.8060  1.8710 
  6365.500 -15.453  1.9070  1.7920  1.8570 -5.4530  1.9070  1.7920  1.8570 
  6366.000 -15.450  1.9360  1.8280  1.9000 -5.4500  1.9360  1.8280  1.9000 
  6366.500 -15.556  1.9940  1.8500  1.9220 -5.5560  1.9940  1.8500  1.9220 
  6367.000 -15.824  2.0220  1.8930  1.9440 -5.8240  2.0220  1.8930  1.9440 
  6367.500 -16.091  2.0510  1.9110  1.9940 -6.0910  2.0510  1.9110  1.9940 
  6368.000 -16.849  2.1020  1.9290  2.0220 -6.8490  2.1020  1.9290  2.0220 
  6368.500 -17.242  2.1520  1.9470  2.0940 -7.2420  2.1520  1.9470  2.0940 
  6369.000 -17.636  2.1950  1.9650  2.1380 -7.6360  2.1950  1.9650  2.1380 
  6369.500 -18.139  2.2310  1.9940  2.1950 -8.1390  2.2310  1.9940  2.1950 
  6370.000 -17.021  2.2460  2.0150  2.2380 -7.0210  2.2460  2.0150  2.2380 
  6370.500 -16.024  2.2490  2.0360  2.1860 -6.0240  2.2490  2.0360  2.1860 
  6371.000 -15.673  2.2520  2.0500  2.1200 -5.6730  2.2520  2.0500  2.1200 
  6371.500 -15.252  2.2230  2.0360  2.0400 -5.2520  2.2230  2.0360  2.0400 
  6372.000 -14.867  2.1940  2.0060  2.0090 -4.8670  2.1940  2.0060  2.0090 
  6372.500 -14.625  2.1720  1.9850  2.0260 -4.6250  2.1720  1.9850  2.0260 
  6373.000 -14.385  2.1500  1.9630  2.0430 -4.3850  2.1500  1.9630  2.0430 
  6373.500 -14.323  2.1280  1.9260  2.1420 -4.3230  2.1280  1.9260  2.1420 
  6374.000 -14.622  2.0840  1.9190  2.1550 -4.6220  2.0840  1.9190  2.1550 
  6374.500 -14.993  2.0690  1.9040  2.0740 -4.9930  2.0690  1.9040  2.0740 
  6375.000 -15.038  2.0480  1.8960  1.9860 -5.0380  2.0480  1.8960  1.9860 
  6375.500 -15.084  2.0260  1.8960  1.9350 -5.0840  2.0260  1.8960  1.9350 
  6376.000 -15.386  1.9890  1.8810  1.8250 -5.3860  1.9890  1.8810  1.8250 
  6376.500 -15.684  1.9670  1.8740  1.7950 -5.6840  1.9670  1.8740  1.7950 
  6377.000 -15.948  1.9450  1.8730  1.8730 -5.9480  1.9450  1.8730  1.8730 
  6377.500 -16.066  1.9340  1.8590  1.9220 -6.0660  1.9340  1.8590  1.9220 
  6378.000 -16.257  1.9230  1.8580  1.9560 -6.2570  1.9230  1.8580  1.9560 
  6378.500 -16.376  1.9230  1.8580  1.9690 -6.3760  1.9230  1.8580  1.9690 
  6379.000 -16.386  1.9220  1.8650  1.9820 -6.3860  1.9220  1.8650  1.9820 
  6379.500 -16.397  1.9220  1.8790  1.9810 -6.3970  1.9220  1.8790  1.9810 
  6380.000 -16.192  1.9210  1.8930  1.9500 -6.1920  1.9210  1.8930  1.9500 
  6380.500 -15.981  1.9310  1.9060  1.8640 -5.9810  1.9310  1.9060  1.8640 
  6381.000 -15.699  1.9410  1.9200  1.8140 -5.6990  1.9410  1.9200  1.8140 
  6381.500 -15.415  1.9540  1.9330  1.7200 -5.4150  1.9540  1.9330  1.7200 
  6382.000 -15.061  1.9530  1.9320  1.7340 -5.0610  1.9530  1.9320  1.7340 
  6382.500 -14.708  1.9630  1.9380  1.7780 -4.7080  1.9630  1.9380  1.7780 
  6383.000 -14.461  1.9730  1.9440  1.8210 -4.4610  1.9730  1.9440  1.8210 
  6383.500 -14.321  1.9930  1.9540  1.9430 -4.3210  1.9930  1.9540  1.9430 
  6384.000 -14.254  2.0070  1.9640  1.9860 -4.2540  2.0070  1.9640  1.9860 
  6384.500 -14.116  2.0130  1.9700  2.0330 -4.1160  2.0130  1.9700  2.0330 
  6385.000 -14.084  2.0230  1.9760  2.0800 -4.0840  2.0230  1.9760  2.0800 
  6385.500 -14.052  2.0320  1.9960  2.1090 -4.0520  2.0320  1.9960  2.1090 
  6386.000 -14.131  2.0600  1.9950  2.1090 -4.1310  2.0600  1.9950  2.1090 
  6386.500 -14.498  2.0730  2.0010  2.1450 -4.4980  2.0730  2.0010  2.1450 
  6387.000 -14.755  2.0790  2.0040  2.1880 -4.7550  2.0790  2.0040  2.1880 
  6387.500 -14.905  2.0850  2.0060  2.1950 -4.9050  2.0850  2.0060  2.1950 
  6388.000 -15.306  2.0840  2.0190  2.1730 -5.3060  2.0840  2.0190  2.1730 
  6388.500 -15.384  2.0830  2.0250  2.1160 -5.3840  2.0830  2.0250  2.1160 
  6389.000 -15.208  2.0890  2.0250  2.0580 -5.2080  2.0890  2.0250  2.0580 
  6389.500 -14.602  2.0880  2.0240  1.9940 -4.6020  2.0880  2.0240  1.9940 
  6390.000 -14.408  2.0870  2.0370  2.0800 -4.4080  2.0870  2.0370  2.0800 
  6390.500 -14.214  2.0860  2.0420  2.1660 -4.2140  2.0860  2.0420  2.1660 
  6391.000 -13.755  2.0980  2.0480  2.3080 -3.7550  2.0980  2.0480  2.3080 
  6391.500 -13.544  2.1100  2.0460  2.3790 -3.5440  2.1100  2.0460  2.3790 
  6392.000 -13.548  2.1160  2.0440  2.3850 -3.5480  2.1160  2.0440  2.3850 
  6392.500 -13.662  2.1360  2.0430  2.3550 -3.6620  2.1360  2.0430  2.3550 
  6393.000 -13.740  2.1410  2.0120  2.3250 -3.7400  2.1410  2.0120  2.3250 
  6393.500 -13.888  2.1610  1.9740  2.2740 -3.8880  2.1610  1.9740  2.2740 
  6394.000 -14.037  2.2380  1.9580  2.2300 -4.0370  2.2380  1.9580  2.2300 
  6394.500 -14.260  2.3230  1.9340  2.1930 -4.2600  2.3230  1.9340  2.1930 
  6395.000 -14.409  2.4070  1.9970  2.2280 -4.4090  2.4070  1.9970  2.2280 
  6395.500 -14.704  2.5140  2.1680  2.3850 -4.7040  2.5140  2.1680  2.3850 
  6396.000 -14.817  2.6990  2.3030  2.5920 -4.8170  2.6990  2.3030  2.5920 
  6396.500 -14.929  2.7620  2.4450  3.0950 -4.9290  2.7620  2.4450  3.0950 
  6397.000 -15.079  2.8610  2.5510  3.5190 -5.0790  2.8610  2.5510  3.5190 
  6397.500 -15.300  2.9170  2.6720  3.6470 -5.3000  2.9170  2.6720  3.6470 
  6398.000 -15.486  2.9440  2.8070  3.7830 -5.4860  2.9440  2.8070  3.7830 
  6398.500 -15.635  2.9710  2.9130  3.8390 -5.6350  2.9710  2.9130  3.8390 
  6399.000 -15.783  2.9910  2.9620  3.8810 -5.7830  2.9910  2.9620  3.8810 
  6399.500 -16.006  2.9020  2.9810  3.6570 -6.0060  2.9020  2.9810  3.6570 
  6400.000 -16.120  2.7710  2.7280  3.1810 -6.1200  2.7710  2.7280  3.1810 
  6400.500 -15.485  2.6430  2.5780  2.8930 -5.4850  2.6430  2.5780  2.8930 
  6401.000 -15.137  2.5070  2.4560  2.7190 -5.1370  2.5070  2.4560  2.7190 
  6401.500 -14.789  2.3640  2.3280  2.5740 -4.7890  2.3640  2.3280  2.5740 
  6402.000 -14.585  2.3470  2.1490  2.4800 -4.5850  2.3470  2.1490  2.4800 
  6402.500 -14.203  2.3300  2.1070  2.4220 -4.2030  2.3300  2.1070  2.4220 
  6403.000 -14.034  2.3530  2.0430  2.3280 -4.0340  2.3530  2.0430  2.3280 
  6403.500 -13.831  2.3750  2.0160  2.2690 -3.8310  2.3750  2.0160  2.2690 
  6404.000 -13.700  2.4050  2.0020  2.2400 -3.7000  2.4050  2.0020  2.2400 
  6404.500 -13.712  2.4210  2.0100  2.2280 -3.7120  2.4210  2.0100  2.2280 
  6405.000 -14.229  2.4290  2.0120  2.2170 -4.2290  2.4290  2.0120  2.2170 
  6405.500 -14.529  2.4440  2.0450  2.1940 -4.5290  2.4440  2.0450  2.1940 
  6406.000 -15.047  2.4460  2.0790  2.1790 -5.0470  2.4460  2.0790  2.1790 
  6406.500 -15.311  2.4250  2.1080  2.1780 -5.3110  2.4250  2.1080  2.1780 
  6407.000 -15.145  2.3610  2.1380  2.1850 -5.1450  2.3610  2.1380  2.1850 
  6407.500 -14.904  2.3120  2.1820  2.2060 -4.9040  2.3120  2.1820  2.2060 
  6408.000 -14.718  2.2700  2.2120  2.2200 -4.7180  2.2700  2.2120  2.2200 
  6408.500 -14.532  2.2490  2.2420  2.2330 -4.5320  2.2490  2.2420  2.2330 
  6409.000 -14.328  2.2720  2.2720  2.1970 -4.3280  2.2720  2.2720  2.1970 
  6409.500 -14.125  2.3240  2.3240  2.1600 -4.1250  2.3240  2.3240  2.1600 
  6410.000 -13.816  2.3680  2.3530  2.0730 -3.8160  2.3680  2.3530  2.0730 
  6410.500 -13.665  2.4170  2.3710  2.0290 -3.6650  2.4170  2.3710  2.0290 
  6411.000 -13.516  2.4380  2.3880  1.9790 -3.5160  2.4380  2.3880  1.9790 
  6411.500 -13.474  2.4580  2.4220  2.0430 -3.4740  2.4580  2.4220  2.0430 
  6412.000 -13.577  2.4860  2.4500  2.1150 -3.5770  2.4860  2.4500  2.1150 
  6412.500 -13.751  2.4990  2.4700  2.3090 -3.7510  2.4990  2.4700  2.3090 
  6413.000 -13.998  2.5130  2.4910  2.4160 -3.9980  2.5130  2.4910  2.4160 
  6413.500 -14.209  2.5260  2.5080  2.4230 -4.2090  2.5260  2.5080  2.4230 
  6414.000 -14.564  2.5320  2.5250  2.3430 -4.5640  2.5320  2.5250  2.3430 
  6414.500 -15.280  2.5310  2.5380  2.2850 -5.2800  2.5310  2.5380  2.2850 
  6415.000 -15.526  2.5300  2.5510  2.2420 -5.5260  2.5300  2.5510  2.2420 
  6415.500 -15.665  2.5220  2.5500  2.2130 -5.6650  2.5220  2.5500  2.2130 
