~Version Information
VERS.                     2.0: CWLS log ASCII Standard Version 2.00
WRAP.                      NO: One line per depth step
~Well Information Block
#MNEM.UNIT                               Data Type  Information
#---------                               ---------  -----------
STRT.FT                                   374.0000:
STOP.FT                                  6834.0000:
STEP.FT                                     0.5000:
NULL.                 -999.25                     :
COMP.                                             :COMPANY            
WELL.     SAN EMIDIO A #66-19 REDRILL             :WELL               
FLD .                                             :FIELD              
CTRY.                                             :COUNTRY            
STAT.                                             :STATE              
LOC .                                             :LOCATION           
UWI .                                             :UNIQUE WELL ID     
SRVC.                                             :Service company    
DATE.                                             :LOG DATE           
~Curve Information
#MNEM.UNIT           API CODE  Curve Description
#---------           --------  -----------------
DEPT.FT                      :   1 DEPTH
SP  .MV                      :   2
AM16.OHMM                    :   3
AO10.OHMM                    :   4
AO19.OHMM                    :   5
SBL .MV                      :   6
RS  .OHMM                    :   7
RM  .OHMM                    :   8
RD  .OHMM                    :   9
~A
# ...
  6787.000 -99.409  28.089  17.737  20.015 -89.409  28.089  17.737  20.015 
  6787.500 -99.708  27.943  17.635  20.014 -89.708  27.943  17.635  20.014 
  6788.000 -99.612  27.939  17.549  20.014 -89.612  27.939  17.549  20.014 
  6788.500 -99.406  27.937  17.484  20.014 -89.406  27.937  17.484  20.014 
  6789.000 -99.236  27.935  17.440  20.013 -89.236  27.935  17.440  20.013 
  6789.500 -99.103  28.145  17.375  20.013 -89.103  28.145  17.375  20.013 
  6790.000 -98.934  28.069  17.346  20.012 -88.934  28.069  17.346  20.012 
  6790.500 -99.080  27.915  17.309  20.010 -89.080  27.915  17.309  20.010 
  6791.000 -99.225  27.329  17.272  20.013 -89.225  27.329  17.272  20.013 
  6791.500 -99.480  26.667  17.227  20.019 -89.480  26.667  17.227  20.019 
  6792.000 -99.662  26.443  17.176  20.095 -89.662  26.443  17.176  20.095 
  6792.500 -99.844  26.431  17.124  20.098 -89.844  26.431  17.124  20.098 
  6793.000 -99.917  27.066  17.080  20.101 -89.917  27.066  17.080  20.101 
  6793.500 -99.775  27.345  17.029  20.032 -89.775  27.345  17.029  20.032 
  6794.000 -99.417  27.552  16.963  19.892 -89.417  27.552  16.963  19.892 
  6794.500 -99.166  26.892  16.919  19.753 -89.166  26.892  16.919  19.753 
  6795.000 -98.916  26.666  16.860  19.684 -88.916  26.666  16.860  19.684 
  6795.500 -98.738  26.295  16.787  19.654 -88.738  26.295  16.787  19.654 
  6796.000 -98.451  25.780  16.743  19.623 -88.451  25.780  16.743  19.623 
  6796.500 -98.201  25.553  16.699  19.294 -88.201  25.553  16.699  19.294 
  6797.000 -97.987  25.400  16.611  19.157 -87.987  25.400  16.611  19.157 
  6797.500 -97.772  24.956  16.545  18.927 -87.772  24.956  16.545  18.927 
  6798.000 -97.558  25.234  16.443  18.755 -87.558  25.234  16.443  18.755 
  6798.500 -97.343  25.512  16.334  18.547 -87.343  25.512  16.334  18.547 
  6799.000 -97.129  25.645  16.031  18.389 -87.129  25.645  16.031  18.389 
  6799.500 -97.095  25.778  15.814  18.188 -87.095  25.778  15.814  18.188 
  6800.000 -97.132  25.980  15.647  18.008 -87.132  25.980  15.647  18.008 
  6800.500 -97.364  26.048  15.474  17.855 -87.364  26.048  15.474  17.855 
  6801.000 -97.596  26.048  15.416  17.696 -87.596  26.048  15.416  17.696 
  6801.500 -98.100  26.187  15.401  17.558 -88.100  26.187  15.401  17.558 
  6802.000 -98.242  26.255  15.380  17.398 -88.242  26.255  15.380  17.398 
  6802.500 -98.529  26.253  15.343  17.339 -88.529  26.253  15.343  17.339 
  6803.000 -98.816  26.105  15.314  17.287 -88.816  26.105  15.314  17.287 
  6803.500 -98.921  25.885  15.263  17.228 -88.921  25.885  15.263  17.228 
  6804.000 -97.731  25.703  15.231  17.133 -87.731  25.703  15.231  17.133 
  6804.500 -97.440  25.521  15.198  17.052 -87.440  25.521  15.198  17.052 
  6805.000 -97.149  24.795  15.158  16.864 -87.149  24.795  15.158  16.864 
  6805.500 -96.609  24.144  15.118  16.826 -86.609  24.144  15.118  16.826 
  6806.000 -96.427  24.427  15.038  16.803 -86.427  24.427  15.038  16.803 
  6806.500 -96.390  24.782  15.006  16.758 -86.390  24.782  15.006  16.758 
  6807.000 -96.459  25.137  14.973  16.678 -86.459  25.137  14.973  16.678 
  6807.500 -96.638  25.207  14.908  16.619 -86.638  25.207  14.908  16.619 
  6808.000 -96.889  25.203  14.843  16.495 -86.889  25.203  14.843  16.495 
  6808.500 -96.958  25.274  14.720  16.378 -86.958  25.274  14.720  16.378 
  6809.000 -96.885  25.344  14.619  16.312 -86.885  25.344  14.619  16.312 
  6809.500 -96.918  25.338  14.539  16.268 -86.918  25.338  14.539  16.268 
  6810.000 -97.132  25.189  14.445  16.263 -87.132  25.189  14.445  16.263 
  6810.500 -97.251  25.182  14.286  16.259 -87.251  25.182  14.286  16.259 
  6811.000 -97.263  25.176  14.177  16.266 -87.263  25.176  14.177  16.266 
  6811.500 -97.130  25.167  14.054  16.266 -87.130  25.167  14.054  16.266 
  6812.000 -97.104  25.162  14.025  16.230 -87.104  25.162  14.025  16.230 
  6812.500 -97.043  25.154  13.967  16.130 -87.043  25.154  13.967  16.130 
  6813.000 -97.018  24.930  13.879  15.957 -87.018  24.930  13.879  15.957 
  6813.500 -96.884  24.850  13.727  15.805 -86.884  24.850  13.727  15.805 
  6814.000 -96.824  24.556  13.677  15.755 -86.824  24.556  13.677  15.755 
  6814.500 -96.834  24.371  13.532  15.654 -86.834  24.371  13.532  15.654 
  6815.000 -96.988  24.185  13.445  15.518 -86.988  24.185  13.445  15.518 
  6815.500 -96.927  23.711  13.387  15.453 -86.927  23.711  13.387  15.453 
  6816.000 -96.650  23.236  13.321  15.323 -86.650  23.236  13.321  15.323 
  6816.500 -96.193  22.578  13.263  15.208 -86.193  22.578  13.263  15.208 
  6817.000 -95.915  21.994  13.190  15.071 -85.915  21.994  13.190  15.071 
  6817.500 -95.853  21.772  13.110  14.985 -85.853  21.772  13.110  14.985 
  6818.000 -96.153  22.987  13.045  14.877 -86.153  22.987  13.045  14.877 
  6818.500 -96.704  24.204  12.979  14.812 -86.704  24.204  12.979  14.812 
  6819.000 -97.344  25.132  12.928  14.784 -87.344  25.132  12.928  14.784 
  6819.500 -97.985  25.628  12.891  14.776 -87.985  25.628  12.891  14.776 
  6820.000 -99.366  25.557  12.919  15.057 -89.366  25.557  12.919  15.057 
  6820.500 -100.16  25.486  12.945  15.308 -90.162  25.486  12.945  15.308 
  6821.000 -99.734  24.911  12.971  15.444 -89.734  24.911  12.971  15.444 
  6821.500 -99.269  23.834  13.021  15.522 -89.269  23.834  13.021  15.522 
  6822.000 -98.912  23.334  13.058  15.557 -88.912  23.334  13.058  15.557 
  6822.500 -98.556  23.266  13.101  14.749 -88.556  23.266  13.101  14.749 
  6823.000 -98.343  22.045  12.972  14.568 -88.343  22.045  12.972  14.568 
  6823.500 -98.491  21.040  12.785  14.402 -88.491  21.040  12.785  14.402 
  6824.000 -98.675  20.469  12.678  14.307 -88.675  20.469  12.678  14.307 
  6824.500 -98.498  20.185  12.541  14.241 -88.498  20.185  12.541  14.241 
  6825.000 -97.926  19.880  12.405  14.201 -87.926  19.880  12.405  14.201 
  6825.500 -97.425  19.574  12.304  14.160 -87.425  19.574  12.304  14.160 
  6826.000 -96.960  18.480  12.204  13.972 -86.960  18.480  12.204  13.972 
  6826.500 -96.639  18.293  12.089  13.848 -86.639  18.293  12.089  13.848 
  6827.000 -96.499  18.322  11.881  13.725 -86.499  18.322  11.881  13.725 
  6827.500 -97.043  18.352  11.773  13.637 -87.043  18.352  11.773  13.637 
  6828.000 -97.514  18.388  11.666  13.669 -87.514  18.388  11.666  13.669 
  6828.500 -98.166  18.388  11.601  13.700 -88.166  18.388  11.601  13.700 
  6829.000 -98.494  18.382  11.537  13.792 -88.494  18.382  11.537  13.792 
  6829.500 -97.777  18.346  11.508  13.835 -87.777  18.346  11.508  13.835 
  6830.000 -97.096  18.296  11.473  13.877 -87.096  18.296  11.473  13.877 
  6830.500 -96.577  18.202  11.451  13.964 -86.577  18.202  11.451  13.964 
  6831.000 -96.598  18.108  11.444  14.007 -86.598  18.108  11.444  14.007 
  6831.500 -96.907  18.015  11.458  13.958 -86.907  18.015  11.458  13.958 
  6832.000 -97.071  17.863  11.486  13.890 -87.071  17.863  11.486  13.890 
  6832.500 -96.624  17.734  11.544  13.822 -86.624  17.734  11.544  13.822 
  6833.000 -96.285  17.676  11.587  13.736 -86.285  17.676  11.587  13.736 
  6833.500 -96.089  17.784  11.623  13.708 -86.089  17.784  11.623  13.708 
  6834.000 -95.858  17.877  11.630  13.708 -85.858  17.877  11.630  13.708 
