~Version Information
VERS.                     2.0: CWLS log ASCII Standard Version 2.00
WRAP.                      NO: One line per depth step
~Well Information Block
#MNEM.UNIT                               Data Type  Information
#---------                               ---------  -----------
STRT.FT                                   530.0000:
STOP.FT                                  8230.0000:
STEP.FT                                     0.5000:
NULL.                 -999.25                     :
COMP.                                             :COMPANY            
WELL.     SAN EMIDIO #61-28 REDRILL               :WELL               
FLD .                                             :FIELD              
CTRY.                                             :COUNTRY            
STAT.                                             :STATE              
LOC .                                             :LOCATION           
UWI .                                             :UNIQUE WELL ID     
SRVC.                                             :Service company    
DATE.                                             :LOG DATE           
~Curve Information
#MNEM.UNIT           API CODE  Curve Description
#---------           --------  -----------------
DEPT.FT                      :   1 DEPTH
SP  .MV                      :   2
2Z18.OHMM                    :   3
31Z9.OHMM                    :   4
31Z1.OHMM                    :   5
SBL .MV                      :   6
RS  .OHMM                    :   7
RM  .OHMM                    :   8
 RD .OHMM                    :   9
DEVI.DEG                     :  10
TVD .FT                      :  11
AZIM.DEG                     :  12
NORT.FT                      :  13
EAST.FT                      :  14
OFFS.FT                      :  15
~A
# ...
  4625.000 -8.8870  2.0280  2.4940  2.2190 -3.7569  2.0280  2.4940  2.2190  0.2293  4624.7  11.240  12.380  32.809  31.953 
  4625.500 -8.6390  2.0280  2.3940  2.2190 -3.5092  2.0280  2.3940  2.2190  0.2288  4625.2  12.065  12.382  32.809  31.955 
  4626.000 -8.3910  2.0610  2.4270  2.2520 -3.2616  2.0610  2.4270  2.2520  0.2284  4625.7  12.890  12.384  32.810  31.957 
  4626.500 -7.9780  2.0950  2.4610  2.2860 -2.8489  2.0950  2.4610  2.2860  0.2280  4626.2  13.715  12.386  32.810  31.958 
  4627.000 -7.5640  2.1280  2.5600  2.3180 -2.4353  2.1280  2.5600  2.3180  0.2276  4626.7  14.540  12.388  32.811  31.960 
  4627.500 -7.4000  2.2280  2.6100  2.3520 -2.2717  2.2280  2.6100  2.3520  0.2272  4627.2  15.365  12.390  32.811  31.962 
  4628.000 -7.2350  2.2610  2.6600  2.3850 -2.1070  2.2610  2.6600  2.3850  0.2268  4627.7  16.190  12.392  32.812  31.964 
  4628.500 -7.2380  2.3270  2.7430  2.3850 -2.1104  2.3270  2.7430  2.3850  0.2264  4628.2  17.015  12.393  32.812  31.965 
  4629.000 -7.2390  2.3770  2.8260  2.3840 -2.1117  2.3770  2.8260  2.3840  0.2259  4628.7  17.840  12.395  32.813  31.967 
  4629.500 -7.2410  2.4270  2.9920  2.4010 -2.1141  2.4270  2.9920  2.4010  0.2255  4629.2  18.665  12.397  32.814  31.969 
  4630.000 -7.4090  2.5100  3.0590  2.4170 -2.2825  2.5100  3.0590  2.4170  0.2251  4629.7  19.490  12.399  32.814  31.971 
  4630.500 -7.2440  2.5930  3.1250  2.4340 -2.1178  2.5930  3.1250  2.4340  0.2247  4630.2  20.315  12.401  32.815  31.972 
  4631.000 -7.2460  2.5600  3.1420  2.4500 -2.1202  2.5600  3.1420  2.4500  0.2243  4630.7  21.140  12.403  32.816  31.974 
  4631.500 -7.2480  2.5100  3.1590  2.4500 -2.1225  2.5100  3.1590  2.4500  0.2239  4631.2  21.965  12.404  32.816  31.976 
  4632.000 -7.0000  2.4600  3.1590  2.4500 -1.8749  2.4600  3.1590  2.4500  0.2234  4631.7  22.790  12.406  32.817  31.978 
  4632.500 -6.7520  2.4160  3.0920  2.4160 -1.6273  2.4160  3.0920  2.4160  0.2230  4632.2  23.615  12.408  32.818  31.980 
  4633.000 -6.1720  2.3720  3.0260  2.3830 -1.0476  2.3720  3.0260  2.3830  0.2226  4632.7  24.440  12.410  32.819  31.981 
  4633.500 -5.5920  2.3280  2.9430  2.3500 -0.4680  2.3280  2.9430  2.3500  0.2222  4633.2  25.265  12.412  32.819  31.983 
  4634.000 -5.4290  2.2780  2.8600  2.3160 -0.3054  2.2780  2.8600  2.3160  0.2218  4633.7  26.090  12.413  32.820  31.985 
  4634.500 -5.5960  2.2280  2.7930  2.2830 -0.4727  2.2280  2.7930  2.2830  0.2214  4634.2  26.915  12.415  32.821  31.987 
  4635.000 -5.7650  2.2280  2.6930  2.2490 -0.6421  2.2280  2.6930  2.2490  0.2210  4634.7  27.740  12.417  32.822  31.989 
  4635.500 -6.0990  2.2940  2.6600  2.2330 -0.9764  2.2940  2.6600  2.2330  0.2205  4635.2  28.565  12.418  32.823  31.991 
  4636.000 -6.2670  2.3610  2.5930  2.2160 -1.1448  2.3610  2.5930  2.2160  0.2201  4635.7  29.390  12.420  32.824  31.992 
  4636.500 -6.6000  2.4110  2.5600  2.1820 -1.4782  2.4110  2.5600  2.1820  0.2197  4636.2  30.215  12.422  32.825  31.994 
  4637.000 -6.9340  2.4600  2.5270  2.1820 -1.8125  2.4600  2.5270  2.1820  0.2193  4636.7  31.040  12.423  32.826  31.996 
  4637.500 -7.2680  2.5270  2.5600  2.1820 -2.1469  2.5270  2.5600  2.1820  0.2189  4637.2  31.865  12.425  32.827  31.998 
  4638.000 -7.4360  2.5940  2.5940  2.1820 -2.3152  2.5940  2.5940  2.1820  0.2185  4637.7  32.690  12.427  32.828  32.000 
  4638.500 -7.6030  2.6600  2.6930  2.1480 -2.4826  2.6600  2.6930  2.1480  0.2181  4638.2  33.515  12.428  32.829  32.002 
  4639.000 -7.9370  2.7260  2.7930  2.1480 -2.8170  2.7260  2.7930  2.1480  0.2176  4638.7  34.340  12.430  32.830  32.004 
  4639.500 -8.2710  2.7930  2.8760  2.1480 -3.1513  2.7930  2.8760  2.1480  0.2172  4639.2  35.165  12.431  32.831  32.005 
  4640.000 -8.4390  2.9260  2.9590  2.1480 -3.3197  2.9260  2.9590  2.1480  0.2168  4639.7  35.990  12.433  32.832  32.007 
  4640.500 -13.092  2.9590  3.1590  2.1810 -7.9730  2.9590  3.1590  2.1810  0.2164  4640.2  36.815  12.434  32.833  32.009 
  4641.000 -14.755  3.0590  3.2920  2.1980 -9.6364  3.0590  3.2920  2.1980  0.2160  4640.7  37.640  12.436  32.835  32.011 
  4641.500 -16.916  3.1250  3.4250  2.2140 -11.798  3.1250  3.4250  2.2140  0.2156  4641.2  38.465  12.437  32.836  32.013 
  4642.000 -20.073  3.1590  3.5910  2.2800 -14.955  3.1590  3.5910  2.2800  0.2151  4641.7  39.290  12.439  32.837  32.015 
  4642.500 -22.401  3.1920  3.5910  2.4800 -17.283  3.1920  3.5910  2.4800  0.2147  4642.2  40.115  12.440  32.838  32.017 
  4643.000 -24.229  3.1590  3.5740  2.6460 -19.112  3.1590  3.5740  2.6460  0.2143  4642.7  40.940  12.442  32.839  32.018 
  4643.500 -23.899  3.1090  3.5580  2.7450 -18.782  3.1090  3.5580  2.7450  0.2139  4643.2  41.765  12.443  32.841  32.020 
  4644.000 -23.070  3.0590  3.3910  2.8120 -17.954  3.0590  3.3910  2.8120  0.2135  4643.7  42.590  12.444  32.842  32.022 
  4644.500 -22.241  3.0090  3.1920  2.7120 -17.125  3.0090  3.1920  2.7120  0.2131  4644.2  43.415  12.446  32.843  32.024 
  4645.000 -20.748  2.9590  3.0260  2.6120 -15.632  2.9590  3.0260  2.6120  0.2127  4644.7  44.240  12.447  32.844  32.026 
  4645.500 -19.421  2.8930  2.7930  2.4450 -14.306  2.8930  2.7930  2.4450  0.2122  4645.2  45.065  12.448  32.846  32.028 
  4646.000 -17.595  2.8260  2.7100  2.2790 -12.480  2.8260  2.7100  2.2790  0.2118  4645.7  45.890  12.450  32.847  32.030 
  4646.500 -15.936  2.7930  2.6270  2.2120 -10.821  2.7930  2.6270  2.2120  0.2114  4646.2  46.715  12.451  32.848  32.031 
  4647.000 -14.608  2.7260  2.5440  2.1120 -9.4937  2.7260  2.5440  2.1120  0.2110  4646.7  47.540  12.452  32.850  32.033 
  4647.500 -14.610  2.7260  2.4610  2.0790 -9.4961  2.7260  2.4610  2.0790  0.2106  4647.2  48.365  12.453  32.851  32.035 
  4648.000 -14.611  2.7270  2.4440  2.0790 -9.4974  2.7270  2.4440  2.0790  0.2102  4647.7  49.190  12.455  32.853  32.037 
  4648.500 -14.946  2.9920  2.4270  2.0780 -9.8328  2.9920  2.4270  2.0780  0.2098  4648.2  50.015  12.456  32.854  32.039 
  4649.000 -15.446  3.1920  2.4940  2.0780 -10.333  3.1920  2.4940  2.0780  0.2093  4648.7  50.840  12.457  32.855  32.041 
  4649.500 -17.274  3.3580  2.5600  2.1450 -12.162  3.3580  2.5600  2.1450  0.2089  4649.2  51.665  12.458  32.857  32.042 
  4650.000 -18.605  3.5410  2.6270  2.1780 -13.493  3.5410  2.6270  2.1780  0.2085  4649.7  52.490  12.459  32.858  32.044 
  4650.500 -19.935  3.7240  2.7260  2.3110 -14.823  3.7240  2.7260  2.3110  0.2081  4650.2  53.315  12.460  32.860  32.046 
  4651.000 -23.591  3.9900  2.8260  2.4100 -18.480  3.9900  2.8260  2.4100  0.2077  4650.7  54.140  12.461  32.861  32.048 
  4651.500 -27.414  4.2560  3.0260  2.4770 -22.303  4.2560  3.0260  2.4770  0.2073  4651.2  54.965  12.462  32.863  32.050 
  4652.000 -32.565  4.3390  3.1920  2.5100 -27.454  4.3390  3.1920  2.5100  0.2068  4651.7  55.790  12.463  32.864  32.051 
  4652.500 -37.218  4.4220  3.3580  2.5090 -32.108  4.4220  3.3580  2.5090  0.2064  4652.2  56.615  12.464  32.866  32.053 
  4653.000 -42.535  4.6880  3.5250  2.5090 -37.425  4.6880  3.5250  2.5090  0.2060  4652.7  57.440  12.465  32.867  32.055 
  4653.500 -44.696  4.8050  3.6240  2.5090 -39.586  4.8050  3.6240  2.5090  0.2056  4653.2  58.265  12.466  32.869  32.057 
  4654.000 -45.529  4.9210  3.6240  2.5090 -40.420  4.9210  3.6240  2.5090  0.2052  4653.7  59.090  12.467  32.870  32.058 
  4654.500 -46.361  5.1870  3.6240  2.4760 -41.252  5.1870  3.6240  2.4760  0.2048  4654.2  59.915  12.468  32.872  32.060 
  4655.000 -46.528  5.2870  3.4910  2.4420 -41.419  5.2870  3.4910  2.4420  0.2044  4654.7  60.740  12.469  32.873  32.062 
  4655.500 -46.696  5.3870  3.4580  2.4420 -41.588  5.3870  3.4580  2.4420  0.2039  4655.2  61.565  12.470  32.875  32.064 
  4656.000 -46.532  5.4200  3.4250  2.4420 -41.424  5.4200  3.4250  2.4420  0.2035  4655.7  62.390  12.471  32.876  32.065 
  4656.500 -46.450  5.4200  3.4250  2.4420 -41.343  5.4200  3.4250  2.4420  0.2031  4656.2  63.215  12.471  32.878  32.067 
  4657.000 -46.368  5.3200  3.4250  2.5080 -41.261  5.3200  3.4250  2.5080  0.2027  4656.7  64.040  12.472  32.880  32.069 
