~Version Information
VERS.                     2.0: CWLS log ASCII Standard Version 2.00
WRAP.                      NO: One line per depth step
~Well Information Block
#MNEM.UNIT                               Data Type  Information
#---------                               ---------  -----------
STRT.FT                                   419.0000:
STOP.FT                                  7100.0000:
STEP.FT                                     0.5000:
NULL.                 -999.25                     :
COMP.                                             :COMPANY            
WELL.     SAN EMIDIO A #62-28                     :WELL               
FLD .                                             :FIELD              
CTRY.                                             :COUNTRY            
STAT.                                             :STATE              
LOC .                                             :LOCATION           
UWI .                                             :UNIQUE WELL ID     
SRVC.                                             :Service company    
DATE.                                             :LOG DATE           
~Curve Information
#MNEM.UNIT           API CODE  Curve Description
#---------           --------  -----------------
DEPT.FT                      :   1 DEPTH
SP  .MV                      :   2
AM16.OHMM                    :   3
AO10.OHMM                    :   4
AO19.OHMM                    :   5
SBL .MV                      :   6
RS  .OHMM                    :   7
RM  .OHMM                    :   8
RD  .OHMM                    :   9
DEVI.DEG                     :  10
TVD .FT                      :  11
AZIM.DEG                     :  12
NORT.FT                      :  13
EAST.FT                      :  14
OFFS.FT                      :  15
~A
# ...
   874.000 -16.161  6.3230  7.5510  6.7510 -1.4572  6.3230  7.5510  6.7510  0.8517  873.94  73.781  8.6302  2.8977  8.1514 
   874.500 -15.622  6.5960  7.6590  7.1960 -0.9220  6.5960  7.6590  7.1960  0.8530  874.44  74.016  8.6322  2.9048  8.1579 
   875.000 -15.907  6.8390  7.9810  7.6690 -1.2108  6.8390  7.9810  7.6690  0.8542  874.94  74.251  8.6342  2.9120  8.1644 
   875.500 -16.408  7.0690  8.7780  7.9120 -1.7157  7.0690  8.7780  7.9120  0.8555  875.44  74.486  8.6362  2.9192  8.1709 
   876.000 -17.124  7.2190  9.2300  8.0770 -2.4355  7.2190  9.2300  8.0770  0.8567  875.94  74.721  8.6382  2.9264  8.1774 
   876.500 -17.984  7.4700  9.6960  8.1620 -3.2994  7.4700  9.6960  8.1620  0.8580  876.44  74.956  8.6401  2.9336  8.1839 
   877.000 -18.449  7.5560  10.019  8.2480 -3.7682  7.5560  10.019  8.2480  0.8592  876.94  75.191  8.6421  2.9409  8.1904 
   877.500 -19.489  7.6280  10.241  8.3760 -4.8121  7.6280  10.241  8.3760  0.8605  877.44  75.426  8.6439  2.9482  8.1969 
   878.000 -20.133  7.5910  10.356  8.4260 -5.4599  7.5910  10.356  8.4260  0.8617  877.94  75.661  8.6458  2.9554  8.2033 
   878.500 -20.419  7.4690  10.485  8.4540 -5.7498  7.4690  10.485  8.4540  0.8630  878.44  75.896  8.6476  2.9627  8.2098 
   879.000 -20.453  7.3110  10.549  8.3450 -5.7876  7.3110  10.549  8.3450  0.8642  878.94  76.131  8.6494  2.9701  8.2162 
   879.500 -20.272  7.1670  10.585  8.1150 -5.6105  7.1670  10.585  8.1150  0.8655  879.44  76.366  8.6512  2.9774  8.2227 
   880.000 -20.090  7.0590  9.9310  7.9130 -5.4323  7.0590  9.9310  7.9130  0.8667  879.94  76.601  8.6530  2.9848  8.2291 
   880.500 -18.444  6.9510  9.6150  7.7840 -3.7902  6.9510  9.6150  7.7840  0.8680  880.44  76.836  8.6547  2.9921  8.2356 
   881.000 -18.018  6.9080  9.4290  7.7260 -3.3680  6.9080  9.4290  7.7260  0.8692  880.94  77.071  8.6564  2.9995  8.2420 
   881.500 -17.772  7.0380  9.3650  7.9630 -3.1258  7.0380  9.3650  7.9630  0.8705  881.44  77.306  8.6581  3.0069  8.2484 
   882.000 -17.849  7.2470  9.3080  8.1290 -3.2067  7.2470  9.3080  8.1290  0.8717  881.94  77.541  8.6597  3.0144  8.2548 
   882.500 -18.502  7.4910  9.8610  8.5020 -3.8635  7.4910  9.8610  8.5020  0.8730  882.44  77.776  8.6613  3.0218  8.2612 
   883.000 -18.866  7.6780  10.220  8.8030 -4.2314  7.6780  10.220  8.8030  0.8742  882.94  78.011  8.6629  3.0293  8.2676 
   883.500 -19.410  7.8510  10.422  8.9830 -4.7792  7.8510  10.422  8.9830  0.8755  883.44  78.246  8.6645  3.0368  8.2740 
   884.000 -19.810  8.0020  10.652  9.0400 -5.1831  8.0020  10.652  9.0400  0.8767  883.94  78.481  8.6660  3.0443  8.2804 
   884.500 -20.048  8.0170  10.817  8.9400 -5.4249  8.0170  10.817  8.9400  0.8780  884.44  78.716  8.6675  3.0518  8.2868 
   885.000 -20.287  7.8300  10.983  8.8030 -5.6678  7.8300  10.983  8.8030  0.8792  884.94  78.951  8.6690  3.0593  8.2931 
   885.500 -20.652  7.5440  11.019  8.6810 -6.0366  7.5440  11.019  8.6810  0.8805  885.44  79.186  8.6704  3.0668  8.2995 
   886.000 -20.406  7.4080  10.933  8.4730 -5.7945  7.4080  10.933  8.4730  0.8817  885.94  79.421  8.6718  3.0744  8.3058 
   886.500 -20.160  7.2210  10.883  8.3870 -5.5523  7.2210  10.883  8.3870  0.8830  886.44  79.656  8.6732  3.0820  8.3122 
   887.000 -19.771  7.1210  10.834  8.3010 -5.1672  7.1210  10.834  8.3010  0.8842  886.94  79.891  8.6746  3.0896  8.3185 
   887.500 -19.309  6.9850  10.784  8.2070 -4.7090  6.9850  10.784  8.2070  0.8855  887.44  80.126  8.6759  3.0972  8.3248 
   888.000 -18.991  6.9490  10.730  8.1640 -4.3948  6.9490  10.730  8.1640  0.8867  887.94  80.361  8.6772  3.1048  8.3311 
   888.500 -18.781  6.9500  10.677  8.1210 -4.1887  6.9500  10.677  8.1210  0.8880  888.44  80.596  8.6784  3.1125  8.3374 
   889.000 -18.858  6.9500  10.620  8.0500 -4.2695  6.9500  10.620  8.0500  0.8892  888.94  80.831  8.6797  3.1201  8.3437 
   889.500 -19.259  6.9720  10.563  8.0320 -4.6744  6.9720  10.563  8.0320  0.8905  889.44  81.066  8.6809  3.1278  8.3500 
   890.000 -19.659  6.9720  10.491  8.0140 -5.0782  6.9720  10.491  8.0140  0.8917  889.94  81.301  8.6821  3.1355  8.3563 
   890.500 -20.203  6.9150  10.455  8.0140 -5.6261  6.9150  10.455  8.0140  0.8930  890.44  81.536  8.6832  3.1432  8.3625 
   891.000 -20.675  6.7510  10.452  8.0280 -6.1019  6.7510  10.452  8.0280  0.8942  890.94  81.771  8.6843  3.1509  8.3688 
   891.500 -21.075  6.3920  10.449  8.0350 -6.5058  6.3920  10.449  8.0350  0.8955  891.44  82.006  8.6854  3.1587  8.3750 
   892.000 -20.255  6.0830  10.435  7.9850 -5.6896  6.0830  10.435  7.9850  0.8967  891.94  82.241  8.6865  3.1664  8.3813 
   892.500 -19.147  5.8610  10.342  7.7410 -4.5855  5.8610  10.342  7.7410  0.8980  892.44  82.476  8.6875  3.1742  8.3875 
   893.000 -17.429  5.6390  9.9040  7.1450 -2.8713  5.6390  9.9040  7.1450  0.8992  892.94  82.711  8.6885  3.1820  8.3937 
   893.500 -17.003  5.4240  9.5820  6.9440 -2.4492  5.4240  9.5820  6.9440  0.9005  893.44  82.946  8.6895  3.1898  8.3999 
   894.000 -16.577  5.2660  9.3810  6.6420 -2.0270  5.2660  9.3810  6.6420  0.9017  893.94  83.181  8.6904  3.1976  8.4061 
   894.500 -15.722  5.0510  9.0580  6.2620 -1.1758  5.0510  9.0580  6.2620  0.9030  894.44  83.416  8.6913  3.2054  8.4122 
   895.000 -15.440  4.9150  8.7420  6.1110 -0.8977  4.9150  8.7420  6.1110  0.9042  894.94  83.651  8.6922  3.2133  8.4184 
   895.500 -14.871  4.8290  8.4050  5.9960 -0.3325  4.8290  8.4050  5.9960  0.9055  895.44  83.886  8.6930  3.2211  8.4246 
   896.000 -14.625  4.9160  8.1180  5.9380 -0.0904  4.9160  8.1180  5.9380  0.9067  895.94  84.121  8.6938  3.2290  8.4307 
   896.500 -15.241  4.9740  7.8820  6.1970 -0.7102  4.9740  7.8820  6.1970  0.9080  896.44  84.356  8.6946  3.2369  8.4368 
   897.000 -16.683  5.1970  7.7960  6.7640 -2.1561  5.1970  7.7960  6.7640  0.9092  896.94  84.591  8.6953  3.2448  8.4429 
   897.500 -17.406  5.2900  7.9760  7.0160 -2.8829  5.2900  7.9760  7.0160  0.9105  897.44  84.826  8.6961  3.2527  8.4490 
   898.000 -18.273  5.4200  8.3710  7.2600 -3.7538  5.4200  8.3710  7.2600  0.9117  897.94  85.061  8.6967  3.2606  8.4551 
   898.500 -19.104  5.5060  8.6010  7.4890 -4.5886  5.5060  8.6010  7.4890  0.9130  898.44  85.296  8.6974  3.2685  8.4612 
   899.000 -19.648  5.6150  8.7740  7.6040 -5.1365  5.6150  8.7740  7.6040  0.9142  898.94  85.531  8.6980  3.2765  8.4673 
   899.500 -20.049  5.5790  8.8530  7.5830 -5.5413  5.5790  8.8530  7.5830  0.9155  899.44  85.766  8.6986  3.2845  8.4733 
   900.000 -19.336  5.5510  8.8900  7.2880 -4.8322  5.5510  8.8900  7.2880  0.9167  899.94  86.001  8.6992  3.2924  8.4794 
   900.500 -17.933  5.5210  8.5870  7.0000 -3.4330  5.5210  8.5870  7.0000  0.9171  900.44  85.876  8.6997  3.3004  8.4854 
   901.000 -17.463  5.5130  8.2060  6.7980 -2.9668  5.5130  8.2060  6.7980  0.9175  900.94  85.751  8.7003  3.3084  8.4915 
   901.500 -16.958  5.5050  7.9530  6.6750 -2.4657  5.5050  7.9530  6.6750  0.9180  901.44  85.626  8.7010  3.3164  8.4975 
   902.000 -16.345  5.5970  7.7870  6.6100 -1.8565  5.5970  7.7870  6.6100  0.9184  901.94  85.501  8.7016  3.3244  8.5036 
   902.500 -15.983  5.8410  7.6000  6.9680 -1.4984  5.8410  7.6000  6.9680  0.9188  902.44  85.376  8.7022  3.3324  8.5097 
   903.000 -16.088  6.0840  7.8360  7.8140 -1.6072  6.0840  7.8360  7.8140  0.9192  902.94  85.251  8.7029  3.3404  8.5159 
   903.500 -16.193  6.2620  8.0140  8.1940 -1.7161  6.2620  8.0140  8.1940  0.9196  903.44  85.126  8.7036  3.3484  8.5220 
   904.000 -16.442  6.3690  8.1860  8.3800 -1.9689  6.3690  8.1860  8.3800  0.9200  903.94  85.001  8.7043  3.3564  8.5282 
   904.500 -16.546  6.4760  8.4000  8.4940 -2.0768  6.4760  8.4000  8.4940  0.9205  904.44  84.876  8.7050  3.3644  8.5343 
   905.000 -16.651  6.5470  8.5500  8.5860 -2.1856  6.5470  8.5500  8.5860  0.9209  904.94  84.751  8.7057  3.3724  8.5405 
   905.500 -16.829  6.6540  8.5570  8.6500 -2.3675  6.6540  8.5570  8.6500  0.9213  905.44  84.626  8.7065  3.3804  8.5467 
   906.000 -16.934  6.7460  8.5340  8.7140 -2.4763  6.7460  8.5340  8.7140  0.9217  905.94  84.501  8.7072  3.3884  8.5529 
