~Version Information
VERS.                     2.0: CWLS log ASCII Standard Version 2.00
WRAP.                      NO: One line per depth step
~Well Information Block
#MNEM.UNIT                               Data Type  Information
#---------                               ---------  -----------
STRT.FT                                   374.0000:
STOP.FT                                  6834.0000:
STEP.FT                                     0.5000:
NULL.                 -999.25                     :
COMP.                                             :COMPANY            
WELL.     SAN EMIDIO A #66-19 REDRILL             :WELL               
FLD .                                             :FIELD              
CTRY.                                             :COUNTRY            
STAT.                                             :STATE              
LOC .                                             :LOCATION           
UWI .                                             :UNIQUE WELL ID     
SRVC.                                             :Service company    
DATE.                                             :LOG DATE           
~Curve Information
#MNEM.UNIT           API CODE  Curve Description
#---------           --------  -----------------
DEPT.FT                      :   1 DEPTH
SP  .MV                      :   2
AM16.OHMM                    :   3
AO10.OHMM                    :   4
AO19.OHMM                    :   5
SBL .MV                      :   6
RS  .OHMM                    :   7
RM  .OHMM                    :   8
RD  .OHMM                    :   9
~A
# ...
  3342.000 -36.953  8.1820  13.291  9.6160 -27.982  8.1820  13.291  9.6160 
  3342.500 -28.940  7.9860  11.757  9.2190 -19.970  7.9860  11.757  9.2190 
  3343.000 -27.757  7.8190  10.272  8.8800 -18.787  7.8190  10.272  8.8800 
  3343.500 -26.826  7.8740  9.9470  8.8140 -17.857  7.8740  9.9470  8.8140 
  3344.000 -26.254  8.0740  9.8730  8.7840 -17.285  8.0740  9.8730  8.7840 
  3344.500 -25.719  8.4750  10.181  9.3140 -16.751  8.4750  10.181  9.3140 
  3345.000 -25.830  8.9560  10.589  9.9520 -16.862  8.9560  10.589  9.9520 
  3345.500 -29.285  9.2700  11.264  10.547 -20.318  9.2700  11.264  10.547 
  3346.000 -31.841  9.7870  11.759  10.869 -22.875  9.7870  11.759  10.869 
  3346.500 -36.087  10.303  12.217  11.313 -27.121  10.303  12.217  11.313 
  3347.000 -40.979  10.668  12.633  11.671 -32.014  10.668  12.633  11.671 
  3347.500 -43.896  10.904  12.969  11.950 -34.931  10.904  12.969  11.950 
  3348.000 -45.372  11.060  12.716  12.272 -36.408  11.060  12.716  12.272 
  3348.500 -46.563  11.203  13.196  12.493 -37.600  11.203  13.196  12.493 
  3349.000 -46.100  11.352  13.453  12.679 -37.137  11.352  13.453  12.679 
  3349.500 -45.780  11.552  13.631  12.835 -36.818  11.552  13.631  12.835 
  3350.000 -45.602  11.694  13.745  12.999 -36.640  11.694  13.745  12.999 
  3350.500 -45.399  11.824  13.817  13.153 -36.438  11.824  13.817  13.153 
  3351.000 -46.095  11.918  13.882  13.264 -37.134  11.918  13.882  13.264 
  3351.500 -47.224  11.990  13.983  13.425 -38.264  11.990  13.983  13.425 
  3352.000 -47.918  12.055  14.034  13.557 -38.959  12.055  14.034  13.557 
  3352.500 -48.577  12.113  14.099  13.790 -39.618  12.113  14.099  13.790 
  3353.000 -48.482  12.142  14.135  14.152 -39.524  12.142  14.135  14.152 
  3353.500 -47.309  11.991  14.143  14.306 -38.351  11.991  14.143  14.306 
  3354.000 -46.063  11.711  13.719  14.380 -37.106  11.711  13.719  14.380 
  3354.500 -45.177  11.337  13.366  14.283 -36.221  11.337  13.366  14.283 
  3355.000 -44.327  10.877  13.158  14.149 -35.371  10.877  13.158  14.149 
  3355.500 -42.758  10.381  13.065  14.051 -33.803  10.381  13.065  14.051 
  3356.000 -40.577  9.7190  12.936  13.802 -31.622  9.7190  12.936  13.802 
  3356.500 -37.714  9.0720  12.835  13.662 -28.760  9.0720  12.835  13.662 
  3357.000 -36.144  8.3670  12.785  13.499 -27.191  8.3670  12.785  13.499 
  3357.500 -33.892  7.4030  12.599  13.337 -24.939  7.4030  12.599  13.337 
  3358.000 -29.951  6.9210  12.218  13.167 -20.999  6.9210  12.218  13.167 
  3358.500 -26.439  6.3960  11.052  12.897 -17.487  6.3960  11.052  12.897 
  3359.000 -24.115  5.9070  9.9950  12.411 -15.164  5.9070  9.9950  12.411 
  3359.500 -21.683  5.6630  8.4550  11.854 -12.732  5.6630  8.4550  11.854 
  3360.000 -20.546  5.4620  8.0600  11.267 -11.596  5.4620  8.0600  11.267 
  3360.500 -19.899  5.3460  7.7560  8.9290 -10.950  5.3460  7.7560  8.9290 
  3361.000 -19.180  5.2220  7.5610  8.2870 -10.231  5.2220  7.5610  8.2870 
  3361.500 -18.569  5.1630  7.3220  8.0750 -9.6208  5.1630  7.3220  8.0750 
  3362.000 -18.102  5.1770  7.1490  7.8430 -9.1544  5.1770  7.1490  7.8430 
  3362.500 -17.670  5.2480  7.0610  7.7610 -8.7229  5.2480  7.0610  7.7610 
  3363.000 -17.454  5.3620  7.0310  7.5920 -8.5075  5.3620  7.0310  7.5920 
  3363.500 -17.455  5.5760  7.5270  7.5470 -8.5091  5.5760  7.5270  7.5470 
  3364.000 -17.562  5.7840  7.9290  7.8450 -8.6167  5.7840  7.9290  7.8450 
  3364.500 -17.885  6.0780  8.2080  8.3890 -8.9403  6.0780  8.2080  8.3890 
  3365.000 -18.389  6.3070  8.4010  8.7020 -9.4449  6.3070  8.4010  8.7020 
  3365.500 -19.539  6.4430  8.5660  8.9580 -10.595  6.4430  8.5660  8.9580 
  3366.000 -22.127  6.6150  8.6510  9.1420 -13.184  6.6150  8.6510  9.1420 
  3366.500 -25.327  6.7580  8.7510  9.2250 -16.385  6.7580  8.7510  9.2250 
  3367.000 -28.311  7.0150  8.8430  9.3520 -19.369  7.0150  8.8430  9.3520 
  3367.500 -29.426  7.1300  8.9430  9.4490 -20.485  7.1300  8.9430  9.4490 
  3368.000 -30.288  7.2940  9.0360  9.5400 -21.347  7.2940  9.0360  9.5400 
  3368.500 -35.357  7.3430  9.1060  9.6090 -26.417  7.3430  9.1060  9.6090 
  3369.000 -36.938  7.1050  9.0840  9.6710 -27.999  7.1050  9.0840  9.6710 
  3369.500 -36.795  6.5420  8.9750  9.6890 -27.856  6.5420  8.9750  9.6890 
  3370.000 -35.393  6.2460  8.8230  9.6790 -26.455  6.2460  8.8230  9.6790 
  3370.500 -31.081  5.9730  8.3470  9.5290 -22.143  5.9730  8.3470  9.5290 
  3371.000 -25.906  5.8570  8.0240  9.2710 -16.969  5.8570  8.0240  9.2710 
  3371.500 -23.033  5.8430  7.4550  8.8480 -14.096  5.8430  7.4550  8.8480 
  3372.000 -21.416  5.8860  6.7930  8.4890 -12.480  5.8860  6.7930  8.4890 
  3372.500 -20.303  5.9870  6.2680  8.3030 -11.368  5.9870  6.2680  8.3030 
  3373.000 -19.586  6.1960  6.1240  8.3180 -10.651  6.1960  6.1240  8.3180 
  3373.500 -19.230  6.5410  6.0950  8.5420 -10.296  6.5410  6.0950  8.5420 
  3374.000 -19.446  7.3330  6.2680  8.8590 -10.512  7.3330  6.2680  8.8590 
  3374.500 -21.532  7.7720  6.4620  9.3410 -12.599  7.7720  6.4620  9.3410 
  3375.000 -25.418  8.4340  6.6780  9.6580 -16.486  8.4340  6.6780  9.6580 
  3375.500 -31.422  9.3550  7.0520  9.9750 -22.490  9.3550  7.0520  9.9750 
  3376.000 -35.486  10.226  7.3330  10.306 -26.555  10.226  7.3330  10.306 
  3376.500 -40.126  10.679  7.8290  10.515 -31.195  10.679  7.8290  10.515 
  3377.000 -42.500  11.111  8.4410  10.861 -33.570  11.111  8.4410  10.861 
  3377.500 -44.299  11.636  8.8150  11.242 -35.369  11.636  8.8150  11.242 
  3378.000 -46.206  12.082  9.0020  11.588 -37.277  12.082  9.0020  11.588 
  3378.500 -47.718  12.550  9.1460  11.718 -38.790  12.550  9.1460  11.718 
  3379.000 -49.375  12.960  9.2260  11.747 -40.447  12.960  9.2260  11.747 
  3379.500 -49.843  14.090  9.3550  11.734 -40.916  14.090  9.3550  11.734 
  3380.000 -50.564  14.284  9.4410  11.598 -41.637  14.284  9.4410  11.598 
  3380.500 -51.257  14.442  9.5420  11.441 -42.331  14.442  9.5420  11.441 
  3381.000 -52.164  14.479  9.6140  11.262 -43.239  14.479  9.6140  11.262 
  3381.500 -52.856  14.515  9.6790  11.147 -43.931  14.515  9.6790  11.147 
  3382.000 -53.116  14.457  9.7360  11.148 -44.192  14.457  9.7360  11.148 
  3382.500 -53.520  14.363  9.7940  11.113 -44.596  14.363  9.7940  11.113 
  3383.000 -53.925  14.241  9.7720  11.006 -45.002  14.241  9.7720  11.006 
  3383.500 -54.150  14.162  9.6570  10.870 -45.228  14.162  9.6570  10.870 
  3384.000 -54.266  14.061  9.5850  10.691 -45.344  14.061  9.5850  10.691 
  3384.500 -54.311  13.968  9.5420  10.570 -45.390  13.968  9.5420  10.570 
  3385.000 -54.285  13.907  9.5710  10.391 -45.364  13.907  9.5710  10.391 
  3385.500 -54.222  13.846  9.8010  10.327 -45.302  13.846  9.8010  10.327 
  3386.000 -54.087  13.708  10.031  10.270 -45.167  13.708  10.031  10.270 
  3386.500 -53.845  13.651  10.672  10.271 -44.926  13.651  10.672  10.271 
  3387.000 -53.459  13.615  11.096  10.271 -44.541  13.615  11.096  10.271 
  3387.500 -53.251  13.594  11.586  10.272 -44.333  13.594  11.586  10.272 
  3388.000 -52.864  13.572  11.946  10.273 -43.947  13.572  11.946  10.273 
  3388.500 -52.083  13.600  12.190  10.266 -43.166  13.600  12.190  10.266 
  3389.000 -51.768  13.644  12.435  10.253 -42.852  13.644  12.435  10.253 
  3389.500 -51.578  13.715  12.759  10.232 -42.663  13.715  12.759  10.232 
  3390.000 -51.388  13.733  13.140  10.197 -42.473  13.733  13.140  10.197 
  3390.500 -51.137  13.751  13.261  10.168 -42.223  13.751  13.261  10.168 
  3391.000 -51.676  13.764  13.375  10.103 -42.762  13.764  13.375  10.103 
  3391.500 -52.140  13.684  13.475  10.002 -43.227  13.684  13.475  10.002 
  3392.000 -52.642  13.596  13.611  9.9010 -43.729  13.596  13.611  9.9010 
  3392.500 -52.963  13.516  13.703  9.7640 -44.051  13.516  13.703  9.7640 
  3393.000 -53.141  13.515  13.868  9.6560 -44.230  13.515  13.868  9.6560 
  3393.500 -53.283  13.672  13.967  9.5910 -44.372  13.672  13.967  9.5910 
  3394.000 -53.282  13.909  14.074  9.5830 -44.372  13.909  14.074  9.5830 
  3394.500 -53.172  14.037  14.210  9.6470 -44.262  14.037  14.210  9.6470 
