~Version Information
VERS.                     2.0: CWLS log ASCII Standard Version 2.00
WRAP.                      NO: One line per depth step
~Well Information Block
#MNEM.UNIT                               Data Type  Information
#---------                               ---------  -----------
STRT.FT                                   530.0000:
STOP.FT                                  8230.0000:
STEP.FT                                     0.5000:
NULL.                 -999.25                     :
COMP.                                             :COMPANY            
WELL.     SAN EMIDIO #61-28 REDRILL               :WELL               
FLD .                                             :FIELD              
CTRY.                                             :COUNTRY            
STAT.                                             :STATE              
LOC .                                             :LOCATION           
UWI .                                             :UNIQUE WELL ID     
SRVC.                                             :Service company    
DATE.                                             :LOG DATE           
~Curve Information
#MNEM.UNIT           API CODE  Curve Description
#---------           --------  -----------------
DEPT.FT                      :   1 DEPTH
SP  .MV                      :   2
2Z18.OHMM                    :   3
31Z9.OHMM                    :   4
31Z1.OHMM                    :   5
SBL .MV                      :   6
RS  .OHMM                    :   7
RM  .OHMM                    :   8
 RD .OHMM                    :   9
DEVI.DEG                     :  10
TVD .FT                      :  11
AZIM.DEG                     :  12
NORT.FT                      :  13
EAST.FT                      :  14
OFFS.FT                      :  15
~A
# ...
  7192.500 -11.997  2.3730  2.2070  2.5120 -7.9970  2.3730  2.2070  2.5120  14.750  7172.9  299.99  107.12 -121.13 -9.9063 
  7193.000 -12.000  2.3720  2.1900  2.5440 -8.0000  2.3720  2.1900  2.5440  14.750  7173.3  299.99  107.18 -121.24 -9.9393 
  7193.500 -11.918  2.3720  2.1720  2.5430 -7.9180  2.3720  2.1720  2.5430  14.750  7173.8  299.99  107.24 -121.35 -9.9722 
  7194.000 -11.837  2.3720  2.1550  2.5420 -7.8370  2.3720  2.1550  2.5420  14.750  7174.3  299.99  107.31 -121.46 -10.005 
  7194.500 -11.839  2.3710  2.1380  2.5410 -7.8390  2.3710  2.1380  2.5410  14.750  7174.8  299.99  107.37 -121.57 -10.038 
  7195.000 -11.842  2.3710  2.1370  2.5400 -7.8420  2.3710  2.1370  2.5400  14.750  7175.3  299.99  107.43 -121.68 -10.071 
  7195.500 -11.514  2.3700  2.1200  2.5230 -7.5140  2.3700  2.1200  2.5230  14.750  7175.8  299.99  107.50 -121.79 -10.104 
  7196.000 -11.185  2.3690  2.1030  2.5060 -7.1850  2.3690  2.1030  2.5060  14.750  7176.2  299.99  107.56 -121.90 -10.137 
  7196.500 -11.187  2.3470  2.1030  2.5050 -7.1870  2.3470  2.1030  2.5050  14.750  7176.7  299.99  107.63 -122.01 -10.170 
  7197.000 -11.024  2.3240  2.1020  2.5040 -7.0240  2.3240  2.1020  2.5040  14.750  7177.2  299.99  107.69 -122.12 -10.203 
  7197.500 -11.026  2.3020  2.1180  2.5030 -7.0260  2.3020  2.1180  2.5030  14.750  7177.7  299.99  107.75 -122.23 -10.236 
  7198.000 -11.029  2.2840  2.1340  2.4690 -7.0290  2.2840  2.1340  2.4690  14.750  7178.2  299.99  107.82 -122.34 -10.269 
  7198.500 -11.031  2.2670  2.1340  2.4680 -7.0310  2.2670  2.1340  2.4680  14.750  7178.7  299.99  107.88 -122.45 -10.302 
  7199.000 -11.200  2.2670  2.1340  2.4510 -7.2000  2.2670  2.1340  2.4510  14.750  7179.1  299.99  107.94 -122.56 -10.335 
  7199.500 -11.201  2.2660  2.1330  2.4330 -7.2010  2.2660  2.1330  2.4330  14.750  7179.6  299.99  108.01 -122.67 -10.368 
  7200.000 -11.203  2.2650  2.1320  2.4490 -7.2030  2.2650  2.1320  2.4490  14.750  7180.1  299.99  108.07 -122.78 -10.401 
  7200.500 -11.541  2.2650  2.1320  2.4650 -7.5410  2.2650  2.1320  2.4650  14.750  7180.6  299.99  108.13 -122.89 -10.434 
  7201.000 -11.544  2.2640  2.1310  2.4640 -7.5440  2.2640  2.1310  2.4640  14.750  7181.1  299.99  108.20 -123.00 -10.467 
  7201.500 -11.547  2.2640  2.1300  2.4470 -7.5470  2.2640  2.1300  2.4470  14.750  7181.6  299.99  108.26 -123.11 -10.500 
  7202.000 -11.553  2.2630  2.1300  2.4300 -7.5530  2.2630  2.1300  2.4300  14.750  7182.0  299.99  108.33 -123.22 -10.533 
  7202.500 -11.557  2.2620  2.1290  2.3960 -7.5570  2.2620  2.1290  2.3960  14.750  7182.5  299.99  108.39 -123.33 -10.566 
  7203.000 -11.561  2.2620  2.1280  2.3960 -7.5610  2.2620  2.1280  2.3960  14.750  7183.0  299.99  108.45 -123.44 -10.599 
  7203.500 -11.400  2.2440  2.1280  2.3960 -7.4000  2.2440  2.1280  2.3960  14.750  7183.5  299.99  108.52 -123.55 -10.632 
  7204.000 -11.320  2.2270  2.1270  2.3780 -7.3200  2.2270  2.1270  2.3780  14.750  7184.0  299.99  108.58 -123.66 -10.665 
  7204.500 -11.240  2.2260  2.1260  2.3610 -7.2400  2.2260  2.1260  2.3610  14.750  7184.5  299.99  108.64 -123.77 -10.698 
  7205.000 -11.245  2.2260  2.1090  2.3610 -7.2450  2.2260  2.1090  2.3610  14.750  7184.9  299.99  108.71 -123.88 -10.731 
  7205.500 -11.250  2.2250  2.0920  2.3600 -7.2500  2.2250  2.0920  2.3600  14.750  7185.4  299.99  108.77 -123.99 -10.764 
  7206.000 -11.254  2.2240  2.0910  2.3600 -7.2540  2.2240  2.0910  2.3600  14.750  7185.9  299.99  108.83 -124.10 -10.797 
  7206.500 -11.092  2.2240  2.0570  2.3590 -7.0920  2.2240  2.0570  2.3590  14.750  7186.4  299.99  108.90 -124.21 -10.830 
  7207.000 -10.930  2.2230  2.0560  2.3590 -6.9300  2.2230  2.0560  2.3590  14.750  7186.9  299.99  108.96 -124.32 -10.863 
  7207.500 -10.767  2.2220  2.0560  2.3420 -6.7670  2.2220  2.0560  2.3420  14.750  7187.4  299.99  109.02 -124.43 -10.896 
  7208.000 -10.275  2.2220  2.0380  2.3250 -6.2750  2.2220  2.0380  2.3250  14.750  7187.8  299.99  109.09 -124.54 -10.929 
  7208.500 -10.113  2.2380  2.0210  2.3070 -6.1130  2.2380  2.0210  2.3070  14.750  7188.3  299.99  109.15 -124.65 -10.962 
  7209.000 -9.7850  2.2540  2.0210  2.2900 -5.7850  2.2540  2.0210  2.2900  14.750  7188.8  299.99  109.22 -124.76 -10.995 
  7209.500 -9.4580  2.2700  2.0200  2.3230 -5.4580  2.2700  2.0200  2.3230  14.750  7189.3  299.99  109.28 -124.87 -11.027 
  7210.000 -9.1300  2.2860  1.9860  2.3060 -5.1300  2.2860  1.9860  2.3060  14.750  7189.8  299.99  109.34 -124.98 -11.060 
  7210.500 -8.8020  2.3020  1.9850  2.2890 -4.8020  2.3020  1.9850  2.2890  14.750  7190.3  299.99  109.41 -125.10 -11.093 
  7211.000 -8.4740  2.3180  1.9850  2.2880 -4.4740  2.3180  1.9850  2.2880  14.750  7190.7  299.99  109.47 -125.21 -11.126 
  7211.500 -8.3120  2.3340  1.9840  2.2880 -4.3120  2.3340  1.9840  2.2880  14.750  7191.2  299.99  109.53 -125.32 -11.159 
  7212.000 -8.3990  2.3500  1.9830  2.2870 -4.3990  2.3500  1.9830  2.2870  14.750  7191.7  299.99  109.60 -125.43 -11.192 
  7212.500 -8.4850  2.3490  1.9830  2.3200 -4.4850  2.3490  1.9830  2.3200  14.750  7192.2  299.99  109.66 -125.54 -11.225 
  7213.000 -8.4910  2.3490  1.9820  2.3190 -4.4910  2.3490  1.9820  2.3190  14.750  7192.7  299.99  109.72 -125.65 -11.258 
  7213.500 -8.8260  2.3480  1.9810  2.3190 -4.8260  2.3480  1.9810  2.3190  14.750  7193.2  299.99  109.79 -125.76 -11.291 
  7214.000 -9.1610  2.3640  2.0140  2.3510 -5.1610  2.3640  2.0140  2.3510  14.750  7193.6  299.99  109.85 -125.87 -11.324 
  7214.500 -9.6640  2.3800  2.0460  2.3510 -5.6640  2.3800  2.0460  2.3510  14.750  7194.1  299.99  109.92 -125.98 -11.357 
  7215.000 -10.167  2.4120  2.0460  2.3500 -6.1670  2.4120  2.0460  2.3500  14.750  7194.6  299.99  109.98 -126.09 -11.390 
  7215.500 -10.669  2.4450  2.0450  2.3500 -6.6690  2.4450  2.0450  2.3500  14.750  7195.1  299.99  110.04 -126.20 -11.423 
  7216.000 -11.005  2.4440  2.0610  2.3500 -7.0050  2.4440  2.0610  2.3500  14.750  7195.6  299.99  110.11 -126.31 -11.456 
  7216.500 -11.507  2.4440  2.0770  2.3490 -7.5070  2.4440  2.0770  2.3490  14.750  7196.1  299.99  110.17 -126.42 -11.489 
  7217.000 -12.009  2.4600  2.1090  2.3480 -8.0090  2.4600  2.1090  2.3480  14.750  7196.5  299.99  110.23 -126.53 -11.522 
  7217.500 -12.344  2.4760  2.1090  2.3480 -8.3440  2.4760  2.1090  2.3480  14.750  7197.0  299.99  110.30 -126.64 -11.555 
  7218.000 -12.679  2.4920  2.1080  2.3470 -8.6790  2.4920  2.1080  2.3470  14.750  7197.5  299.99  110.36 -126.75 -11.588 
  7218.500 -13.181  2.5080  2.1080  2.3470 -9.1810  2.5080  2.1080  2.3470  14.750  7198.0  299.99  110.42 -126.86 -11.621 
  7219.000 -13.683  2.5230  2.1240  2.3470 -9.6830  2.5230  2.1240  2.3470  14.750  7198.5  299.99  110.49 -126.97 -11.654 
  7219.500 -14.352  2.5390  2.1390  2.3460 -10.352  2.5390  2.1390  2.3460  14.750  7199.0  299.99  110.55 -127.08 -11.687 
  7220.000 -15.021  2.5390  2.1720  2.3460 -11.021  2.5390  2.1720  2.3460  14.750  7199.4  299.99  110.62 -127.19 -11.720 
  7220.500 -15.689  2.5380  2.1720  2.3450 -11.689  2.5380  2.1720  2.3450  14.750  7199.9  299.99  110.68 -127.30 -11.753 
  7221.000 -16.357  2.5370  2.1710  2.3450 -12.357  2.5370  2.1710  2.3450  14.750  7200.4  299.99  110.74 -127.41 -11.786 
  7221.500 -17.024  2.5370  2.2030  2.3440 -13.024  2.5370  2.2030  2.3440  14.750  7200.9  299.99  110.81 -127.52 -11.819 
  7222.000 -17.692  2.5360  2.2030  2.3600 -13.692  2.5360  2.2030  2.3600  14.750  7201.4  299.99  110.87 -127.63 -11.852 
  7222.500 -18.694  2.5350  2.2020  2.3770 -14.694  2.5350  2.2020  2.3770  14.750  7201.9  299.99  110.93 -127.74 -11.885 
  7223.000 -19.444  2.5350  2.2020  2.3760 -15.444  2.5350  2.2020  2.3760  14.750  7202.3  299.99  111.00 -127.85 -11.918 
  7223.500 -20.194  2.5340  2.2180  2.3760 -16.194  2.5340  2.2180  2.3760  14.750  7202.8  299.99  111.06 -127.96 -11.951 
  7224.000 -19.868  2.5170  2.2340  2.3750 -15.868  2.5170  2.2340  2.3750  14.750  7203.3  299.99  111.12 -128.07 -11.984 
  7224.500 -19.374  2.5000  2.2660  2.3410 -15.374  2.5000  2.2660  2.3410  14.750  7203.8  299.99  111.19 -128.18 -12.017 
