~Version Information
VERS.                     2.0: CWLS log ASCII Standard Version 2.00
WRAP.                      NO: One line per depth step
~Well Information Block
#MNEM.UNIT                               Data Type  Information
#---------                               ---------  -----------
STRT.FT                                   419.0000:
STOP.FT                                  7100.0000:
STEP.FT                                     0.5000:
NULL.                 -999.25                     :
COMP.                                             :COMPANY            
WELL.     SAN EMIDIO A #62-28                     :WELL               
FLD .                                             :FIELD              
CTRY.                                             :COUNTRY            
STAT.                                             :STATE              
LOC .                                             :LOCATION           
UWI .                                             :UNIQUE WELL ID     
SRVC.                                             :Service company    
DATE.                                             :LOG DATE           
~Curve Information
#MNEM.UNIT           API CODE  Curve Description
#---------           --------  -----------------
DEPT.FT                      :   1 DEPTH
SP  .MV                      :   2
AM16.OHMM                    :   3
AO10.OHMM                    :   4
AO19.OHMM                    :   5
SBL .MV                      :   6
RS  .OHMM                    :   7
RM  .OHMM                    :   8
RD  .OHMM                    :   9
DEVI.DEG                     :  10
TVD .FT                      :  11
AZIM.DEG                     :  12
NORT.FT                      :  13
EAST.FT                      :  14
OFFS.FT                      :  15
~A
   419.000 -19.756  0.3090  2.2480  1.7030 -3.7560  0.3090  2.2480  1.7030  0.7383  418.97  7.6000  5.0626  0.0173  3.5921 
   419.500 -3.7830  0.9620  2.3630  1.8320  12.217  0.9620  2.3630  1.8320  0.7358  419.47  7.8000  5.0690  0.0182  3.5972 
   420.000 -1.5260  2.2760  2.4770  1.5300  14.474  2.2760  2.4770  1.5300  0.7333  419.97  8.0000  5.0753  0.0191  3.6023 
   420.500 -0.2220  4.6740  0.1640  1.2280  15.778  4.6740  0.1640  1.2280  0.7308  420.47  8.2000  5.0816  0.0200  3.6074 
   421.000  1.0830  6.9850  0.1350  0.9270  17.083  6.9850  0.1350  0.9270  0.7283  420.97  8.4000  5.0879  0.0209  3.6125 
   421.500  2.3880  9.4050  0.1200  0.6250  18.388  9.4050  0.1200  0.6250  0.7258  421.47  8.6000  5.0942  0.0219  3.6176 
   422.000  3.6920  13.928  0.0980  0.3230  19.692  13.928  0.0980  0.3230  0.7233  421.97  8.8000  5.1004  0.0228  3.6227 
   422.500  4.9970  23.732  0.0970  0.0210  20.997  23.732  0.0970  0.0210  0.7208  422.47  9.0000  5.1066  0.0238  3.6278 
   423.000  6.3010  26.669  0.0960  0.4240  22.301  26.669  0.0960  0.4240  0.7183  422.97  9.2000  5.1128  0.0248  3.6329 
   423.500  5.2960  28.601  0.0960  1.6950  21.296  28.601  0.0960  1.6950  0.7158  423.47  9.4000  5.1190  0.0258  3.6379 
   424.000  3.2140  31.536  0.0590  3.6410  19.214  31.536  0.0590  3.6410  0.7133  423.97  9.6000  5.1251  0.0269  3.6430 
   424.500  0.3050  33.038  1.5660  8.7170  16.305  33.038  1.5660  8.7170  0.7108  424.47  9.8000  5.1312  0.0280  3.6481 
   425.000 -2.3170  34.539  3.2670  12.853  13.683  34.539  3.2670  12.853  0.7083  424.97  10.000  5.1373  0.0290  3.6531 
   425.500 -4.3270  36.901  3.7620  13.241  11.673  36.901  3.7620  13.241  0.7058  425.47  10.200  5.1434  0.0301  3.6582 
   426.000 -6.0860  38.689  3.9190  13.399  9.9140  38.689  3.9190  13.399  0.7033  425.97  10.400  5.1494  0.0312  3.6633 
   426.500 -7.5940  40.118  4.0050  11.539  8.4060  40.118  4.0050  11.539  0.7008  426.47  10.600  5.1554  0.0323  3.6683 
   427.000 -9.7130  41.403  2.1580  10.326  6.2870  41.403  2.1580  10.326  0.6983  426.97  10.800  5.1614  0.0335  3.6733 
   427.500 -10.647  42.257  1.1170  8.2360  5.3530  42.257  1.1170  8.2360  0.6958  427.47  11.000  5.1674  0.0346  3.6784 
   428.000 -11.257  43.040  0.6850  2.0900  4.7430  43.040  0.6850  2.0900  0.6933  427.97  11.200  5.1733  0.0358  3.6834 
   428.500 -11.867  43.536  0.3040  1.8860  4.1330  43.536  0.3040  1.8860  0.6908  428.47  11.400  5.1792  0.0370  3.6884 
   429.000 -13.124  44.318  0.1590  1.6830  2.8760  44.318  0.1590  1.6830  0.6883  428.97  11.600  5.1851  0.0382  3.6934 
   429.500 -14.129  44.814  0.0870  1.4800  1.8710  44.814  0.0870  1.4800  0.6858  429.47  11.800  5.1909  0.0394  3.6984 
   430.000 -15.386  45.382  0.1000  1.2770  0.6140  45.382  0.1000  1.2770  0.6833  429.97  12.000  5.1968  0.0407  3.7034 
   430.500 -16.248  46.020  0.0850  1.0740 -0.2480  46.020  0.0850  1.0740  0.6808  430.47  12.200  5.2026  0.0419  3.7084 
   431.000 -17.002  46.587  7.7310  0.8700 -1.0020  46.587  7.7310  0.8700  0.6783  430.97  12.400  5.2084  0.0432  3.7134 
   431.500 -17.756  47.226  15.377  0.6670 -1.7560  47.226  15.377  0.6670  0.6758  431.47  12.600  5.2141  0.0445  3.7184 
   432.000 -18.420  47.507  23.023  0.4640 -2.4200  47.507  23.023  0.4640  0.6733  431.97  12.800  5.2199  0.0458  3.7234 
   432.500 -19.084  47.212  49.654  0.2610 -3.0840  47.212  49.654  0.2610  0.6708  432.47  13.000  5.2256  0.0471  3.7283 
   433.000 -19.946  46.486  60.131  0.0580 -3.9460  46.486  60.131  0.0580  0.6683  432.97  13.200  5.2312  0.0485  3.7333 
   433.500 -20.054  46.193  68.884  5.9100 -4.0540  46.193  68.884  5.9100  0.6658  433.47  13.400  5.2369  0.0498  3.7382 
   434.000 -20.126  45.538  74.981  6.0320 -4.1260  45.538  74.981  6.0320  0.6633  433.97  13.600  5.2425  0.0512  3.7432 
   434.500 -20.126  45.316  83.015  3.2820 -4.1260  45.316  83.015  3.2820  0.6608  434.47  13.800  5.2481  0.0525  3.7481 
   435.000 -20.125  45.094  87.388  2.0680 -4.1250  45.094  87.388  2.0680  0.6583  434.97  14.000  5.2537  0.0539  3.7530 
   435.500 -20.234  44.944  94.347  8.4520 -4.2340  44.944  94.347  8.4520  0.6558  435.47  14.200  5.2592  0.0553  3.7580 
   436.000 -20.772  44.505  100.01  5.6940 -4.7720  44.505  100.01  5.6940  0.6533  435.97  14.400  5.2648  0.0567  3.7629 
   436.500 -22.209  44.212  103.02  3.3460 -6.2090  44.212  103.02  3.3460  0.6508  436.47  14.600  5.2702  0.0582  3.7678 
   437.000 -22.801  43.918  106.32  1.9170 -6.8010  43.918  106.32  1.9170  0.6483  436.97  14.800  5.2757  0.0596  3.7727 
   437.500 -23.393  42.975  109.18  0.9590 -7.3930  42.975  109.18  0.9590  0.6458  437.47  15.000  5.2812  0.0611  3.7775 
   438.000 -24.614  42.538  111.54  0.0000 -8.6140  42.538  111.54  0.0000  0.6433  437.97  15.200  5.2866  0.0626  3.7824 
   438.500 -25.512  41.741  113.55  3.7340 -9.5120  41.741  113.55  3.7340  0.6408  438.47  15.400  5.2920  0.0640  3.7873 
   439.000 -26.302  41.015  114.90  6.1680 -10.302  41.015  114.90  6.1680  0.6383  438.97  15.600  5.2973  0.0655  3.7921 
   439.500 -26.805  40.002  115.26  17.840 -10.805  40.002  115.26  17.840  0.6358  439.47  15.800  5.3027  0.0670  3.7970 
   440.000 -27.074  39.349  114.75  29.511 -11.074  39.349  114.75  29.511  0.6333  439.97  16.000  5.3080  0.0686  3.8018 
   440.500 -27.344  38.484  114.67  36.977 -11.344  38.484  114.67  36.977  0.6308  440.47  16.200  5.3133  0.0701  3.8066 
   441.000 -27.524  37.619  114.85  45.590 -11.524  37.619  114.85  45.590  0.6283  440.97  16.400  5.3185  0.0716  3.8114 
   441.500 -28.064  36.898  115.03  64.328 -12.064  36.898  115.03  64.328  0.6258  441.47  16.600  5.3238  0.0732  3.8162 
   442.000 -29.358  36.032  115.81  73.300 -13.358  36.032  115.81  73.300  0.6233  441.97  16.800  5.3290  0.0748  3.8210 
   442.500 -29.825  35.167  116.60  80.692 -13.825  35.167  116.60  80.692  0.6208  442.47  17.000  5.3342  0.0764  3.8258 
   443.000 -29.862  34.446  116.88  83.059 -13.862  34.446  116.88  83.059  0.6183  442.97  17.200  5.3393  0.0780  3.8306 
   443.500 -28.965  33.725  116.01  85.569 -12.965  33.725  116.01  85.569  0.6158  443.47  17.400  5.3444  0.0796  3.8353 
   444.000 -28.894  32.715  115.08  87.935 -12.894  32.715  115.08  87.935  0.6133  443.97  17.600  5.3495  0.0812  3.8401 
   444.500 -29.541  31.777  113.28  90.803 -13.541  31.777  113.28  90.803  0.6108  444.47  17.800  5.3546  0.0828  3.8448 
   445.000 -29.973  31.056  110.69  92.451 -13.973  31.056  110.69  92.451  0.6083  444.97  18.000  5.3597  0.0844  3.8496 
   445.500 -30.118  30.118  107.60  94.099 -14.118  30.118  107.60  94.099  0.6058  445.47  18.200  5.3647  0.0861  3.8543 
   446.000 -30.226  29.792  104.00  92.658 -14.226  29.792  104.00  92.658  0.6033  445.97  18.400  5.3697  0.0878  3.8590 
   446.500 -30.299  29.467  99.836  91.148 -14.299  29.467  99.836  91.148  0.6008  446.47  18.600  5.3746  0.0894  3.8637 
   447.000 -30.264  28.672  97.535  91.216 -14.264  28.672  97.535  91.216  0.5983  446.97  18.800  5.3796  0.0911  3.8684 
   447.500 -30.266  28.309  94.155  95.448 -14.266  28.309  94.155  95.448  0.5958  447.47  19.000  5.3845  0.0928  3.8731 
   448.000 -30.266  27.946  91.998  95.087 -14.266  27.946  91.998  95.087  0.5933  447.97  19.200  5.3894  0.0945  3.8777 
   448.500 -30.266  27.727  89.482  94.725 -14.266  27.727  89.482  94.725  0.5908  448.47  19.400  5.3943  0.0962  3.8824 
   449.000 -30.375  27.509  86.175  93.283 -14.375  27.509  86.175  93.283  0.5883  448.97  19.600  5.3991  0.0979  3.8870 
   449.500 -30.484  27.361  81.863  89.043 -14.484  27.361  81.863  89.043  0.5858  449.47  19.800  5.4039  0.0997  3.8916 
   450.000 -30.538  27.214  77.192  86.742 -14.538  27.214  77.192  86.742  0.5833  449.97  20.000  5.4087  0.1014  3.8962 
   450.500 -30.593  26.995  73.742  85.446 -14.593  26.995  73.742  85.446  0.5808  450.46  20.200  5.4134  0.1032  3.9008 
   451.000 -30.667  26.992  72.158  84.509 -14.667  26.992  72.158  84.509  0.5783  450.96  20.400  5.4182  0.1049  3.9054 
