~Version Information
VERS.                     2.0: CWLS log ASCII Standard Version 2.00
WRAP.                      NO: One line per depth step
~Well Information Block
#MNEM.UNIT                               Data Type  Information
#---------                               ---------  -----------
STRT.FT                                   530.0000:
STOP.FT                                  8230.0000:
STEP.FT                                     0.5000:
NULL.                 -999.25                     :
COMP.                                             :COMPANY            
WELL.     SAN EMIDIO #61-28 REDRILL               :WELL               
FLD .                                             :FIELD              
CTRY.                                             :COUNTRY            
STAT.                                             :STATE              
LOC .                                             :LOCATION           
UWI .                                             :UNIQUE WELL ID     
SRVC.                                             :Service company    
DATE.                                             :LOG DATE           
~Curve Information
#MNEM.UNIT           API CODE  Curve Description
#---------           --------  -----------------
DEPT.FT                      :   1 DEPTH
SP  .MV                      :   2
2Z18.OHMM                    :   3
31Z9.OHMM                    :   4
31Z1.OHMM                    :   5
SBL .MV                      :   6
RS  .OHMM                    :   7
RM  .OHMM                    :   8
 RD .OHMM                    :   9
DEVI.DEG                     :  10
TVD .FT                      :  11
AZIM.DEG                     :  12
NORT.FT                      :  13
EAST.FT                      :  14
OFFS.FT                      :  15
~A
# ...
  2577.500 -33.315  6.2160  7.7170  3.9070 -31.216  6.2160  7.7170  3.9070  0.9625  2577.4  100.49 -1.2722  14.991  9.7003 
  2578.000 -33.148  6.4830  7.8180  4.0740 -31.047  6.4830  7.8180  4.0740  0.9633  2577.9  100.59 -1.2738  14.999  9.7050 
  2578.500 -33.147  6.9180  7.9180  4.2080 -31.043  6.9180  7.9180  4.2080  0.9642  2578.4  100.69 -1.2753  15.007  9.7098 
  2579.000 -33.146  7.1850  8.2190  4.4760 -31.040  7.1850  8.2190  4.4760  0.9650  2578.9  100.79 -1.2769  15.015  9.7145 
  2579.500 -33.228  7.5860  8.4200  4.8770 -31.120  7.5860  8.4200  4.8770  0.9658  2579.4  100.89 -1.2785  15.024  9.7192 
  2580.000 -33.311  7.8870  8.5200  5.1440 -31.200  7.8870  8.5200  5.1440  0.9667  2579.9  100.99 -1.2801  15.032  9.7239 
  2580.500 -33.643  8.2540  8.8210  5.3790 -31.530  8.2540  8.8210  5.3790  0.9675  2580.4  101.09 -1.2817  15.040  9.7287 
  2581.000 -33.975  8.9890  8.9550  5.6460 -31.860  8.9890  8.9550  5.6460  0.9683  2580.9  101.19 -1.2834  15.048  9.7334 
  2581.500 -34.306  9.0720  9.2560  5.8140 -32.188  9.0720  9.2560  5.8140  0.9692  2581.4  101.29 -1.2850  15.057  9.7381 
  2582.000 -34.638  9.1560  9.4900  6.2150 -32.518  9.1560  9.4900  6.2150  0.9700  2581.9  101.39 -1.2867  15.065  9.7427 
  2582.500 -34.721  9.0230  9.6570  6.6490 -32.599  9.0230  9.6570  6.6490  0.9708  2582.4  101.49 -1.2884  15.073  9.7474 
  2583.000 -34.804  8.8240  9.9250  7.0170 -32.680  8.8240  9.9250  7.0170  0.9717  2582.9  101.59 -1.2901  15.082  9.7521 
  2583.500 -34.636  8.6570  10.059  7.4510 -32.509  8.6570  10.059  7.4510  0.9725  2583.4  101.69 -1.2918  15.090  9.7567 
  2584.000 -34.302  8.2240  10.192  8.1850 -32.173  8.2240  10.192  8.1850  0.9733  2583.9  101.79 -1.2936  15.098  9.7614 
  2584.500 -33.969  7.6910  10.393  8.7530 -31.838  7.6910  10.393  8.7530  0.9742  2584.4  101.89 -1.2953  15.107  9.7660 
  2585.000 -33.469  6.9910  10.494  8.7870 -31.335  6.9910  10.494  8.7870  0.9750  2584.9  101.99 -1.2971  15.115  9.7707 
  2585.500 -32.969  6.4580  10.594  8.7550 -30.833  6.4580  10.594  8.7550  0.9758  2585.4  102.09 -1.2989  15.123  9.7753 
  2586.000 -30.638  5.8240  10.461  8.5550 -28.500  5.8240  10.461  8.5550  0.9767  2585.9  102.19 -1.3007  15.132  9.7799 
  2586.500 -28.475  5.1580  9.9620  7.9220 -26.334  5.1580  9.9620  7.9220  0.9775  2586.4  102.29 -1.3025  15.140  9.7845 
  2587.000 -27.226  4.6240  8.4940  7.1890 -25.083  4.6240  8.4940  7.1890  0.9783  2586.9  102.39 -1.3043  15.148  9.7891 
  2587.500 -25.978  4.1910  8.1940  6.8220 -23.833  4.1910  8.1940  6.8220  0.9792  2587.4  102.49 -1.3062  15.157  9.7937 
  2588.000 -19.986  3.7250  7.3610  6.4560 -17.838  3.7250  7.3610  6.4560  0.9800  2587.9  102.59 -1.3080  15.165  9.7983 
  2588.500 -19.154  3.7250  6.7940  5.4890 -17.004  3.7250  6.7940  5.4890  0.9808  2588.4  102.69 -1.3099  15.173  9.8029 
  2589.000 -17.988  3.7590  6.0270  4.7890 -15.836  3.7590  6.0270  4.7890  0.9817  2588.9  102.79 -1.3118  15.182  9.8074 
  2589.500 -17.821  3.8260  5.1270  3.9890 -15.666  3.8260  5.1270  3.9890  0.9825  2589.4  102.89 -1.3137  15.190  9.8120 
  2590.000 -17.986  3.9600  4.4940  3.5560 -15.829  3.9600  4.4940  3.5560  0.9833  2589.9  102.99 -1.3156  15.198  9.8165 
  2590.500 -19.150  4.0940  4.3940  3.4240 -16.991  4.0940  4.3940  3.4240  0.9842  2590.4  103.09 -1.3176  15.207  9.8211 
  2591.000 -21.978  4.5950  4.5280  3.9580 -19.816  4.5950  4.5280  3.9580  0.9850  2590.9  103.19 -1.3196  15.215  9.8256 
  2591.500 -23.392  5.1630  5.1960  4.4260 -21.228  5.1630  5.1960  4.4260  0.9858  2591.4  103.29 -1.3215  15.223  9.8301 
  2592.000 -24.805  5.7300  5.4970  4.9940 -22.639  5.7300  5.4970  4.9940  0.9867  2591.9  103.39 -1.3235  15.232  9.8347 
  2592.500 -30.295  6.0980  5.7640  5.2950 -28.126  6.0980  5.7640  5.2950  0.9875  2592.4  103.49 -1.3255  15.240  9.8392 
  2593.000 -30.793  6.3980  6.0980  5.5950 -28.622  6.3980  6.0980  5.5950  0.9883  2592.9  103.59 -1.3276  15.249  9.8436 
  2593.500 -31.209  6.4660  6.9330  5.7960 -29.036  6.4660  6.9330  5.7960  0.9892  2593.4  103.69 -1.3296  15.257  9.8481 
  2594.000 -31.624  6.4660  7.3670  5.9640 -29.449  6.4660  7.3670  5.9640  0.9900  2593.9  103.79 -1.3317  15.265  9.8526 
  2594.500 -31.789  6.4670  7.5510  6.0310 -29.611  6.4670  7.5510  6.0310  0.9908  2594.4  103.89 -1.3337  15.274  9.8571 
  2595.000 -31.622  6.2670  7.7350  6.0980 -29.442  6.2670  7.7350  6.0980  0.9917  2594.9  103.99 -1.3358  15.282  9.8615 
  2595.500 -31.538  6.0670  7.7850  6.1990 -29.356  6.0670  7.7850  6.1990  0.9925  2595.4  104.09 -1.3379  15.291  9.8660 
  2596.000 -31.454  5.8010  7.8360  6.2670 -29.269  5.8010  7.8360  6.2670  0.9933  2595.9  104.19 -1.3401  15.299  9.8704 
  2596.500 -30.787  5.6350  7.6030  6.2670 -28.600  5.6350  7.6030  6.2670  0.9942  2596.4  104.29 -1.3422  15.307  9.8749 
  2597.000 -30.454  5.4680  7.4700  6.2680 -28.265  5.4680  7.4700  6.2680  0.9950  2596.9  104.39 -1.3444  15.316  9.8793 
  2597.500 -28.623  4.8020  7.2870  6.2350 -26.431  4.8020  7.2870  6.2350  0.9958  2597.4  104.49 -1.3465  15.324  9.8837 
  2598.000 -26.958  4.4350  7.1040  6.1690 -24.764  4.4350  7.1040  6.1690  0.9967  2597.9  104.59 -1.3487  15.333  9.8881 
  2598.500 -25.460  3.9350  6.9210  6.1200 -23.264  3.9350  6.9210  6.1200  0.9975  2598.4  104.69 -1.3509  15.341  9.8925 
  2599.000 -23.961  3.6350  6.7380  6.0700 -21.762  3.6350  6.7380  6.0700  0.9983  2598.9  104.79 -1.3532  15.349  9.8969 
  2599.500 -22.796  3.4860  6.4050  5.7370 -20.595  3.4860  6.4050  5.7370  0.9992  2599.4  104.89 -1.3554  15.358  9.9012 
  2600.000 -21.630  3.3360  5.9380  5.3380 -19.427  3.3360  5.9380  5.3380  1.0000  2599.9  104.99 -1.3577  15.366  9.9056 
  2600.500 -19.965  3.0030  5.2710  4.5370 -17.759  3.0030  5.2710  4.5370  0.9967  2600.4  104.98 -1.3599  15.375  9.9100 
  2601.000 -18.466  2.9360  4.3370  4.2370 -16.258  2.9360  4.3370  4.2370  0.9933  2600.9  104.96 -1.3621  15.383  9.9143 
  2601.500 -16.467  2.9360  4.2370  4.0040 -14.257  2.9360  4.2370  4.0040  0.9900  2601.4  104.95 -1.3644  15.391  9.9186 
  2602.000 -13.471  2.9360  4.2040  3.9710 -11.258  2.9360  4.2040  3.9710  0.9867  2601.9  104.93 -1.3666  15.400  9.9229 
  2602.500 -12.887  3.0370  4.2600  3.9040 -10.672  3.0370  4.2600  3.9040  0.9833  2602.4  104.92 -1.3688  15.408  9.9272 
  2603.000 -12.303  3.0870  4.3160  3.8380 -10.086  3.0870  4.3160  3.8380  0.9800  2602.9  104.90 -1.3710  15.416  9.9315 
  2603.500 -12.301  3.1370  4.3710  3.8380 -10.081  3.1370  4.3710  3.8380  0.9767  2603.4  104.89 -1.3732  15.425  9.9358 
  2604.000 -12.632  3.2370  4.5050  3.9050 -10.410  3.2370  4.5050  3.9050  0.9733  2603.9  104.87 -1.3754  15.433  9.9401 
  2604.500 -13.629  3.2710  4.6050  4.1050 -11.405  3.2710  4.6050  4.1050  0.9700  2604.4  104.86 -1.3775  15.441  9.9443 
  2605.000 -15.124  3.2710  4.8720  4.2720 -12.897  3.2710  4.8720  4.2720  0.9667  2604.9  104.84 -1.3797  15.449  9.9486 
  2605.500 -17.119  3.2710  5.2730  4.4060 -14.890  3.2710  5.2730  4.4060  0.9633  2605.4  104.83 -1.3819  15.457  9.9528 
  2606.000 -22.775  3.2380  5.5730  4.4060 -20.544  3.2380  5.5730  4.4060  0.9600  2605.9  104.81 -1.3840  15.465  9.9570 
  2606.500 -23.605  3.2050  5.5740  4.3060 -21.372  3.2050  5.5740  4.3060  0.9566  2606.4  104.80 -1.3861  15.473  9.9612 
  2607.000 -21.773  3.1720  5.5070  4.1390 -19.537  3.1720  5.5070  4.1390  0.9533  2606.9  104.78 -1.3882  15.481  9.9654 
  2607.500 -20.940  3.1380  5.4400  4.1060 -18.702  3.1380  5.4400  4.1060  0.9500  2607.4  104.77 -1.3904  15.489  9.9695 
  2608.000 -19.607  3.1050  5.0740  3.8730 -17.367  3.1050  5.0740  3.8730  0.9466  2607.9  104.75 -1.3925  15.497  9.9737 
  2608.500 -17.775  3.0050  4.5070  3.7060 -15.532  3.0050  4.5070  3.7060  0.9433  2608.4  104.74 -1.3946  15.505  9.9779 
  2609.000 -17.025  2.9720  4.1730  3.4060 -14.780  2.9720  4.1730  3.4060  0.9400  2608.9  104.72 -1.3966  15.513  9.9820 
  2609.500 -16.275  2.9390  4.0070  3.3390 -14.028  2.9390  4.0070  3.3390  0.9366  2609.4  104.71 -1.3987  15.521  9.9861 
