~Version Information
VERS.                     2.0: CWLS log ASCII Standard Version 2.00
WRAP.                      NO: One line per depth step
~Well Information Block
#MNEM.UNIT                               Data Type  Information
#---------                               ---------  -----------
STRT.FT                                   374.0000:
STOP.FT                                  6834.0000:
STEP.FT                                     0.5000:
NULL.                 -999.25                     :
COMP.                                             :COMPANY            
WELL.     SAN EMIDIO A #66-19 REDRILL             :WELL               
FLD .                                             :FIELD              
CTRY.                                             :COUNTRY            
STAT.                                             :STATE              
LOC .                                             :LOCATION           
UWI .                                             :UNIQUE WELL ID     
SRVC.                                             :Service company    
DATE.                                             :LOG DATE           
~Curve Information
#MNEM.UNIT           API CODE  Curve Description
#---------           --------  -----------------
DEPT.FT                      :   1 DEPTH
SP  .MV                      :   2
AM16.OHMM                    :   3
AO10.OHMM                    :   4
AO19.OHMM                    :   5
SBL .MV                      :   6
RS  .OHMM                    :   7
RM  .OHMM                    :   8
RD  .OHMM                    :   9
~A
# ...
  5939.000 -21.119  2.0780  1.8920  2.1050 -11.119  2.0780  1.8920  2.1050 
  5939.500 -20.763  2.0840  1.8860  2.1110 -10.763  2.0840  1.8860  2.1110 
  5940.000 -20.264  2.0890  1.8880  2.1180 -10.264  2.0890  1.8880  2.1180 
  5940.500 -19.612  2.0920  1.9050  2.1310 -9.6120  2.0920  1.9050  2.1310 
  5941.000 -19.139  2.1020  1.9160  2.1300 -9.1390  2.1020  1.9160  2.1300 
  5941.500 -18.774  2.0980  1.9330  2.1290 -8.7740  2.0980  1.9330  2.1290 
  5942.000 -18.410  2.1020  1.9440  2.1270 -8.4100  2.1020  1.9440  2.1270 
  5942.500 -18.153  2.1050  1.9540  2.1160 -8.1530  2.1050  1.9540  2.1160 
  5943.000 -17.645  2.1220  1.9650  2.1040 -7.6450  2.1220  1.9650  2.1040 
  5943.500 -17.405  2.1180  1.9750  2.1240 -7.4050  2.1180  1.9750  2.1240 
  5944.000 -17.165  2.1220  1.9850  2.1520 -7.1650  2.1220  1.9850  2.1520 
  5944.500 -16.802  2.1180  1.9960  2.1440 -6.8020  2.1180  1.9960  2.1440 
  5945.000 -17.048  2.1210  2.0200  2.1350 -7.0480  2.1210  2.0200  2.1350 
  5945.500 -17.654  2.1240  2.0240  2.1270 -7.6540  2.1240  2.0240  2.1270 
  5946.000 -18.546  2.1270  2.0410  2.1620 -8.5460  2.1270  2.0410  2.1620 
  5946.500 -18.936  2.1230  2.0660  2.1900 -8.9360  2.1230  2.0660  2.1900 
  5947.000 -18.212  2.1200  2.0730  2.1960 -8.2120  2.1200  2.0730  2.1960 
  5947.500 -17.775  2.1230  2.0800  2.2090 -7.7750  2.1230  2.0800  2.2090 
  5948.000 -17.699  2.1260  2.1480  2.2150 -7.6990  2.1260  2.1480  2.2150 
  5948.500 -17.621  2.1370  2.1650  2.2140 -7.6210  2.1370  2.1650  2.2140 
  5949.000 -17.292  2.1330  2.1680  2.1840 -7.2920  2.1330  2.1680  2.1840 
  5949.500 -17.071  2.1290  2.1720  2.1830 -7.0710  2.1290  2.1720  2.1830 
  5950.000 -16.850  2.1250  2.1680  2.1960 -6.8500  2.1250  2.1680  2.1960 
  5950.500 -16.850  2.1110  2.1610  2.2180 -6.8500  2.1110  2.1610  2.2180 
  5951.000 -19.294  2.0970  2.1610  2.2750 -9.2940  2.0970  2.1610  2.2750 
  5951.500 -19.546  2.0760  2.1620  2.2900 -9.5460  2.0760  2.1620  2.2900 
  5952.000 -20.264  2.0830  2.1620  2.3040 -10.264  2.0830  2.1620  2.3040 
  5952.500 -21.306  2.0910  2.1550  2.2830 -11.306  2.0910  2.1550  2.2830 
  5953.000 -22.096  2.0980  2.1560  2.2680 -12.096  2.0980  2.1560  2.2680 
  5953.500 -21.414  2.1060  2.1560  2.2400 -11.414  2.1060  2.1560  2.2400 
  5954.000 -21.126  2.0700  2.1560  2.2180 -11.126  2.0700  2.1560  2.2180 
  5954.500 -21.414  2.0630  2.1600  2.2180 -11.414  2.0630  2.1600  2.2180 
  5955.000 -21.845  2.0350  2.1640  2.2250 -11.845  2.0350  2.1640  2.2250 
  5955.500 -21.701  2.0350  2.1650  2.2180 -11.701  2.0350  2.1650  2.2180 
  5956.000 -21.126  2.0360  2.1650  2.1890 -11.126  2.0360  2.1650  2.1890 
  5956.500 -20.443  2.0500  2.1440  2.1710 -10.443  2.0500  2.1440  2.1710 
  5957.000 -19.258  2.0650  2.1440  2.1540 -9.2580  2.0650  2.1440  2.1540 
  5957.500 -16.348  2.1370  2.1440  2.1390 -6.3480  2.1370  2.1440  2.1390 
  5958.000 -15.162  2.1480  2.1450  2.1530 -5.1620  2.1480  2.1450  2.1530 
  5958.500 -14.479  2.1600  2.1560  2.1890 -4.4790  2.1600  2.1560  2.1890 
  5959.000 -14.048  2.1530  2.1670  2.1890 -4.0480  2.1530  2.1670  2.1890 
  5959.500 -13.653  2.1320  2.1780  2.1750 -3.6530  2.1320  2.1780  2.1750 
  5960.000 -13.868  2.1100  2.1890  2.1530 -3.8680  2.1100  2.1890  2.1530 
  5960.500 -14.995  2.1140  2.1960  2.1310 -4.9950  2.1140  2.1960  2.1310 
  5961.000 -15.798  2.1170  2.2030  2.1530 -5.7980  2.1170  2.2030  2.1530 
  5961.500 -15.738  2.1590  2.2130  2.1600 -5.7380  2.1590  2.2130  2.1600 
  5962.000 -15.212  2.1950  2.2240  2.1380 -5.2120  2.1950  2.2240  2.1380 
  5962.500 -15.045  2.2310  2.2380  2.1230 -5.0450  2.2310  2.2380  2.1230 
  5963.000 -14.950  2.2590  2.2660  2.1080 -4.9500  2.2590  2.2660  2.1080 
  5963.500 -14.963  2.2870  2.2870  2.1510 -4.9630  2.2870  2.2870  2.1510 
  5964.000 -15.838  2.3440  2.2870  2.1720 -5.8380  2.3440  2.2870  2.1720 
  5964.500 -16.173  2.3580  2.3010  2.1860 -6.1730  2.3580  2.3010  2.1860 
  5965.000 -16.725  2.3790  2.3010  2.1930 -6.7250  2.3790  2.3010  2.1930 
  5965.500 -17.277  2.3790  2.3070  2.1850 -7.2770  2.3790  2.3070  2.1850 
  5966.000 -17.109  2.3610  2.3000  2.1710 -7.1090  2.3610  2.3000  2.1710 
  5966.500 -16.511  2.3430  2.2990  2.1700 -6.5110  2.3430  2.2990  2.1700 
  5967.000 -15.806  2.3350  2.3030  2.1660 -5.8060  2.3350  2.3030  2.1660 
  5967.500 -15.566  2.3200  2.3060  2.1630 -5.5660  2.3200  2.3060  2.1630 
  5968.000 -15.256  2.2980  2.3060  2.1760 -5.2560  2.2980  2.3060  2.1760 
  5968.500 -15.017  2.2760  2.3120  2.1900 -5.0170  2.2760  2.3120  2.1900 
  5969.000 -14.885  2.2620  2.3260  2.1970 -4.8850  2.2620  2.3260  2.1970 
  5969.500 -15.078  2.2610  2.3330  2.2040 -5.0780  2.2610  2.3330  2.2040 
  5970.000 -15.701  2.2550  2.3470  2.2110 -5.7010  2.2550  2.3470  2.2110 
  5970.500 -15.730  2.2480  2.3550  2.2040 -5.7300  2.2480  2.3550  2.2040 
  5971.000 -15.579  2.2410  2.3630  2.2040 -5.5790  2.2410  2.3630  2.2040 
  5971.500 -15.859  2.2350  2.3710  2.2040 -5.8590  2.2350  2.3710  2.2040 
  5972.000 -16.139  2.2350  2.3790  2.2040 -6.1390  2.2350  2.3790  2.2040 
  5972.500 -16.491  2.2360  2.3870  2.2040 -6.4910  2.2360  2.3870  2.2040 
  5973.000 -16.341  2.2220  2.3950  2.2110 -6.3410  2.2220  2.3950  2.2110 
  5973.500 -16.010  2.2230  2.4030  2.2110 -6.0100  2.2230  2.4030  2.2110 
  5974.000 -15.536  2.2240  2.4100  2.2110 -5.5360  2.2240  2.4100  2.2110 
  5974.500 -15.133  2.2320  2.4180  2.2250 -5.1330  2.2320  2.4180  2.2250 
  5975.000 -14.982  2.2540  2.4260  2.2540 -4.9820  2.2540  2.4260  2.2540 
  5975.500 -14.796  2.2550  2.4340  2.2610 -4.7960  2.2550  2.4340  2.2610 
  5976.000 -14.752  2.2550  2.4350  2.2540 -4.7520  2.2550  2.4350  2.2540 
  5976.500 -14.674  2.2670  2.4430  2.2320 -4.6740  2.2670  2.4430  2.2320 
  5977.000 -14.667  2.2780  2.4430  2.2250 -4.6670  2.2780  2.4430  2.2250 
  5977.500 -14.731  2.2860  2.4440  2.2250 -4.7310  2.2860  2.4440  2.2250 
  5978.000 -14.831  2.2870  2.4450  2.2610 -4.8310  2.2870  2.4450  2.2610 
  5978.500 -14.896  2.3020  2.4350  2.2750 -4.8960  2.3020  2.4350  2.2750 
  5979.000 -14.997  2.3030  2.4250  2.2900 -4.9970  2.3030  2.4250  2.2900 
  5979.500 -15.098  2.3030  2.3970  2.2930 -5.0980  2.3030  2.3970  2.2930 
  5980.000 -15.126  2.3040  2.3760  2.2970 -5.1260  2.3040  2.3760  2.2970 
  5980.500 -15.154  2.3120  2.3660  2.3040 -5.1540  2.3120  2.3660  2.3040 
  5981.000 -15.220  2.3120  2.3550  2.3410 -5.2200  2.3120  2.3550  2.3410 
  5981.500 -15.392  2.3090  2.3340  2.3480 -5.3920  2.3090  2.3340  2.3480 
  5982.000 -15.457  2.3060  2.3270  2.3630 -5.4570  2.3060  2.3270  2.3630 
  5982.500 -15.449  2.3060  2.3270  2.3780 -5.4490  2.3060  2.3270  2.3780 
  5983.000 -15.443  2.2990  2.3420  2.3780 -5.4430  2.2990  2.3420  2.3780 
  5983.500 -15.363  2.2960  2.3640  2.3000 -5.3630  2.2960  2.3640  2.3000 
  5984.000 -15.284  2.2930  2.3790  2.3790 -5.2840  2.2930  2.3790  2.3790 
  5984.500 -15.187  2.2930  2.3930  2.4510 -5.1870  2.2930  2.3930  2.4510 
  5985.000 -15.089  2.2930  2.4230  2.4800 -5.0890  2.2930  2.4230  2.4800 
  5985.500 -14.867  2.2940  2.4370  2.4870 -4.8670  2.2940  2.4370  2.4870 
  5986.000 -14.716  2.2830  2.4590  2.4880 -4.7160  2.2830  2.4590  2.4880 
  5986.500 -14.565  2.2730  2.4810  2.4950 -4.5650  2.2730  2.4810  2.4950 
  5987.000 -14.702  2.2520  2.5170  2.5100 -4.7020  2.2520  2.5170  2.5100 
  5987.500 -15.090  2.2380  2.5390  2.5110 -5.0900  2.2380  2.5390  2.5110 
  5988.000 -15.837  2.2240  2.5540  2.5110 -5.8370  2.2240  2.5540  2.5110 
  5988.500 -16.118  2.2100  2.5610  2.4970 -6.1180  2.2100  2.5610  2.4970 
  5989.000 -16.218  2.1810  2.5620  2.4970 -6.2180  2.1810  2.5620  2.4970 
  5989.500 -16.103  2.1750  2.5770  2.4900 -6.1030  2.1750  2.5770  2.4900 
  5990.000 -16.024  2.1530  2.5700  2.4910 -6.0240  2.1530  2.5700  2.4910 
  5990.500 -15.958  2.1530  2.5550  2.5040 -5.9580  2.1530  2.5550  2.5040 
  5991.000 -15.963  2.1450  2.5470  2.5020 -5.9630  2.1450  2.5470  2.5020 
  5991.500 -16.184  2.1300  2.5390  2.5010 -6.1840  2.1300  2.5390  2.5010 
