~Version Information
VERS.                     2.0: CWLS log ASCII Standard Version 2.00
WRAP.                      NO: One line per depth step
~Well Information Block
#MNEM.UNIT                               Data Type  Information
#---------                               ---------  -----------
STRT.FT                                   374.0000:
STOP.FT                                  6834.0000:
STEP.FT                                     0.5000:
NULL.                 -999.25                     :
COMP.                                             :COMPANY            
WELL.     SAN EMIDIO A #66-19 REDRILL             :WELL               
FLD .                                             :FIELD              
CTRY.                                             :COUNTRY            
STAT.                                             :STATE              
LOC .                                             :LOCATION           
UWI .                                             :UNIQUE WELL ID     
SRVC.                                             :Service company    
DATE.                                             :LOG DATE           
~Curve Information
#MNEM.UNIT           API CODE  Curve Description
#---------           --------  -----------------
DEPT.FT                      :   1 DEPTH
SP  .MV                      :   2
AM16.OHMM                    :   3
AO10.OHMM                    :   4
AO19.OHMM                    :   5
SBL .MV                      :   6
RS  .OHMM                    :   7
RM  .OHMM                    :   8
RD  .OHMM                    :   9
~A
# ...
  1222.000 -22.119  5.3080  4.8860  7.6260 -7.6979  5.3080  4.8860  7.6260 
  1222.500 -23.055  5.5740  4.9370  7.7980 -8.6356  5.5740  4.9370  7.7980 
  1223.000 -23.204  5.7830  5.0060  8.0130 -8.7864  5.7830  5.0060  8.0130 
  1223.500 -23.388  5.9410  5.0750  8.1130 -8.9722  5.9410  5.0750  8.1130 
  1224.000 -23.537  6.0280  5.2260  8.1560 -9.1230  6.0280  5.2260  8.1560 
  1224.500 -23.650  6.1290  5.2700  8.1990 -9.2378  6.1290  5.2700  8.1990 
  1225.000 -23.655  6.1730  5.3140  8.2280 -9.2445  6.1730  5.3140  8.2280 
  1225.500 -23.589  6.2320  5.3440  8.2490 -9.1803  6.2320  5.3440  8.2490 
  1226.000 -22.591  6.2830  5.2880  8.1920 -8.1841  6.2830  5.2880  8.1920 
  1226.500 -21.307  6.3410  5.2100  8.0060 -6.9019  6.3410  5.2100  8.0060 
  1227.000 -19.988  6.4210  5.1540  7.7910 -5.5847  6.4210  5.1540  7.7910 
  1227.500 -19.778  6.4720  5.1190  7.7050 -5.3765  6.4720  5.1190  7.7050 
  1228.000 -20.249  6.5740  5.1060  7.6120 -5.8492  6.5740  5.1060  7.6120 
  1228.500 -21.759  6.7030  5.1070  7.5190 -7.3610  6.7030  5.1070  7.5190 
  1229.000 -22.427  6.9910  5.2160  7.3760 -8.0308  6.9910  5.2160  7.3760 
  1229.500 -23.095  7.2780  5.4890  7.3250 -8.7006  7.2780  5.4890  7.3250 
  1230.000 -24.425  7.7870  5.8330  7.4830 -10.032  7.7870  5.8330  7.4830 
  1230.500 -24.754  8.2960  6.1630  7.7760 -10.363  8.2960  6.1630  7.7760 
  1231.000 -25.048  8.9980  6.4640  8.0120 -10.659  8.9980  6.4640  8.0120 
  1231.500 -25.485  9.8930  6.7360  8.2630 -11.098  9.8930  6.7360  8.2630 
  1232.000 -26.710  10.895  7.0870  8.5130 -12.324  10.895  7.0870  8.5130 
  1232.500 -32.197  11.704  7.2880  8.6770 -17.813  11.704  7.2880  8.6770 
  1233.000 -35.320  12.234  7.6180  8.9700 -20.938  12.234  7.6180  8.9700 
  1233.500 -39.409  12.929  7.8330  9.2350 -25.029  12.929  7.8330  9.2350 
  1234.000 -43.285  13.910  8.1410  9.4140 -28.907  13.910  8.1410  9.4140 
  1234.500 -44.867  14.633  8.5990  9.5850 -30.490  14.633  8.5990  9.5850 
  1235.000 -45.913  15.213  9.4370  9.7350 -31.538  15.213  9.4370  9.7350 
  1235.500 -46.493  15.557  9.9030  9.8920 -32.120  15.557  9.9030  9.8920 
  1236.000 -47.002  16.395  10.304  10.042 -32.631  16.395  10.304  10.042 
  1236.500 -45.756  16.725  10.512  10.135 -31.387  16.725  10.512  10.135 
  1237.000 -45.118  16.954  10.763  10.228 -30.750  16.954  10.763  10.228 
  1237.500 -47.274  17.126  10.928  10.392 -32.908  17.126  10.928  10.392 
  1238.000 -48.606  17.377  11.064  10.464 -34.242  17.377  11.064  10.464 
  1238.500 -49.545  17.542  11.215  10.521 -35.183  17.542  11.215  10.521 
  1239.000 -50.447  17.836  11.344  10.577 -36.086  17.836  11.344  10.577 
  1239.500 -50.562  18.001  11.523  10.706 -36.203  18.001  11.523  10.706 
  1240.000 -49.781  18.395  11.717  10.849 -35.424  18.395  11.717  10.849 
  1240.500 -48.703  18.659  12.052  10.963 -34.348  18.659  12.052  10.963 
  1241.000 -48.341  19.123  12.717  11.091 -33.988  19.123  12.717  11.091 
  1241.500 -48.087  19.472  13.238  11.176 -33.735  19.472  13.238  11.176 
  1242.000 -49.767  19.715  13.974  11.434 -35.417  19.715  13.974  11.434 
  1242.500 -50.444  19.900  16.013  11.683 -36.096  19.900  16.013  11.683 
  1243.000 -51.049  23.198  16.492  12.062 -36.703  23.198  16.492  12.062 
  1243.500 -50.723  23.545  17.278  12.233 -36.378  23.545  17.278  12.233 
  1244.000 -50.075  23.606  17.892  12.376 -35.732  23.606  17.892  12.376 
  1244.500 -50.358  23.595  18.466  12.475 -36.017  23.595  18.466  12.475 
  1245.000 -51.643  23.513  19.040  12.582 -37.304  23.513  19.040  12.582 
  1245.500 -52.678  23.287  19.613  12.646 -38.341  23.287  19.613  12.646 
  1246.000 -53.463  23.062  20.187  12.724 -39.127  23.062  20.187  12.724 
  1246.500 -53.996  23.051  20.761  12.744 -39.662  23.051  20.761  12.744 
  1247.000 -54.494  23.004  21.680  12.765 -40.162  23.004  21.680  12.765 
  1247.500 -53.201  22.958  22.385  12.857 -38.871  22.958  22.385  12.857 
  1248.000 -52.625  23.126  22.804  12.921 -38.297  23.126  22.804  12.921 
  1248.500 -52.478  23.294  23.222  13.006 -38.151  23.294  23.222  13.006 
  1249.000 -52.976  23.641  23.713  13.220 -38.651  23.641  23.713  13.220 
  1249.500 -53.044  23.631  24.203  13.764 -38.721  23.631  24.203  13.764 
  1250.000 -51.894  23.477  24.915  14.343 -37.573  23.477  24.915  14.343 
  1250.500 -51.316  22.836  25.627  14.659 -36.996  22.836  25.627  14.659 
  1251.000 -51.668  19.333  26.239  14.903 -37.350  19.333  26.239  14.903 
  1251.500 -52.379  19.054  26.851  15.376 -38.063  19.054  26.851  15.376 
  1252.000 -53.054  18.718  27.643  15.678 -38.740  18.718  27.643  15.678 
  1252.500 -54.267  18.053  27.789  15.936 -39.955  18.053  27.789  15.936 
  1253.000 -53.760  17.746  27.578  16.066 -39.449  17.746  27.578  16.066 
  1253.500 -53.361  17.539  26.866  16.303 -39.052  17.539  26.866  16.303 
  1254.000 -52.961  17.381  26.297  16.526 -38.654  17.381  26.297  16.526 
  1254.500 -52.240  17.382  25.799  16.841 -37.935  17.382  25.799  16.841 
  1255.000 -51.393  17.754  25.302  17.372 -37.089  17.754  25.302  17.372 
  1255.500 -50.546  17.926  25.091  17.931 -36.244  17.926  25.091  17.931 
  1256.000 -48.893  18.063  25.595  18.956 -34.593  18.063  25.595  18.956 
  1256.500 -49.031  18.171  26.100  19.329 -34.733  18.171  26.100  19.329 
  1257.000 -49.813  18.221  27.034  19.759 -35.517  18.221  27.034  19.759 
  1257.500 -52.136  18.229  27.539  23.523 -37.841  18.229  27.539  23.523 
  1258.000 -53.097  18.086  27.972  23.745 -38.804  18.086  27.972  23.745 
  1258.500 -53.558  17.943  28.405  23.896 -39.267  17.943  28.405  23.896 
  1259.000 -53.552  17.657  28.695  23.903 -39.263  17.657  28.695  23.903 
  1259.500 -52.938  17.507  29.056  23.981 -38.651  17.507  29.056  23.981 
  1260.000 -52.825  17.314  29.060  23.989 -38.539  17.314  29.060  23.989 
  1260.500 -52.750  17.271  29.056  24.053 -38.466  17.271  29.056  24.053 
  1261.000 -52.030  17.206  28.552  24.046 -37.748  17.206  28.552  24.046 
  1261.500 -50.952  17.148  28.333  23.824 -36.672  17.148  28.333  23.824 
  1262.000 -49.480  16.983  27.900  23.817 -35.201  16.983  27.900  23.817 
  1262.500 -48.545  16.840  27.324  23.738 -34.268  16.840  27.324  23.738 
  1263.000 -48.041  16.696  26.748  23.731 -33.766  16.696  26.748  23.731 
  1263.500 -48.073  16.603  26.458  23.652 -33.800  16.603  26.458  23.652 
  1264.000 -48.786  16.581  26.168  23.609 -34.515  16.581  26.168  23.609 
  1264.500 -49.785  16.552  25.592  23.566 -35.515  16.552  25.592  23.566 
  1265.000 -50.676  16.538  25.231  23.487 -36.408  16.538  25.231  23.487 
  1265.500 -51.568  16.523  25.227  23.480 -37.302  16.523  25.227  23.480 
  1266.000 -52.245  16.444  25.796  23.330 -37.981  16.444  25.796  23.330 
  1266.500 -51.740  16.329  26.365  23.323 -37.477  16.329  26.365  23.323 
  1267.000 -50.770  16.099  26.719  23.315 -36.509  16.099  26.719  23.315 
  1267.500 -48.832  15.841  26.716  23.308 -34.573  15.841  26.716  23.308 
  1268.000 -47.539  15.354  26.354  23.158 -33.282  15.354  26.354  23.158 
  1268.500 -46.425  14.445  25.706  23.008 -32.170  14.445  25.706  23.008 
  1269.000 -45.777  13.800  24.773  22.714 -31.523  13.800  24.773  22.714 
  1269.500 -44.986  12.233  24.339  22.277 -30.734  12.233  24.339  22.277 
  1270.000 -44.123  11.688  23.146  22.055 -29.873  11.688  23.146  22.055 
  1270.500 -41.873  11.102  21.954  21.411 -27.625  11.102  21.954  21.411 
  1271.000 -36.365  9.7420  20.761  19.635 -22.118  9.7420  20.761  19.635 
  1271.500 -32.934  8.3970  19.568  19.148 -18.689  8.3970  19.568  19.148 
  1272.000 -28.501  7.4100  18.375  18.303 -14.258  7.4100  18.375  18.303 
  1272.500 -25.750  6.4940  17.695  16.455 -11.509  6.4940  17.695  16.455 
  1273.000 -23.394  6.1360  16.193  14.765 -9.1546  6.1360  16.193  14.765 
  1273.500 -21.717  5.8650  13.709  12.474 -7.4794  5.8650  13.709  12.474 
  1274.000 -20.256  5.7070  12.185  11.851 -6.0202  5.7070  12.185  11.851 
  1274.500 -20.335  5.5500  11.520  11.343 -6.1010  5.5500  11.520  11.343 
