~Version Information
VERS.                     2.0: CWLS log ASCII Standard Version 2.00
WRAP.                      NO: One line per depth step
~Well Information Block
#MNEM.UNIT                               Data Type  Information
#---------                               ---------  -----------
STRT.FT                                   530.0000:
STOP.FT                                  8230.0000:
STEP.FT                                     0.5000:
NULL.                 -999.25                     :
COMP.                                             :COMPANY            
WELL.     SAN EMIDIO #61-28 REDRILL               :WELL               
FLD .                                             :FIELD              
CTRY.                                             :COUNTRY            
STAT.                                             :STATE              
LOC .                                             :LOCATION           
UWI .                                             :UNIQUE WELL ID     
SRVC.                                             :Service company    
DATE.                                             :LOG DATE           
~Curve Information
#MNEM.UNIT           API CODE  Curve Description
#---------           --------  -----------------
DEPT.FT                      :   1 DEPTH
SP  .MV                      :   2
2Z18.OHMM                    :   3
31Z9.OHMM                    :   4
31Z1.OHMM                    :   5
SBL .MV                      :   6
RS  .OHMM                    :   7
RM  .OHMM                    :   8
 RD .OHMM                    :   9
DEVI.DEG                     :  10
TVD .FT                      :  11
AZIM.DEG                     :  12
NORT.FT                      :  13
EAST.FT                      :  14
OFFS.FT                      :  15
~A
# ...
  1537.500 -36.991  7.1580  7.4250  6.2000 -34.577  7.1580  7.4250  6.2000  0.5519  1537.5  136.49  0.1686  4.0142  2.9577 
  1538.000 -36.825  7.3590  7.5250  6.2330 -34.413  7.3590  7.5250  6.2330  0.5548  1538.0  136.39  0.1651  4.0176  2.9576 
  1538.500 -36.658  7.4590  7.6260  6.2330 -34.248  7.4590  7.6260  6.2330  0.5577  1538.5  136.29  0.1616  4.0209  2.9575 
  1539.000 -36.326  7.4760  7.6760  6.2670 -33.918  7.4760  7.6760  6.2670  0.5606  1539.0  136.19  0.1580  4.0243  2.9574 
  1539.500 -36.492  7.4930  7.7260  6.3330 -34.086  7.4930  7.7260  6.3330  0.5636  1539.5  136.09  0.1545  4.0277  2.9573 
  1540.000 -36.160  7.4930  7.8930  6.4330 -33.756  7.4930  7.8930  6.4330  0.5665  1540.0  135.99  0.1509  4.0312  2.9572 
  1540.500 -35.827  7.4940  7.9770  6.5000 -33.425  7.4940  7.9770  6.5000  0.5694  1540.5  135.89  0.1474  4.0346  2.9571 
  1541.000 -35.328  7.3610  8.0610  6.5670 -32.928  7.3610  8.0610  6.5670  0.5723  1541.0  135.79  0.1438  4.0381  2.9570 
  1541.500 -34.663  7.1780  8.1440  6.5000 -32.265  7.1780  8.1440  6.5000  0.5752  1541.5  135.69  0.1402  4.0416  2.9570 
  1542.000 -34.165  6.9950  8.2280  6.4330 -31.770  6.9950  8.2280  6.4330  0.5782  1542.0  135.59  0.1366  4.0451  2.9569 
  1542.500 -33.333  6.6950  8.1950  6.2000 -30.940  6.6950  8.1950  6.2000  0.5811  1542.5  135.49  0.1330  4.0487  2.9569 
  1543.000 -32.502  6.2620  8.1620  6.0330 -30.111  6.2620  8.1620  6.0330  0.5840  1543.0  135.39  0.1294  4.0523  2.9569 
  1543.500 -31.920  5.9290  8.0620  5.8330 -29.531  5.9290  8.0620  5.8330  0.5869  1543.5  135.29  0.1257  4.0559  2.9568 
  1544.000 -31.338  5.4960  7.9290  5.6670 -28.951  5.4960  7.9290  5.6670  0.5898  1544.0  135.19  0.1221  4.0595  2.9568 
  1544.500 -30.008  5.2630  7.5630  5.5000 -27.623  5.2630  7.5630  5.5000  0.5927  1544.5  135.09  0.1184  4.0632  2.9568 
  1545.000 -29.343  5.1630  7.2630  5.2670 -26.960  5.1630  7.2630  5.2670  0.5957  1545.0  134.99  0.1147  4.0668  2.9568 
  1545.500 -28.678  5.0970  7.0970  5.0670 -26.297  5.0970  7.0970  5.0670  0.5986  1545.5  134.89  0.1110  4.0705  2.9568 
  1546.000 -27.182  4.9970  6.8640  4.9670 -24.803  4.9970  6.8640  4.9670  0.6015  1546.0  134.79  0.1073  4.0743  2.9568 
  1546.500 -26.185  4.8980  6.6310  4.9000 -23.808  4.8980  6.6310  4.9000  0.6044  1546.5  134.69  0.1036  4.0780  2.9569 
  1547.000 -25.353  4.8310  6.5310  4.8670 -22.978  4.8310  6.5310  4.8670  0.6073  1547.0  134.59  0.0999  4.0818  2.9569 
  1547.500 -24.855  4.7980  6.3650  4.8670 -22.482  4.7980  6.3650  4.8670  0.6103  1547.5  134.49  0.0962  4.0856  2.9569 
  1548.000 -24.688  4.7650  6.3650  4.8670 -22.317  4.7650  6.3650  4.8670  0.6132  1548.0  134.39  0.0924  4.0894  2.9570 
  1548.500 -24.356  4.7320  6.4320  4.9000 -21.987  4.7320  6.4320  4.9000  0.6161  1548.5  134.29  0.0887  4.0932  2.9571 
  1549.000 -24.356  4.7990  6.6660  4.9670 -21.989  4.7990  6.6660  4.9670  0.6190  1549.0  134.19  0.0849  4.0971  2.9571 
  1549.500 -24.439  4.8330  6.7830  5.0170 -22.074  4.8330  6.7830  5.0170  0.6219  1549.5  134.09  0.0811  4.1010  2.9572 
  1550.000 -24.522  4.8670  6.9000  5.0670 -22.159  4.8670  6.9000  5.0670  0.6248  1550.0  133.99  0.0773  4.1049  2.9573 
  1550.500 -24.688  4.9000  7.3340  5.2330 -22.327  4.9000  7.3340  5.2330  0.6278  1550.5  133.89  0.0736  4.1089  2.9574 
  1551.000 -24.854  5.0670  7.4010  5.3670 -22.496  5.0670  7.4010  5.3670  0.6307  1551.0  133.79  0.0698  4.1129  2.9576 
  1551.500 -25.187  5.1010  7.4340  5.4670 -22.831  5.1010  7.4340  5.4670  0.6336  1551.5  133.69  0.0659  4.1169  2.9577 
  1552.000 -25.520  5.0680  7.4680  5.6330 -23.166  5.0680  7.4680  5.6330  0.6365  1552.0  133.59  0.0621  4.1209  2.9578 
  1552.500 -25.603  5.0350  7.4680  5.7670 -23.251  5.0350  7.4680  5.7670  0.6394  1552.5  133.49  0.0583  4.1249  2.9580 
  1553.000 -25.686  4.9350  7.4690  5.8000 -23.336  4.9350  7.4690  5.8000  0.6424  1553.0  133.39  0.0544  4.1290  2.9581 
  1553.500 -26.018  4.9020  7.4020  5.8330 -23.670  4.9020  7.4020  5.8330  0.6453  1553.5  133.29  0.0505  4.1331  2.9583 
  1554.000 -25.686  4.9360  7.3360  5.8330 -23.340  4.9360  7.3360  5.8330  0.6482  1554.0  133.19  0.0467  4.1372  2.9585 
  1554.500 -25.353  4.9860  7.2700  5.7830 -23.009  4.9860  7.2700  5.7830  0.6511  1554.5  133.09  0.0428  4.1414  2.9587 
  1555.000 -24.855  5.0370  7.0700  5.7330 -22.513  5.0370  7.0700  5.7330  0.6540  1555.0  132.99  0.0389  4.1456  2.9589 
  1555.500 -24.439  5.0870  6.8700  5.7000 -22.099  5.0870  6.8700  5.7000  0.6570  1555.5  132.89  0.0350  4.1498  2.9591 
  1556.000 -24.023  5.1370  6.6710  5.7330 -21.685  5.1370  6.6710  5.7330  0.6599  1556.0  132.79  0.0311  4.1540  2.9593 
  1556.500 -23.774  5.1710  6.5710  5.8000 -21.438  5.1710  6.5710  5.8000  0.6628  1556.5  132.69  0.0272  4.1582  2.9595 
  1557.000 -23.524  5.1380  6.4710  6.0000 -21.190  5.1380  6.4710  6.0000  0.6657  1557.0  132.59  0.0232  4.1625  2.9598 
  1557.500 -23.358  5.1380  6.6720  6.1330 -21.026  5.1380  6.6720  6.1330  0.6686  1557.5  132.49  0.0193  4.1668  2.9600 
  1558.000 -23.192  5.0720  6.8390  6.2670 -20.862  5.0720  6.8390  6.2670  0.6715  1558.0  132.39  0.0153  4.1711  2.9603 
  1558.500 -23.026  5.0390  6.8720  6.4000 -20.698  5.0390  6.8720  6.4000  0.6745  1558.5  132.29  0.0114  4.1755  2.9606 
  1559.000 -23.026  5.0390  6.7730  6.2500 -20.700  5.0390  6.7730  6.2500  0.6774  1559.0  132.19  0.0074  4.1799  2.9609 
  1559.500 -23.192  5.0230  6.6400  6.1000 -20.868  5.0230  6.6400  6.1000  0.6803  1559.5  132.09  0.0034  4.1843  2.9612 
  1560.000 -23.358  5.0070  6.5070  5.7670 -21.036  5.0070  6.5070  5.7670  0.6832  1560.0  131.99 -0.0006  4.1887  2.9615 
  1560.500 -23.525  5.1070  6.1740  5.5330 -21.206  5.1070  6.1740  5.5330  0.6861  1560.5  131.89 -0.0046  4.1932  2.9618 
  1561.000 -24.855  5.3740  5.8740  5.5330 -22.538  5.3740  5.8740  5.5330  0.6891  1561.0  131.79 -0.0086  4.1976  2.9621 
  1561.500 -26.018  5.4740  6.0080  5.7000 -23.703  5.4740  6.0080  5.7000  0.6920  1561.5  131.69 -0.0126  4.2022  2.9625 
  1562.000 -27.515  5.5410  6.2750  5.8000 -25.202  5.5410  6.2750  5.8000  0.6949  1562.0  131.59 -0.0166  4.2067  2.9628 
  1562.500 -28.346  5.5250  6.5080  5.9670 -26.035  5.5250  6.5080  5.9670  0.6978  1562.5  131.49 -0.0206  4.2113  2.9632 
  1563.000 -28.845  5.5090  6.6420  6.0330 -26.536  5.5090  6.6420  6.0330  0.7007  1563.0  131.39 -0.0247  4.2158  2.9636 
  1563.500 -29.343  5.4760  6.7760  6.1670 -27.036  5.4760  6.7760  6.1670  0.7036  1563.5  131.29 -0.0287  4.2205  2.9640 
  1564.000 -30.175  5.3760  6.9090  6.2000 -27.870  5.3760  6.9090  6.2000  0.7066  1564.0  131.19 -0.0328  4.2251  2.9644 
  1564.500 -30.341  5.3430  7.0430  6.1330 -28.038  5.3430  7.0430  6.1330  0.7095  1564.5  131.09 -0.0369  4.2298  2.9648 
  1565.000 -29.510  5.3100  7.1430  6.0000 -27.209  5.3100  7.1430  6.0000  0.7124  1565.0  130.99 -0.0409  4.2345  2.9653 
  1565.500 -29.011  5.2770  7.1270  5.8670 -26.712  5.2770  7.1270  5.8670  0.7153  1565.5  130.89 -0.0450  4.2392  2.9657 
  1566.000 -28.346  5.2440  7.1110  5.6670 -26.049  5.2440  7.1110  5.6670  0.7182  1566.0  130.79 -0.0491  4.2439  2.9662 
  1566.500 -27.847  5.1940  7.0110  5.5170 -25.552  5.1940  7.0110  5.5170  0.7212  1566.5  130.69 -0.0532  4.2487  2.9666 
  1567.000 -27.016  5.1450  6.8780  5.3670 -24.723  5.1450  6.8780  5.3670  0.7241  1567.0  130.59 -0.0573  4.2535  2.9671 
  1567.500 -26.185  5.0950  6.7450  5.2830 -23.894  5.0950  6.7450  5.2830  0.7270  1567.5  130.49 -0.0615  4.2583  2.9676 
  1568.000 -26.683  5.0450  6.5450  5.2000 -24.394  5.0450  6.5450  5.2000  0.7299  1568.0  130.39 -0.0656  4.2632  2.9681 
  1568.500 -27.099  5.1120  6.4460  5.3000 -24.812  5.1120  6.4460  5.3000  0.7328  1568.5  130.29 -0.0697  4.2680  2.9687 
  1569.000 -27.515  5.2130  6.3130  5.3000 -25.230  5.2130  6.3130  5.3000  0.7358  1569.0  130.19 -0.0739  4.2729  2.9692 
  1569.500 -28.678  5.2460  6.2130  5.3330 -26.396  5.2460  6.2130  5.3330  0.7387  1569.5  130.09 -0.0780  4.2779  2.9698 
