~Version Information
VERS.                     2.0: CWLS log ASCII Standard Version 2.00
WRAP.                      NO: One line per depth step
~Well Information Block
#MNEM.UNIT                               Data Type  Information
#---------                               ---------  -----------
STRT.FT                                   419.0000:
STOP.FT                                  7100.0000:
STEP.FT                                     0.5000:
NULL.                 -999.25                     :
COMP.                                             :COMPANY            
WELL.     SAN EMIDIO A #62-28                     :WELL               
FLD .                                             :FIELD              
CTRY.                                             :COUNTRY            
STAT.                                             :STATE              
LOC .                                             :LOCATION           
UWI .                                             :UNIQUE WELL ID     
SRVC.                                             :Service company    
DATE.                                             :LOG DATE           
~Curve Information
#MNEM.UNIT           API CODE  Curve Description
#---------           --------  -----------------
DEPT.FT                      :   1 DEPTH
SP  .MV                      :   2
AM16.OHMM                    :   3
AO10.OHMM                    :   4
AO19.OHMM                    :   5
SBL .MV                      :   6
RS  .OHMM                    :   7
RM  .OHMM                    :   8
RD  .OHMM                    :   9
DEVI.DEG                     :  10
TVD .FT                      :  11
AZIM.DEG                     :  12
NORT.FT                      :  13
EAST.FT                      :  14
OFFS.FT                      :  15
~A
# ...
  2206.500 -16.240  3.5260  5.2770  4.8920 -9.0370  3.5260  5.2770  4.8920  0.6267  2206.3  59.432  13.151  16.868  21.227 
  2207.000 -16.422  3.6410  5.1830  5.0560 -9.2160  3.6410  5.1830  5.0560  0.6300  2206.8  59.542  13.154  16.873  21.232 
  2207.500 -16.567  3.7760  5.0890  5.2990 -9.3580  3.7760  5.0890  5.2990  0.6333  2207.3  59.652  13.157  16.878  21.238 
  2208.000 -17.252  3.8970  5.1670  5.4570 -10.040  3.8970  5.1670  5.4570  0.6367  2207.8  59.762  13.160  16.882  21.243 
  2208.500 -17.973  4.0040  5.2310  5.6280 -10.758  4.0040  5.2310  5.6280  0.6400  2208.3  59.872  13.162  16.887  21.248 
  2209.000 -18.623  4.1040  5.2950  5.7350 -11.405  4.1040  5.2950  5.7350  0.6433  2208.8  59.982  13.165  16.892  21.254 
  2209.500 -19.164  4.1680  5.3440  5.8210 -11.943  4.1680  5.3440  5.8210  0.6467  2209.3  60.092  13.168  16.897  21.259 
  2210.000 -19.561  4.1960  5.3650  5.8850 -12.337  4.1960  5.3650  5.8850  0.6500  2209.8  60.202  13.171  16.902  21.265 
  2210.500 -17.944  4.0950  5.2920  5.7840 -10.717  4.0950  5.2920  5.7840  0.6533  2210.3  60.312  13.174  16.907  21.270 
  2211.000 -17.335  3.8360  5.1410  5.5470 -10.105  3.8360  5.1410  5.5470  0.6567  2210.8  60.422  13.176  16.912  21.276 
  2211.500 -16.725  3.6920  4.8530  5.3740 -9.4921  3.6920  4.8530  5.3740  0.6600  2211.3  60.532  13.179  16.917  21.281 
  2212.000 -15.793  3.4970  4.6300  5.1510 -8.5571  3.4970  4.6300  5.1510  0.6633  2211.8  60.642  13.182  16.922  21.287 
  2212.500 -15.632  3.3890  4.4360  4.9280 -8.3931  3.3890  4.4360  4.9280  0.6667  2212.3  60.752  13.185  16.927  21.292 
  2213.000 -15.471  3.2730  4.2920  4.7630 -8.2291  3.2730  4.2920  4.7630  0.6700  2212.8  60.862  13.188  16.932  21.298 
  2213.500 -15.007  3.1940  4.1050  4.6980 -7.7621  3.1940  4.1050  4.6980  0.6733  2213.3  60.972  13.191  16.937  21.304 
  2214.000 -14.865  3.1790  3.9680  4.6900 -7.6171  3.1790  3.9680  4.6900  0.6767  2213.8  61.082  13.194  16.942  21.309 
  2214.500 -15.046  3.1920  3.9530  4.6610 -7.7951  3.1920  3.9530  4.6610  0.6800  2214.3  61.192  13.196  16.948  21.315 
  2215.000 -15.732  3.2350  3.9730  4.5810 -8.4781  3.2350  3.9730  4.5810  0.6833  2214.8  61.302  13.199  16.953  21.321 
  2215.500 -16.092  3.3200  4.0010  4.4950 -8.8351  3.3200  4.0010  4.4950  0.6867  2215.3  61.412  13.202  16.958  21.327 
  2216.000 -16.453  3.4410  4.0440  4.4370 -9.1931  3.4410  4.0440  4.4370  0.6900  2215.8  61.522  13.205  16.963  21.332 
  2216.500 -17.103  3.5340  4.1080  4.3790 -9.8402  3.5340  4.1080  4.3790  0.6933  2216.3  61.632  13.208  16.969  21.338 
  2217.000 -17.753  3.6770  4.2000  4.3350 -10.487  3.6770  4.2000  4.3350  0.6967  2216.8  61.742  13.211  16.974  21.344 
  2217.500 -18.005  3.9550  4.3140  4.3990 -10.736  3.9550  4.3140  4.3990  0.7000  2217.3  61.852  13.214  16.979  21.350 
  2218.000 -18.439  4.1700  4.3920  4.4920 -11.167  4.1700  4.3920  4.4920  0.7033  2217.8  61.962  13.217  16.985  21.356 
  2218.500 -18.692  4.3840  4.6430  4.6280 -11.417  4.3840  4.6430  4.6280  0.7067  2218.3  62.072  13.219  16.990  21.362 
  2219.000 -18.945  4.5990  4.9360  4.7280 -11.667  4.5990  4.9360  4.7280  0.7100  2218.8  62.182  13.222  16.996  21.367 
  2219.500 -20.170  4.8850  5.1430  4.8420 -12.889  4.8850  5.1430  4.8420  0.7133  2219.3  62.292  13.225  17.001  21.373 
  2220.000 -21.718  5.1280  5.2790  4.9130 -14.434  5.1280  5.2790  4.9130  0.7167  2219.8  62.402  13.228  17.007  21.379 
  2220.500 -23.482  5.3580  5.4160  4.9630 -16.195  5.3580  5.4160  4.9630  0.7200  2220.3  62.512  13.231  17.012  21.385 
  2221.000 -23.987  5.5230  5.5310  5.0480 -16.697  5.5230  5.5310  5.0480  0.7233  2220.8  62.622  13.234  17.018  21.391 
  2221.500 -23.702  5.6530  5.6030  5.1200 -16.409  5.6530  5.6030  5.1200  0.7267  2221.3  62.732  13.237  17.024  21.397 
  2222.000 -23.559  5.8610  5.6750  5.3060 -16.263  5.8610  5.6750  5.3060  0.7300  2221.8  62.842  13.240  17.029  21.403 
  2222.500 -23.416  6.1990  5.7720  5.4560 -16.117  6.1990  5.7720  5.4560  0.7333  2222.3  62.952  13.243  17.035  21.410 
  2223.000 -23.347  6.5860  5.8690  5.6640 -16.045  6.5860  5.8690  5.6640  0.7367  2222.8  63.062  13.246  17.041  21.416 
  2223.500 -23.600  7.1030  6.0700  5.8210 -16.295  7.1030  6.0700  5.8210  0.7400  2223.3  63.172  13.248  17.047  21.422 
  2224.000 -24.717  7.3190  6.3360  5.9500 -17.409  7.3190  6.3360  5.9500  0.7433  2223.8  63.282  13.251  17.052  21.428 
  2224.500 -25.689  7.5700  6.6810  6.1000 -18.378  7.5700  6.6810  6.1000  0.7467  2224.3  63.392  13.254  17.058  21.434 
  2225.000 -27.166  7.7280  6.8390  6.2000 -19.852  7.7280  6.8390  6.2000  0.7500  2224.8  63.502  13.257  17.064  21.440 
  2225.500 -27.671  7.8720  7.1550  6.3150 -20.354  7.8720  7.1550  6.3150  0.7533  2225.3  63.612  13.260  17.070  21.447 
  2226.000 -28.176  8.0660  7.3340  6.4080 -20.856  8.0660  7.3340  6.4080  0.7567  2225.8  63.722  13.263  17.076  21.453 
  2226.500 -29.005  8.1600  7.4710  6.4720 -21.682  8.1600  7.4710  6.4720  0.7600  2226.3  63.832  13.266  17.082  21.459 
  2227.000 -29.762  8.3030  7.6650  6.5860 -22.436  8.3030  7.6650  6.5860  0.7633  2226.8  63.942  13.269  17.088  21.465 
  2227.500 -30.591  8.2530  7.7800  6.6580 -23.262  8.2530  7.7800  6.6580  0.7667  2227.3  64.052  13.272  17.094  21.472 
  2228.000 -30.916  8.2070  7.9240  6.7360 -23.584  8.2070  7.9240  6.7360  0.7700  2227.8  64.162  13.275  17.100  21.478 
  2228.500 -31.457  8.1610  8.0820  6.7970 -24.122  8.1610  8.0820  6.7970  0.7733  2228.3  64.272  13.278  17.106  21.484 
  2229.000 -31.675  8.0110  8.2260  6.8580 -24.337  8.0110  8.2260  6.8580  0.7767  2228.8  64.382  13.281  17.112  21.491 
  2229.500 -31.497  7.6380  8.3770  6.9570 -24.156  7.6380  8.3770  6.9570  0.7800  2229.3  64.492  13.284  17.118  21.497 
  2230.000 -29.989  7.1940  8.5350  7.0000 -22.645  7.1940  8.5350  7.0000  0.7833  2229.8  64.602  13.286  17.124  21.504 
  2230.500 -28.696  6.4480  8.6140  6.9710 -21.349  6.4480  8.6140  6.9710  0.7867  2230.3  64.712  13.289  17.131  21.510 
  2231.000 -27.583  5.7030  8.6790  6.7050 -20.233  5.7030  8.6790  6.7050  0.7900  2230.8  64.822  13.292  17.137  21.517 
  2231.500 -25.211  5.1150  8.6370  6.2960 -17.858  5.1150  8.6370  6.2960  0.7933  2231.3  64.932  13.295  17.143  21.523 
  2232.000 -23.092  4.8280  8.4860  5.5210 -15.736  4.8280  8.4860  5.5210  0.7967  2231.8  65.042  13.298  17.149  21.530 
  2232.500 -21.224  4.6850  7.1020  4.8970 -13.865  4.6850  7.1020  4.8970  0.8000  2232.3  65.152  13.301  17.156  21.536 
  2233.000 -20.471  4.7070  6.7940  4.4300 -13.109  4.7070  6.7940  4.4300  0.8033  2232.8  65.262  13.304  17.162  21.543 
  2233.500 -20.077  4.7860  6.6580  4.2220 -12.712  4.7860  6.6580  4.2220  0.8067  2233.3  65.372  13.307  17.168  21.549 
  2234.000 -20.654  4.8580  6.5510  4.3650 -13.286  4.8580  6.5510  4.3650  0.8100  2233.8  65.482  13.310  17.175  21.556 
  2234.500 -22.310  4.9450  6.7600  4.4940 -14.939  4.9450  6.7600  4.4940  0.8133  2234.3  65.592  13.313  17.181  21.563 
  2235.000 -23.354  5.1250  7.0110  4.5720 -15.980  5.1250  7.0110  4.5720  0.8167  2234.8  65.702  13.316  17.188  21.569 
  2235.500 -24.363  5.1900  7.6210  4.6870 -16.986  5.1900  7.6210  4.6870  0.8200  2235.3  65.812  13.319  17.194  21.576 
  2236.000 -25.012  5.1900  7.9940  4.7510 -17.632  5.1900  7.9940  4.7510  0.8233  2235.8  65.922  13.322  17.201  21.583 
  2236.500 -24.978  5.1610  8.1520  4.8150 -17.595  5.1610  8.1520  4.8150  0.8267  2236.3  66.032  13.325  17.208  21.589 
  2237.000 -24.512  5.1260  8.2240  4.7500 -17.126  5.1260  8.2240  4.7500  0.8300  2236.8  66.142  13.328  17.214  21.596 
  2237.500 -24.208  5.0910  8.2460  4.6420 -16.819  5.0910  8.2460  4.6420  0.8333  2237.3  66.252  13.330  17.221  21.603 
  2238.000 -23.903  5.0520  8.1100  4.4700 -16.511  5.0520  8.1100  4.4700  0.8367  2237.8  66.362  13.333  17.227  21.610 
  2238.500 -23.420  5.0130  7.9820  4.3910 -16.025  5.0130  7.9820  4.3910  0.8400  2238.3  66.472  13.336  17.234  21.617 
