~Version Information
VERS.                     2.0: CWLS log ASCII Standard Version 2.00
WRAP.                      NO: One line per depth step
~Well Information Block
#MNEM.UNIT                               Data Type  Information
#---------                               ---------  -----------
STRT.FT                                   374.0000:
STOP.FT                                  6834.0000:
STEP.FT                                     0.5000:
NULL.                 -999.25                     :
COMP.                                             :COMPANY            
WELL.     SAN EMIDIO A #66-19 REDRILL             :WELL               
FLD .                                             :FIELD              
CTRY.                                             :COUNTRY            
STAT.                                             :STATE              
LOC .                                             :LOCATION           
UWI .                                             :UNIQUE WELL ID     
SRVC.                                             :Service company    
DATE.                                             :LOG DATE           
~Curve Information
#MNEM.UNIT           API CODE  Curve Description
#---------           --------  -----------------
DEPT.FT                      :   1 DEPTH
SP  .MV                      :   2
AM16.OHMM                    :   3
AO10.OHMM                    :   4
AO19.OHMM                    :   5
SBL .MV                      :   6
RS  .OHMM                    :   7
RM  .OHMM                    :   8
RD  .OHMM                    :   9
~A
# ...
  2494.000 -37.096  10.706  11.216  12.313 -27.133  10.706  11.216  12.313 
  2494.500 -36.481  10.441  11.461  12.429 -26.518  10.441  11.461  12.429 
  2495.000 -35.544  9.8820  11.554  12.387 -25.582  9.8820  11.554  12.387 
  2495.500 -29.505  8.6760  11.461  12.237 -19.544  8.6760  11.461  12.237 
  2496.000 -26.377  7.8650  11.282  11.966 -16.416  7.8650  11.282  11.966 
  2496.500 -24.290  7.2840  10.758  11.536 -14.330  7.2840  10.758  11.536 
  2497.000 -19.185  6.6310  10.328  11.006 -9.2254  6.6310  10.328  11.006 
  2497.500 -17.673  5.8420  9.5030  10.246 -7.7139  5.8420  9.5030  10.246 
  2498.000 -16.843  5.6700  9.0370  8.9550 -6.8845  5.6700  9.0370  8.9550 
  2498.500 -16.337  5.4480  8.0460  8.3960 -6.3791  5.4480  8.0460  8.3960 
  2499.000 -15.543  5.2540  7.3360  8.1460 -5.5857  5.2540  7.3360  8.1460 
  2499.500 -14.893  5.1400  6.9340  7.9310 -4.9363  5.1400  6.9340  7.9310 
  2500.000 -14.063  5.0470  6.7700  7.7670 -4.1069  5.0470  6.7700  7.7670 
  2500.500 -13.494  5.0620  6.6560  7.6300 -3.5385  5.0620  6.6560  7.6300 
  2501.000 -13.032  5.1710  6.6710  7.5150 -3.0770  5.1710  6.6710  7.5150 
  2501.500 -12.858  5.2940  6.7730  7.4060 -2.9036  5.2940  6.7730  7.4060 
  2502.000 -12.612  5.5180  6.8740  7.3700 -2.6582  5.5180  6.8740  7.3700 
  2502.500 -12.438  5.6910  6.9540  7.3330 -2.4848  5.6910  6.9540  7.3330 
  2503.000 -12.228  5.8430  7.0130  7.3250 -2.2754  5.8430  7.0130  7.3250 
  2503.500 -12.197  6.0950  7.1720  7.3960 -2.2450  6.0950  7.1720  7.3960 
  2504.000 -12.597  6.4190  7.3240  7.5890 -2.6456  6.4190  7.3240  7.5890 
  2504.500 -13.681  6.7860  7.6410  8.0270 -3.7301  6.7860  7.6410  8.0270 
  2505.000 -14.656  7.1390  7.8790  8.5710 -4.7057  7.1390  7.8790  8.5710 
  2505.500 -16.601  7.8010  8.6260  9.0160 -6.6513  7.8010  8.6260  9.0160 
  2506.000 -18.510  8.9360  9.0800  9.4100 -8.5609  8.9360  9.0800  9.4100 
  2506.500 -23.580  9.5110  9.3460  9.9260 -13.631  9.5110  9.3460  9.9260 
  2507.000 -26.747  10.159  9.6060  10.356 -16.799  10.159  9.6060  10.356 
  2507.500 -29.087  10.784  9.8220  10.844 -19.140  10.784  9.8220  10.844 
  2508.000 -33.654  11.553  10.032  11.446 -23.707  11.553  10.032  11.446 
  2508.500 -35.240  12.280  10.492  11.948 -25.294  12.280  10.492  11.948 
  2509.000 -36.718  12.597  10.924  12.564 -26.772  12.597  10.924  12.564 
  2509.500 -37.945  12.813  11.104  12.915 -28.000  12.813  11.104  12.915 
  2510.000 -39.280  13.180  11.285  13.130 -29.336  13.180  11.285  13.130 
  2510.500 -40.282  13.446  11.357  13.366 -30.338  13.446  11.357  13.366 
  2511.000 -40.745  13.539  11.457  13.501 -30.802  13.539  11.457  13.501 
  2511.500 -40.634  13.561  11.486  13.651 -30.691  13.561  11.486  13.651 
  2512.000 -40.163  13.439  11.493  13.815 -30.221  13.439  11.493  13.815 
  2512.500 -39.872  13.087  11.464  13.864 -29.930  13.087  11.464  13.864 
  2513.000 -39.438  12.520  11.385  13.841 -29.497  12.520  11.385  13.841 
  2513.500 -38.105  11.278  11.292  13.725 -28.165  11.278  11.292  13.725 
  2514.000 -36.018  10.517  11.163  13.609 -26.078  10.517  11.163  13.609 
  2514.500 -29.297  9.5980  11.048  13.450 -19.358  9.5980  11.048  13.450 
  2515.000 -25.881  8.5210  10.919  13.134 -15.942  8.5210  10.919  13.134 
  2515.500 -22.968  7.7320  10.704  12.644 -13.030  7.7320  10.704  12.644 
  2516.000 -17.971  6.6690  10.280  12.141 -8.0336  6.6690  10.280  12.141 
  2516.500 -16.926  6.3960  8.4920  9.2180 -6.9892  6.3960  8.4920  9.2180 
  2517.000 -16.096  6.1520  7.7750  7.7160 -6.1598  6.1520  7.7750  7.7160 
  2517.500 -15.374  5.8940  6.9420  7.3990 -5.4383  5.8940  6.9420  7.3990 
  2518.000 -15.047  5.6930  6.6830  7.1690 -5.1119  5.6930  6.6830  7.1690 
  2518.500 -14.720  5.6210  6.5330  7.0310 -4.7855  5.6210  6.5330  7.0310 
  2519.000 -13.962  5.6280  6.8630  6.9370 -4.0281  5.6280  6.8630  6.9370 
  2519.500 -13.636  5.7360  7.3800  6.9570 -3.7027  5.7360  7.3800  6.9570 
  2520.000 -13.345  5.7860  7.7890  6.9990 -3.4123  5.7860  7.7890  6.9990 
  2520.500 -12.842  5.8800  8.0980  7.0230 -2.9099  5.8800  8.0980  7.0230 
  2521.000 -12.590  5.9450  8.2350  7.0390 -2.6584  5.9450  8.2350  7.0390 
  2521.500 -12.447  5.9880  8.4290  7.0490 -2.5160  5.9880  8.4290  7.0490 
  2522.000 -12.339  6.0460  8.5510  7.0510 -2.4086  6.0460  8.5510  7.0510 
  2522.500 -12.734  6.0680  8.6950  7.0530 -2.8042  6.0680  8.6950  7.0530 
  2523.000 -12.518  6.0680  8.8100  7.0270 -2.5888  6.0680  8.8100  7.0270 
  2523.500 -12.159  6.1120  8.9330  6.9890 -2.2304  6.1120  8.9330  6.9890 
  2524.000 -11.944  6.1620  9.0410  6.9520 -2.0160  6.1620  9.0410  6.9520 
  2524.500 -11.836  6.1120  9.0840  6.8540 -1.9085  6.1120  9.0840  6.8540 
  2525.000 -11.872  6.0980  9.0130  7.0350 -1.9451  6.0980  9.0130  7.0350 
  2525.500 -12.052  6.1130  9.0130  7.4470 -2.1257  6.1130  9.0130  7.4470 
  2526.000 -12.231  6.1350  9.0640  7.7430 -2.3053  6.1350  9.0640  7.7430 
  2526.500 -12.554  6.2290  9.1360  7.9610 -2.6289  6.2290  9.1360  7.9610 
  2527.000 -13.021  6.3010  9.1870  8.1640 -3.0965  6.3010  9.1870  8.1640 
  2527.500 -13.668  6.3730  9.2160  8.3600 -3.7440  6.3730  9.2160  8.3600 
  2528.000 -14.925  6.4880  9.2590  8.5840 -5.0016  6.4880  9.2590  8.5840 
  2528.500 -17.871  6.5960  9.1950  8.7370 -7.9482  6.5960  9.1950  8.7370 
  2529.000 -20.565  6.6830  9.0800  8.9550 -10.643  6.6830  9.0800  8.9550 
  2529.500 -23.403  6.6900  8.9160  9.1870 -13.481  6.6900  8.9160  9.1870 
  2530.000 -25.881  6.6120  8.8370  9.3540 -15.960  6.6120  8.8370  9.3540 
  2530.500 -27.458  6.3320  8.7660  9.4470 -17.538  6.3320  8.7660  9.4470 
  2531.000 -27.131  6.1530  8.6800  9.5180 -17.211  6.1530  8.6800  9.5180 
  2531.500 -22.314  6.0310  8.5220  9.4380 -12.395  6.0310  8.5220  9.4380 
  2532.000 -19.293  5.8880  8.2070  8.8920 -9.3743  5.8880  8.2070  8.8920 
  2532.500 -18.176  5.8450  7.6330  8.7190 -8.2579  5.8450  7.6330  8.7190 
  2533.000 -17.346  5.8100  7.3100  8.6600 -7.4285  5.8100  7.3100  8.6600 
  2533.500 -16.660  5.8240  7.1810  8.9250 -6.7431  5.8240  7.1810  8.9250 
  2534.000 -16.261  6.0400  7.1170  9.2330 -6.3446  6.0400  7.1170  9.2330 
  2534.500 -20.999  6.2340  7.3470  9.3980 -11.083  6.2340  7.3470  9.3980 
  2535.000 -23.079  6.3710  7.4410  9.4970 -13.164  6.3710  7.4410  9.4970 
  2535.500 -22.824  6.4150  7.4910  9.4030 -12.909  6.4150  7.4910  9.4030 
  2536.000 -21.492  6.4510  7.4340  9.1730 -11.578  6.4510  7.4340  9.1730 
  2536.500 -20.626  6.4510  7.3200  9.0220 -10.713  6.4510  7.3200  9.0220 
  2537.000 -20.048  6.4370  7.3200  8.9350 -10.135  6.4370  7.3200  8.9350 
  2537.500 -21.265  6.3940  7.4210  8.8620 -11.353  6.3940  7.4210  8.8620 
  2538.000 -21.872  6.3370  7.4720  8.8180 -11.960  6.3370  7.4720  8.8180 
  2538.500 -21.043  6.2660  7.5580  8.7850 -11.132  6.2660  7.5580  8.7850 
  2539.000 -19.063  6.1660  7.5730  8.7520 -9.1525  6.1660  7.5730  8.7520 
  2539.500 -17.443  6.0010  7.5520  8.5720 -7.5331  6.0010  7.5520  8.5720 
  2540.000 -16.506  5.8000  7.4520  8.3420 -6.5967  5.8000  7.4520  8.3420 
  2540.500 -15.688  5.4710  7.1870  7.8470 -5.7793  5.4710  7.1870  7.8470 
  2541.000 -15.446  5.2200  6.7640  7.7110 -5.5378  5.2200  6.7640  7.7110 
  2541.500 -15.204  5.1420  6.5490  7.6330 -5.2964  5.1420  6.5490  7.6330 
  2542.000 -14.853  5.1000  6.2840  7.4690 -4.9460  5.1000  6.2840  7.4690 
  2542.500 -14.575  5.0930  6.2200  7.3400 -4.6686  5.0930  6.2200  7.3400 
  2543.000 -14.261  5.0870  6.1560  7.1830 -4.3552  5.0870  6.1560  7.1830 
  2543.500 -14.234  5.1310  5.9420  7.1550 -4.3288  5.1310  5.9420  7.1550 
  2544.000 -14.350  5.2530  5.8780  7.1200 -4.4453  5.2530  5.8780  7.1200 
  2544.500 -14.431  5.5630  5.8360  7.1280 -4.5269  5.5630  5.8360  7.1280 
  2545.000 -14.261  5.7570  5.8360  7.2940 -4.3575  5.7570  5.8360  7.2940 
  2545.500 -14.198  5.9520  6.0020  7.3800 -4.2951  5.9520  6.0020  7.3800 
  2546.000 -14.171  6.1610  6.1750  7.5390 -4.2687  6.1610  6.1750  7.5390 
  2546.500 -14.503  6.3910  6.4560  7.7620 -4.6013  6.3910  6.4560  7.7620 
