~Version Information
VERS.                     2.0: CWLS log ASCII Standard Version 2.00
WRAP.                      NO: One line per depth step
~Well Information Block
#MNEM.UNIT                               Data Type  Information
#---------                               ---------  -----------
STRT.FT                                   374.0000:
STOP.FT                                  6834.0000:
STEP.FT                                     0.5000:
NULL.                 -999.25                     :
COMP.                                             :COMPANY            
WELL.     SAN EMIDIO A #66-19 REDRILL             :WELL               
FLD .                                             :FIELD              
CTRY.                                             :COUNTRY            
STAT.                                             :STATE              
LOC .                                             :LOCATION           
UWI .                                             :UNIQUE WELL ID     
SRVC.                                             :Service company    
DATE.                                             :LOG DATE           
~Curve Information
#MNEM.UNIT           API CODE  Curve Description
#---------           --------  -----------------
DEPT.FT                      :   1 DEPTH
SP  .MV                      :   2
AM16.OHMM                    :   3
AO10.OHMM                    :   4
AO19.OHMM                    :   5
SBL .MV                      :   6
RS  .OHMM                    :   7
RM  .OHMM                    :   8
RD  .OHMM                    :   9
~A
# ...
  2070.000 -44.811  16.870  19.843  15.284 -33.412  16.870  19.843  15.284 
  2070.500 -45.088  16.740  19.833  15.592 -33.691  16.740  19.833  15.592 
  2071.000 -44.718  16.510  19.824  15.907 -33.323  16.510  19.824  15.907 
  2071.500 -43.773  15.863  19.814  16.165 -32.379  15.863  19.814  16.165 
  2072.000 -42.829  15.166  19.805  16.330 -31.437  15.166  19.805  16.330 
  2072.500 -40.914  13.428  19.795  16.423 -29.524  13.428  19.795  16.423 
  2073.000 -38.353  12.716  19.785  16.444 -26.965  12.716  19.785  16.444 
  2073.500 -35.001  12.443  19.776  16.035 -23.615  12.443  19.776  16.035 
  2074.000 -31.794  12.191  19.766  15.130 -20.409  12.191  19.766  15.130 
  2074.500 -29.448  11.946  19.757  14.706 -18.065  11.946  19.757  14.706 
  2075.000 -28.827  11.831  18.256  14.462 -17.446  11.831  18.256  14.462 
  2075.500 -29.067  12.253  17.788  14.382 -17.688  12.253  17.788  14.382 
  2076.000 -30.062  12.870  17.752  15.064 -18.685  12.870  17.752  15.064 
  2076.500 -32.889  13.279  18.275  15.889 -21.513  13.279  18.275  15.889 
  2077.000 -35.573  13.522  18.705  16.528 -24.199  13.522  18.705  16.528 
  2077.500 -36.963  13.894  19.135  16.858 -25.591  13.894  19.135  16.858 
  2078.000 -37.958  14.088  19.665  17.274 -26.588  14.088  19.665  17.274 
  2078.500 -38.917  14.144  19.916  17.654 -27.548  14.144  19.916  17.654 
  2079.000 -39.445  14.101  19.923  18.034 -28.078  14.101  19.923  18.034 
  2079.500 -39.650  14.014  19.929  18.285 -28.285  14.014  19.929  18.285 
  2080.000 -38.310  13.841  19.936  18.435 -26.947  13.841  19.936  18.435 
  2080.500 -35.445  12.656  19.943  18.478 -24.084  12.656  19.943  18.478 
  2081.000 -31.898  12.225  19.949  17.330 -20.538  12.225  19.949  17.330 
  2081.500 -28.494  11.980  19.956  17.028 -17.136  11.980  19.956  17.028 
  2082.000 -27.498  12.059  19.345  16.770 -16.142  12.059  19.345  16.770 
  2082.500 -26.968  12.360  17.478  16.612 -15.614  12.360  17.478  16.612 
  2083.000 -27.264  12.833  17.098  16.949 -15.911  12.833  17.098  16.949 
  2083.500 -28.566  13.285  16.903  17.308 -17.215  13.285  16.903  17.308 
  2084.000 -31.341  14.225  16.716  17.789 -19.992  14.225  16.716  17.789 
  2084.500 -37.241  14.964  16.659  18.564 -25.894  14.964  16.659  18.564 
  2085.000 -39.621  15.323  16.630  19.052 -28.276  15.323  16.630  19.052 
  2085.500 -40.959  15.660  16.622  19.440 -29.615  15.660  16.622  19.440 
  2086.000 -41.758  16.665  16.851  19.691 -30.416  16.665  16.851  19.691 
  2086.500 -42.342  17.224  18.761  19.914 -31.002  17.224  18.761  19.914 
  2087.000 -42.997  17.461  19.026  19.919 -31.659  17.461  19.026  19.919 
  2087.500 -43.258  17.575  19.212  19.924 -31.921  17.575  19.212  19.924 
  2088.000 -43.590  17.625  19.513  19.929 -32.255  17.625  19.513  19.929 
  2088.500 -44.030  17.654  19.793  19.935 -32.697  17.654  19.793  19.935 
  2089.000 -44.326  17.675  19.994  19.940 -32.995  17.675  19.994  19.940 
  2089.500 -44.838  17.660  19.964  19.945 -33.509  17.660  19.964  19.945 
  2090.000 -45.458  17.559  19.985  19.950 -34.130  17.559  19.985  19.950 
  2090.500 -45.957  17.488  20.006  19.955 -34.631  17.488  20.006  19.955 
  2091.000 -46.061  17.403  20.026  19.960 -34.737  17.403  20.026  19.960 
  2091.500 -45.950  17.274  20.047  19.966 -34.628  17.274  20.047  19.966 
  2092.000 -45.875  17.088  20.067  19.971 -34.555  17.088  20.067  19.971 
  2092.500 -45.871  16.931  20.088  19.976 -34.552  16.931  20.088  19.976 
  2093.000 -46.370  16.896  20.108  19.981 -35.053  16.896  20.108  19.981 
  2093.500 -46.654  16.911  20.129  19.986 -35.339  16.911  20.129  19.986 
  2094.000 -47.118  16.969  20.149  19.991 -35.805  16.969  20.149  19.991 
  2094.500 -47.114  17.013  20.170  19.834 -35.802  17.013  20.170  19.834 
  2095.000 -47.003  17.085  20.191  19.612 -35.693  17.085  20.191  19.612 
  2095.500 -46.855  17.230  20.211  19.398 -35.547  17.230  20.211  19.398 
  2096.000 -46.780  17.374  20.232  19.391 -35.474  17.374  20.232  19.391 
  2096.500 -46.740  17.597  20.252  19.600 -35.436  17.597  20.252  19.600 
  2097.000 -46.737  17.957  20.273  19.802 -35.434  17.957  20.273  19.802 
  2097.500 -46.769  18.137  21.213  19.982 -35.468  18.137  21.213  19.982 
  2098.000 -46.837  18.324  21.508  19.981 -35.538  18.324  21.508  19.981 
  2098.500 -47.121  18.433  21.874  19.980 -35.824  18.433  21.874  19.980 
  2099.000 -47.225  18.469  22.383  19.979 -35.929  18.469  22.383  19.979 
  2099.500 -47.581  18.470  22.821  19.977 -36.287  18.470  22.821  19.977 
  2100.000 -47.829  18.363  23.331  19.976 -36.537  18.363  23.331  19.976 
  2100.500 -47.685  18.204  24.031  19.975 -36.395  18.204  24.031  19.975 
  2101.000 -47.254  17.857  24.659  19.974 -35.966  17.857  24.659  19.974 
  2101.500 -46.607  17.482  25.072  19.973 -35.320  17.482  25.072  19.973 
  2102.000 -46.105  16.461  25.556  19.971 -34.820  16.461  25.556  19.971 
  2102.500 -44.883  14.420  25.969  19.970 -33.600  14.420  25.969  19.970 
  2103.000 -41.758  13.837  25.951  19.969 -30.477  13.837  25.951  19.969 
  2103.500 -38.884  12.658  24.928  19.968 -27.605  12.658  24.928  19.968 
  2104.000 -36.586  12.067  23.762  19.967 -25.308  12.067  23.762  19.967 
  2104.500 -33.891  11.613  22.236  19.966 -22.615  11.613  22.236  19.966 
  2105.000 -31.988  10.729  20.711  18.973 -20.714  10.729  20.711  18.973 
  2105.500 -31.269  10.404  20.150  17.989 -19.997  10.404  20.150  17.989 
  2106.000 -30.766  10.151  19.589  17.226 -19.495  10.151  19.589  17.226 
  2106.500 -30.263  10.034  19.028  15.789 -18.994  10.034  19.028  15.789 
  2107.000 -28.791  9.9820  18.467  15.134 -17.524  9.9820  18.467  15.134 
  2107.500 -27.282  9.9300  17.425  14.709 -16.017  9.9300  17.425  14.709 
  2108.000 -26.420  9.8350  16.511  14.622 -15.157  9.8350  16.511  14.622 
  2108.500 -26.743  9.7250  16.086  14.620 -15.481  9.7250  16.086  14.620 
  2109.000 -29.042  9.6160  15.854  14.726 -17.782  9.6160  15.854  14.726 
  2109.500 -30.012  9.4130  15.967  14.818 -18.754  9.4130  15.967  14.818 
  2110.000 -29.365  9.1820  16.016  14.853 -18.109  9.1820  16.016  14.853 
  2110.500 -25.951  8.7730  15.743  14.818 -14.696  8.7730  15.743  14.818 
  2111.000 -24.369  8.3850  15.449  14.617 -13.116  8.3850  15.449  14.617 
  2111.500 -23.469  8.0770  15.127  14.467 -12.218  8.0770  15.127  14.467 
  2112.000 -23.970  7.7760  13.864  14.123 -12.721  7.7760  13.864  14.123 
  2112.500 -24.759  7.3310  13.548  13.571 -13.512  7.3310  13.548  13.571 
  2113.000 -25.296  7.0300  13.319  13.077 -14.050  7.0300  13.319  13.077 
  2113.500 -19.618  6.8800  12.350  12.553 -8.3742  6.8800  12.350  12.553 
  2114.000 -17.928  6.7080  11.496  12.202 -6.6859  6.7080  11.496  12.202 
  2114.500 -16.885  6.6440  10.901  11.880 -5.6447  6.6440  10.901  11.880 
  2115.000 -16.488  6.6440  10.413  11.773 -5.2495  6.6440  10.413  11.773 
  2115.500 -16.558  6.8960  10.205  11.982 -5.3213  6.8960  10.205  11.982 
  2116.000 -16.879  7.1110  10.047  12.212 -5.6441  7.1110  10.047  12.212 
  2116.500 -17.344  7.2340  10.012  12.464 -6.1109  7.2340  10.012  12.464 
  2117.000 -17.917  7.3200  10.113  12.681 -6.6856  7.3200  10.113  12.681 
  2117.500 -19.101  7.4430  10.278  12.933 -7.8714  7.4430  10.278  12.933 
  2118.000 -21.254  7.5150  10.386  13.084 -10.026  7.5150  10.386  13.084 
  2118.500 -25.384  7.5870  10.487  13.293 -14.158  7.5870  10.487  13.293 
  2119.000 -29.153  7.7160  10.552  13.373 -17.929  7.7160  10.552  13.373 
  2119.500 -30.517  7.7740  10.606  13.474 -19.295  7.7740  10.606  13.474 
  2120.000 -30.730  7.8180  10.660  13.518 -19.509  7.8180  10.660  13.518 
  2120.500 -29.083  7.8610  10.704  13.575 -17.864  7.8610  10.704  13.575 
  2121.000 -27.867  7.8260  10.647  13.653 -16.650  7.8260  10.647  13.653 
  2121.500 -26.975  7.7680  10.575  13.710 -15.760  7.7680  10.575  13.710 
  2122.000 -26.585  7.7190  10.454  13.810 -15.371  7.7190  10.454  13.810 
  2122.500 -27.237  7.6690  10.260  13.810 -16.025  7.6690  10.260  13.810 
