~Version Information
VERS.                     2.0: CWLS log ASCII Standard Version 2.00
WRAP.                      NO: One line per depth step
~Well Information Block
#MNEM.UNIT                               Data Type  Information
#---------                               ---------  -----------
STRT.FT                                   419.0000:
STOP.FT                                  7100.0000:
STEP.FT                                     0.5000:
NULL.                 -999.25                     :
COMP.                                             :COMPANY            
WELL.     SAN EMIDIO A #62-28                     :WELL               
FLD .                                             :FIELD              
CTRY.                                             :COUNTRY            
STAT.                                             :STATE              
LOC .                                             :LOCATION           
UWI .                                             :UNIQUE WELL ID     
SRVC.                                             :Service company    
DATE.                                             :LOG DATE           
~Curve Information
#MNEM.UNIT           API CODE  Curve Description
#---------           --------  -----------------
DEPT.FT                      :   1 DEPTH
SP  .MV                      :   2
AM16.OHMM                    :   3
AO10.OHMM                    :   4
AO19.OHMM                    :   5
SBL .MV                      :   6
RS  .OHMM                    :   7
RM  .OHMM                    :   8
RD  .OHMM                    :   9
DEVI.DEG                     :  10
TVD .FT                      :  11
AZIM.DEG                     :  12
NORT.FT                      :  13
EAST.FT                      :  14
OFFS.FT                      :  15
~A
# ...
  4871.500 -23.759  3.2370  3.6110  2.9750 -12.938  3.2370  3.6110  2.9750  0.9758  4870.7  113.73  5.8218  73.463  56.063 
  4872.000 -23.037  3.2940  3.7170  2.9540 -12.207  3.2940  3.7170  2.9540  0.9733  4871.2  113.80  5.8183  73.471  56.066 
  4872.500 -23.717  3.3000  3.7590  2.9320 -12.878  3.3000  3.7590  2.9320  0.9708  4871.7  113.88  5.8149  73.479  56.069 
  4873.000 -24.685  3.0840  3.7300  2.8530 -13.837  3.0840  3.7300  2.8530  0.9683  4872.2  113.95  5.8115  73.487  56.072 
  4873.500 -22.922  2.9830  3.6930  2.8140 -12.066  2.9830  3.6930  2.8140  0.9658  4872.7  114.03  5.8081  73.494  56.075 
  4874.000 -21.661  2.8530  3.6130  2.7750 -10.796  2.8530  3.6130  2.7750  0.9633  4873.2  114.10  5.8046  73.502  56.078 
  4874.500 -19.971  2.7370  3.5050  2.6820 -9.0973  2.7370  3.5050  2.6820  0.9608  4873.7  114.18  5.8012  73.510  56.081 
  4875.000 -19.285  2.6930  3.4320  2.6390 -8.4026  2.6930  3.4320  2.6390  0.9583  4874.2  114.25  5.7978  73.517  56.084 
  4875.500 -18.277  2.6420  3.3380  2.5390 -7.3859  2.6420  3.3380  2.5390  0.9558  4874.7  114.33  5.7943  73.525  56.087 
  4876.000 -17.842  2.6050  3.2440  2.4740 -6.9421  2.6050  3.2440  2.4740  0.9533  4875.2  114.40  5.7909  73.532  56.090 
  4876.500 -17.121  2.5680  3.1500  2.3960 -6.2124  2.5680  3.1500  2.3960  0.9508  4875.7  114.48  5.7874  73.540  56.093 
  4877.000 -16.795  2.5890  3.0270  2.3240 -5.8777  2.5890  3.0270  2.3240  0.9483  4876.2  114.55  5.7840  73.547  56.096 
  4877.500 -16.649  2.6740  2.9250  2.2670 -5.7230  2.6740  2.9250  2.2670  0.9458  4876.7  114.63  5.7806  73.555  56.099 
  4878.000 -16.969  2.8170  2.8520  2.2240 -6.0343  2.8170  2.8520  2.2240  0.9433  4877.2  114.70  5.7771  73.562  56.102 
  4878.500 -17.972  2.9450  2.8770  2.3240 -7.0286  2.9450  2.8770  2.3240  0.9408  4877.7  114.78  5.7737  73.570  56.104 
  4879.000 -19.443  3.0880  2.9010  2.4040 -8.4909  3.0880  2.9010  2.4040  0.9383  4878.2  114.85  5.7702  73.577  56.107 
  4879.500 -21.057  3.1940  3.0440  2.4970 -10.096  3.1940  3.0440  2.4970  0.9358  4878.7  114.93  5.7668  73.585  56.110 
  4880.000 -24.288  3.2430  3.1220  2.5470 -13.318  3.2430  3.1220  2.5470  0.9333  4879.2  115.00  5.7634  73.592  56.113 
  4880.500 -26.990  3.2720  3.2010  2.5970 -16.012  3.2720  3.2010  2.5970  0.9308  4879.7  115.08  5.7599  73.599  56.116 
  4881.000 -30.123  3.2830  3.2580  2.6250 -19.136  3.2830  3.2580  2.6250  0.9283  4880.2  115.15  5.7565  73.607  56.118 
  4881.500 -32.070  3.2940  3.2790  2.5880 -21.074  3.2940  3.2790  2.5880  0.9258  4880.7  115.23  5.7530  73.614  56.121 
  4882.000 -32.975  3.3370  3.2940  2.5090 -21.971  3.3370  3.2940  2.5090  0.9233  4881.2  115.30  5.7496  73.621  56.124 
  4882.500 -34.276  3.4230  3.2650  2.4510 -23.263  3.4230  3.2650  2.4510  0.9208  4881.7  115.38  5.7461  73.629  56.126 
  4883.000 -35.038  3.5590  3.2010  2.4070 -24.016  3.5590  3.2010  2.4070  0.9183  4882.2  115.45  5.7427  73.636  56.129 
  4883.500 -36.194  3.7820  3.1430  2.3630 -25.164  3.7820  3.1430  2.3630  0.9158  4882.7  115.53  5.7393  73.643  56.132 
  4884.000 -37.998  3.9970  3.0790  2.2330 -26.959  3.9970  3.0790  2.2330  0.9133  4883.2  115.60  5.7358  73.650  56.134 
  4884.500 -39.837  4.4780  3.0070  2.2400 -28.789  4.4780  3.0070  2.2400  0.9108  4883.7  115.68  5.7324  73.657  56.137 
  4885.000 -41.066  4.8150  2.9570  2.4540 -30.009  4.8150  2.9570  2.4540  0.9083  4884.2  115.75  5.7289  73.665  56.140 
  4885.500 -42.870  5.4470  2.9490  2.7190 -31.805  5.4470  2.9490  2.7190  0.9058  4884.7  115.83  5.7255  73.672  56.142 
  4886.000 -43.847  7.3480  3.2010  2.9410 -32.773  7.3480  3.2010  2.9410  0.9033  4885.2  115.90  5.7220  73.679  56.145 
  4886.500 -44.141  8.7410  3.6020  3.1190 -33.058  8.7410  3.6020  3.1190  0.9008  4885.7  115.98  5.7186  73.686  56.147 
  4887.000 -42.855  9.7810  3.8540  3.2840 -31.764  9.7810  3.8540  3.2840  0.8983  4886.2  116.05  5.7152  73.693  56.150 
  4887.500 -41.892  10.326  4.1120  3.4480 -30.792  10.326  4.1120  3.4480  0.8958  4886.7  116.13  5.7117  73.700  56.153 
  4888.000 -41.001  10.448  4.2160  3.5230 -29.892  10.448  4.2160  3.5230  0.8933  4887.2  116.20  5.7083  73.707  56.155 
  4888.500 -41.189  10.262  4.3200  3.5980 -30.071  10.262  4.3200  3.5980  0.8908  4887.7  116.28  5.7048  73.714  56.158 
  4889.000 -41.663  9.5800  4.5140  3.7080 -30.537  9.5800  4.5140  3.7080  0.8883  4888.2  116.35  5.7014  73.721  56.160 
  4889.500 -42.137  7.4130  4.6430  3.8190 -31.002  7.4130  4.6430  3.8190  0.8858  4888.7  116.43  5.6979  73.728  56.162 
  4890.000 -42.683  6.5230  4.7000  3.6310 -31.539  6.5230  4.7000  3.6310  0.8833  4889.2  116.50  5.6945  73.735  56.165 
  4890.500 -42.582  5.8050  4.7290  3.4440 -31.430  5.8050  4.7290  3.4440  0.8808  4889.7  116.58  5.6911  73.742  56.167 
  4891.000 -40.398  5.2740  4.7150  3.2640 -29.237  5.2740  4.7150  3.2640  0.8783  4890.2  116.65  5.6876  73.748  56.170 
  4891.500 -37.926  4.0400  4.3770  3.1190 -26.756  4.0400  4.3770  3.1190  0.8758  4890.7  116.73  5.6842  73.755  56.172 
  4892.000 -35.382  3.5450  3.9680  3.0110 -24.203  3.5450  3.9680  3.0110  0.8733  4891.2  116.80  5.6808  73.762  56.175 
  4892.500 -31.797  3.1500  3.5450  2.8310 -20.610  3.1500  3.5450  2.8310  0.8708  4891.7  116.88  5.6773  73.769  56.177 
  4893.000 -24.438  2.8420  3.2290  2.6440 -13.242  2.8420  3.2290  2.6440  0.8683  4892.2  116.95  5.6739  73.776  56.179 
  4893.500 -21.248  2.6480  2.9420  2.4560 -10.043  2.6480  2.9420  2.4560  0.8658  4892.7  117.03  5.6705  73.782  56.182 
  4894.000 -19.818  2.4470  2.7130  2.3340 -8.6046  2.4470  2.7130  2.3340  0.8633  4893.2  117.10  5.6670  73.789  56.184 
  4894.500 -19.250  2.3610  2.5470  2.2680 -8.0279  2.3610  2.5470  2.2680  0.8608  4893.7  117.18  5.6636  73.796  56.186 
  4895.000 -18.682  2.3540  2.5900  2.1890 -7.4512  2.3540  2.5900  2.1890  0.8583  4894.2  117.25  5.6602  73.802  56.188 
  4895.500 -17.613  2.4040  2.7050  2.2950 -6.3735  2.4040  2.7050  2.2950  0.8558  4894.7  117.33  5.6567  73.809  56.191 
  4896.000 -17.225  2.4330  3.0860  2.3740 -5.9768  2.4330  3.0860  2.3740  0.8533  4895.2  117.40  5.6533  73.816  56.193 
  4896.500 -16.944  2.4970  3.3370  2.4230 -5.6871  2.4970  3.3370  2.4230  0.8508  4895.7  117.48  5.6499  73.822  56.195 
  4897.000 -16.736  2.5260  3.6670  2.5090 -5.4704  2.5260  3.6670  2.5090  0.8483  4896.2  117.55  5.6465  73.829  56.197 
  4897.500 -16.617  2.5550  3.7750  2.5370 -5.3427  2.5550  3.7750  2.5370  0.8458  4896.7  117.63  5.6430  73.835  56.200 
  4898.000 -16.497  2.5690  3.8970  2.6010 -5.2140  2.5690  3.8970  2.6010  0.8433  4897.2  117.70  5.6396  73.842  56.202 
  4898.500 -16.362  2.5690  3.9610  2.5930 -5.0703  2.5690  3.9610  2.5930  0.8408  4897.7  117.78  5.6362  73.848  56.204 
  4899.000 -16.333  2.5690  3.9470  2.5350 -5.0326  2.5690  3.9470  2.5350  0.8383  4898.2  117.85  5.6328  73.855  56.206 
  4899.500 -16.303  2.5040  3.7100  2.3760 -4.9939  2.5040  3.7100  2.3760  0.8358  4898.7  117.93  5.6294  73.861  56.208 
  4900.000 -16.132  2.4330  3.4300  2.2750 -4.8141  2.4330  3.4300  2.2750  0.8333  4899.2  118.00  5.6259  73.868  56.210 
  4900.500 -16.183  2.4320  3.3290  2.2040 -4.8564  2.4320  3.3290  2.2040  0.8337  4899.7  118.07  5.6225  73.874  56.213 
  4901.000 -16.235  2.4110  3.3010  2.2970 -4.8997  2.4110  3.3010  2.2970  0.8341  4900.2  118.14  5.6191  73.880  56.215 
  4901.500 -16.630  2.3750  3.2930  2.3630 -5.2860  2.3750  3.2930  2.3630  0.8346  4900.7  118.21  5.6156  73.887  56.217 
  4902.000 -17.239  2.3240  3.3000  2.4060 -5.8863  2.3240  3.3000  2.4060  0.8350  4901.2  118.28  5.6122  73.893  56.219 
  4902.500 -17.919  2.2880  3.3110  2.4500 -6.5576  2.2880  3.3110  2.4500  0.8354  4901.7  118.35  5.6087  73.900  56.221 
  4903.000 -18.420  2.2590  3.3220  2.4570 -7.0499  2.2590  3.3220  2.4570  0.8358  4902.2  118.42  5.6053  73.906  56.223 
  4903.500 -18.742  2.2450  3.2420  2.4220 -7.3632  2.2450  3.2420  2.4220  0.8362  4902.7  118.49  5.6018  73.913  56.225 
