~Version Information
VERS.                     2.0: CWLS log ASCII Standard Version 2.00
WRAP.                      NO: One line per depth step
~Well Information Block
#MNEM.UNIT                               Data Type  Information
#---------                               ---------  -----------
STRT.FT                                   374.0000:
STOP.FT                                  6834.0000:
STEP.FT                                     0.5000:
NULL.                 -999.25                     :
COMP.                                             :COMPANY            
WELL.     SAN EMIDIO A #66-19 REDRILL             :WELL               
FLD .                                             :FIELD              
CTRY.                                             :COUNTRY            
STAT.                                             :STATE              
LOC .                                             :LOCATION           
UWI .                                             :UNIQUE WELL ID     
SRVC.                                             :Service company    
DATE.                                             :LOG DATE           
~Curve Information
#MNEM.UNIT           API CODE  Curve Description
#---------           --------  -----------------
DEPT.FT                      :   1 DEPTH
SP  .MV                      :   2
AM16.OHMM                    :   3
AO10.OHMM                    :   4
AO19.OHMM                    :   5
SBL .MV                      :   6
RS  .OHMM                    :   7
RM  .OHMM                    :   8
RD  .OHMM                    :   9
~A
   374.000 -35.756  19.929  20.752  0.1110 -19.756  19.929  20.752  0.1110 
   374.500 -21.621  19.932  21.190  0.1070 -5.6210  19.932  21.190  0.1070 
   375.000 -12.606  19.934  21.628  0.1020  3.3940  19.934  21.628  0.1020 
   375.500 -10.003  20.254  22.066  0.1050  5.9970  20.254  22.066  0.1050 
   376.000 -7.6860  20.573  22.505  0.1070  8.3140  20.573  22.505  0.1070 
   376.500 -4.9030  20.893  22.943  0.0990  11.097  20.893  22.943  0.0990 
   377.000 -4.0900  22.847  23.381  0.0910  11.910  22.847  23.381  0.0910 
   377.500 -5.2110  24.944  23.819  0.0900  10.789  24.944  23.819  0.0900 
   378.000 -8.7310  26.326  24.258  0.0970  7.2690  26.326  24.258  0.0970 
   378.500 -10.139  27.993  24.696  0.0890  5.8610  27.993  24.696  0.0890 
   379.000 -12.012  29.231  25.134  0.0950  3.9880  29.231  25.134  0.0950 
   379.500 -12.918  30.469  25.572  0.1010  3.0820  30.469  25.572  0.1010 
   380.000 -13.896  32.567  26.011  0.1070  2.1040  32.567  26.011  0.1070 
   380.500 -16.218  33.744  26.449  0.1090 -0.2180  33.744  26.449  0.1090 
   381.000 -18.111  34.922  26.887  0.1110 -2.1110  34.922  26.887  0.1110 
   381.500 -18.786  36.350  27.325  0.1130 -2.7860  36.350  27.325  0.1130 
   382.000 -19.390  36.811  27.764  0.1150 -3.3900  36.811  27.764  0.1150 
   382.500 -20.100  37.273  28.202  0.1160 -4.1000  37.273  28.202  0.1160 
   383.000 -20.811  38.056  28.640  0.1180 -4.8110  38.056  28.640  0.1180 
   383.500 -22.346  38.840  29.079  0.1200 -6.3460  38.840  29.079  0.1200 
   384.000 -23.809  39.588  29.517  0.1220 -7.8090  39.588  29.517  0.1220 
   384.500 -24.377  40.336  29.955  0.1240 -8.3770  40.336  29.955  0.1240 
   385.000 -25.231  41.120  30.393  0.1250 -9.2310  41.120  30.393  0.1250 
   385.500 -26.371  41.546  30.832  0.1270 -10.371  41.546  30.832  0.1270 
   386.000 -27.691  41.614  31.270  0.1220 -11.691  41.614  31.270  0.1220 
   386.500 -28.724  41.324  31.708  0.1240 -12.724  41.324  31.708  0.1240 
   387.000 -29.901  40.891  32.146  0.1250 -13.901  40.891  32.146  0.1250 
   387.500 -31.256  40.422  32.585  0.1130 -15.256  40.422  32.585  0.1130 
   388.000 -32.254  39.953  46.109  0.1070 -16.254  39.953  46.109  0.1070 
   388.500 -32.642  38.304  48.324  0.0880 -16.642  38.304  48.324  0.0880 
   389.000 -33.031  37.012  49.180  0.0820 -17.031  37.012  49.180  0.0820 
   389.500 -34.064  36.507  49.677  0.0840 -18.064  36.507  49.677  0.0840 
   390.000 -34.739  36.432  50.318  0.1430 -18.739  36.432  50.318  0.1430 
   390.500 -34.995  30.685  51.452  0.2330 -18.995  30.685  51.452  0.2330 
   391.000 -35.252  30.720  53.088  0.2450 -19.252  30.720  53.088  0.2450 
   391.500 -35.722  30.754  55.296  0.2420 -19.722  30.754  55.296  0.2420 
   392.000 -36.122  30.796  58.721  0.2390 -20.122  30.796  58.721  0.2390 
   392.500 -36.664  30.860  60.857  0.2940 -20.664  30.860  60.857  0.2940 
   393.000 -36.885  30.894  64.067  1.1070 -20.885  30.894  64.067  1.1070 
   393.500 -37.033  30.936  66.633  3.5750 -21.033  30.936  66.633  3.5750 
   394.000 -37.074  30.985  68.555  14.907 -21.074  30.985  68.555  14.907 
   394.500 -37.151  40.027  70.692  19.357 -21.151  40.027  70.692  19.357 
   395.000 -36.942  40.069  69.894  23.807 -20.942  40.069  69.894  23.807 
   395.500 -36.553  40.097  68.666  28.256 -20.553  40.097  68.666  28.256 
   396.000 -36.165  40.124  67.868  37.035 -20.165  40.124  67.868  37.035 
   396.500 -35.919  40.520  67.929  41.447 -19.919  40.520  67.929  41.447 
   397.000 -35.567  40.194  68.204  44.569 -19.567  40.194  68.204  44.569 
   397.500 -35.536  40.203  69.410  47.046 -19.536  40.203  69.410  47.046 
   398.000 -35.721  40.213  71.762  49.166 -19.721  40.213  71.762  49.166 
   398.500 -36.013  40.155  73.111  51.858 -20.013  40.155  73.111  51.858 
   399.000 -36.555  40.096  74.031  53.620 -20.555  40.096  74.031  53.620 
   399.500 -36.847  30.995  74.163  55.023 -20.847  30.995  74.163  55.023 
   400.000 -37.354  30.951  72.864  55.854 -21.354  30.951  72.864  55.854 
   400.500 -38.065  30.914  71.565  57.089 -22.065  30.914  71.565  57.089 
   401.000 -38.453  30.884  70.982  58.110 -22.453  30.884  70.982  58.110 
   401.500 -39.092  30.876  70.184  59.416 -23.092  30.876  70.184  59.416 
   402.000 -39.588  30.875  69.672  62.227 -23.588  30.875  69.672  62.227 
   402.500 -40.049  30.899  69.446  63.605 -24.049  30.899  69.446  63.605 
   403.000 -40.616  30.923  69.436  64.984 -24.616  30.923  69.436  64.984 
   403.500 -40.969  30.994  71.000  67.866 -24.969  30.994  71.000  67.866 
   404.000 -41.537  40.028  74.782  68.994 -25.537  40.028  74.782  68.994 
   404.500 -41.746  40.077  76.203  70.122 -25.746  40.077  76.203  70.122 
   405.000 -42.171  40.105  78.125  72.789 -26.171  40.105  78.125  72.789 
   405.500 -42.488  30.939  79.402  74.812 -26.488  30.939  79.402  74.812 
   406.000 -42.805  30.781  80.680  76.191 -26.805  30.781  80.680  76.191 
   406.500 -42.978  30.687  81.886  77.283 -26.978  30.687  81.886  77.283 
   407.000 -43.152  30.507  81.947  77.515 -27.152  30.507  81.947  77.515 
   407.500 -42.860  30.398  81.364  76.817 -26.860  30.398  81.364  76.817 
   408.000 -42.461  30.261  80.565  75.904 -26.461  30.261  80.565  75.904 
   408.500 -42.133  30.203  78.908  72.700 -26.133  30.203  78.908  72.700 
   409.000 -42.164  30.116  73.100  67.777 -26.164  30.116  73.100  67.777 
   409.500 -42.982  30.093  70.083  64.859 -26.982  30.093  70.083  64.859 
   410.000 -43.514  30.114  66.351  62.084 -27.514  30.114  66.351  62.084 
   410.500 -44.015  30.116  65.302  63.387 -28.015  30.116  65.302  63.387 
   411.000 -44.373  30.061  66.973  68.987 -28.373  30.061  66.973  68.987 
   411.500 -44.767  20.871  71.221  72.224 -28.767  20.871  71.221  72.224 
   412.000 -44.946  20.730  72.749  73.097 -28.946  20.730  72.749  73.097 
   412.500 -44.624  20.589  72.774  72.610 -28.624  20.589  72.774  72.610 
   413.000 -43.872  20.434  71.941  71.336 -27.872  20.434  71.941  71.336 
   413.500 -43.227  20.337  70.892  68.844 -27.227  20.337  70.892  68.844 
   414.000 -42.654  20.225  68.841  59.907 -26.654  20.225  68.841  59.907 
   414.500 -42.475  20.163  60.063  49.896 -26.475  20.163  60.063  49.896 
   415.000 -42.618  20.101  54.505  46.760 -26.618  20.101  54.505  46.760 
   415.500 -43.012  19.725  46.442  43.910 -27.012  19.725  46.442  43.910 
   416.000 -43.263  19.517  44.248  42.564 -27.263  19.517  44.248  42.564 
   416.500 -43.657  19.308  40.694  39.929 -27.657  19.308  40.694  39.929 
   417.000 -43.764  18.974  37.785  37.866 -27.764  18.974  37.785  37.866 
   417.500 -43.370  18.790  34.947  35.517 -27.370  18.790  34.947  35.517 
   418.000 -42.224  18.728  31.966  33.169 -26.224  18.728  31.966  33.169 
   418.500 -41.401  19.168  29.700  31.035 -25.401  19.168  29.700  31.035 
   419.000 -40.971  19.464  27.936  30.118 -24.971  19.464  27.936  30.118 
   419.500 -40.828  19.724  26.959  30.419 -24.828  19.724  26.959  30.419 
   420.000 -41.043  24.336  26.841  34.085 -25.043  24.336  26.841  34.085 
   420.500 -42.042  24.747  27.467  36.928 -26.042  24.747  27.467  36.928 
   421.000 -43.077  25.158  29.167  39.628 -27.077  25.158  29.167  39.628 
   421.500 -44.255  25.606  31.368  40.895 -28.255  25.606  31.368  40.895 
   422.000 -45.362  26.053  33.641  42.592 -29.362  26.053  33.641  42.592 
   422.500 -45.788  26.680  35.913  43.502 -29.788  26.680  35.913  43.502 
   423.000 -46.286  26.948  37.040  43.767 -30.286  26.948  37.040  43.767 
   423.500 -46.640  27.002  37.667  43.960 -30.640  27.002  37.667  43.960 
   424.000 -46.887  27.127  37.720  43.938 -30.887  27.127  37.720  43.938 
   424.500 -46.991  27.038  37.560  43.989 -30.991  27.038  37.560  43.989 
   425.000 -46.916  26.304  37.040  43.609 -30.916  26.304  37.040  43.609 
   425.500 -46.518  25.213  35.877  43.265 -30.518  25.213  35.877  43.265 
   426.000 -45.906  24.193  33.426  42.921 -29.906  24.193  33.426  42.921 
   426.500 -44.756  23.316  31.905  40.967 -28.756  23.316  31.905  40.967 
