~Version Information
VERS.                     2.0: CWLS log ASCII Standard Version 2.00
WRAP.                      NO: One line per depth step
~Well Information Block
#MNEM.UNIT                               Data Type  Information
#---------                               ---------  -----------
STRT.FT                                   374.0000:
STOP.FT                                  6834.0000:
STEP.FT                                     0.5000:
NULL.                 -999.25                     :
COMP.                                             :COMPANY            
WELL.     SAN EMIDIO A #66-19 REDRILL             :WELL               
FLD .                                             :FIELD              
CTRY.                                             :COUNTRY            
STAT.                                             :STATE              
LOC .                                             :LOCATION           
UWI .                                             :UNIQUE WELL ID     
SRVC.                                             :Service company    
DATE.                                             :LOG DATE           
~Curve Information
#MNEM.UNIT           API CODE  Curve Description
#---------           --------  -----------------
DEPT.FT                      :   1 DEPTH
SP  .MV                      :   2
AM16.OHMM                    :   3
AO10.OHMM                    :   4
AO19.OHMM                    :   5
SBL .MV                      :   6
RS  .OHMM                    :   7
RM  .OHMM                    :   8
RD  .OHMM                    :   9
~A
# ...
   798.000 -30.284  7.0230  11.081  6.2440 -14.352  7.0230  11.081  6.2440 
   798.500 -31.792  6.9300  10.730  6.3000 -15.861  6.9300  10.730  6.3000 
   799.000 -32.870  6.8650  11.045  6.3270 -16.941  6.8650  11.045  6.3270 
   799.500 -32.014  6.8000  11.123  6.3390 -16.087  6.8000  11.123  6.3390 
   800.000 -31.194  6.7570  10.951  6.2940 -15.269  6.7570  10.951  6.2940 
   800.500 -30.186  6.6560  10.857  6.2240 -14.263  6.6560  10.857  6.2240 
   801.000 -30.592  6.5840  10.821  6.0040 -14.670  6.5840  10.821  6.0040 
   801.500 -30.999  6.4110  10.756  5.5970 -15.079  6.4110  10.756  5.5970 
   802.000 -32.068  6.0520  10.719  5.2120 -16.150  6.0520  10.719  5.2120 
   802.500 -32.456  5.8510  10.561  4.8840 -16.540  5.8510  10.561  4.8840 
   803.000 -32.272  5.7430  10.202  4.6700 -16.358  5.7430  10.202  4.6700 
   803.500 -31.085  5.5780  9.9870  4.4860 -15.172  5.5780  9.9870  4.4860 
   804.000 -26.853  5.0550  9.2990  4.4370 -10.942  5.0550  9.2990  4.4370 
   804.500 -23.732  4.9040  8.6470  4.5600 -7.8229  4.9040  8.6470  4.5600 
   805.000 -23.136  4.7240  7.9590  4.7620 -7.2287  4.7240  7.9590  4.7620 
   805.500 -22.539  4.5440  6.7990  4.9210 -6.6334  4.5440  6.7990  4.9210 
   806.000 -21.101  4.3580  6.3260  5.0510 -5.1972  4.3580  6.3260  5.0510 
   806.500 -20.272  4.2920  6.0960  5.2460 -4.3700  4.2920  6.0960  5.2460 
   807.000 -19.766  4.2770  5.9240  5.3910 -3.8658  4.2770  5.9240  5.3910 
   807.500 -19.939  4.2550  5.7080  5.5780 -4.0406  4.2550  5.7080  5.5780 
   808.000 -20.937  4.3330  5.6000  5.8160 -5.0404  4.3330  5.6000  5.8160 
   808.500 -19.857  4.4400  5.4850  6.0970 -3.9621  4.4400  5.4850  6.0970 
   809.000 -18.491  4.5110  5.4700  6.2910 -2.5979  4.5110  5.4700  6.2910 
   809.500 -19.989  4.6390  5.6550  6.7300 -4.0977  4.6390  5.6550  6.7300 
   810.000 -20.879  4.8890  5.7260  7.0320 -4.9895  4.8890  5.7260  7.0320 
   810.500 -22.382  5.1970  5.8770  7.4760 -6.4943  5.1970  5.8770  7.4760 
   811.000 -22.953  5.7780  5.8420  7.8200 -7.0670  5.7780  5.8420  7.8200 
   811.500 -23.453  6.1790  5.9720  8.2140 -7.5688  6.1790  5.9720  8.2140 
   812.000 -23.916  6.8170  6.3800  8.3940 -8.0336  6.8170  6.3800  8.3940 
   812.500 -24.452  7.1900  6.8320  8.5660 -8.5714  7.1900  6.8320  8.5660 
   813.000 -24.987  7.6490  7.1620  8.7960 -9.1082  7.6490  7.1620  8.7960 
   813.500 -25.952  8.7230  7.4920  8.8750 -10.075  8.7230  7.4920  8.8750 
   814.000 -27.670  9.8470  8.1080  8.9680 -11.795  9.8470  8.1080  8.9680 
   814.500 -32.001  10.335  8.2450  9.0690 -16.128  10.335  8.2450  9.0690 
   815.000 -40.810  10.658  8.2960  9.0910 -24.938  10.658  8.2960  9.0910 
   815.500 -43.601  11.317  8.3460  8.9760 -27.731  11.317  8.3460  8.9760 
   816.000 -44.459  11.568  8.4260  8.8120 -28.591  11.568  8.4260  8.8120 
   816.500 -45.317  11.841  8.4840  8.6260 -29.451  11.841  8.4840  8.6260 
   817.000 -46.819  12.006  8.5200  8.4690 -30.954  12.006  8.5200  8.4690 
   817.500 -47.211  12.107  8.4350  8.3760 -31.348  12.107  8.4350  8.3760 
   818.000 -47.281  12.172  8.2640  8.3480 -31.420  12.172  8.2640  8.3480 
   818.500 -47.029  12.237  8.0140  8.4130 -31.170  12.237  8.0140  8.4130 
   819.000 -46.382  12.367  7.8650  8.5490 -30.525  12.367  7.8650  8.5490 
   819.500 -45.342  12.496  7.8150  8.7570 -29.486  12.496  7.8150  8.7570 
   820.000 -44.660  12.848  7.9450  8.8390 -28.806  12.848  7.9450  8.8390 
   820.500 -43.374  13.150  8.0680  8.9220 -27.522  13.150  8.0680  8.9220 
   821.000 -41.981  13.559  8.1550  9.0710 -26.131  13.559  8.1550  9.0710 
   821.500 -41.877  13.817  8.4060  9.1990 -26.028  13.817  8.4060  9.1990 
   822.000 -42.095  14.098  8.6510  9.3060 -26.248  14.098  8.6510  9.3060 
   822.500 -42.887  14.693  9.1600  9.3770 -27.042  14.693  9.1600  9.3770 
   823.000 -44.574  14.901  10.170  9.4120 -28.731  14.901  10.170  9.4120 
   823.500 -47.407  15.024  10.959  9.4110 -31.566  15.024  10.959  9.4110 
   824.000 -48.449  15.090  11.940  9.3820 -32.609  15.090  11.940  9.3820 
   824.500 -49.276  15.098  12.893  9.3380 -33.438  15.098  12.893  9.3380 
   825.000 -48.886  14.920  13.395  9.2300 -33.050  14.920  13.395  9.2300 
   825.500 -47.493  14.585  13.962  9.0220 -31.659  14.585  13.962  9.0220 
   826.000 -45.849  14.163  15.724  8.6420 -30.017  14.163  15.724  8.6420 
   826.500 -42.593  13.563  16.362  8.2260 -26.762  13.563  16.362  8.2260 
   827.000 -40.448  13.106  16.592  6.8070 -24.619  13.106  16.592  6.8070 
   827.500 -38.410  11.590  16.750  6.1050 -22.583  11.590  16.750  6.1050 
   828.000 -36.301  9.0500  16.766  5.4240 -20.476  9.0500  16.766  5.4240 
   828.500 -33.189  8.4280  16.481  4.8860 -17.365  8.4280  16.481  4.8860 
   829.000 -31.222  8.0140  16.353  4.6700 -15.400  8.0140  16.353  4.6700 
   829.500 -30.510  7.7150  15.330  4.5620 -14.690  7.7150  15.330  4.5620 
   830.000 -29.618  7.4300  12.934  4.4830 -13.800  7.4300  12.934  4.4830 
   830.500 -27.283  7.1210  10.149  4.6920 -11.467  7.1210  10.149  4.6920 
   831.000 -26.559  6.8700  9.5750  5.0020 -10.744  6.8700  9.5750  5.0020 
   831.500 -25.908  6.8760  9.2880  5.1180 -10.095  6.8760  9.2880  5.1180 
   832.000 -24.934  7.0970  9.0010  5.4850 -9.1229  7.0970  9.0010  5.4850 
   832.500 -24.389  7.3900  8.9080  5.9240 -8.5797  7.3900  8.9080  5.9240 
   833.000 -25.779  7.7040  9.0070  6.3550 -9.9715  7.7040  9.0070  6.3550 
   833.500 -28.708  8.2830  9.4220  6.9580 -12.902  8.2830  9.4220  6.9580 
   834.000 -31.280  8.6840  9.6780  7.3900 -15.476  8.6840  9.6780  7.3900 
   834.500 -32.096  9.1910  9.9070  7.9000 -16.294  9.1910  9.9070  7.9000 
   835.000 -33.164  9.8920  10.207  8.1810 -17.364  9.8920  10.207  8.1810 
   835.500 -36.272  10.728  10.456  8.4120 -20.473  10.728  10.456  8.4120 
   836.000 -38.092  11.172  11.071  8.7000 -22.295  11.172  11.071  8.7000 
   836.500 -40.090  11.715  11.600  8.8520 -24.295  11.715  11.600  8.8520 
   837.000 -40.906  12.580  12.158  9.1050 -25.113  12.580  12.158  9.1050 
   837.500 -41.365  13.496  12.658  9.4000 -25.573  13.496  12.658  9.4000 
   838.000 -42.038  13.867  12.879  9.6810 -26.248  13.867  12.879  9.6810 
   838.500 -43.177  14.210  13.036  10.020 -27.389  14.210  13.036  10.020 
   839.000 -44.853  14.474  13.171  10.272 -29.067  14.474  13.171  10.272 
   839.500 -45.455  14.595  13.142  10.424 -29.671  14.595  13.142  10.424 
   840.000 -46.665  14.773  13.084  10.569 -30.882  14.773  13.084  10.569 
   840.500 -47.303  14.853  12.963  10.677 -31.522  14.853  12.963  10.677 
   841.000 -47.940  14.918  12.907  10.836 -32.161  14.918  12.907  10.836 
   841.500 -49.330  14.983  12.771  10.908 -33.553  14.983  12.771  10.908 
   842.000 -50.325  15.005  12.708  10.980 -34.550  15.005  12.708  10.980 
   842.500 -50.856  15.092  12.615  11.053 -35.082  15.092  12.615  11.053 
   843.000 -50.777  15.150  12.523  11.211 -35.005  15.150  12.523  11.211 
   843.500 -50.053  15.201  12.552  11.283 -34.283  15.201  12.552  11.283 
   844.000 -49.366  15.223  12.818  11.399 -33.598  15.223  12.818  11.399 
   844.500 -48.571  15.138  13.112  11.471 -32.804  15.138  13.112  11.471 
   845.000 -47.990  15.002  13.456  11.557 -32.225  15.002  13.456  11.557 
   845.500 -48.807  14.931  13.765  11.601 -33.044  14.931  13.765  11.601 
   846.000 -49.910  14.760  14.066  11.616 -34.149  14.760  14.066  11.616 
   846.500 -50.225  14.589  15.319  11.524 -34.466  14.589  15.319  11.524 
   847.000 -51.436  14.397  15.785  11.431 -35.678  14.397  15.785  11.431 
   847.500 -51.858  14.240  16.530  11.303 -36.102  14.240  16.530  11.303 
   848.000 -50.777  14.133  17.326  11.154 -35.023  14.133  17.326  11.154 
   848.500 -48.836  13.991  17.648  11.040 -33.084  13.991  17.648  11.040 
   849.000 -47.360  13.784  17.957  10.955 -31.609  13.784  17.957  10.955 
   849.500 -46.708  13.577  18.137  10.826 -30.959  13.577  18.137  10.826 
   850.000 -45.842  13.377  18.681  10.670 -30.095  13.377  18.681  10.670 
   850.500 -44.457  13.134  19.168  10.175 -28.712  13.134  19.168  10.175 
