~Version Information
VERS.                     2.0: CWLS log ASCII Standard Version 2.00
WRAP.                      NO: One line per depth step
~Well Information Block
#MNEM.UNIT                               Data Type  Information
#---------                               ---------  -----------
STRT.FT                                   374.0000:
STOP.FT                                  6834.0000:
STEP.FT                                     0.5000:
NULL.                 -999.25                     :
COMP.                                             :COMPANY            
WELL.     SAN EMIDIO A #66-19 REDRILL             :WELL               
FLD .                                             :FIELD              
CTRY.                                             :COUNTRY            
STAT.                                             :STATE              
LOC .                                             :LOCATION           
UWI .                                             :UNIQUE WELL ID     
SRVC.                                             :Service company    
DATE.                                             :LOG DATE           
~Curve Information
#MNEM.UNIT           API CODE  Curve Description
#---------           --------  -----------------
DEPT.FT                      :   1 DEPTH
SP  .MV                      :   2
AM16.OHMM                    :   3
AO10.OHMM                    :   4
AO19.OHMM                    :   5
SBL .MV                      :   6
RS  .OHMM                    :   7
RM  .OHMM                    :   8
RD  .OHMM                    :   9
~A
# ...
  5091.000 -24.762  3.4690  4.4020  4.3330 -16.762  3.4690  4.4020  4.3330 
  5091.500 -20.706  3.4990  3.8580  3.8860 -12.706  3.4990  3.8580  3.8860 
  5092.000 -18.733  3.5290  3.3780  3.6260 -10.733  3.5290  3.3780  3.6260 
  5092.500 -18.198  3.5440  3.1420  3.2950 -10.198  3.5440  3.1420  3.2950 
  5093.000 -17.591  3.5600  2.8700  3.2650 -9.5910  3.5600  2.8700  3.2650 
  5093.500 -17.020  3.5820  2.8290  3.2850 -9.0200  3.5820  2.8290  3.2850 
  5094.000 -16.807  3.6050  2.8580  3.2980 -8.8070  3.6050  2.8580  3.2980 
  5094.500 -16.488  3.5410  2.9530  3.2960 -8.4880  3.5410  2.9530  3.2960 
  5095.000 -16.276  3.3990  3.0250  3.1940 -8.2760  3.3990  3.0250  3.1940 
  5095.500 -16.243  3.2920  3.0410  3.0240 -8.2430  3.2920  3.0410  3.0240 
  5096.000 -16.283  3.2000  2.9490  2.8540 -8.2830  3.2000  2.9490  2.8540 
  5096.500 -16.933  3.0930  2.7700  2.4650 -8.9330  3.0930  2.7700  2.4650 
  5097.000 -17.511  3.0300  2.5560  2.3060 -9.5110  3.0300  2.5560  2.3060 
  5097.500 -18.377  3.0090  2.3780  2.1250 -10.377  3.0090  2.3780  2.1250 
  5098.000 -19.638  3.1610  2.2710  1.9870 -11.638  3.1610  2.2710  1.9870 
  5098.500 -20.792  3.3990  2.2940  2.0000 -12.792  3.3990  2.2940  2.0000 
  5099.000 -23.490  3.5940  2.4810  2.0410 -15.490  3.5940  2.4810  2.0410 
  5099.500 -26.152  3.7670  2.7700  2.0900 -18.152  3.7670  2.7700  2.0900 
  5100.000 -29.102  3.8400  2.9430  2.0670 -21.102  3.8400  2.9430  2.0670 
  5100.500 -33.379  3.8900  3.0500  2.0380 -25.379  3.8900  3.0500  2.0380 
  5101.000 -40.387  3.9180  3.1140  2.0090 -32.387  3.9180  3.1140  2.0090 
  5101.500 -47.143  3.9820  3.0560  1.9510 -39.143  3.9820  3.0560  1.9510 
  5102.000 -49.804  4.0380  2.9180  1.8860 -41.804  4.0380  2.9180  1.8860 
  5102.500 -51.746  4.1020  2.8750  1.8640 -43.746  4.1020  2.8750  1.8640 
  5103.000 -55.448  4.1450  2.8100  1.8710 -47.448  4.1450  2.8100  1.8710 
  5103.500 -58.144  4.1730  2.7370  1.8850 -50.144  4.1730  2.7370  1.8850 
  5104.000 -60.014  4.1650  2.7290  1.9140 -52.014  4.1650  2.7290  1.9140 
  5104.500 -61.741  4.1210  2.8360  1.9640 -53.741  4.1210  2.8360  1.9640 
  5105.000 -62.389  4.0630  2.8930  2.0240 -54.389  4.0630  2.8930  2.0240 
  5105.500 -58.511  3.9330  2.9490  2.0850 -50.511  3.9330  2.9490  2.0850 
  5106.000 -53.159  3.5590  2.9700  2.2060 -45.159  3.5590  2.9700  2.2060 
  5106.500 -48.922  3.4290  3.0130  2.2630 -40.922  3.4290  3.0130  2.2630 
  5107.000 -38.037  3.1840  3.0260  2.2850 -30.037  3.1840  3.0260  2.2850 
  5107.500 -32.614  3.0400  3.0260  2.3060 -24.614  3.0400  3.0260  2.3060 
  5108.000 -28.592  2.8810  2.9320  2.3630 -20.592  2.8810  2.9320  2.3630 
  5108.500 -25.971  2.7370  2.7510  2.3700 -17.971  2.7370  2.7510  2.3700 
  5109.000 -24.428  2.6210  2.6570  2.3980 -16.428  2.6210  2.6570  2.3980 
  5109.500 -22.669  2.5270  2.5490  2.4340 -14.669  2.5270  2.5490  2.4340 
  5110.000 -20.444  2.4190  2.4620  2.5050 -12.444  2.4190  2.4620  2.5050 
  5110.500 -18.574  2.3970  2.3820  2.5910 -10.574  2.3970  2.3820  2.5910 
  5111.000 -17.314  2.3670  2.3740  2.6770 -9.3140  2.3670  2.3740  2.6770 
  5111.500 -16.378  2.4600  2.4600  2.7700 -8.3780  2.4600  2.4600  2.7700 
  5112.000 -16.160  2.5740  2.5520  2.8630 -8.1600  2.5740  2.5520  2.8630 
  5112.500 -16.590  2.6160  2.6230  2.9410 -8.5900  2.6160  2.6230  2.9410 
  5113.000 -17.558  2.6800  2.6520  3.0050 -9.5580  2.6800  2.6520  3.0050 
  5113.500 -22.263  2.6940  2.6800  3.0480 -14.263  2.6940  2.6800  3.0480 
  5114.000 -24.848  2.6930  2.6860  3.0840 -16.848  2.6930  2.6860  3.0840 
  5114.500 -26.211  2.6920  2.6850  3.0830 -18.211  2.6920  2.6850  3.0830 
  5115.000 -28.832  2.6770  2.6770  3.0470 -20.832  2.6770  2.6770  3.0470 
  5115.500 -30.519  2.6480  2.6410  3.0070 -22.519  2.6480  2.6410  3.0070 
  5116.000 -29.907  2.6180  2.6190  2.9680 -21.907  2.6180  2.6190  2.9680 
  5116.500 -24.444  2.6030  2.5890  2.8810 -16.444  2.6030  2.5890  2.8810 
  5117.000 -22.646  2.5960  2.5670  2.8520 -14.646  2.5960  2.5670  2.8520 
  5117.500 -20.884  2.6090  2.5660  2.8700 -12.884  2.6090  2.5660  2.8700 
  5118.000 -20.307  2.7090  2.6300  2.8870 -12.307  2.7090  2.6300  2.8870 
  5118.500 -21.059  2.7300  2.6870  2.9440 -13.059  2.7300  2.6870  2.9440 
  5119.000 -22.387  2.7650  2.7150  3.0010 -14.387  2.7650  2.7150  3.0010 
  5119.500 -23.391  2.7860  2.7350  3.0220 -15.391  2.7860  2.7350  3.0220 
  5120.000 -24.180  2.7780  2.7420  3.0290 -16.180  2.7780  2.7420  3.0290 
  5120.500 -22.850  2.7220  2.7220  3.0060 -14.850  2.7220  2.7220  3.0060 
  5121.000 -20.623  2.6440  2.6800  2.9690 -12.623  2.6440  2.6800  2.9690 
  5121.500 -18.719  2.5870  2.6020  2.8960 -10.719  2.5870  2.6020  2.8960 
  5122.000 -18.037  2.5810  2.5960  2.8800 -10.037  2.5810  2.5960  2.8800 
  5122.500 -17.641  2.5890  2.6040  2.8860 -9.6410  2.5890  2.6040  2.8860 
  5123.000 -16.887  2.5470  2.5620  2.8480 -8.8870  2.5470  2.5620  2.8480 
  5123.500 -16.348  2.5200  2.5200  2.6460 -8.3480  2.5200  2.5200  2.6460 
  5124.000 -15.880  2.4490  2.4850  2.4940 -7.8800  2.4490  2.4850  2.4940 
  5124.500 -16.455  2.4070  2.4360  2.4130 -8.4550  2.4070  2.4360  2.4130 
  5125.000 -16.815  2.3870  2.4150  2.3760 -8.8150  2.3870  2.4150  2.3760 
  5125.500 -16.994  2.3730  2.4160  2.3600 -8.9940  2.3730  2.4160  2.3600 
  5126.000 -16.097  2.4030  2.4250  2.3520 -8.0970  2.4030  2.4250  2.3520 
  5126.500 -15.809  2.4690  2.4330  2.4860 -7.8090  2.4690  2.4330  2.4860 
  5127.000 -15.485  2.5200  2.4990  2.6210 -7.4850  2.5200  2.4990  2.6210 
  5127.500 -16.635  2.5720  2.5360  2.6630 -8.6350  2.5720  2.5360  2.6630 
  5128.000 -18.503  2.6160  2.5730  2.7120 -10.503  2.6160  2.5730  2.7120 
  5128.500 -20.300  2.6380  2.6310  2.7610 -12.300  2.6380  2.6310  2.7610 
  5129.000 -21.701  2.6610  2.6900  2.7450 -13.701  2.6610  2.6900  2.7450 
  5129.500 -21.198  2.6840  2.7340  2.6570 -13.198  2.6840  2.7340  2.6570 
  5130.000 -20.048  2.7200  2.7850  2.5840 -12.048  2.7200  2.7850  2.5840 
  5130.500 -19.761  2.7190  2.8060  2.4920 -11.761  2.7190  2.8060  2.4920 
  5131.000 -20.228  2.6820  2.7250  2.4430 -12.228  2.6820  2.7250  2.4430 
  5131.500 -19.473  2.6020  2.6890  2.4950 -11.473  2.6020  2.6890  2.4950 
  5132.000 -18.359  2.5150  2.6520  2.5610 -10.359  2.5150  2.6520  2.5610 
  5132.500 -18.432  2.4350  2.6860  2.5700 -10.432  2.4350  2.6860  2.5700 
  5133.000 -18.503  2.3690  2.7070  2.5930 -10.503  2.3690  2.7070  2.5930 
  5133.500 -17.174  2.3320  2.7060  2.4650 -9.1740  2.3320  2.7060  2.4650 
  5134.000 -15.557  2.2990  2.6330  2.3800 -7.5570  2.2990  2.6330  2.3800 
  5134.500 -14.443  2.2660  2.5170  2.2950 -6.4430  2.2660  2.5170  2.2950 
  5135.000 -13.401  2.2000  2.4150  2.2040 -5.4010  2.2000  2.4150  2.2040 
  5135.500 -12.468  2.1700  2.3140  2.1120 -4.4680  2.1700  2.3140  2.1120 
  5136.000 -12.108  2.1120  2.2190  2.0560 -4.1080  2.1120  2.2190  2.0560 
  5136.500 -11.856  2.0680  2.1680  2.0070 -3.8560  2.0680  2.1680  2.0070 
  5137.000 -11.749  2.0090  2.1600  2.0160 -3.7490  2.0090  2.1600  2.0160 
  5137.500 -11.713  1.9510  2.1660  2.0240 -3.7130  1.9510  2.1660  2.0240 
  5138.000 -11.713  1.9060  2.1790  2.0900 -3.7130  1.9060  2.1790  2.0900 
  5138.500 -11.749  1.8840  2.2000  2.1200 -3.7490  1.8840  2.2000  2.1200 
  5139.000 -11.785  1.8610  2.2200  2.1150 -3.7850  1.8610  2.2200  2.1150 
  5139.500 -11.892  1.8030  2.2330  2.0660 -3.8920  1.8030  2.2330  2.0660 
  5140.000 -11.928  1.7770  2.2540  2.0600 -3.9280  1.7770  2.2540  2.0600 
  5140.500 -11.964  1.7510  2.2670  2.0520 -3.9640  1.7510  2.2670  2.0520 
  5141.000 -11.785  1.7210  2.2810  2.0730 -3.7850  1.7210  2.2810  2.0730 
  5141.500 -11.569  1.7210  2.2880  2.1220 -3.5690  1.7210  2.2880  2.1220 
  5142.000 -11.318  1.7270  2.3160  2.1650 -3.3180  1.7270  2.3160  2.1650 
  5142.500 -11.174  1.7370  2.3220  2.2070 -3.1740  1.7370  2.3220  2.2070 
  5143.000 -11.066  1.7470  2.3290  2.2210 -3.0660  1.7470  2.3290  2.2210 
  5143.500 -11.030  1.7680  2.3130  2.2200 -3.0300  1.7680  2.3130  2.2200 
