~Version Information
VERS.                     2.0: CWLS log ASCII Standard Version 2.00
WRAP.                      NO: One line per depth step
~Well Information Block
#MNEM.UNIT                               Data Type  Information
#---------                               ---------  -----------
STRT.FT                                   419.0000:
STOP.FT                                  7100.0000:
STEP.FT                                     0.5000:
NULL.                 -999.25                     :
COMP.                                             :COMPANY            
WELL.     SAN EMIDIO A #62-28                     :WELL               
FLD .                                             :FIELD              
CTRY.                                             :COUNTRY            
STAT.                                             :STATE              
LOC .                                             :LOCATION           
UWI .                                             :UNIQUE WELL ID     
SRVC.                                             :Service company    
DATE.                                             :LOG DATE           
~Curve Information
#MNEM.UNIT           API CODE  Curve Description
#---------           --------  -----------------
DEPT.FT                      :   1 DEPTH
SP  .MV                      :   2
AM16.OHMM                    :   3
AO10.OHMM                    :   4
AO19.OHMM                    :   5
SBL .MV                      :   6
RS  .OHMM                    :   7
RM  .OHMM                    :   8
RD  .OHMM                    :   9
DEVI.DEG                     :  10
TVD .FT                      :  11
AZIM.DEG                     :  12
NORT.FT                      :  13
EAST.FT                      :  14
OFFS.FT                      :  15
~A
# ...
  1751.500 -20.882  3.3430  4.0390  3.7690 -12.928  3.3430  4.0390  3.7690  0.7500  1751.4  62.431  10.936  13.357  17.178 
  1752.000 -22.222  3.6580  4.0810  3.8700 -14.272  3.6580  4.0810  3.8700  0.7500  1751.9  62.241  10.939  13.363  17.184 
  1752.500 -23.956  3.8150  4.0870  3.9710 -16.010  3.8150  4.0870  3.9710  0.7500  1752.4  62.051  10.942  13.369  17.190 
  1753.000 -25.260  4.1800  4.0940  4.1930 -17.318  4.1800  4.0940  4.1930  0.7500  1752.9  61.861  10.945  13.375  17.197 
  1753.500 -25.773  4.4010  4.0930  4.2800 -17.835  4.4010  4.0930  4.2800  0.7500  1753.4  61.671  10.948  13.380  17.203 
  1754.000 -26.069  4.6940  4.0990  4.3660 -18.134  4.6940  4.0990  4.3660  0.7500  1753.9  61.481  10.951  13.386  17.209 
  1754.500 -26.258  5.1450  4.1050  4.6810 -18.327  5.1450  4.1050  4.6810  0.7500  1754.4  61.291  10.954  13.392  17.215 
  1755.000 -26.555  5.3810  4.4840  4.8250 -18.628  5.3810  4.4840  4.8250  0.7500  1754.9  61.101  10.958  13.398  17.222 
  1755.500 -26.923  5.5810  4.7420  4.9110 -19.000  5.5810  4.7420  4.9110  0.7500  1755.4  60.911  10.961  13.403  17.228 
  1756.000 -28.802  5.8600  4.8700  5.0160 -20.883  5.8600  4.8700  5.0160  0.7500  1755.9  60.721  10.964  13.409  17.234 
  1756.500 -31.076  6.1820  4.9980  5.1200 -23.161  6.1820  4.9980  5.1200  0.7500  1756.4  60.531  10.967  13.415  17.241 
  1757.000 -32.631  6.3960  4.9540  5.1990 -24.719  6.3960  4.9540  5.1990  0.7500  1756.9  60.341  10.970  13.420  17.247 
  1757.500 -34.150  6.5460  5.1900  5.2780 -26.242  6.5460  5.1900  5.2780  0.7500  1757.4  60.151  10.974  13.426  17.253 
  1758.000 -35.705  6.6740  5.2900  5.3350 -27.801  6.6740  5.2900  5.3350  0.7500  1757.9  59.961  10.977  13.432  17.260 
  1758.500 -36.433  6.7880  5.3670  5.4070 -28.533  6.7880  5.3670  5.4070  0.7500  1758.4  59.771  10.980  13.437  17.266 
  1759.000 -37.342  6.8080  5.3810  5.4290 -29.446  6.8080  5.3810  5.4290  0.7500  1758.9  59.581  10.984  13.443  17.272 
  1759.500 -37.746  6.7790  5.4160  5.3860 -29.854  6.7790  5.4160  5.3860  0.7500  1759.4  59.391  10.987  13.449  17.279 
  1760.000 -38.042  6.6560  5.4330  5.3360 -30.154  6.6560  5.4330  5.3360  0.7500  1759.9  59.201  10.990  13.454  17.285 
  1760.500 -38.007  6.5520  5.4510  5.2560 -30.122  6.5520  5.4510  5.2560  0.7500  1760.4  59.011  10.994  13.460  17.291 
  1761.000 -37.577  6.4480  5.5220  5.1830 -29.696  6.4480  5.5220  5.1830  0.7500  1760.9  58.821  10.997  13.466  17.298 
  1761.500 -36.248  6.0460  5.5940  5.1030 -28.371  6.0460  5.5940  5.1030  0.7500  1761.4  58.631  11.000  13.471  17.304 
  1762.000 -35.493  5.5860  5.7510  5.0630 -27.620  5.5860  5.7510  5.0630  0.7500  1761.9  58.441  11.004  13.477  17.310 
  1762.500 -34.308  4.8690  5.9020  5.0230 -26.439  4.8690  5.9020  5.0230  0.7500  1762.4  58.251  11.007  13.482  17.317 
  1763.000 -33.050  4.4240  5.9370  4.8640 -25.185  4.4240  5.9370  4.8640  0.7500  1762.9  58.061  11.011  13.488  17.323 
  1763.500 -31.720  4.1950  5.9370  4.6830 -23.858  4.1950  5.9370  4.6830  0.7500  1763.4  57.871  11.014  13.493  17.329 
  1764.000 -29.636  3.9220  5.9370  4.3520 -21.778  3.9220  5.9370  4.3520  0.7500  1763.9  57.681  11.018  13.499  17.336 
  1764.500 -26.257  3.7140  5.8370  4.1140 -18.403  3.7140  5.8370  4.1140  0.7500  1764.4  57.491  11.021  13.504  17.342 
  1765.000 -23.956  3.5410  5.5850  3.7260 -16.106  3.5410  5.5850  3.7260  0.7500  1764.9  57.301  11.025  13.510  17.349 
  1765.500 -22.555  3.4120  5.1120  3.4950 -14.709  3.4120  5.1120  3.4950  0.7500  1765.4  57.111  11.028  13.515  17.355 
  1766.000 -21.442  3.2970  4.6240  3.1290 -13.600  3.2970  4.6240  3.1290  0.7500  1765.9  56.921  11.032  13.521  17.361 
  1766.500 -21.191  3.2110  4.3370  2.8480 -13.353  3.2110  4.3370  2.8480  0.7500  1766.4  56.731  11.035  13.526  17.368 
  1767.000 -20.993  3.1390  4.1930  2.6390 -13.158  3.1390  4.1930  2.6390  0.7500  1766.9  56.541  11.039  13.532  17.374 
  1767.500 -20.796  3.0670  4.0930  2.5370 -12.965  3.0670  4.0930  2.5370  0.7500  1767.4  56.351  11.043  13.537  17.381 
  1768.000 -20.151  3.0670  4.0350  2.4860 -12.324  3.0670  4.0350  2.4860  0.7500  1767.9  56.161  11.046  13.543  17.387 
  1768.500 -19.828  3.0850  4.1780  2.5280 -12.005  3.0850  4.1780  2.5280  0.7500  1768.4  55.971  11.050  13.548  17.394 
  1769.000 -19.433  3.1030  4.4150  2.6200 -11.614  3.1030  4.4150  2.6200  0.7500  1768.9  55.781  11.054  13.554  17.400 
  1769.500 -19.039  3.2100  4.7160  2.7120 -11.224  3.2100  4.7160  2.7120  0.7500  1769.4  55.591  11.057  13.559  17.406 
  1770.000 -18.680  3.3820  4.9520  2.8690 -10.868  3.3820  4.9520  2.8690  0.7500  1769.9  55.401  11.061  13.564  17.413 
  1770.500 -19.652  3.4820  5.1820  3.0610 -11.844  3.4820  5.1820  3.0610  0.7500  1770.4  55.211  11.065  13.570  17.419 
  1771.000 -20.515  3.6250  5.5190  3.1610 -12.711  3.6250  5.5190  3.1610  0.7500  1770.9  55.021  11.069  13.575  17.426 
  1771.500 -21.595  3.7540  5.7700  3.2960 -13.795  3.7540  5.7700  3.2960  0.7500  1771.4  54.831  11.072  13.580  17.432 
  1772.000 -22.962  3.8400  5.9920  3.4670 -15.166  3.8400  5.9920  3.4670  0.7500  1771.9  54.641  11.076  13.586  17.439 
  1772.500 -23.934  3.9260  6.1350  3.6090 -16.142  3.9260  6.1350  3.6090  0.7500  1772.4  54.451  11.080  13.591  17.445 
  1773.000 -24.942  3.9970  6.2780  3.6940 -17.154  3.9970  6.2780  3.6940  0.7500  1772.9  54.261  11.084  13.596  17.452 
  1773.500 -26.165  4.0120  6.3860  3.8150 -18.380  4.0120  6.3860  3.8150  0.7500  1773.4  54.071  11.088  13.602  17.458 
  1774.000 -26.921  4.0330  6.4930  3.9000 -19.140  4.0330  6.4930  3.9000  0.7500  1773.9  53.881  11.091  13.607  17.464 
  1774.500 -27.210  3.9680  6.5000  3.9490 -19.433  3.9680  6.5000  3.9490  0.7500  1774.4  53.691  11.095  13.612  17.471 
  1775.000 -25.701  3.8320  6.4930  3.9120 -17.928  3.8320  6.4930  3.9120  0.7500  1774.9  53.501  11.099  13.618  17.477 
  1775.500 -24.911  3.7450  6.3710  3.8760 -17.142  3.7450  6.3710  3.8760  0.7500  1775.4  53.311  11.103  13.623  17.484 
  1776.000 -24.048  3.6520  6.1190  3.8030 -16.283  3.6520  6.1190  3.8030  0.7500  1775.9  53.121  11.107  13.628  17.490 
  1776.500 -23.258  3.5660  5.7680  3.7660 -15.496  3.5660  5.7680  3.7660  0.7500  1776.4  52.931  11.111  13.633  17.497 
  1777.000 -22.792  3.5080  5.4160  3.7430 -15.034  3.5080  5.4160  3.7430  0.7500  1776.9  52.741  11.115  13.638  17.503 
  1777.500 -22.541  3.4870  5.1430  3.7280 -14.787  3.4870  5.1430  3.7280  0.7500  1777.4  52.551  11.119  13.644  17.510 
  1778.000 -22.398  3.4430  5.0140  3.8920 -14.648  3.4430  5.0140  3.8920  0.7500  1777.9  52.361  11.123  13.649  17.516 
  1778.500 -22.614  3.4000  4.9570  4.0410 -14.868  3.4000  4.9570  4.0410  0.7500  1778.4  52.171  11.127  13.654  17.523 
  1779.000 -23.191  3.3350  4.9560  4.0900 -15.449  3.3350  4.9560  4.0900  0.7500  1778.9  51.981  11.131  13.659  17.529 
  1779.500 -22.904  3.2560  4.9490  4.1970 -15.166  3.2560  4.9490  4.1970  0.7500  1779.4  51.791  11.135  13.664  17.536 
  1780.000 -21.863  3.1480  4.9270  4.2030 -14.128  3.1480  4.9270  4.2030  0.7500  1779.9  51.601  11.139  13.669  17.542 
  1780.500 -21.360  3.0840  4.8700  4.0670 -13.629  3.0840  4.8700  4.0670  0.7500  1780.4  51.411  11.143  13.675  17.549 
  1781.000 -21.181  3.0190  4.5540  3.9890 -13.454  3.0190  4.5540  3.9890  0.7500  1780.9  51.221  11.147  13.680  17.555 
  1781.500 -21.002  2.9680  4.3740  3.8320 -13.279  2.9680  4.3740  3.8320  0.7500  1781.4  51.031  11.151  13.685  17.562 
  1782.000 -20.427  2.8890  4.1300  3.7390 -12.708  2.8890  4.1300  3.7390  0.7500  1781.9  50.841  11.156  13.690  17.568 
  1782.500 -20.033  2.8460  3.9860  3.6460 -12.318  2.8460  3.9860  3.6460  0.7500  1782.4  50.651  11.160  13.695  17.575 
  1783.000 -20.033  2.8020  3.8420  3.5530 -12.321  2.8020  3.8420  3.5530  0.7500  1782.9  50.461  11.164  13.700  17.581 
  1783.500 -20.142  2.7660  3.7990  3.6470 -12.434  2.7660  3.7990  3.6470  0.7500  1783.4  50.271  11.168  13.705  17.588 
