~Version Information
VERS.                     2.0: CWLS log ASCII Standard Version 2.00
WRAP.                      NO: One line per depth step
~Well Information Block
#MNEM.UNIT                               Data Type  Information
#---------                               ---------  -----------
STRT.FT                                   530.0000:
STOP.FT                                  8230.0000:
STEP.FT                                     0.5000:
NULL.                 -999.25                     :
COMP.                                             :COMPANY            
WELL.     SAN EMIDIO #61-28 REDRILL               :WELL               
FLD .                                             :FIELD              
CTRY.                                             :COUNTRY            
STAT.                                             :STATE              
LOC .                                             :LOCATION           
UWI .                                             :UNIQUE WELL ID     
SRVC.                                             :Service company    
DATE.                                             :LOG DATE           
~Curve Information
#MNEM.UNIT           API CODE  Curve Description
#---------           --------  -----------------
DEPT.FT                      :   1 DEPTH
SP  .MV                      :   2
2Z18.OHMM                    :   3
31Z9.OHMM                    :   4
31Z1.OHMM                    :   5
SBL .MV                      :   6
RS  .OHMM                    :   7
RM  .OHMM                    :   8
 RD .OHMM                    :   9
DEVI.DEG                     :  10
TVD .FT                      :  11
AZIM.DEG                     :  12
NORT.FT                      :  13
EAST.FT                      :  14
OFFS.FT                      :  15
~A
# ...
  3097.500 -32.660  11.553  19.943  10.388 -28.149  11.553  19.943  10.388  0.3434  3097.4  37.267 -0.0224  20.267  14.315 
  3098.000 -33.659  11.619  19.943  10.487 -29.146  11.619  19.943  10.487  0.3413  3097.9  37.012 -0.0201  20.269  14.318 
  3098.500 -34.160  11.619  18.178  10.604 -29.644  11.619  18.178  10.604  0.3393  3098.4  36.757 -0.0177  20.270  14.321 
  3099.000 -34.660  11.186  17.978  10.720 -30.142  11.186  17.978  10.720  0.3372  3098.9  36.502 -0.0153  20.272  14.324 
  3099.500 -34.163  10.354  17.944  11.186 -29.643  10.354  17.944  11.186  0.3351  3099.4  36.247 -0.0130  20.274  14.327 
  3100.000 -33.666  9.6880  17.944  11.452 -29.143  9.6880  17.944  11.452  0.3330  3099.9  35.992 -0.0106  20.276  14.329 
  3100.500 -31.506  9.0550  17.910  11.552 -26.981  9.0550  17.910  11.552  0.3347  3100.4  35.897 -0.0082  20.277  14.332 
  3101.000 -29.513  8.3550  17.877  11.618 -24.986  8.3550  17.877  11.618  0.3363  3100.9  35.802 -0.0059  20.279  14.335 
  3101.500 -28.351  7.6220  17.776  11.568 -23.821  7.6220  17.776  11.568  0.3380  3101.4  35.707 -0.0035  20.281  14.338 
  3102.000 -26.690  6.8890  17.509  11.518 -22.158  6.8890  17.509  11.518  0.3397  3101.9  35.612 -0.0011  20.282  14.341 
  3102.500 -26.193  6.1560  16.277  11.184 -21.659  6.1560  16.277  11.184  0.3413  3102.4  35.517  0.0014  20.284  14.344 
  3103.000 -27.691  6.1890  13.513  10.452 -23.154  6.1890  13.513  10.452  0.3430  3102.9  35.422  0.0038  20.286  14.347 
  3103.500 -29.023  6.2550  12.248  9.2860 -24.484  6.2550  12.248  9.2860  0.3447  3103.4  35.327  0.0063  20.288  14.350 
  3104.000 -30.354  6.4550  10.450  8.2540 -25.813  6.4550  10.450  8.2540  0.3463  3103.9  35.232  0.0087  20.289  14.353 
  3104.500 -31.353  6.6540  9.6170  7.7870 -26.810  6.6540  9.6170  7.7870  0.3480  3104.4  35.137  0.0112  20.291  14.356 
  3105.000 -32.519  7.1190  9.1500  7.7540 -27.973  7.1190  9.1500  7.7540  0.3497  3104.9  35.042  0.0137  20.293  14.359 
  3105.500 -33.684  7.2690  8.8170  8.1530 -29.136  7.2690  8.8170  8.1530  0.3514  3105.4  34.947  0.0162  20.295  14.362 
  3106.000 -35.682  7.4180  8.9830  8.5850 -31.132  7.4180  8.9830  8.5850  0.3530  3105.9  34.852  0.0188  20.296  14.365 
  3106.500 -36.182  8.6830  9.1820  9.0840 -31.629  8.6830  9.1820  9.0840  0.3547  3106.4  34.757  0.0213  20.298  14.368 
  3107.000 -36.184  9.1810  9.5480  9.3500 -31.629  9.1810  9.5480  9.3500  0.3564  3106.9  34.662  0.0239  20.300  14.371 
  3107.500 -35.852  10.013  10.313  9.8160 -31.295  10.013  10.313  9.8160  0.3580  3107.4  34.567  0.0264  20.302  14.374 
  3108.000 -35.521  10.312  11.178  10.182 -30.961  10.312  11.178  10.182  0.3597  3107.9  34.472  0.0290  20.303  14.377 
  3108.500 -35.107  10.345  11.610  10.514 -30.545  10.345  11.610  10.514  0.3614  3108.4  34.377  0.0316  20.305  14.380 
  3109.000 -34.692  10.278  12.142  10.847 -30.128  10.278  12.142  10.847  0.3630  3108.9  34.282  0.0342  20.307  14.383 
  3109.500 -33.697  10.178  12.508  11.113 -29.130  10.178  12.508  11.113  0.3647  3109.4  34.187  0.0369  20.309  14.387 
  3110.000 -32.369  9.9770  12.707  11.279 -27.800  9.9770  12.707  11.279  0.3664  3109.9  34.092  0.0395  20.311  14.390 
  3110.500 -31.872  9.7770  12.773  11.246 -27.301  9.7770  12.773  11.246  0.3680  3110.4  33.997  0.0422  20.312  14.393 
  3111.000 -31.458  9.5770  12.573  11.212 -26.884  9.5770  12.573  11.212  0.3697  3110.9  33.902  0.0449  20.314  14.396 
  3111.500 -31.043  9.3770  12.340  10.912 -26.467  9.3770  12.340  10.912  0.3714  3111.4  33.807  0.0476  20.316  14.399 
  3112.000 -30.381  8.9430  11.274  10.412 -25.803  8.9430  11.274  10.412  0.3730  3111.9  33.712  0.0503  20.318  14.402 
  3112.500 -30.631  8.6770  10.741  10.012 -26.050  8.6770  10.741  10.012  0.3747  3112.4  33.617  0.0530  20.320  14.406 
  3113.000 -30.882  8.4760  10.174  9.8460 -26.299  8.4760  10.174  9.8460  0.3764  3112.9  33.522  0.0557  20.321  14.409 
  3113.500 -31.550  8.2430  10.074  9.6120 -26.965  8.2430  10.074  9.6120  0.3780  3113.4  33.427  0.0585  20.323  14.412 
  3114.000 -31.884  8.0920  10.007  9.5450 -27.296  8.0920  10.007  9.5450  0.3797  3113.9  33.332  0.0613  20.325  14.415 
  3114.500 -31.719  7.9420  10.372  9.5280 -27.129  7.9420  10.372  9.5280  0.3814  3114.4  33.237  0.0640  20.327  14.419 
  3115.000 -30.890  7.3760  10.705  9.5120 -26.298  7.3760  10.705  9.5120  0.3831  3114.9  33.142  0.0668  20.329  14.422 
  3115.500 -29.229  6.9760  11.137  9.5440 -24.634  6.9760  11.137  9.5440  0.3847  3115.4  33.047  0.0696  20.331  14.425 
  3116.000 -28.067  6.4420  11.603  9.5770 -23.470  6.4420  11.603  9.5770  0.3864  3115.9  32.952  0.0725  20.332  14.428 
  3116.500 -26.738  5.8430  11.769  9.5770 -22.139  5.8430  11.769  9.5770  0.3881  3116.4  32.857  0.0753  20.334  14.432 
  3117.000 -24.745  5.1760  11.768  9.0440 -20.144  5.1760  11.768  9.0440  0.3897  3116.9  32.762  0.0782  20.336  14.435 
  3117.500 -22.419  4.3100  11.668  8.2450 -17.815  4.3100  11.668  8.2450  0.3914  3117.4  32.667  0.0811  20.338  14.438 
  3118.000 -19.429  3.1450  11.401  7.1460 -14.823  3.1450  11.401  7.1460  0.3931  3117.9  32.572  0.0839  20.340  14.442 
  3118.500 -16.604  2.9780  10.635  6.0470 -11.996  2.9780  10.635  6.0470  0.3947  3118.4  32.477  0.0869  20.342  14.445 
  3119.000 -11.784  2.8110  9.8350  5.2810 -7.1733  2.8110  9.8350  5.2810  0.3964  3118.9  32.382  0.0898  20.343  14.449 
  3119.500 -10.789  2.6100  6.4060  4.6480 -6.1759  2.6100  6.4060  4.6480  0.3981  3119.4  32.287  0.0927  20.345  14.452 
  3120.000 -10.457  2.5430  5.9560  4.0480 -5.8416  2.5430  5.9560  4.0480  0.3997  3119.9  32.192  0.0957  20.347  14.455 
  3120.500 -10.126  2.6430  5.5060  3.6150 -5.5083  2.6430  5.5060  3.6150  0.4014  3120.4  32.097  0.0986  20.349  14.459 
  3121.000 -10.295  2.7090  4.8730  3.4150 -5.6750  2.7090  4.8730  3.4150  0.4031  3120.9  32.002  0.1016  20.351  14.462 
  3121.500 -10.795  2.7750  4.3400  3.3480 -6.1727  2.7750  4.3400  3.3480  0.4047  3121.4  31.907  0.1046  20.353  14.466 
  3122.000 -10.963  2.8080  4.2060  3.4810 -6.3383  2.8080  4.2060  3.4810  0.4064  3121.9  31.812  0.1076  20.355  14.469 
  3122.500 -11.048  2.9240  4.2390  3.6470 -6.4210  2.9240  4.2390  3.6470  0.4081  3122.4  31.717  0.1106  20.357  14.472 
  3123.000 -11.132  3.0400  4.3050  3.8460 -6.5027  3.0400  4.3050  3.8460  0.4097  3122.9  31.622  0.1137  20.358  14.476 
  3123.500 -10.884  3.2720  4.3710  4.0460 -6.2524  3.2720  4.3710  4.0460  0.4114  3123.4  31.527  0.1168  20.360  14.479 
  3124.000 -10.637  3.4380  4.4370  4.0620 -6.0031  3.4380  4.4370  4.0620  0.4131  3123.9  31.432  0.1198  20.362  14.483 
  3124.500 -9.8080  3.5210  4.4870  4.0790 -5.1717  3.5210  4.4870  4.0790  0.4148  3124.4  31.337  0.1229  20.364  14.486 
  3125.000 -9.7260  3.6040  4.5360  4.0780 -5.0874  3.6040  4.5360  4.0780  0.4164  3124.9  31.242  0.1260  20.366  14.490 
  3125.500 -9.6440  3.7360  4.3690  4.0780 -5.0031  3.7360  4.3690  4.0780  0.4181  3125.4  31.147  0.1292  20.368  14.494 
  3126.000 -10.145  3.8530  4.2690  4.1110 -5.5018  3.8530  4.2690  4.1110  0.4198  3125.9  31.052  0.1323  20.370  14.497 
  3126.500 -10.812  3.9690  4.1680  4.1100 -6.1665  3.9690  4.1680  4.1100  0.4214  3126.4  30.957  0.1354  20.372  14.501 
  3127.000 -11.811  4.3680  4.0680  4.2430 -7.1631  4.3680  4.0680  4.2430  0.4231  3126.9  30.862  0.1386  20.374  14.504 
  3127.500 -12.644  4.6670  4.0670  4.3430 -7.9938  4.6670  4.0670  4.3430  0.4248  3127.4  30.767  0.1418  20.375  14.508 
  3128.000 -14.641  4.9990  4.0670  4.4430 -9.9885  4.9990  4.0670  4.4430  0.4264  3127.9  30.672  0.1450  20.377  14.511 
  3128.500 -19.630  6.0970  4.1000  5.0080 -14.975  6.0970  4.1000  5.0080  0.4281  3128.4  30.577  0.1482  20.379  14.515 
  3129.000 -22.125  7.7280  4.1990  5.4070 -17.468  7.7280  4.1990  5.4070  0.4298  3128.9  30.482  0.1514  20.381  14.519 
  3129.500 -25.285  8.3270  4.2980  5.7060 -20.626  8.3270  4.2980  5.7060  0.4314  3129.4  30.387  0.1547  20.383  14.522 
