~Version Information
VERS.                     2.0: CWLS log ASCII Standard Version 2.00
WRAP.                      NO: One line per depth step
~Well Information Block
#MNEM.UNIT                               Data Type  Information
#---------                               ---------  -----------
STRT.FT                                   374.0000:
STOP.FT                                  6834.0000:
STEP.FT                                     0.5000:
NULL.                 -999.25                     :
COMP.                                             :COMPANY            
WELL.     SAN EMIDIO A #66-19 REDRILL             :WELL               
FLD .                                             :FIELD              
CTRY.                                             :COUNTRY            
STAT.                                             :STATE              
LOC .                                             :LOCATION           
UWI .                                             :UNIQUE WELL ID     
SRVC.                                             :Service company    
DATE.                                             :LOG DATE           
~Curve Information
#MNEM.UNIT           API CODE  Curve Description
#---------           --------  -----------------
DEPT.FT                      :   1 DEPTH
SP  .MV                      :   2
AM16.OHMM                    :   3
AO10.OHMM                    :   4
AO19.OHMM                    :   5
SBL .MV                      :   6
RS  .OHMM                    :   7
RM  .OHMM                    :   8
RD  .OHMM                    :   9
~A
# ...
  1646.000 -27.052  8.1020  11.289  13.354 -14.142  8.1020  11.289  13.354 
  1646.500 -23.246  7.5850  10.586  11.307 -10.338  7.5850  10.586  11.307 
  1647.000 -20.626  7.3700  10.019  9.8920 -7.7196  7.3700  10.019  9.8920 
  1647.500 -19.370  7.1980  9.1870  9.1150 -6.4653  7.1980  9.1870  9.1150 
  1648.000 -18.690  7.1270  8.6850  8.4610 -5.7871  7.1270  8.6850  8.4610 
  1648.500 -18.404  7.2140  8.3770  8.2660 -5.5029  7.2140  8.3770  8.2660 
  1649.000 -18.119  7.4720  8.7930  8.1860 -5.2197  7.4720  8.7930  8.1860 
  1649.500 -18.013  7.8390  9.9130  9.0530 -5.1155  7.8390  9.9130  9.0530 
  1650.000 -18.230  8.5430  10.682  10.258 -5.3342  8.5430  10.682  10.258 
  1650.500 -19.132  9.8350  11.170  10.724 -6.2380  9.8350  11.170  10.724 
  1651.000 -20.572  10.574  12.268  10.953 -7.6798  10.574  12.268  10.953 
  1651.500 -25.245  12.074  13.071  11.160 -12.355  12.074  13.071  11.160 
  1652.000 -30.637  12.504  13.638  11.367 -17.748  12.504  13.638  11.367 
  1652.500 -36.639  13.028  14.112  11.473 -23.752  13.028  14.112  11.473 
  1653.000 -39.086  13.645  14.305  11.616 -26.201  13.645  14.305  11.616 
  1653.500 -40.921  14.025  14.384  11.816 -28.038  14.025  14.384  11.816 
  1654.000 -42.038  14.182  14.462  12.016 -29.157  14.182  14.462  12.016 
  1654.500 -42.976  14.282  14.577  12.359 -30.096  14.282  14.577  12.359 
  1655.000 -43.734  14.379  14.620  12.796 -30.856  14.379  14.620  12.796 
  1655.500 -44.348  14.476  14.626  13.147 -31.472  14.476  14.626  13.147 
  1656.000 -44.675  14.705  14.468  13.677 -31.801  14.705  14.468  13.677 
  1656.500 -44.391  14.913  14.209  14.336 -31.518  14.913  14.209  14.336 
  1657.000 -44.143  15.623  13.958  15.613 -31.272  15.623  13.958  15.613 
  1657.500 -44.003  16.204  13.778  16.021 -31.134  16.204  13.778  16.021 
  1658.000 -43.827  16.592  13.691  16.537 -30.960  16.592  13.691  16.537 
  1658.500 -45.304  17.029  13.655  17.433 -32.439  17.029  13.655  17.433 
  1659.000 -45.792  17.876  13.770  18.387 -32.928  17.876  13.770  18.387 
  1659.500 -46.281  18.507  14.135  19.161 -33.419  18.507  14.135  19.161 
  1660.000 -47.613  18.693  15.571  19.598 -34.753  18.693  15.571  19.598 
  1660.500 -48.429  18.930  16.360  19.986 -35.571  18.930  16.360  19.986 
  1661.000 -48.669  19.268  17.330  20.001 -35.812  19.268  17.330  20.001 
  1661.500 -48.910  19.569  18.069  20.016 -36.055  19.569  18.069  20.016 
  1662.000 -49.043  21.680  18.523  20.032 -36.190  21.680  18.523  20.032 
  1662.500 -48.529  22.254  18.977  20.047 -35.678  22.254  18.977  20.047 
  1663.000 -47.692  22.828  19.431  21.558 -34.843  22.828  19.431  21.558 
  1663.500 -47.286  23.259  19.885  22.136 -34.438  23.259  19.885  22.136 
  1664.000 -46.916  23.474  20.531  22.426 -34.070  23.474  20.531  22.426 
  1664.500 -47.121  23.690  21.321  22.717 -34.277  23.690  21.321  22.717 
  1665.000 -47.541  23.762  21.823  23.295 -34.699  23.762  21.823  23.295 
  1665.500 -47.962  23.833  22.685  23.406 -35.121  23.833  22.685  23.406 
  1666.000 -48.274  23.762  23.044  23.518 -35.435  23.762  23.044  23.518 
  1666.500 -48.263  23.618  23.833  23.665 -35.426  23.618  23.833  23.665 
  1667.000 -47.714  23.331  24.480  23.668 -34.879  23.331  24.480  23.668 
  1667.500 -47.200  23.116  24.982  23.672 -34.367  23.116  24.982  23.672 
  1668.000 -47.046  22.900  25.915  23.676 -34.214  22.900  25.915  23.676 
  1668.500 -46.819  22.757  26.346  23.571 -33.989  22.757  26.346  23.571 
  1669.000 -46.342  22.613  27.064  23.467 -33.514  22.613  27.064  23.467 
  1669.500 -46.008  22.182  27.925  23.327 -33.182  22.182  27.925  23.327 
  1670.000 -45.817  21.608  28.284  23.116 -32.993  21.608  28.284  23.116 
  1670.500 -45.684  19.081  29.002  23.130 -32.861  19.081  29.002  23.130 
  1671.000 -46.018  18.708  29.433  23.144 -33.197  18.708  29.433  23.144 
  1671.500 -46.317  18.457  29.864  23.159 -33.498  18.457  29.864  23.159 
  1672.000 -46.399  17.868  30.438  23.173 -33.582  17.868  30.438  23.173 
  1672.500 -45.332  16.985  30.797  23.187 -32.516  16.985  30.797  23.187 
  1673.000 -44.229  15.966  31.371  23.202 -31.415  15.966  31.371  23.202 
  1673.500 -42.983  15.147  31.515  23.288 -30.171  15.147  31.515  23.288 
  1674.000 -42.060  12.340  31.515  23.230 -29.250  12.340  31.515  23.230 
  1674.500 -38.946  11.278  30.797  22.670 -26.138  11.278  30.797  22.670 
  1675.000 -30.623  9.8560  29.361  22.039 -17.816  9.8560  29.361  22.039 
  1675.500 -22.336  7.9680  27.064  21.335 -9.5311  7.9680  27.064  21.335 
  1676.000 -20.479  6.7620  25.197  17.763 -7.6759  6.7620  25.197  17.763 
  1676.500 -19.591  5.8080  20.786  13.464 -6.7897  5.8080  20.786  13.464 
  1677.000 -18.920  5.2980  16.375  12.195 -6.1205  5.2980  16.375  12.195 
  1677.500 -18.356  5.0750  15.951  10.280 -5.5583  5.0750  15.951  10.280 
  1678.000 -17.935  4.9530  11.622  9.6210 -5.1390  4.9530  11.622  9.6210 
  1678.500 -17.767  4.8530  10.826  8.2580 -4.9728  4.8530  10.826  8.2580 
  1679.000 -17.598  4.8310  10.258  8.0450 -4.8056  4.8310  10.258  8.0450 
  1679.500 -17.860  4.8310  9.4040  7.9450 -5.0694  4.8310  9.4040  7.9450 
  1680.000 -18.410  4.7740  9.0880  7.9250 -5.6212  4.7740  9.0880  7.9250 
  1680.500 -19.158  4.6650  8.5990  8.4340 -6.3710  4.6650  8.5990  8.4340 
  1681.000 -19.800  4.5930  8.9150  8.9060 -7.0147  4.5930  8.9150  8.9060 
  1681.500 -19.363  4.5990  9.1220  9.2420 -6.5795  4.5990  9.1220  9.2420 
  1682.000 -18.891  4.8860  9.2650  9.4630 -6.1093  4.8860  9.2650  9.4630 
  1682.500 -18.347  5.0220  9.4010  9.3680 -5.5671  5.0220  9.4010  9.3680 
  1683.000 -17.731  5.1360  9.3350  9.1510 -4.9529  5.1360  9.3350  9.1510 
  1683.500 -17.294  5.2570  8.8250  9.0280 -4.5176  5.2570  8.8250  9.0280 
  1684.000 -16.894  5.3350  8.1780  9.2780 -4.1194  5.3350  8.1780  9.2780 
  1684.500 -16.745  5.3560  8.0840  9.4920 -3.9722  5.3560  8.0840  9.4920 
  1685.000 -16.883  5.3770  8.0550  9.6550 -4.1120  5.3770  8.0550  9.6550 
  1685.500 -17.237  5.3690  8.0390  9.8050 -4.4678  5.3690  8.0390  9.8050 
  1686.000 -17.339  5.3680  8.0170  9.8890 -4.5716  5.3680  8.0170  9.8890 
  1686.500 -17.406  5.4030  7.8800  9.9810 -4.6403  5.4030  7.8800  9.9810 
  1687.000 -17.221  5.4390  7.5200  9.5710 -4.4571  5.4390  7.5200  9.5710 
  1687.500 -16.784  5.6170  6.8880  9.3830 -4.0219  5.6170  6.8880  9.3830 
  1688.000 -16.348  5.8180  6.6290  9.2810 -3.5877  5.8180  6.6290  9.2810 
  1688.500 -15.875  6.0680  6.3410  9.2430 -3.1165  6.0680  6.3410  9.2430 
  1689.000 -15.726  6.2900  6.1460  9.4140 -2.9692  6.2900  6.1460  9.4140 
  1689.500 -15.829  6.8490  6.0880  9.9730 -3.0740  6.8490  6.0880  9.9730 
  1690.000 -16.182  7.2940  6.1020  10.287 -3.4288  7.2940  6.1020  10.287 
  1690.500 -16.834  7.7390  6.4330  10.718 -4.0826  7.7390  6.4330  10.718 
  1691.000 -17.558  8.3140  6.8990  11.213 -4.8084  8.3140  6.8990  11.213 
  1691.500 -18.964  9.2900  7.2090  12.125 -6.2162  9.2900  7.2090  12.125 
  1692.000 -20.946  10.920  7.5320  13.137 -8.1999  10.920  7.5320  13.137 
  1692.500 -30.973  11.883  7.8980  13.510 -18.229  11.883  7.8980  13.510 
  1693.000 -34.786  13.060  8.2650  14.085 -22.043  13.060  8.2650  14.085 
  1693.500 -40.179  15.214  8.6890  14.372 -27.438  15.214  8.6890  14.372 
  1694.000 -41.837  15.925  8.9690  14.752 -29.098  15.925  8.9690  14.752 
  1694.500 -43.782  16.242  9.2930  14.968 -31.045  16.242  9.2930  14.968 
  1695.000 -45.440  16.766  9.6450  15.133 -32.705  16.766  9.6450  15.133 
  1695.500 -46.308  17.434  9.9320  15.226 -33.574  17.434  9.9320  15.226 
  1696.000 -47.678  17.865  10.105  15.327 -34.946  17.865  10.105  15.327 
  1696.500 -48.258  18.196  10.328  15.377 -35.528  18.196  10.328  15.377 
  1697.000 -49.126  18.375  10.493  15.384 -36.398  18.375  10.493  15.384 
  1697.500 -49.813  18.541  10.651  15.305 -37.087  18.541  10.651  15.305 
  1698.000 -50.429  18.606  10.716  15.197 -37.704  18.606  10.716  15.197 
  1698.500 -50.722  18.692  10.796  15.097 -37.999  18.692  10.796  15.097 
