~Version Information
VERS.                     2.0: CWLS log ASCII Standard Version 2.00
WRAP.                      NO: One line per depth step
~Well Information Block
#MNEM.UNIT                               Data Type  Information
#---------                               ---------  -----------
STRT.FT                                   419.0000:
STOP.FT                                  7100.0000:
STEP.FT                                     0.5000:
NULL.                 -999.25                     :
COMP.                                             :COMPANY            
WELL.     SAN EMIDIO A #62-28                     :WELL               
FLD .                                             :FIELD              
CTRY.                                             :COUNTRY            
STAT.                                             :STATE              
LOC .                                             :LOCATION           
UWI .                                             :UNIQUE WELL ID     
SRVC.                                             :Service company    
DATE.                                             :LOG DATE           
~Curve Information
#MNEM.UNIT           API CODE  Curve Description
#---------           --------  -----------------
DEPT.FT                      :   1 DEPTH
SP  .MV                      :   2
AM16.OHMM                    :   3
AO10.OHMM                    :   4
AO19.OHMM                    :   5
SBL .MV                      :   6
RS  .OHMM                    :   7
RM  .OHMM                    :   8
RD  .OHMM                    :   9
DEVI.DEG                     :  10
TVD .FT                      :  11
AZIM.DEG                     :  12
NORT.FT                      :  13
EAST.FT                      :  14
OFFS.FT                      :  15
~A
# ...
  4416.500 -21.293  3.3540  4.5090  3.1590 -12.604  3.3540  4.5090  3.1590  1.6117  4415.8  99.488  8.4364  64.226  51.380 
  4417.000 -19.965  3.1450  4.4370  3.0500 -11.277  3.1450  4.4370  3.0500  1.6100  4416.3  99.533  8.4341  64.240  51.389 
  4417.500 -18.818  2.9440  4.2930  2.9560 -10.132  2.9440  4.2930  2.9560  1.6084  4416.8  99.578  8.4318  64.254  51.397 
  4418.000 -17.993  2.8650  4.1710  2.8900 -9.3077  2.8650  4.1710  2.8900  1.6067  4417.3  99.623  8.4294  64.268  51.405 
  4418.500 -17.133  2.7350  4.0840  2.8310 -8.4489  2.7350  4.0840  2.8310  1.6050  4417.8  99.668  8.4271  64.282  51.413 
  4419.000 -16.452  2.6060  3.9980  2.8010 -7.7691  2.6060  3.9980  2.8010  1.6034  4418.3  99.713  8.4247  64.295  51.421 
  4419.500 -15.879  2.5410  3.9440  2.8000 -7.1972  2.5410  3.9440  2.8000  1.6017  4418.8  99.758  8.4223  64.309  51.429 
  4420.000 -15.306  2.4470  3.8900  2.7990 -6.6254  2.4470  3.8900  2.7990  1.6000  4419.3  99.803  8.4200  64.323  51.437 
  4420.500 -14.932  2.4320  3.8170  2.7980 -6.2526  2.4320  3.8170  2.7980  1.5984  4419.8  99.848  8.4176  64.337  51.445 
  4421.000 -14.557  2.5600  3.7440  2.7980 -5.8788  2.5600  3.7440  2.7980  1.5967  4420.3  99.893  8.4152  64.350  51.453 
  4421.500 -13.880  2.6740  3.7010  2.8260 -5.2030  2.6740  3.7010  2.8260  1.5950  4420.8  99.938  8.4128  64.364  51.461 
  4422.000 -13.667  2.7960  3.6640  2.8320 -4.9911  2.7960  3.6640  2.8320  1.5934  4421.3  99.983  8.4104  64.378  51.469 
  4422.500 -13.204  2.9030  3.6350  2.9970 -4.5293  2.9030  3.6350  2.9970  1.5917  4421.8  100.03  8.4080  64.392  51.477 
  4423.000 -12.920  3.0670  3.7130  3.1040 -4.2465  3.0670  3.7130  3.1040  1.5900  4422.3  100.07  8.4055  64.405  51.485 
  4423.500 -13.103  3.1950  3.8340  3.2400 -4.4307  3.1950  3.8340  3.2400  1.5884  4422.8  100.12  8.4031  64.419  51.493 
  4424.000 -14.796  3.3020  3.9480  3.3330 -6.1248  3.3020  3.9480  3.3330  1.5867  4423.3  100.16  8.4007  64.433  51.501 
  4424.500 -15.769  3.3480  4.0190  3.4040 -7.0990  3.3480  4.0190  3.4040  1.5850  4423.8  100.21  8.3982  64.446  51.509 
  4425.000 -16.742  3.3940  4.1620  3.5110 -8.0732  3.3940  4.1620  3.5110  1.5834  4424.3  100.25  8.3958  64.460  51.517 
  4425.500 -19.621  3.4010  4.3260  3.5750 -10.953  3.4010  4.3260  3.5750  1.5817  4424.8  100.30  8.3933  64.473  51.524 
  4426.000 -20.810  3.2560  4.4120  3.6530 -12.144  3.2560  4.4120  3.6530  1.5800  4425.3  100.34  8.3908  64.487  51.532 
  4426.500 -21.208  3.1840  4.4400  3.6740 -12.543  3.1840  4.4400  3.6740  1.5784  4425.8  100.39  8.3883  64.500  51.540 
  4427.000 -20.853  3.1120  4.3820  3.5730 -12.189  3.1120  4.3820  3.5730  1.5767  4426.3  100.43  8.3858  64.514  51.548 
  4427.500 -19.383  2.9240  4.2660  3.4580 -10.720  2.9240  4.2660  3.4580  1.5750  4426.8  100.48  8.3833  64.527  51.556 
  4428.000 -17.160  2.7940  4.0570  3.3430 -8.4982  2.7940  4.0570  3.3430  1.5734  4427.3  100.52  8.3808  64.541  51.563 
  4428.500 -15.690  2.6860  3.8990  3.1560 -7.0294  2.6860  3.8990  3.1560  1.5717  4427.8  100.57  8.3783  64.554  51.571 
  4429.000 -14.903  2.5700  3.6610  2.9970 -6.2436  2.5700  3.6610  2.9970  1.5700  4428.3  100.61  8.3758  64.568  51.579 
  4429.500 -14.224  2.4840  3.3450  2.9180 -5.5658  2.4840  3.3450  2.9180  1.5684  4428.8  100.66  8.3733  64.581  51.587 
  4430.000 -13.546  2.3900  3.2080  2.8020 -4.8889  2.3900  3.2080  2.8020  1.5667  4429.3  100.70  8.3707  64.595  51.594 
  4430.500 -13.297  2.3320  3.1930  2.6940 -4.6411  2.3320  3.1930  2.6940  1.5650  4429.8  100.75  8.3682  64.608  51.602 
  4431.000 -13.157  2.3020  3.1700  2.6070 -4.5023  2.3020  3.1700  2.6070  1.5634  4430.3  100.79  8.3656  64.622  51.610 
  4431.500 -13.125  2.3370  3.0690  2.5060 -4.4715  2.3370  3.0690  2.5060  1.5617  4430.8  100.84  8.3631  64.635  51.617 
  4432.000 -13.273  2.5590  2.9820  2.4630 -4.6206  2.5590  2.9820  2.4630  1.5600  4431.3  100.88  8.3605  64.648  51.625 
  4432.500 -13.456  2.6660  2.9100  2.4550 -4.8048  2.6660  2.9100  2.4550  1.5584  4431.8  100.93  8.3579  64.662  51.633 
  4433.000 -13.962  2.8950  2.8370  2.5550 -5.3120  2.8950  2.8370  2.5550  1.5567  4432.3  100.97  8.3553  64.675  51.640 
  4433.500 -15.511  3.2030  3.0300  2.6690 -6.8622  3.2030  3.0300  2.6690  1.5550  4432.8  101.02  8.3527  64.688  51.648 
  4434.000 -16.664  3.4240  3.2740  2.8050 -8.0163  3.4240  3.2740  2.8050  1.5534  4433.3  101.06  8.3501  64.702  51.655 
  4434.500 -19.290  3.6460  3.5100  2.9620 -10.644  3.6460  3.5100  2.9620  1.5517  4433.8  101.11  8.3475  64.715  51.663 
  4435.000 -24.683  3.7100  3.6170  3.0690 -16.038  3.7100  3.6170  3.0690  1.5500  4434.3  101.15  8.3449  64.728  51.670 
  4435.500 -29.249  3.8310  3.7450  3.1230 -20.605  3.8310  3.7450  3.1230  1.5484  4434.8  101.20  8.3423  64.741  51.678 
  4436.000 -30.870  3.8920  3.8380  3.1760 -22.227  3.8920  3.8380  3.1760  1.5467  4435.3  101.24  8.3397  64.755  51.686 
  4436.500 -34.323  3.9520  3.9090  3.2120 -25.681  3.9520  3.9090  3.2120  1.5450  4435.8  101.29  8.3370  64.768  51.693 
  4437.000 -36.122  3.9080  3.9650  3.1100 -27.481  3.9080  3.9650  3.1100  1.5434  4436.3  101.33  8.3344  64.781  51.700 
  4437.500 -37.707  3.8790  3.9650  3.0670 -29.068  3.8790  3.9650  3.0670  1.5417  4436.8  101.38  8.3317  64.794  51.708 
  4438.000 -38.465  3.8130  3.9390  2.9940 -29.827  3.8130  3.9390  2.9940  1.5400  4437.3  101.42  8.3291  64.807  51.715 
  4438.500 -38.504  3.7410  3.9130  2.9730 -29.867  3.7410  3.9130  2.9730  1.5384  4437.8  101.47  8.3264  64.821  51.723 
  4439.000 -38.652  3.8330  3.7690  2.9360 -30.016  3.8330  3.7690  2.9360  1.5367  4438.3  101.51  8.3237  64.834  51.730 
  4439.500 -38.907  4.0050  3.7180  2.9070 -30.272  4.0050  3.7180  2.9070  1.5350  4438.8  101.56  8.3210  64.847  51.738 
  4440.000 -39.342  4.0900  3.6670  2.8490 -30.708  4.0900  3.6670  2.8490  1.5334  4439.3  101.60  8.3183  64.860  51.745 
  4440.500 -42.074  4.0900  3.6020  2.8190 -33.442  4.0900  3.6020  2.8190  1.5317  4439.8  101.65  8.3156  64.873  51.752 
  4441.000 -43.944  4.0910  3.5660  2.7920 -35.313  4.0910  3.5660  2.7920  1.5300  4440.3  101.69  8.3129  64.886  51.760 
  4441.500 -44.520  4.0470  3.5020  2.7660 -35.890  4.0470  3.5020  2.7660  1.5284  4440.8  101.74  8.3102  64.899  51.767 
  4442.000 -44.594  4.0400  3.4440  2.6780 -35.965  4.0400  3.4440  2.6780  1.5267  4441.3  101.78  8.3075  64.912  51.774 
  4442.500 -44.703  4.1410  3.4020  2.6260 -36.075  4.1410  3.4020  2.6260  1.5250  4441.8  101.83  8.3048  64.925  51.781 
  4443.000 -44.812  4.2340  3.3440  2.5960 -36.185  4.2340  3.3440  2.5960  1.5233  4442.3  101.87  8.3020  64.938  51.789 
  4443.500 -45.642  4.3270  3.2940  2.5660 -37.017  4.3270  3.2940  2.5660  1.5217  4442.8  101.92  8.2993  64.951  51.796 
  4444.000 -46.470  4.5210  3.2510  2.5580 -37.846  4.5210  3.2510  2.5580  1.5200  4443.3  101.96  8.2965  64.964  51.803 
  4444.500 -47.981  4.6000  3.2220  2.6210 -39.358  4.6000  3.2220  2.6210  1.5183  4443.8  102.01  8.2938  64.977  51.810 
  4445.000 -48.485  4.6790  3.2510  2.6840 -39.863  4.6790  3.2510  2.6840  1.5167  4444.3  102.05  8.2910  64.990  51.818 
  4445.500 -49.385  4.7690  3.3300  2.7510 -40.764  4.7690  3.3300  2.7510  1.5150  4444.8  102.10  8.2883  65.003  51.825 
  4446.000 -50.250  4.8580  3.4090  2.8170 -41.631  4.8580  3.4090  2.8170  1.5133  4445.3  102.14  8.2855  65.016  51.832 
  4446.500 -50.862  4.9590  3.5880  2.9090 -42.244  4.9590  3.5880  2.9090  1.5117  4445.8  102.19  8.2827  65.029  51.839 
  4447.000 -51.187  5.0020  3.6670  2.9290 -42.570  5.0020  3.6670  2.9290  1.5100  4446.3  102.23  8.2799  65.042  51.846 
  4447.500 -51.225  5.0160  3.7320  2.9500 -42.609  5.0160  3.7320  2.9500  1.5083  4446.8  102.28  8.2771  65.055  51.853 
  4448.000 -50.868  5.0310  3.7820  2.9340 -42.253  5.0310  3.7820  2.9340  1.5067  4447.3  102.32  8.2743  65.067  51.860 
  4448.500 -50.690  5.0950  3.7460  2.8530 -42.076  5.0950  3.7460  2.8530  1.5050  4447.8  102.37  8.2715  65.080  51.868 
