~Version Information
VERS.                     2.0: CWLS log ASCII Standard Version 2.00
WRAP.                      NO: One line per depth step
~Well Information Block
#MNEM.UNIT                               Data Type  Information
#---------                               ---------  -----------
STRT.FT                                   419.0000:
STOP.FT                                  7100.0000:
STEP.FT                                     0.5000:
NULL.                 -999.25                     :
COMP.                                             :COMPANY            
WELL.     SAN EMIDIO A #62-28                     :WELL               
FLD .                                             :FIELD              
CTRY.                                             :COUNTRY            
STAT.                                             :STATE              
LOC .                                             :LOCATION           
UWI .                                             :UNIQUE WELL ID     
SRVC.                                             :Service company    
DATE.                                             :LOG DATE           
~Curve Information
#MNEM.UNIT           API CODE  Curve Description
#---------           --------  -----------------
DEPT.FT                      :   1 DEPTH
SP  .MV                      :   2
AM16.OHMM                    :   3
AO10.OHMM                    :   4
AO19.OHMM                    :   5
SBL .MV                      :   6
RS  .OHMM                    :   7
RM  .OHMM                    :   8
RD  .OHMM                    :   9
DEVI.DEG                     :  10
TVD .FT                      :  11
AZIM.DEG                     :  12
NORT.FT                      :  13
EAST.FT                      :  14
OFFS.FT                      :  15
~A
# ...
  1296.500 -24.733  5.3930  7.7620  5.9700 -13.279  5.3930  7.7620  5.9700  0.5175  1296.4  74.596  9.9229  9.1004  13.452 
  1297.000 -25.167  5.2560  7.8770  5.9190 -13.717  5.2560  7.8770  5.9190  0.5150  1296.9  74.511  9.9241  9.1048  13.455 
  1297.500 -25.099  5.1770  7.8700  5.7890 -13.653  5.1770  7.8700  5.7890  0.5125  1297.4  74.426  9.9253  9.1091  13.459 
  1298.000 -24.636  5.0980  7.8270  5.7320 -13.194  5.0980  7.8270  5.7320  0.5100  1297.9  74.341  9.9265  9.1134  13.463 
  1298.500 -23.921  4.9260  7.7480  5.6740 -12.483  4.9260  7.7480  5.6740  0.5075  1298.4  74.256  9.9277  9.1176  13.467 
  1299.000 -23.458  4.8470  7.6550  5.4940 -12.023  4.8470  7.6550  5.4940  0.5050  1298.9  74.171  9.9289  9.1219  13.471 
  1299.500 -22.959  4.7460  7.5110  5.4000 -11.528  4.7460  7.5110  5.4000  0.5025  1299.4  74.086  9.9301  9.1261  13.475 
  1300.000 -22.475  4.6100  7.2020  5.3210 -11.048  4.6100  7.2020  5.3210  0.5000  1299.9  74.001  9.9313  9.1303  13.479 
  1300.500 -21.991  4.5230  6.5910  5.2780 -10.568  4.5230  6.5910  5.2780  0.5004  1300.4  74.026  9.9325  9.1345  13.482 
  1301.000 -21.022  4.4790  6.5040  5.2950 -9.6028  4.4790  6.5040  5.2950  0.5008  1300.9  74.051  9.9337  9.1387  13.486 
  1301.500 -20.841  4.4350  6.4600  5.3130 -9.4256  4.4350  6.4600  5.3130  0.5013  1301.4  74.076  9.9349  9.1429  13.490 
  1302.000 -20.805  4.5060  6.4230  5.4420 -9.3935  4.5060  6.4230  5.4420  0.5017  1301.9  74.101  9.9361  9.1471  13.494 
  1302.500 -21.126  4.5620  6.4010  5.5280 -9.7183  4.5620  6.4010  5.5280  0.5021  1302.4  74.126  9.9373  9.1513  13.498 
  1303.000 -21.448  4.6190  6.4140  5.6430 -10.044  4.6190  6.4140  5.6430  0.5025  1302.9  74.151  9.9385  9.1555  13.502 
  1303.500 -22.202  4.7400  6.5210  5.7070 -10.802  4.7400  6.5210  5.7070  0.5029  1303.4  74.176  9.9397  9.1598  13.505 
  1304.000 -22.668  4.8180  6.6490  5.8220 -11.272  4.8180  6.6490  5.8220  0.5033  1303.9  74.201  9.9409  9.1640  13.509 
  1304.500 -22.990  4.9110  6.7700  5.9010 -11.598  4.9110  6.7700  5.9010  0.5038  1304.4  74.226  9.9421  9.1682  13.513 
  1305.000 -23.420  4.9890  6.8770  6.0010 -12.032  4.9890  6.8770  6.0010  0.5042  1304.9  74.251  9.9433  9.1724  13.517 
  1305.500 -23.635  5.0450  6.9660  6.0660 -12.250  5.0450  6.9660  6.0660  0.5046  1305.4  74.276  9.9445  9.1767  13.521 
  1306.000 -23.778  5.1020  7.0550  6.1370 -12.397  5.1020  7.0550  6.1370  0.5050  1305.9  74.301  9.9457  9.1809  13.525 
  1306.500 -23.776  5.1440  7.2690  6.2160 -12.399  5.1440  7.2690  6.2160  0.5054  1306.4  74.326  9.9469  9.1852  13.528 
  1307.000 -23.560  5.0780  7.3830  6.2660 -12.187  5.0780  7.3830  6.2660  0.5058  1306.9  74.351  9.9481  9.1894  13.532 
  1307.500 -23.254  4.8410  7.4400  6.2090 -11.885  4.8410  7.4400  6.2090  0.5063  1307.4  74.376  9.9493  9.1937  13.536 
  1308.000 -22.947  4.7500  7.5250  6.1150 -11.582  4.7500  7.5250  6.1150  0.5067  1307.9  74.401  9.9505  9.1979  13.540 
  1308.500 -21.799  4.6600  7.5030  5.9780 -10.437  4.6600  7.5030  5.9780  0.5071  1308.4  74.426  9.9516  9.2022  13.544 
  1309.000 -21.295  4.3350  7.3940  5.8490 -9.9373  4.3350  7.3940  5.8490  0.5075  1308.9  74.451  9.9528  9.2065  13.548 
  1309.500 -20.252  4.1980  7.2640  5.6190 -8.8982  4.1980  7.2640  5.6190  0.5079  1309.4  74.476  9.9540  9.2107  13.552 
  1310.000 -19.533  4.1320  6.2580  5.3100 -8.1830  4.1320  6.2580  5.3100  0.5083  1309.9  74.501  9.9552  9.2150  13.555 
  1310.500 -19.173  4.1460  6.0130  5.1380 -7.8268  4.1460  6.0130  5.1380  0.5088  1310.4  74.526  9.9564  9.2193  13.559 
  1311.000 -19.532  4.2170  5.8540  5.0010 -8.1897  4.2170  5.8540  5.0010  0.5092  1310.9  74.551  9.9576  9.2236  13.563 
  1311.500 -20.106  4.3670  5.7090  5.1730 -8.7675  4.3670  5.7090  5.1730  0.5096  1311.4  74.576  9.9587  9.2279  13.567 
  1312.000 -20.572  4.4950  5.6730  5.3380 -9.2374  4.4950  5.6730  5.3380  0.5100  1311.9  74.601  9.9599  9.2322  13.571 
  1312.500 -20.750  4.6310  5.7690  5.6610 -9.4192  4.6310  5.7690  5.6610  0.5104  1312.4  74.626  9.9611  9.2364  13.575 
  1313.000 -21.396  4.8160  5.8650  5.8480 -10.069  4.8160  5.8650  5.8480  0.5108  1312.9  74.651  9.9623  9.2407  13.579 
  1313.500 -21.574  4.9520  6.2160  6.2420 -10.251  4.9520  6.2160  6.2420  0.5113  1313.4  74.676  9.9635  9.2451  13.582 
  1314.000 -21.214  5.1450  6.4230  6.5080 -9.8948  5.1450  6.4230  6.5080  0.5117  1313.9  74.701  9.9647  9.2494  13.586 
  1314.500 -20.998  5.3950  6.6090  6.7090 -9.6826  5.3950  6.6090  6.7090  0.5121  1314.4  74.726  9.9658  9.2537  13.590 
  1315.000 -21.141  5.5380  6.8740  6.8630 -9.8295  5.5380  6.8740  6.8630  0.5125  1314.9  74.751  9.9670  9.2580  13.594 
  1315.500 -21.247  5.7020  7.2460  7.0170 -9.9393  5.7020  7.2460  7.0170  0.5129  1315.4  74.776  9.9682  9.2623  13.598 
  1316.000 -21.713  5.9170  7.6110  7.2680 -10.409  5.9170  7.6110  7.2680  0.5133  1315.9  74.801  9.9694  9.2666  13.602 
  1316.500 -22.502  6.0880  8.0270  7.5410 -11.202  6.0880  8.0270  7.5410  0.5138  1316.4  74.826  9.9705  9.2710  13.606 
  1317.000 -23.256  6.1950  8.3210  7.6770 -11.960  6.1950  8.3210  7.6770  0.5142  1316.9  74.851  9.9717  9.2753  13.610 
  1317.500 -23.685  6.3020  8.6430  7.8140 -12.393  6.3020  8.6430  7.8140  0.5146  1317.4  74.876  9.9729  9.2796  13.614 
  1318.000 -24.151  6.4880  8.8070  8.0360 -12.863  6.4880  8.8070  8.0360  0.5150  1317.9  74.901  9.9740  9.2840  13.617 
  1318.500 -24.725  6.5870  8.9070  8.0720 -13.440  6.5870  8.9070  8.0720  0.5154  1318.4  74.926  9.9752  9.2883  13.621 
  1319.000 -25.191  6.6730  9.0420  8.1080 -13.910  6.6730  9.0420  8.1080  0.5158  1318.9  74.951  9.9764  9.2926  13.625 
  1319.500 -25.189  6.7430  9.0560  8.0280 -13.912  6.7430  9.0560  8.0280  0.5163  1319.4  74.976  9.9775  9.2970  13.629 
  1320.000 -24.722  6.5920  8.9760  7.7190 -13.449  6.5920  8.9760  7.7190  0.5167  1319.9  75.001  9.9787  9.3014  13.633 
  1320.500 -24.509  6.3120  8.1070  6.8440 -13.240  6.3120  8.1070  6.8440  0.5171  1320.4  75.026  9.9799  9.3057  13.637 
  1321.000 -24.187  6.1470  7.5900  6.5710 -12.922  6.1470  7.5900  6.5710  0.5175  1320.9  75.051  9.9810  9.3101  13.641 
  1321.500 -23.543  6.0610  7.3100  6.3490 -12.281  6.0610  7.3100  6.3490  0.5179  1321.4  75.076  9.9822  9.3144  13.645 
  1322.000 -23.077  6.0320  7.1310  6.2050 -11.819  6.0320  7.1310  6.2050  0.5183  1321.9  75.101  9.9834  9.3188  13.649 
  1322.500 -22.110  6.0040  6.9300  6.1130 -10.856  6.0040  6.9300  6.1130  0.5188  1322.4  75.126  9.9845  9.3232  13.653 
  1323.000 -21.286  5.9750  6.8590  6.0270 -10.036  5.9750  6.8590  6.0270  0.5192  1322.9  75.151  9.9857  9.3276  13.657 
  1323.500 -20.820  6.0190  6.9740  6.0520 -9.5738  6.0190  6.9740  6.0520  0.5196  1323.4  75.176  9.9869  9.3320  13.660 
  1324.000 -20.355  6.0760  7.0530  6.0780 -9.1127  6.0760  7.0530  6.0780  0.5200  1323.9  75.201  9.9880  9.3363  13.664 
  1324.500 -20.178  6.1630  7.2250  6.1210 -8.9395  6.1630  7.2250  6.1210  0.5204  1324.4  75.226  9.9892  9.3407  13.668 
  1325.000 -20.467  6.3850  7.3910  6.2150 -9.2324  6.3850  7.3910  6.2150  0.5208  1324.9  75.251  9.9903  9.3451  13.672 
  1325.500 -21.079  6.4790  7.5270  6.3730 -9.8482  6.4790  7.5270  6.3730  0.5213  1325.4  75.276  9.9915  9.3495  13.676 
  1326.000 -21.728  6.6160  7.7290  6.4560 -10.501  6.6160  7.7290  6.4560  0.5217  1325.9  75.301  9.9926  9.3539  13.680 
  1326.500 -22.124  6.8240  8.0020  6.5390 -10.901  6.8240  8.0020  6.5390  0.5221  1326.4  75.326  9.9938  9.3583  13.684 
  1327.000 -22.413  6.9100  8.5330  6.8120 -11.194  6.9100  8.5330  6.8120  0.5225  1326.9  75.351  9.9949  9.3627  13.688 
  1327.500 -22.415  6.9820  8.8060  6.9240 -11.200  6.9820  8.8060  6.9240  0.5229  1327.4  75.376  9.9961  9.3672  13.692 
  1328.000 -22.381  7.0110  9.1870  7.0360 -11.169  7.0110  9.1870  7.0360  0.5233  1327.9  75.401  9.9973  9.3716  13.696 
  1328.500 -22.419  6.9750  9.3880  7.2370 -11.211  6.9750  9.3880  7.2370  0.5238  1328.4  75.426  9.9984  9.3760  13.700 
