~Version Information
VERS.                     2.0: CWLS log ASCII Standard Version 2.00
WRAP.                      NO: One line per depth step
~Well Information Block
#MNEM.UNIT                               Data Type  Information
#---------                               ---------  -----------
STRT.FT                                   350.0000:
STOP.FT                                  6970.0000:
STEP.FT                                     0.5000:
NULL.                 -999.25                     :
COMP.                                             :COMPANY            
WELL.     SAN EMIDIO A #76-19                     :WELL               
FLD .                                             :FIELD              
CTRY.                                             :COUNTRY            
STAT.                                             :STATE              
LOC .                                             :LOCATION           
UWI .                                             :UNIQUE WELL ID     
SRVC.                                             :Service company    
DATE.                                             :LOG DATE           
~Curve Information
#MNEM.UNIT           API CODE  Curve Description
#---------           --------  -----------------
DEPT.FT                      :   1 DEPTH
SP  .MV                      :   2
AM16.OHMM                    :   3
AO10.OHMM                    :   4
AO19.OHMM                    :   5
SBL .MV                      :   6
RS  .OHMM                    :   7
RM  .OHMM                    :   8
RD  .OHMM                    :   9
DEVI.DEG                     :  10
TVD .FT                      :  11
AZIM.DEG                     :  12
NORT.FT                      :  13
EAST.FT                      :  14
OFFS.FT                      :  15
~A
# ...
  2982.500 -17.416  5.2750  7.4110  9.4500 -2.7646  5.2750  7.4110  9.4500  0.6667  2982.4  51.029  10.629  14.330  17.649 
  2983.000 -17.312  5.2170  7.3530  9.3990 -2.6627  5.2170  7.3530  9.3990  0.6667  2982.9  50.914  10.633  14.335  17.654 
  2983.500 -17.530  5.2440  7.3450  9.4060 -2.8829  5.2440  7.3450  9.4060  0.6667  2983.4  50.799  10.636  14.339  17.660 
  2984.000 -17.748  5.3160  7.4300  9.5990 -3.1030  5.3160  7.4300  9.5990  0.6667  2983.9  50.684  10.640  14.344  17.666 
  2984.500 -18.941  5.4010  7.5450  9.7490 -4.2981  5.4010  7.5450  9.7490  0.6667  2984.4  50.569  10.644  14.348  17.672 
  2985.000 -19.485  5.4650  7.6300  9.9210 -4.8442  5.4650  7.6300  9.9210  0.6667  2984.9  50.454  10.647  14.353  17.678 
  2985.500 -20.171  5.5790  7.7370  10.050 -5.5323  5.5790  7.7370  10.050  0.6667  2985.4  50.339  10.651  14.357  17.683 
  2986.000 -20.607  5.6860  7.7940  10.229 -5.9704  5.6860  7.7940  10.229  0.6667  2985.9  50.224  10.655  14.362  17.689 
  2986.500 -20.791  5.7940  7.8940  10.343 -6.1566  5.7940  7.8940  10.343  0.6667  2986.4  50.109  10.659  14.366  17.695 
  2987.000 -20.866  5.8650  7.9440  10.400 -6.2337  5.8650  7.9440  10.400  0.6667  2986.9  49.994  10.662  14.370  17.701 
  2987.500 -20.152  5.9070  7.8490  10.457 -5.5218  5.9070  7.8490  10.457  0.6667  2987.4  49.879  10.666  14.375  17.707 
  2988.000 -19.652  5.9350  7.6830  10.470 -5.0239  5.9350  7.6830  10.470  0.6667  2987.9  49.764  10.670  14.379  17.712 
  2988.500 -19.262  5.9340  7.4810  10.289 -4.6360  5.9340  7.4810  10.289  0.6667  2988.4  49.649  10.674  14.384  17.718 
  2989.000 -18.978  5.9190  7.2860  10.138 -4.3541  5.9190  7.2860  10.138  0.6667  2988.9  49.534  10.677  14.388  17.724 
  2989.500 -18.801  5.8970  7.1200  10.079 -4.1793  5.8970  7.1200  10.079  0.6667  2989.4  49.419  10.681  14.393  17.730 
  2990.000 -18.733  5.8600  6.9890  9.9280 -4.1134  5.8600  6.9890  9.9280  0.6667  2989.9  49.304  10.685  14.397  17.736 
  2990.500 -19.096  5.8090  6.9020  9.7970 -4.4785  5.8090  6.9020  9.7970  0.6667  2990.4  49.189  10.689  14.401  17.741 
  2991.000 -19.569  5.7650  6.8080  9.7320 -4.9536  5.7650  6.8080  9.7320  0.6667  2990.9  49.074  10.693  14.406  17.747 
  2991.500 -19.572  5.7420  6.7350  9.7170 -4.9587  5.7420  6.7350  9.7170  0.6667  2991.4  48.959  10.696  14.410  17.753 
  2992.000 -19.521  5.7350  6.6260  9.7160 -4.9098  5.7350  6.6260  9.7160  0.6667  2991.9  48.844  10.700  14.415  17.759 
  2992.500 -19.469  5.7190  6.5110  9.7290 -4.8600  5.7190  6.5110  9.7290  0.6667  2992.4  48.729  10.704  14.419  17.765 
  2993.000 -19.188  5.7040  6.3800  9.7500 -4.5811  5.7040  6.3800  9.7500  0.6667  2992.9  48.614  10.708  14.423  17.770 
  2993.500 -18.976  5.6750  6.2570  9.7640 -4.3712  5.6750  6.2570  9.7640  0.6667  2993.4  48.499  10.712  14.428  17.776 
  2994.000 -18.800  5.6230  6.1770  9.7780 -4.1973  5.6230  6.1770  9.7780  0.6667  2993.9  48.384  10.716  14.432  17.782 
  2994.500 -18.948  5.5290  6.1410  9.7950 -4.3474  5.5290  6.1410  9.7950  0.6667  2994.4  48.269  10.719  14.436  17.788 
  2995.000 -18.988  5.3920  6.0250  9.8120 -4.3896  5.3920  6.0250  9.8120  0.6667  2994.9  48.154  10.723  14.441  17.794 
  2995.500 -18.956  5.2760  5.8440  9.5230 -4.3597  5.2760  5.8440  9.5230  0.6667  2995.4  48.039  10.727  14.445  17.800 
  2996.000 -18.350  5.1310  5.7350  9.3280 -3.7558  5.1310  5.7350  9.3280  0.6667  2995.9  47.924  10.731  14.449  17.805 
  2996.500 -18.245  5.0300  5.5760  9.1410 -3.6529  5.0300  5.5760  9.1410  0.6667  2996.4  47.809  10.735  14.454  17.811 
  2997.000 -18.104  4.9140  5.4390  8.8660 -3.5140  4.9140  5.4390  8.8660  0.6667  2996.9  47.694  10.739  14.458  17.817 
  2997.500 -18.037  4.8630  5.3230  8.6570 -3.4491  4.8630  5.3230  8.6570  0.6667  2997.4  47.579  10.743  14.462  17.823 
  2998.000 -18.040  4.8480  5.2650  8.5050 -3.4543  4.8480  5.2650  8.5050  0.6667  2997.9  47.464  10.747  14.467  17.829 
  2998.500 -18.080  4.8830  5.2490  8.4250 -3.4964  4.8830  5.2490  8.4250  0.6667  2998.4  47.349  10.751  14.471  17.834 
  2999.000 -18.156  4.9470  5.2560  8.3020 -3.5745  4.9470  5.2560  8.3020  0.6667  2998.9  47.234  10.755  14.475  17.840 
  2999.500 -18.196  5.1110  5.2910  8.2150 -3.6166  5.1110  5.2910  8.2150  0.6667  2999.4  47.119  10.759  14.479  17.846 
  3000.000 -18.343  5.2620  5.3840  8.4160 -3.7657  5.2620  5.3840  8.4160  0.6667  2999.9  47.004  10.763  14.484  17.852 
  3000.500 -18.669  5.5630  5.5340  8.5450 -4.0938  5.5630  5.5340  8.5450  0.6667  3000.4  47.069  10.767  14.488  17.858 
  3001.000 -21.152  5.9150  5.6710  8.6960 -6.5790  5.9150  5.6710  8.6960  0.6667  3000.9  47.134  10.771  14.492  17.863 
  3001.500 -23.311  6.4760  5.9080  8.9970 -8.7401  6.4760  5.9080  8.9970  0.6667  3001.4  47.199  10.775  14.496  17.869 
  3002.000 -25.471  6.9220  6.2310  9.1770 -10.902  6.9220  6.2310  9.1770  0.6667  3001.9  47.264  10.778  14.501  17.875 
  3002.500 -28.601  7.6190  6.5040  9.4210 -14.034  7.6190  6.5040  9.4210  0.6667  3002.4  47.329  10.782  14.505  17.881 
  3003.000 -31.588  8.7410  6.7770  9.7080 -17.023  8.7410  6.7770  9.7080  0.6667  3002.9  47.394  10.786  14.509  17.887 
  3003.500 -38.313  9.4310  7.0790  9.9670 -23.751  9.4310  7.0790  9.9670  0.6667  3003.4  47.459  10.790  14.514  17.893 
  3004.000 -41.515  10.078  7.2870  10.146 -26.955  10.078  7.2870  10.146  0.6667  3003.9  47.524  10.794  14.518  17.898 
  3004.500 -44.574  10.933  7.5460  10.347 -30.016  10.933  7.5460  10.347  0.6667  3004.4  47.589  10.798  14.522  17.904 
  3005.000 -46.554  11.358  7.7610  10.476 -31.998  11.358  7.7610  10.476  0.6667  3004.9  47.654  10.802  14.526  17.910 
  3005.500 -48.138  11.710  7.9260  10.598 -33.584  11.710  7.9260  10.598  0.6667  3005.4  47.719  10.806  14.531  17.916 
  3006.000 -49.074  12.414  8.0550  10.677 -34.522  12.414  8.0550  10.677  0.6667  3005.9  47.784  10.810  14.535  17.922 
  3006.500 -49.903  13.227  8.1410  10.748 -35.353  13.227  8.1410  10.748  0.6667  3006.4  47.849  10.814  14.539  17.927 
  3007.000 -50.553  13.881  8.1700  10.766 -36.005  13.881  8.1700  10.766  0.6667  3006.9  47.914  10.818  14.544  17.933 
  3007.500 -50.986  14.276  8.1400  10.784 -36.440  14.276  8.1400  10.784  0.6667  3007.4  47.979  10.822  14.548  17.939 
  3008.000 -51.133  14.650  8.0610  10.820 -36.590  14.650  8.0610  10.820  0.6667  3007.9  48.044  10.825  14.552  17.945 
  3008.500 -51.207  15.016  8.0100  10.809 -36.666  15.016  8.0100  10.809  0.6667  3008.4  48.109  10.829  14.557  17.951 
  3009.000 -51.280  15.289  7.9170  10.798 -36.741  15.289  7.9170  10.798  0.6667  3008.9  48.174  10.833  14.561  17.956 
  3009.500 -51.461  15.663  7.8440  10.790 -36.924  15.663  7.8440  10.790  0.6667  3009.4  48.239  10.837  14.565  17.962 
  3010.000 -51.429  16.001  7.7930  10.789 -36.894  16.001  7.7930  10.789  0.6667  3009.9  48.304  10.841  14.570  17.968 
  3010.500 -51.430  16.079  7.7930  10.789 -36.897  16.079  7.7930  10.789  0.6667  3010.4  48.369  10.845  14.574  17.974 
  3011.000 -51.396  16.108  7.9010  10.781 -36.865  16.108  7.9010  10.781  0.6667  3010.9  48.434  10.849  14.578  17.980 
  3011.500 -51.075  16.050  8.0220  10.781 -36.546  16.050  8.0220  10.781  0.6667  3011.4  48.499  10.853  14.583  17.985 
  3012.000 -50.609  15.956  8.1230  10.781 -36.083  15.956  8.1230  10.781  0.6667  3011.9  48.564  10.856  14.587  17.991 
  3012.500 -49.533  15.733  8.4750  10.773 -35.009  15.733  8.4750  10.773  0.6667  3012.4  48.629  10.860  14.591  17.997 
  3013.000 -48.851  15.531  8.7480  10.773 -34.329  15.531  8.7480  10.773  0.6667  3012.9  48.694  10.864  14.596  18.003 
  3013.500 -48.277  15.401  9.1220  10.686 -33.757  15.401  9.1220  10.686  0.6667  3013.4  48.759  10.868  14.600  18.009 
  3014.000 -47.883  15.358  9.4590  10.571 -33.365  15.358  9.4590  10.571  0.6667  3013.9  48.824  10.872  14.605  18.014 
  3014.500 -47.490  15.364  9.7110  10.491 -32.974  15.364  9.7110  10.491  0.6667  3014.4  48.889  10.876  14.609  18.020 
