~Version Information
VERS.                     2.0: CWLS log ASCII Standard Version 2.00
WRAP.                      NO: One line per depth step
~Well Information Block
#MNEM.UNIT                               Data Type  Information
#---------                               ---------  -----------
STRT.FT                                   350.0000:
STOP.FT                                  6970.0000:
STEP.FT                                     0.5000:
NULL.                 -999.25                     :
COMP.                                             :COMPANY            
WELL.     SAN EMIDIO A #76-19                     :WELL               
FLD .                                             :FIELD              
CTRY.                                             :COUNTRY            
STAT.                                             :STATE              
LOC .                                             :LOCATION           
UWI .                                             :UNIQUE WELL ID     
SRVC.                                             :Service company    
DATE.                                             :LOG DATE           
~Curve Information
#MNEM.UNIT           API CODE  Curve Description
#---------           --------  -----------------
DEPT.FT                      :   1 DEPTH
SP  .MV                      :   2
AM16.OHMM                    :   3
AO10.OHMM                    :   4
AO19.OHMM                    :   5
SBL .MV                      :   6
RS  .OHMM                    :   7
RM  .OHMM                    :   8
RD  .OHMM                    :   9
DEVI.DEG                     :  10
TVD .FT                      :  11
AZIM.DEG                     :  12
NORT.FT                      :  13
EAST.FT                      :  14
OFFS.FT                      :  15
~A
# ...
  4737.500 -16.651  3.5240  3.3370  3.3910 -11.489  3.5240  3.3370  3.3910  0.8958  4737.1  45.753  33.317  29.617  44.500 
  4738.000 -16.633  3.5020  3.3430  3.4260 -11.475  3.5020  3.3430  3.4260  0.8967  4737.6  45.763  33.322  29.622  44.508 
  4738.500 -16.816  3.4520  3.3360  3.4690 -11.662  3.4520  3.3360  3.4690  0.8975  4738.1  45.773  33.328  29.628  44.516 
  4739.000 -16.961  3.4160  3.3350  3.5040 -11.810  3.4160  3.3350  3.5040  0.8983  4738.6  45.783  33.333  29.633  44.524 
  4739.500 -17.106  3.3870  3.3270  3.5390 -11.959  3.3870  3.3270  3.5390  0.8992  4739.1  45.793  33.338  29.639  44.532 
  4740.000 -17.323  3.3940  3.3260  3.5460 -12.180  3.3940  3.3260  3.5460  0.9000  4739.6  45.803  33.344  29.645  44.540 
  4740.500 -17.685  3.4940  3.3330  3.5380 -12.545  3.4940  3.3330  3.5380  0.9008  4740.1  45.813  33.349  29.650  44.548 
  4741.000 -18.225  3.5440  3.3320  3.5080 -13.089  3.5440  3.3320  3.5080  0.9017  4740.6  45.823  33.355  29.656  44.555 
  4741.500 -20.351  3.6160  3.3460  3.4720 -15.219  3.6160  3.3460  3.4720  0.9025  4741.1  45.833  33.360  29.662  44.563 
  4742.000 -21.721  3.6880  3.3590  3.4130 -16.592  3.6880  3.3590  3.4130  0.9033  4741.6  45.843  33.366  29.667  44.571 
  4742.500 -23.414  3.7380  3.3800  3.4060 -18.289  3.7380  3.3800  3.4060  0.9042  4742.1  45.853  33.371  29.673  44.579 
  4743.000 -25.179  3.7810  3.4010  3.4910 -20.058  3.7810  3.4010  3.4910  0.9050  4742.6  45.863  33.377  29.679  44.587 
  4743.500 -25.288  3.8030  3.4000  3.5340 -20.171  3.8030  3.4000  3.5340  0.9058  4743.1  45.873  33.382  29.684  44.595 
  4744.000 -24.209  3.7450  3.3920  3.6190 -19.095  3.7450  3.3920  3.6190  0.9067  4743.6  45.883  33.388  29.690  44.603 
  4744.500 -23.418  3.6230  3.3770  3.6690 -18.308  3.6230  3.3770  3.6690  0.9075  4744.1  45.893  33.393  29.696  44.611 
  4745.000 -22.591  3.5430  3.3480  3.6390 -17.485  3.5430  3.3480  3.6390  0.9083  4744.6  45.903  33.399  29.701  44.619 
  4745.500 -21.873  3.5500  3.2610  3.6030 -16.770  3.5500  3.2610  3.6030  0.9092  4745.1  45.913  33.404  29.707  44.627 
  4746.000 -21.765  3.6870  3.1880  3.5590 -16.666  3.6870  3.1880  3.5590  0.9100  4745.6  45.923  33.410  29.713  44.634 
  4746.500 -21.657  3.8020  3.0940  3.5150 -16.562  3.8020  3.0940  3.5150  0.9108  4746.1  45.933  33.415  29.718  44.642 
  4747.000 -23.460  3.9600  3.0290  3.4640 -18.368  3.9600  3.0290  3.4640  0.9117  4746.6  45.943  33.421  29.724  44.650 
  4747.500 -25.081  4.1470  2.9490  3.4270 -19.993  4.1470  2.9490  3.4270  0.9125  4747.1  45.953  33.427  29.730  44.658 
  4748.000 -28.251  4.2900  2.9480  3.3900 -23.167  4.2900  2.9480  3.3900  0.9133  4747.6  45.963  33.432  29.736  44.666 
  4748.500 -32.393  4.4700  3.0120  3.4690 -27.312  4.4700  3.0120  3.4690  0.9142  4748.1  45.973  33.438  29.741  44.674 
  4749.000 -36.067  4.6210  3.0830  3.5330 -30.990  4.6210  3.0830  3.5330  0.9150  4748.6  45.983  33.443  29.747  44.682 
  4749.500 -38.804  4.8800  3.2260  3.6040 -33.731  4.8800  3.2260  3.6040  0.9158  4749.1  45.993  33.449  29.753  44.690 
  4750.000 -42.226  4.9730  3.2830  3.7110 -37.156  4.9730  3.2830  3.7110  0.9167  4749.6  46.003  33.454  29.759  44.698 
  4750.500 -44.927  4.8720  3.3620  3.7980 -39.861  4.8720  3.3620  3.7980  0.9175  4750.1  46.013  33.460  29.764  44.706 
  4751.000 -43.308  4.8140  3.2910  3.8700 -38.246  4.8140  3.2910  3.8700  0.9183  4750.6  46.023  33.465  29.770  44.714 
  4751.500 -38.772  4.4480  3.1680  3.8340 -33.714  4.4480  3.1680  3.8340  0.9192  4751.1  46.033  33.471  29.776  44.722 
  4752.000 -33.191  3.9870  3.0750  3.7260 -28.136  3.9870  3.0750  3.7260  0.9200  4751.6  46.043  33.477  29.782  44.730 
  4752.500 -28.943  3.6640  3.0100  3.5890 -23.892  3.6640  3.0100  3.5890  0.9208  4752.1  46.053  33.482  29.787  44.738 
  4753.000 -26.748  3.4770  2.9240  3.5320 -21.701  3.4770  2.9240  3.5320  0.9217  4752.6  46.063  33.488  29.793  44.746 
  4753.500 -24.588  3.3760  2.9020  3.4820 -19.544  3.3760  2.9020  3.4820  0.9225  4753.1  46.073  33.493  29.799  44.754 
  4754.000 -23.473  3.3330  2.8810  3.4600 -18.433  3.3330  2.8810  3.4600  0.9233  4753.6  46.083  33.499  29.805  44.762 
  4754.500 -22.141  3.3110  2.8670  3.4600 -17.105  3.3110  2.8670  3.4600  0.9242  4754.1  46.093  33.504  29.811  44.771 
  4755.000 -20.881  3.2900  2.8520  3.4670 -15.848  3.2900  2.8520  3.4670  0.9250  4754.6  46.103  33.510  29.816  44.779 
  4755.500 -19.010  3.2610  2.8520  3.4670 -13.981  3.2610  2.8520  3.4670  0.9258  4755.1  46.113  33.516  29.822  44.787 
  4756.000 -17.391  3.2320  2.8450  3.4670 -12.366  3.2320  2.8450  3.4670  0.9267  4755.6  46.123  33.521  29.828  44.795 
  4756.500 -16.239  3.2250  2.8380  3.4670 -11.217  3.2250  2.8380  3.4670  0.9275  4756.1  46.133  33.527  29.834  44.803 
  4757.000 -15.448  3.2180  2.8310  3.4750 -10.430  3.2180  2.8310  3.4750  0.9283  4756.6  46.143  33.532  29.840  44.811 
  4757.500 -14.801  3.2600  2.8170  3.4820 -9.7867  3.2600  2.8170  3.4820  0.9292  4757.1  46.153  33.538  29.846  44.819 
  4758.000 -14.549  3.3750  2.8170  3.4860 -9.5384  3.3750  2.8170  3.4860  0.9300  4757.6  46.163  33.544  29.852  44.827 
  4758.500 -14.262  3.4900  2.8310  3.4900 -9.2551  3.4900  2.8310  3.4900  0.9308  4758.1  46.173  33.549  29.857  44.835 
  4759.000 -14.118  3.6700  2.8600  3.5180 -9.1148  3.6700  2.8600  3.5180  0.9317  4758.6  46.183  33.555  29.863  44.843 
  4759.500 -14.119  3.7850  2.8820  3.5610 -9.1195  3.7850  2.8820  3.5610  0.9325  4759.1  46.193  33.561  29.869  44.852 
  4760.000 -16.208  3.9360  2.9680  3.6480 -11.212  3.9360  2.9680  3.6480  0.9333  4759.6  46.203  33.566  29.875  44.860 
  4760.500 -19.378  4.0290  3.0690  3.7050 -14.386  4.0290  3.0690  3.7050  0.9342  4760.1  46.213  33.572  29.881  44.868 
  4761.000 -23.015  4.1590  3.2340  3.8060 -18.027  4.1590  3.2340  3.8060  0.9350  4760.6  46.223  33.578  29.887  44.876 
  4761.500 -24.241  4.2810  3.4210  3.8930 -19.256  4.2810  3.4210  3.8930  0.9358  4761.1  46.233  33.583  29.893  44.884 
  4762.000 -24.313  4.3890  3.5370  4.0080 -19.332  4.3890  3.5370  4.0080  0.9367  4761.6  46.243  33.589  29.899  44.892 
  4762.500 -23.089  4.2230  3.6950  4.1370 -18.112  4.2230  3.6950  4.1370  0.9375  4762.1  46.253  33.595  29.904  44.901 
  4763.000 -21.542  4.1010  3.7890  4.2310 -16.568  4.1010  3.7890  4.2310  0.9383  4762.6  46.263  33.600  29.910  44.909 
  4763.500 -20.426  4.0580  3.8460  4.2810 -15.456  4.0580  3.8460  4.2810  0.9392  4763.1  46.273  33.606  29.916  44.917 
  4764.000 -19.310  4.0430  3.8750  4.3240 -14.344  4.0430  3.8750  4.3240  0.9400  4763.6  46.283  33.611  29.922  44.925 
  4764.500 -17.332  4.0220  3.9180  4.3680 -12.369  4.0220  3.9180  4.3680  0.9408  4764.1  46.293  33.617  29.928  44.933 
  4765.000 -16.936  4.0000  3.9330  4.3680 -11.977  4.0000  3.9330  4.3680  0.9417  4764.6  46.303  33.623  29.934  44.942 
  4765.500 -16.938  3.9640  3.7600  4.2100 -11.983  3.9640  3.7600  4.2100  0.9425  4765.1  46.313  33.629  29.940  44.950 
  4766.000 -17.335  3.9210  3.5730  4.0730 -12.383  3.9210  3.5730  4.0730  0.9433  4765.6  46.323  33.634  29.946  44.958 
  4766.500 -17.587  3.8340  3.3070  3.8720 -12.639  3.8340  3.3070  3.8720  0.9442  4766.1  46.333  33.640  29.952  44.966 
  4767.000 -17.911  3.7410  3.1270  3.6920 -12.967  3.7410  3.1270  3.6920  0.9450  4766.6  46.343  33.646  29.958  44.974 
  4767.500 -18.235  3.6760  3.0050  3.5340 -13.294  3.6760  3.0050  3.5340  0.9458  4767.1  46.353  33.651  29.964  44.983 
  4768.000 -19.066  3.6110  2.9260  3.3830 -14.129  3.6110  2.9260  3.3830  0.9467  4767.6  46.363  33.657  29.970  44.991 
  4768.500 -19.679  3.4890  2.9120  3.2970 -14.746  3.4890  2.9120  3.2970  0.9475  4768.1  46.373  33.663  29.976  44.999 
  4769.000 -20.039  3.4670  2.9120  3.2680 -15.109  3.4670  2.9120  3.2680  0.9483  4768.6  46.383  33.668  29.982  45.008 
  4769.500 -19.537  3.4740  2.9190  3.2540 -14.611  3.4740  2.9190  3.2540  0.9492  4769.1  46.393  33.674  29.988  45.016 
