~Version Information
VERS.                     2.0: CWLS log ASCII Standard Version 2.00
WRAP.                      NO: One line per depth step
~Well Information Block
#MNEM.UNIT                               Data Type  Information
#---------                               ---------  -----------
STRT.FT                                   350.0000:
STOP.FT                                  6970.0000:
STEP.FT                                     0.5000:
NULL.                 -999.25                     :
COMP.                                             :COMPANY            
WELL.     SAN EMIDIO A #76-19                     :WELL               
FLD .                                             :FIELD              
CTRY.                                             :COUNTRY            
STAT.                                             :STATE              
LOC .                                             :LOCATION           
UWI .                                             :UNIQUE WELL ID     
SRVC.                                             :Service company    
DATE.                                             :LOG DATE           
~Curve Information
#MNEM.UNIT           API CODE  Curve Description
#---------           --------  -----------------
DEPT.FT                      :   1 DEPTH
SP  .MV                      :   2
AM16.OHMM                    :   3
AO10.OHMM                    :   4
AO19.OHMM                    :   5
SBL .MV                      :   6
RS  .OHMM                    :   7
RM  .OHMM                    :   8
RD  .OHMM                    :   9
DEVI.DEG                     :  10
TVD .FT                      :  11
AZIM.DEG                     :  12
NORT.FT                      :  13
EAST.FT                      :  14
OFFS.FT                      :  15
~A
# ...
  3437.500 -24.349  5.5190  8.4790  6.6990 -11.624  5.5190  8.4790  6.6990  0.5000  3437.4  78.128  13.003  18.737  22.444 
  3438.000 -23.092  5.1580  8.0610  6.3380 -10.369  5.1580  8.0610  6.3380  0.5000  3437.9  78.223  13.004  18.741  22.447 
  3438.500 -21.405  4.8770  7.6720  6.1720 -8.6845  4.8770  7.6720  6.1720  0.5000  3438.4  78.318  13.005  18.745  22.451 
  3439.000 -20.580  4.6960  7.1530  6.0420 -7.8616  4.6960  7.1530  6.0420  0.5000  3438.9  78.413  13.006  18.750  22.455 
  3439.500 -20.261  4.5090  6.3830  5.9690 -7.5447  4.5090  6.3830  5.9690  0.5000  3439.4  78.508  13.007  18.754  22.458 
  3440.000 -20.193  4.3350  5.9870  5.9400 -7.4788  4.3350  5.9870  5.9400  0.5000  3439.9  78.603  13.008  18.758  22.462 
  3440.500 -20.197  4.1900  5.6550  6.0040 -7.4849  4.1900  5.6550  6.0040  0.5000  3440.4  78.698  13.008  18.763  22.465 
  3441.000 -20.201  4.0960  5.4960  6.0610 -7.4910  4.0960  5.4960  6.0610  0.5000  3440.9  78.793  13.009  18.767  22.469 
  3441.500 -20.242  4.0230  5.3300  6.1750 -7.5342  4.0230  5.3300  6.1750  0.5000  3441.4  78.888  13.010  18.771  22.473 
  3442.000 -20.245  3.9720  5.2290  6.2610 -7.5393  3.9720  5.2290  6.2610  0.5000  3441.9  78.983  13.011  18.775  22.476 
  3442.500 -20.250  3.9500  5.1990  6.3750 -7.5464  3.9500  5.1990  6.3750  0.5000  3442.4  79.078  13.012  18.780  22.480 
  3443.000 -20.254  3.9630  5.2420  6.5470 -7.5525  3.9630  5.2420  6.5470  0.5000  3442.9  79.173  13.013  18.784  22.484 
  3443.500 -20.222  4.0270  5.2840  6.6470 -7.5226  4.0270  5.2840  6.6470  0.5000  3443.4  79.268  13.013  18.788  22.487 
  3444.000 -20.226  4.0980  5.4060  6.7690 -7.5288  4.0980  5.4060  6.7690  0.5000  3443.9  79.363  13.014  18.793  22.491 
  3444.500 -20.086  4.2200  5.5490  6.8830 -7.3909  4.2200  5.5490  6.8830  0.5000  3444.4  79.458  13.015  18.797  22.494 
  3445.000 -20.127  4.3490  5.6920  6.9980 -7.4340  4.3490  5.6920  6.9980  0.5000  3444.9  79.553  13.016  18.801  22.498 
  3445.500 -20.274  4.4770  5.7850  7.2200 -7.5831  4.4770  5.7850  7.2200  0.5000  3445.4  79.648  13.017  18.805  22.502 
  3446.000 -20.495  4.7850  5.8850  7.5140 -7.8062  4.7850  5.8850  7.5140  0.5000  3445.9  79.743  13.017  18.810  22.505 
  3446.500 -21.075  5.0360  6.0430  7.7510 -8.3883  5.0360  6.0430  7.7510  0.5000  3446.4  79.838  13.018  18.814  22.509 
  3447.000 -23.456  5.2940  6.1930  7.9870 -10.771  5.2940  6.1930  7.9870  0.5000  3446.9  79.933  13.019  18.818  22.512 
  3447.500 -26.233  5.8330  6.4870  8.1310 -13.551  5.8330  6.4870  8.1310  0.5000  3447.4  80.028  13.020  18.823  22.516 
  3448.000 -27.965  6.2200  6.7170  8.3240 -15.285  6.2200  6.7170  8.3240  0.5000  3447.9  80.123  13.020  18.827  22.519 
  3448.500 -30.202  6.7010  6.7950  8.4530 -17.524  6.7010  6.7950  8.4530  0.5000  3448.4  80.218  13.021  18.831  22.523 
  3449.000 -31.646  7.1830  6.8950  8.6390 -18.970  7.1830  6.8950  8.6390  0.5000  3448.9  80.313  13.022  18.836  22.527 
  3449.500 -33.379  7.7140  7.0020  8.9190 -20.705  7.7140  7.0020  8.9190  0.5000  3449.4  80.408  13.023  18.840  22.530 
  3450.000 -35.076  8.1230  7.1960  9.1840 -22.404  8.1230  7.1960  9.1840  0.5000  3449.9  80.503  13.023  18.844  22.534 
  3450.500 -36.627  8.4890  7.4320  9.3850 -23.957  8.4890  7.4320  9.3850  0.5000  3450.4  80.598  13.024  18.848  22.537 
  3451.000 -37.818  8.6540  7.6400  9.6070 -25.150  8.6540  7.6400  9.6070  0.5000  3450.9  80.693  13.025  18.853  22.541 
  3451.500 -38.938  8.7540  7.8330  9.8290 -26.273  8.7540  7.8330  9.8290  0.5000  3451.4  80.788  13.025  18.857  22.544 
  3452.000 -38.149  8.3000  8.0120  9.9430 -25.486  8.3000  8.0120  9.9430  0.5000  3451.9  80.883  13.026  18.861  22.548 
  3452.500 -35.128  7.9180  8.0690  9.9500 -22.467  7.9180  8.0690  9.9500  0.5000  3452.4  80.978  13.027  18.866  22.551 
  3453.000 -32.827  7.3280  8.1110  9.8990 -20.168  7.3280  8.1110  9.8990  0.5000  3452.9  81.073  13.027  18.870  22.555 
  3453.500 -29.950  6.9030  8.0390  9.4880 -17.293  6.9030  8.0390  9.4880  0.5000  3453.4  81.168  13.028  18.874  22.558 
  3454.000 -27.217  6.5140  6.6060  8.5370 -14.562  6.5140  6.6060  8.5370  0.5000  3453.9  81.263  13.029  18.879  22.562 
  3454.500 -24.664  6.1900  5.8500  7.7240 -12.011  6.1900  5.8500  7.7240  0.5000  3454.4  81.358  13.029  18.883  22.565 
  3455.000 -23.478  5.9590  5.2740  7.0180 -10.827  5.9590  5.2740  7.0180  0.5000  3454.9  81.453  13.030  18.887  22.569 
  3455.500 -22.798  5.8790  4.7770  6.3840 -10.149  5.8790  4.7770  6.3840  0.5000  3455.4  81.548  13.031  18.892  22.572 
  3456.000 -23.449  5.8710  4.4520  6.0460 -10.803  5.8710  4.4520  6.0460  0.5000  3455.9  81.643  13.031  18.896  22.576 
  3456.500 -24.101  5.8990  4.1500  6.1310 -11.457  5.8990  4.1500  6.1310  0.5000  3456.4  81.738  13.032  18.900  22.579 
  3457.000 -24.933  5.9350  4.1410  6.1950 -12.291  5.9350  4.1410  6.1950  0.5000  3456.9  81.833  13.033  18.905  22.583 
  3457.500 -25.872  5.9920  4.1840  6.2590 -13.232  5.9920  4.1840  6.2590  0.5000  3457.4  81.928  13.033  18.909  22.586 
  3458.000 -27.028  6.0490  4.2550  6.4300 -14.390  6.0490  4.2550  6.4300  0.5000  3457.9  82.023  13.034  18.913  22.590 
  3458.500 -28.219  6.1490  4.3620  6.4870 -15.583  6.1490  4.3620  6.4870  0.5000  3458.4  82.118  13.034  18.917  22.593 
  3459.000 -29.411  6.1980  4.5690  6.5360 -16.777  6.1980  4.5690  6.5360  0.5000  3458.9  82.213  13.035  18.922  22.597 
  3459.500 -30.170  6.2480  4.8280  6.5640 -17.538  6.2480  4.8280  6.5640  0.5000  3459.4  82.308  13.036  18.926  22.600 
  3460.000 -31.146  6.2620  5.0860  6.5780 -18.517  6.2620  5.0860  6.5780  0.5000  3459.9  82.403  13.036  18.930  22.604 
  3460.500 -30.789  6.1820  5.3720  6.5770 -18.162  6.1820  5.3720  6.5770  0.5000  3460.4  82.498  13.037  18.935  22.607 
  3461.000 -30.108  6.0950  5.6450  6.4970 -17.483  6.0950  5.6450  6.4970  0.5000  3460.9  82.593  13.037  18.939  22.611 
  3461.500 -29.067  5.9720  5.9610  6.3960 -16.444  5.9720  5.9610  6.3960  0.5000  3461.4  82.688  13.038  18.943  22.614 
  3462.000 -26.947  5.8490  6.1900  6.1860 -14.326  5.8490  6.1900  6.1860  0.5000  3461.9  82.783  13.038  18.948  22.618 
  3462.500 -25.726  5.6760  6.3260  5.9840 -13.107  5.6760  6.3260  5.9840  0.5000  3462.4  82.878  13.039  18.952  22.621 
  3463.000 -24.685  5.5600  6.4400  5.7890 -12.068  5.5600  6.4400  5.7890  0.5000  3462.9  82.973  13.039  18.956  22.625 
  3463.500 -23.032  5.4230  6.5180  5.5360 -10.417  5.4230  6.5180  5.5360  0.5000  3463.4  83.068  13.040  18.961  22.628 
  3464.000 -21.775  5.2860  6.5390  5.3120 -9.1624  5.2860  6.5390  5.3120  0.5000  3463.9  83.163  13.041  18.965  22.631 
  3464.500 -19.978  5.1700  6.3650  5.0960 -7.3676  5.1700  6.3650  5.0960  0.5000  3464.4  83.258  13.041  18.969  22.635 
  3465.000 -19.190  5.0040  5.9330  4.8790 -6.5817  5.0040  5.9330  4.8790  0.5000  3464.9  83.353  13.042  18.974  22.638 
  3465.500 -18.545  4.8810  5.6230  4.7700 -5.9388  4.8810  5.6230  4.7700  0.5000  3465.4  83.448  13.042  18.978  22.642 
  3466.000 -18.225  4.8950  5.3770  4.7770 -5.6209  4.8950  5.3770  4.7770  0.5000  3465.9  83.543  13.043  18.982  22.645 
  3466.500 -18.011  4.9950  5.2970  4.8080 -5.4090  4.9950  5.2970  4.8080  0.5000  3466.4  83.638  13.043  18.987  22.648 
  3467.000 -17.799  5.1230  5.2960  4.8400 -5.1991  5.1230  5.2960  4.8400  0.5000  3466.9  83.733  13.043  18.991  22.652 
  3467.500 -17.731  5.2450  5.2960  4.9470 -5.1333  5.2450  5.2960  4.9470  0.5000  3467.4  83.828  13.044  18.995  22.655 
  3468.000 -17.662  5.3670  5.3600  5.0830 -5.0664  5.3670  5.3600  5.0830  0.5000  3467.9  83.923  13.044  19.000  22.659 
  3468.500 -17.629  5.4810  5.4670  5.2330 -5.0355  5.4810  5.4670  5.2330  0.5000  3468.4  84.018  13.045  19.004  22.662 
  3469.000 -17.597  5.5880  5.7030  5.4260 -5.0056  5.5880  5.7030  5.4260  0.5000  3468.9  84.113  13.045  19.008  22.665 
  3469.500 -17.635  5.6880  5.8820  5.6770 -5.0457  5.6880  5.8820  5.6770  0.5000  3469.4  84.208  13.046  19.013  22.669 
