~Version Information
VERS.                     2.0: CWLS log ASCII Standard Version 2.00
WRAP.                      NO: One line per depth step
~Well Information Block
#MNEM.UNIT                               Data Type  Information
#---------                               ---------  -----------
STRT.FT                                   350.0000:
STOP.FT                                  6970.0000:
STEP.FT                                     0.5000:
NULL.                 -999.25                     :
COMP.                                             :COMPANY            
WELL.     SAN EMIDIO A #76-19                     :WELL               
FLD .                                             :FIELD              
CTRY.                                             :COUNTRY            
STAT.                                             :STATE              
LOC .                                             :LOCATION           
UWI .                                             :UNIQUE WELL ID     
SRVC.                                             :Service company    
DATE.                                             :LOG DATE           
~Curve Information
#MNEM.UNIT           API CODE  Curve Description
#---------           --------  -----------------
DEPT.FT                      :   1 DEPTH
SP  .MV                      :   2
AM16.OHMM                    :   3
AO10.OHMM                    :   4
AO19.OHMM                    :   5
SBL .MV                      :   6
RS  .OHMM                    :   7
RM  .OHMM                    :   8
RD  .OHMM                    :   9
DEVI.DEG                     :  10
TVD .FT                      :  11
AZIM.DEG                     :  12
NORT.FT                      :  13
EAST.FT                      :  14
OFFS.FT                      :  15
~A
# ...
  1227.500 -48.974  9.5910  21.216  17.491 -26.919  9.5910  21.216  17.491  0.2271  1227.4  15.951  8.1959  8.4676  11.783 
  1228.000 -45.550  8.5690  20.443  15.893 -23.497  8.5690  20.443  15.893  0.2267  1227.9  15.841  8.1978  8.4681  11.785 
  1228.500 -41.404  7.7910  19.671  14.640 -19.353  7.7910  19.671  14.640  0.2263  1228.4  15.731  8.1997  8.4687  11.786 
  1229.000 -37.439  7.3880  18.361  13.517 -15.391  7.3880  18.361  13.517  0.2259  1228.9  15.621  8.2016  8.4692  11.788 
  1229.500 -34.447  7.0640  17.735  12.926 -12.401  7.0640  17.735  12.926  0.2254  1229.4  15.511  8.2035  8.4697  11.790 
  1230.000 -31.816  6.8620  14.482  12.336 -9.7717  6.8620  14.482  12.336  0.2250  1229.9  15.401  8.2054  8.4702  11.791 
  1230.500 -30.591  6.8190  12.446  11.903 -8.5489  6.8190  12.446  11.903  0.2246  1230.4  15.291  8.2073  8.4708  11.793 
  1231.000 -30.304  6.8400  9.7110  11.399 -8.2640  6.8400  9.7110  11.399  0.2242  1230.9  15.181  8.2092  8.4713  11.795 
  1231.500 -29.944  6.8760  9.4450  10.312 -7.9061  6.8760  9.4450  10.312  0.2238  1231.4  15.071  8.2111  8.4718  11.797 
  1232.000 -29.693  6.9910  9.2000  10.009 -7.6572  6.9910  9.2000  10.009  0.2234  1231.9  14.961  8.2130  8.4723  11.798 
  1232.500 -29.478  7.2430  9.0420  10.174 -7.4443  7.2430  9.0420  10.174  0.2229  1232.4  14.851  8.2148  8.4728  11.800 
  1233.000 -29.299  7.5520  9.3440  10.562 -7.2674  7.5520  9.3440  10.562  0.2225  1232.9  14.741  8.2167  8.4733  11.802 
  1233.500 -29.119  7.9830  9.8250  11.159 -7.0895  7.9830  9.8250  11.159  0.2221  1233.4  14.631  8.2186  8.4738  11.803 
  1234.000 -29.301  8.9620  10.379  12.619 -7.2736  8.9620  10.379  12.619  0.2217  1233.9  14.521  8.2205  8.4742  11.805 
  1234.500 -30.852  9.5730  10.739  13.511 -8.8267  9.5730  10.739  13.511  0.2213  1234.4  14.411  8.2223  8.4747  11.807 
  1235.000 -34.676  10.357  11.106  14.215 -12.653  10.357  11.106  14.215  0.2209  1234.9  14.301  8.2242  8.4752  11.808 
  1235.500 -38.210  11.350  11.825  14.934 -16.189  11.350  11.825  14.934  0.2204  1235.4  14.191  8.2261  8.4757  11.810 
  1236.000 -44.197  12.271  12.249  15.610 -22.178  12.271  12.249  15.610  0.2200  1235.9  14.081  8.2279  8.4761  11.812 
  1236.500 -47.804  13.077  12.904  16.243 -25.787  13.077  12.904  16.243  0.2196  1236.4  13.971  8.2298  8.4766  11.813 
  1237.000 -50.077  13.803  13.292  16.897 -28.062  13.803  13.292  16.897  0.2192  1236.9  13.861  8.2317  8.4771  11.815 
  1237.500 -50.871  14.285  13.522  17.285 -28.858  14.285  13.522  17.285  0.2188  1237.4  13.751  8.2335  8.4775  11.816 
  1238.000 -51.665  14.817  13.666  17.724 -29.654  14.817  13.666  17.724  0.2184  1237.9  13.641  8.2354  8.4780  11.818 
  1238.500 -53.145  15.198  13.867  17.932 -31.137  15.198  13.867  17.932  0.2179  1238.4  13.531  8.2372  8.4784  11.820 
  1239.000 -53.903  15.400  13.975  18.219 -31.897  15.400  13.975  18.219  0.2175  1238.9  13.421  8.2391  8.4789  11.821 
  1239.500 -54.589  15.457  14.162  18.557 -32.585  15.457  14.162  18.557  0.2171  1239.4  13.311  8.2409  8.4793  11.823 
  1240.000 -55.059  15.464  14.349  18.758 -33.057  15.464  14.349  18.758  0.2167  1239.9  13.201  8.2427  8.4797  11.825 
  1240.500 -55.312  14.931  14.428  18.663 -33.312  14.931  14.428  18.663  0.2163  1240.4  13.091  8.2446  8.4802  11.826 
  1241.000 -54.412  14.305  14.233  18.339 -32.414  14.305  14.233  18.339  0.2159  1240.9  12.981  8.2464  8.4806  11.828 
  1241.500 -52.755  13.585  13.341  17.856 -30.759  13.585  13.341  17.856  0.2154  1241.4  12.871  8.2482  8.4810  11.829 
  1242.000 -51.566  13.434  12.369  17.496 -29.572  13.434  12.369  17.496  0.2150  1241.9  12.761  8.2501  8.4814  11.831 
  1242.500 -49.475  13.455  11.548  16.783 -27.483  13.455  11.548  16.783  0.2146  1242.4  12.651  8.2519  8.4818  11.833 
  1243.000 -47.241  13.491  11.095  16.401 -25.252  13.491  11.095  16.401  0.2142  1242.9  12.541  8.2537  8.4822  11.834 
  1243.500 -45.259  13.548  11.138  16.717 -23.272  13.548  11.138  16.717  0.2138  1243.4  12.431  8.2556  8.4826  11.836 
  1244.000 -43.962  13.757  11.397  17.242 -21.977  13.757  11.397  17.242  0.2134  1243.9  12.321  8.2574  8.4830  11.837 
  1244.500 -43.025  14.073  11.943  17.997 -21.042  14.073  11.943  17.997  0.2129  1244.4  12.211  8.2592  8.4834  11.839 
  1245.000 -44.577  14.670  13.684  19.198 -22.596  14.670  13.684  19.198  0.2125  1244.9  12.101  8.2610  8.4838  11.840 
  1245.500 -50.275  15.267  14.800  19.960 -28.296  15.267  14.800  19.960  0.2121  1245.4  11.991  8.2628  8.4842  11.842 
  1246.000 -53.846  15.569  15.576  19.969 -31.869  15.569  15.576  19.969  0.2117  1245.9  11.881  8.2646  8.4846  11.843 
  1246.500 -54.784  15.670  16.835  19.978 -32.809  15.670  16.835  19.978  0.2113  1246.4  11.771  8.2664  8.4849  11.845 
  1247.000 -55.471  15.590  17.699  19.987 -33.498  15.590  17.699  19.987  0.2109  1246.9  11.661  8.2682  8.4853  11.847 
  1247.500 -55.977  15.346  18.382  19.879 -34.007  15.346  18.382  19.879  0.2104  1247.4  11.551  8.2700  8.4857  11.848 
  1248.000 -55.761  14.878  18.893  19.633 -33.793  14.878  18.893  19.633  0.2100  1247.9  11.441  8.2718  8.4860  11.850 
  1248.500 -55.185  14.187  19.259  19.165 -33.219  14.187  19.259  19.165  0.2096  1248.4  11.331  8.2736  8.4864  11.851 
  1249.000 -53.924  12.323  19.425  18.654 -31.960  12.323  19.425  18.654  0.2092  1248.9  11.221  8.2754  8.4868  11.853 
  1249.500 -52.736  11.229  19.489  16.955 -30.774  11.229  19.489  16.955  0.2088  1249.4  11.111  8.2772  8.4871  11.854 
  1250.000 -50.862  9.9620  19.381  15.940 -28.902  9.9620  19.381  15.940  0.2084  1249.9  11.001  8.2790  8.4875  11.856 
  1250.500 -48.483  9.0980  18.985  13.752 -26.525  9.0980  18.985  13.752  0.2079  1250.4  10.891  8.2808  8.4878  11.857 
  1251.000 -46.537  8.7600  13.962  12.464 -24.581  8.7600  13.962  12.464  0.2075  1250.9  10.781  8.2825  8.4881  11.859 
  1251.500 -42.681  8.5730  12.473  11.089 -20.727  8.5730  12.473  11.089  0.2071  1251.4  10.671  8.2843  8.4885  11.860 
  1252.000 -36.733  8.3780  11.609  10.370 -14.781  8.3780  11.609  10.370  0.2067  1251.9  10.561  8.2861  8.4888  11.862 
  1252.500 -32.443  8.2630  11.011  9.6360 -10.494  8.2630  11.011  9.6360  0.2063  1252.4  10.451  8.2879  8.4891  11.863 
  1253.000 -31.327  8.6010  10.680  9.4920 -9.3797  8.6010  10.680  9.4920  0.2059  1252.9  10.341  8.2896  8.4895  11.865 
  1253.500 -33.636  9.2260  10.485  9.8950 -11.691  9.2260  10.485  9.8950  0.2054  1253.4  10.231  8.2914  8.4898  11.866 
  1254.000 -38.144  9.5430  10.521  10.406 -16.201  9.5430  10.521  10.406  0.2050  1253.9  10.121  8.2932  8.4901  11.868 
  1254.500 -41.463  10.017  10.873  10.499 -19.522  10.017  10.873  10.499  0.2046  1254.4  10.011  8.2949  8.4904  11.869 
  1255.000 -43.267  10.549  11.269  10.873 -21.328  10.549  11.269  10.873  0.2042  1254.9  9.9014  8.2967  8.4907  11.870 
  1255.500 -45.577  10.808  11.967  11.168 -23.640  10.808  11.967  11.168  0.2038  1255.4  9.7914  8.2984  8.4910  11.872 
  1256.000 -46.696  11.146  12.787  11.543 -24.761  11.146  12.787  11.543  0.2034  1255.9  9.6814  8.3002  8.4913  11.873 
  1256.500 -47.959  11.362  13.240  11.895 -26.026  11.362  13.240  11.895  0.2029  1256.4  9.5714  8.3019  8.4916  11.875 
  1257.000 -49.403  11.584  13.621  12.305 -27.473  11.584  13.621  12.305  0.2025  1256.9  9.4614  8.3037  8.4919  11.876 
  1257.500 -50.017  11.728  13.851  12.644 -28.089  11.728  13.851  12.644  0.2021  1257.4  9.3514  8.3054  8.4922  11.878 
  1258.000 -50.920  11.764  13.930  12.888 -28.994  11.764  13.930  12.888  0.2017  1257.9  9.2414  8.3071  8.4925  11.879 
  1258.500 -51.462  11.735  13.929  13.104 -29.538  11.735  13.929  13.104  0.2013  1258.4  9.1314  8.3089  8.4927  11.881 
  1259.000 -51.644  11.662  13.907  13.227 -29.722  11.662  13.907  13.227  0.2009  1258.9  9.0214  8.3106  8.4930  11.882 
  1259.500 -51.573  11.561  13.871  13.363 -29.653  11.561  13.871  13.363  0.2004  1259.4  8.9114  8.3123  8.4933  11.883 
