~Version Information
VERS.                     2.0: CWLS log ASCII Standard Version 2.00
WRAP.                      NO: One line per depth step
~Well Information Block
#MNEM.UNIT                               Data Type  Information
#---------                               ---------  -----------
STRT.FT                                   350.0000:
STOP.FT                                  6970.0000:
STEP.FT                                     0.5000:
NULL.                 -999.25                     :
COMP.                                             :COMPANY            
WELL.     SAN EMIDIO A #76-19                     :WELL               
FLD .                                             :FIELD              
CTRY.                                             :COUNTRY            
STAT.                                             :STATE              
LOC .                                             :LOCATION           
UWI .                                             :UNIQUE WELL ID     
SRVC.                                             :Service company    
DATE.                                             :LOG DATE           
~Curve Information
#MNEM.UNIT           API CODE  Curve Description
#---------           --------  -----------------
DEPT.FT                      :   1 DEPTH
SP  .MV                      :   2
AM16.OHMM                    :   3
AO10.OHMM                    :   4
AO19.OHMM                    :   5
SBL .MV                      :   6
RS  .OHMM                    :   7
RM  .OHMM                    :   8
RD  .OHMM                    :   9
DEVI.DEG                     :  10
TVD .FT                      :  11
AZIM.DEG                     :  12
NORT.FT                      :  13
EAST.FT                      :  14
OFFS.FT                      :  15
~A
   350.000 -999.25 -999.25 -999.25 -999.25 -999.25 -999.25 -999.25 -999.25  0.5417  349.99  45.000  2.2317  0.1549  1.6876 
   350.500 -999.25 -999.25 -999.25 -999.25 -999.25 -999.25 -999.25 -999.25  0.5437  350.49  45.450  2.2350  0.1582  1.6923 
   351.000 -999.25 -999.25 -999.25 -999.25 -999.25 -999.25 -999.25 -999.25  0.5458  350.99  45.900  2.2383  0.1617  1.6971 
   351.500 -999.25 -999.25 -999.25 -999.25 -999.25 -999.25 -999.25 -999.25  0.5479  351.49  46.350  2.2416  0.1651  1.7018 
   352.000 -999.25 -999.25 -999.25 -999.25 -999.25 -999.25 -999.25 -999.25  0.5500  351.99  46.800  2.2449  0.1686  1.7066 
   352.500 -999.25 -999.25 -999.25 -999.25 -999.25 -999.25 -999.25 -999.25  0.5521  352.49  47.250  2.2482  0.1722  1.7114 
   353.000 -999.25 -999.25 -999.25 -999.25 -999.25 -999.25 -999.25 -999.25  0.5542  352.99  47.700  2.2514  0.1757  1.7163 
   353.500 -11.202 -999.25 -999.25 -999.25  12.798 -999.25 -999.25 -999.25  0.5562  353.49  48.150  2.2547  0.1794  1.7211 
   354.000 -11.164 -999.25 -999.25  0.0840  12.836 -999.25 -999.25  0.0840  0.5583  353.99  48.600  2.2579  0.1830  1.7260 
   354.500 -11.127 -999.25 -999.25  0.0850  12.873 -999.25 -999.25  0.0850  0.5604  354.49  49.050  2.2611  0.1867  1.7309 
   355.000 -11.089 -999.25 -999.25  0.0860  12.911 -999.25 -999.25  0.0860  0.5625  354.99  49.500  2.2643  0.1904  1.7358 
   355.500 -11.051 -999.25 -999.25  0.0870  12.949 -999.25 -999.25  0.0870  0.5646  355.49  49.950  2.2675  0.1942  1.7407 
   356.000 -11.014 -999.25 -999.25  0.0810  12.986 -999.25 -999.25  0.0810  0.5667  355.99  50.400  2.2706  0.1980  1.7456 
   356.500 -11.012 -999.25 -999.25  0.0750  12.988 -999.25 -999.25  0.0750  0.5687  356.49  50.850  2.2738  0.2019  1.7505 
   357.000 -11.010 -999.25 -999.25  0.0690  12.990 -999.25 -999.25  0.0690  0.5708  356.99  51.300  2.2769  0.2058  1.7555 
   357.500 -11.009 -999.25 -999.25  0.0700  12.991 -999.25 -999.25  0.0700  0.5729  357.49  51.750  2.2800  0.2097  1.7604 
   358.000 -10.971 -999.25 -999.25  0.0710  13.029 -999.25 -999.25  0.0710  0.5750  357.99  52.200  2.2830  0.2136  1.7654 
   358.500 -10.933 -999.25 -999.25  0.0720  13.067 -999.25 -999.25  0.0720  0.5771  358.49  52.650  2.2861  0.2177  1.7704 
   359.000 -10.967 -999.25 -999.25  0.0730  13.033 -999.25 -999.25  0.0730  0.5792  358.99  53.100  2.2891  0.2217  1.7754 
   359.500 -11.001 -999.25 -999.25  0.0740  12.999 -999.25 -999.25  0.0740  0.5812  359.49  53.550  2.2921  0.2258  1.7804 
   360.000 -11.036 -999.25 -999.25  0.0750  12.964 -999.25 -999.25  0.0750  0.5833  359.99  54.000  2.2951  0.2299  1.7855 
   360.500 -11.071 -999.25 -999.25  0.0830  12.929 -999.25 -999.25  0.0830  0.5854  360.49  54.450  2.2981  0.2340  1.7905 
   361.000 -11.069 -999.25 -999.25  0.0840  12.931 -999.25 -999.25  0.0840  0.5875  360.99  54.900  2.3011  0.2382  1.7956 
   361.500 -11.067 -999.25 -999.25  0.0920  12.933 -999.25 -999.25  0.0920  0.5896  361.49  55.350  2.3040  0.2425  1.8006 
   362.000 -11.065 -999.25 -999.25  0.0970  12.935 -999.25 -999.25  0.0970  0.5917  361.99  55.800  2.3069  0.2467  1.8057 
   362.500 -11.064 -999.25 -999.25  0.1020  12.936 -999.25 -999.25  0.1020  0.5937  362.49  56.250  2.3098  0.2511  1.8108 
   363.000 -11.044 -999.25 -999.25  0.1030  12.956 -999.25 -999.25  0.1030  0.5958  362.99  56.700  2.3126  0.2554  1.8159 
   363.500 -11.025 -999.25 -999.25  0.1040  12.975 -999.25 -999.25  0.1040  0.5979  363.49  57.150  2.3154  0.2598  1.8210 
   364.000 -10.951 -999.25 -999.25  0.0980  13.049 -999.25 -999.25  0.0980  0.6000  363.99  57.600  2.3182  0.2642  1.8261 
   364.500 -10.913 -999.25 -999.25  0.0910  13.087 -999.25 -999.25  0.0910  0.6021  364.49  58.050  2.3210  0.2687  1.8312 
   365.000 -10.875 -999.25 -999.25  0.0920  13.125 -999.25 -999.25  0.0920  0.6042  364.99  58.500  2.3238  0.2732  1.8363 
   365.500 -10.855 -999.25 -999.25  0.0860  13.145 -999.25 -999.25  0.0860  0.6062  365.49  58.950  2.3265  0.2777  1.8414 
   366.000 -10.835 -999.25 -999.25  0.0870  13.165 -999.25 -999.25  0.0870  0.6083  365.99  59.400  2.3292  0.2823  1.8466 
   366.500 -10.834 -999.25 -999.25  0.0880  13.166 -999.25 -999.25  0.0880  0.6104  366.49  59.850  2.3319  0.2869  1.8517 
   367.000 -10.869 -999.25 -999.25  0.0890  13.131 -999.25 -999.25  0.0890  0.6125  366.99  60.300  2.3345  0.2915  1.8569 
   367.500 -10.957 -999.25 -999.25  0.0910  13.043 -999.25 -999.25  0.0910  0.6146  367.49  60.750  2.3372  0.2962  1.8621 
   368.000 -11.045 -999.25 -999.25  0.0920  12.955 -999.25 -999.25  0.0920  0.6167  367.99  61.200  2.3397  0.3009  1.8672 
   368.500 -11.188 -999.25 -999.25  0.1000  12.812 -999.25 -999.25  0.1000  0.6187  368.49  61.650  2.3423  0.3057  1.8724 
   369.000 -11.295 -999.25 -999.25  0.1150  12.705 -999.25 -999.25  0.1150  0.6208  368.99  62.100  2.3448  0.3104  1.8776 
   369.500 -11.401 -999.25 -999.25  0.1380  12.599 -999.25 -999.25  0.1380  0.6229  369.49  62.550  2.3474  0.3153  1.8828 
   370.000 -11.471 -999.25 -999.25  0.1600  12.529 -999.25 -999.25  0.1600  0.6250  369.99  63.000  2.3498  0.3201  1.8879 
   370.500 -11.578 -999.25 -999.25  0.2050  12.422 -999.25 -999.25  0.2050  0.6271  370.49  63.450  2.3523  0.3250  1.8931 
   371.000 -11.829 -999.25 -999.25  0.2490  12.171 -999.25 -999.25  0.2490  0.6292  370.99  63.900  2.3547  0.3299  1.8983 
   371.500 -11.286 -999.25 -999.25  0.2640  12.714 -999.25 -999.25  0.2640  0.6312  371.49  64.350  2.3571  0.3349  1.9035 
   372.000 -9.0490 -999.25  0.1180  0.2730  14.951 -999.25  0.1180  0.2730  0.6333  371.99  64.800  2.3594  0.3399  1.9087 
   372.500 -7.6770 -999.25  0.1080  0.2810  16.323 -999.25  0.1080  0.2810  0.6354  372.49  65.250  2.3618  0.3450  1.9139 
   373.000 -3.1320 -999.25  0.0970  0.2890  20.868 -999.25  0.0970  0.2890  0.6375  372.99  65.700  2.3640  0.3500  1.9191 
   373.500 -0.0300 -999.25  0.0870  0.2970  23.970 -999.25  0.0870  0.2970  0.6396  373.49  66.150  2.3663  0.3551  1.9243 
   374.000  0.0080 -999.25  0.0770  0.2620  24.008 -999.25  0.0770  0.2620  0.6417  373.99  66.600  2.3685  0.3603  1.9295 
   374.500  0.0100 -999.25  0.0480  0.2060  24.010 -999.25  0.0480  0.2060  0.6437  374.49  67.050  2.3707  0.3654  1.9347 
   375.000  0.0120 -999.25  0.0200  0.0850  24.012 -999.25  0.0200  0.0850  0.6458  374.99  67.500  2.3729  0.3706  1.9400 
   375.500  0.0490 -999.25  0.0190 -0.0510  24.049 -999.25  0.0190 -0.0510  0.6479  375.49  67.950  2.3750  0.3759  1.9452 
   376.000  0.0870  0.1070  0.0180 -0.2300  24.087  0.1070  0.0180 -0.2300  0.6500  375.99  68.400  2.3771  0.3812  1.9504 
   376.500  0.1610  0.1500  0.0170 -0.3300  24.161  0.1500  0.0170 -0.3300  0.6521  376.49  68.850  2.3791  0.3865  1.9556 
   377.000  0.1810  0.1650  0.0170  0.0100  24.181  0.1650  0.0170  0.0100  0.6542  376.99  69.300  2.3811  0.3918  1.9608 
   377.500  0.2010  0.1800  0.0160  0.0750  24.201  0.1800  0.0160  0.0750  0.6562  377.49  69.750  2.3831  0.3972  1.9660 
   378.000  0.2740  0.2450  0.0150  0.0840  24.274  0.2450  0.0150  0.0840  0.6583  377.99  70.200  2.3851  0.4026  1.9712 
   378.500  0.3120  1.2960  0.0140  0.0990  24.312  1.2960  0.0140  0.0990  0.6604  378.49  70.650  2.3870  0.4080  1.9764 
   379.000  0.3490  4.2320  0.0130  0.1140  24.349  4.2320  0.0130  0.1140  0.6625  378.99  71.100  2.3889  0.4135  1.9816 
   379.500  0.3510  5.2040  0.0130  0.1190  24.351  5.2040  0.0130  0.1190  0.6646  379.49  71.550  2.3907  0.4190  1.9867 
   380.000  0.3890  7.4570  0.0120  0.1240  24.389  7.4570  0.0120  0.1240  0.6667  379.99  72.000  2.3925  0.4245  1.9919 
   380.500  0.3910  12.660  0.0110  0.1320  24.391  12.660  0.0110  0.1320  0.6687  380.49  72.450  2.3943  0.4301  1.9971 
   381.000  0.3920  20.896  0.0100  0.1330  24.392  20.896  0.0100  0.1330  0.6708  380.99  72.900  2.3960  0.4357  2.0023 
   381.500  0.3580  23.131  0.0390  0.1410  24.358  23.131  0.0390  0.1410  0.6729  381.49  73.350  2.3977  0.4413  2.0075 
   382.000 -2.4530  25.222  0.0470  0.1420  21.547  25.222  0.0470  0.1420  0.6750  381.99  73.800  2.3993  0.4470  2.0126 
