~Version Information
VERS.                     2.0: CWLS log ASCII Standard Version 2.00
WRAP.                      NO: One line per depth step
~Well Information Block
#MNEM.UNIT                               Data Type  Information
#---------                               ---------  -----------
STRT.FT                                   350.0000:
STOP.FT                                  6970.0000:
STEP.FT                                     0.5000:
NULL.                 -999.25                     :
COMP.                                             :COMPANY            
WELL.     SAN EMIDIO A #76-19                     :WELL               
FLD .                                             :FIELD              
CTRY.                                             :COUNTRY            
STAT.                                             :STATE              
LOC .                                             :LOCATION           
UWI .                                             :UNIQUE WELL ID     
SRVC.                                             :Service company    
DATE.                                             :LOG DATE           
~Curve Information
#MNEM.UNIT           API CODE  Curve Description
#---------           --------  -----------------
DEPT.FT                      :   1 DEPTH
SP  .MV                      :   2
AM16.OHMM                    :   3
AO10.OHMM                    :   4
AO19.OHMM                    :   5
SBL .MV                      :   6
RS  .OHMM                    :   7
RM  .OHMM                    :   8
RD  .OHMM                    :   9
DEVI.DEG                     :  10
TVD .FT                      :  11
AZIM.DEG                     :  12
NORT.FT                      :  13
EAST.FT                      :  14
OFFS.FT                      :  15
~A
# ...
  6947.500 -18.674  17.572  15.170  11.494 -0.6740  17.572  15.170  11.494  0.7500  6946.5  170.00  4.3921  55.661  42.464 
  6948.000 -18.548  17.809  14.860  12.242 -0.5480  17.809  14.860  12.242  0.7500  6947.0  170.00  4.3856  55.663  42.460 
  6948.500 -18.297  18.132  14.745  12.940 -0.2970  18.132  14.745  12.940  0.7500  6947.5  170.00  4.3792  55.664  42.457 
  6949.000 -18.189  18.441  14.838  13.752 -0.1890  18.441  14.838  13.752  0.7500  6948.0  170.00  4.3727  55.665  42.453 
  6949.500 -18.661  18.722  14.917  14.658 -0.6610  18.722  14.917  14.658  0.7500  6948.5  170.00  4.3663  55.666  42.449 
  6950.000 -18.884  19.024  15.010  15.442 -0.8840  19.024  15.010  15.442  0.7500  6949.0  170.00  4.3598  55.667  42.445 
  6950.500 -19.108  19.158  15.130  16.950 -1.1080  19.158  15.130  16.950  0.7500  6949.5  170.00  4.3534  55.668  42.442 
  6951.000 -19.246  19.205  15.250  17.774 -1.2460  19.205  15.250  17.774  0.7500  6950.0  170.00  4.3469  55.669  42.438 
  6951.500 -19.384  19.275  15.305  18.189 -1.3840  19.275  15.305  18.189  0.7500  6950.5  170.00  4.3405  55.670  42.434 
  6952.000 -19.072  19.301  15.079  18.747 -1.0720  19.301  15.079  18.747  0.7500  6951.0  170.00  4.3340  55.672  42.430 
  6952.500 -18.794  19.198  14.889  19.039 -0.7940  19.198  14.889  19.039  0.7500  6951.5  170.00  4.3276  55.673  42.427 
  6953.000 -18.336  19.238  14.599  18.699 -0.3360  19.238  14.599  18.699  0.7500  6952.0  170.00  4.3212  55.674  42.423 
  6953.500 -17.877  19.394  14.352  18.495  0.1230  19.394  14.352  18.495  0.7500  6952.5  170.00  4.3147  55.675  42.419 
  6954.000 -17.528  19.636  14.292  18.355  0.4720  19.636  14.292  18.355  0.7500  6953.0  170.00  4.3083  55.676  42.415 
  6954.500 -17.431  19.777  14.325  18.238  0.5690  19.777  14.325  18.238  0.7500  6953.5  170.00  4.3018  55.677  42.412 
  6955.000 -17.443  19.897  14.394  18.127  0.5570  19.897  14.394  18.127  0.7500  6954.0  170.00  4.2954  55.678  42.408 
  6955.500 -17.419  19.923  14.457  18.024  0.5810  19.923  14.457  18.024  0.7500  6954.5  170.00  4.2889  55.680  42.404 
  6956.000 -17.431  19.805  14.519  17.942  0.5690  19.805  14.519  17.942  0.7500  6955.0  170.00  4.2825  55.681  42.400 
  6956.500 -17.442  19.328  14.458  17.889  0.5580  19.328  14.458  17.889  0.7500  6955.5  170.00  4.2760  55.682  42.397 
  6957.000 -17.926  18.922  14.290  17.685  0.0740  18.922  14.290  17.685  0.7500  6956.0  170.00  4.2696  55.683  42.393 
  6957.500 -18.154  18.467  13.878  16.755 -0.1540  18.467  13.878  16.755  0.7500  6956.5  170.00  4.2631  55.684  42.389 
  6958.000 -18.491  18.097  13.437  15.673 -0.4910  18.097  13.437  15.673  0.7500  6957.0  170.00  4.2567  55.685  42.385 
  6958.500 -19.010  18.274  13.269  15.088 -1.0100  18.274  13.269  15.088  0.7500  6957.5  170.00  4.2502  55.686  42.382 
  6959.000 -19.130  18.437  13.252  15.057 -1.1300  18.437  13.252  15.057  0.7500  6958.0  170.00  4.2438  55.687  42.378 
  6959.500 -18.961  18.571  13.242  15.083 -0.9610  18.571  13.242  15.083  0.7500  6958.5  170.00  4.2374  55.689  42.374 
  6960.000 -18.611  18.605  13.232  15.113 -0.6110  18.605  13.232  15.113  0.7500  6959.0  170.00  4.2309  55.690  42.370 
  6960.500 -18.262  18.606  13.222  15.143 -0.2620  18.606  13.222  15.143  0.7500  6959.5  170.00  4.2245  55.691  42.367 
  6961.000 -18.020  18.607  13.213  15.161 -0.0200  18.607  13.213  15.161  0.7500  6960.0  170.00  4.2180  55.692  42.363 
  6961.500 -18.358  18.597  13.210  15.166 -0.3580  18.597  13.210  15.166  0.7500  6960.5  170.00  4.2116  55.693  42.359 
  6962.000 -18.515  18.587  13.207  15.171 -0.5150  18.587  13.207  15.171  0.7500  6961.0  170.00  4.2051  55.694  42.355 
  6962.500 -18.635  18.570  13.197  15.150 -0.6350  18.570  13.197  15.150  0.7500  6961.5  170.00  4.1987  55.695  42.352 
  6963.000 -18.647  18.553  13.195  15.130 -0.6470  18.553  13.195  15.130  0.7500  6962.0  170.00  4.1922  55.697  42.348 
  6963.500 -18.550  18.550  13.199  15.091 -0.5500  18.550  13.199  15.091  0.7500  6962.5  170.00  4.1858  55.698  42.344 
  6964.000 -18.454  18.548  13.204  15.070 -0.4540  18.548  13.204  15.070  0.7500  6963.0  170.00  4.1793  55.699  42.340 
  6964.500 -18.286  18.545  13.209  15.050 -0.2860  18.545  13.209  15.050  0.7500  6963.5  170.00  4.1729  55.700  42.337 
  6965.000 -18.080  18.543  13.213  15.036 -0.0800  18.543  13.213  15.036  0.7500  6964.0  170.00  4.1665  55.701  42.333 
  6965.500 -17.947  18.554  13.225  15.023  0.0530  18.554  13.225  15.023  0.7500  6964.5  170.00  4.1600  55.702  42.329 
  6966.000 -17.778  18.548  13.237  14.999  0.2220  18.548  13.237  14.999  0.7500  6965.0  170.00  4.1536  55.703  42.325 
  6966.500 -17.717  18.542  13.270  14.975  0.2830  18.542  13.270  14.975  0.7500  6965.5  170.00  4.1471  55.705  42.322 
  6967.000 -17.730  18.532  12.973 -999.25  0.2700  18.532  12.973 -999.25  0.7500  6966.0  170.00  4.1407  55.706  42.318 
  6967.500 -17.723  18.530  12.704 -999.25  0.2770  18.530  12.704 -999.25  0.7500  6966.5  170.00  4.1342  55.707  42.314 
  6968.000 -17.716  18.520 -999.25 -999.25  0.2840  18.520 -999.25 -999.25  0.7500  6967.0  170.00  4.1278  55.708  42.310 
  6968.500 -17.657 -999.25 -999.25 -999.25  0.3430 -999.25 -999.25 -999.25  0.7500  6967.5  170.00  4.1213  55.709  42.306 
  6969.000 -17.633 -999.25 -999.25 -999.25  0.3670 -999.25 -999.25 -999.25  0.7500  6968.0  170.00  4.1149  55.710  42.303 
  6969.500 -17.609 -999.25 -999.25 -999.25  0.3910 -999.25 -999.25 -999.25  0.7500  6968.5  170.00  4.1084  55.711  42.299 
  6970.000 -17.584 -999.25 -999.25 -999.25  0.4160 -999.25 -999.25 -999.25  0.7500  6969.0  170.00  4.1020  55.712  42.295 
