~Version Information
VERS.                     2.0: CWLS log ASCII Standard Version 2.00
WRAP.                      NO: One line per depth step
~Well Information Block
#MNEM.UNIT                               Data Type  Information
#---------                               ---------  -----------
STRT.FT                                   350.0000:
STOP.FT                                  6970.0000:
STEP.FT                                     0.5000:
NULL.                 -999.25                     :
COMP.                                             :COMPANY            
WELL.     SAN EMIDIO A #76-19                     :WELL               
FLD .                                             :FIELD              
CTRY.                                             :COUNTRY            
STAT.                                             :STATE              
LOC .                                             :LOCATION           
UWI .                                             :UNIQUE WELL ID     
SRVC.                                             :Service company    
DATE.                                             :LOG DATE           
~Curve Information
#MNEM.UNIT           API CODE  Curve Description
#---------           --------  -----------------
DEPT.FT                      :   1 DEPTH
SP  .MV                      :   2
AM16.OHMM                    :   3
AO10.OHMM                    :   4
AO19.OHMM                    :   5
SBL .MV                      :   6
RS  .OHMM                    :   7
RM  .OHMM                    :   8
RD  .OHMM                    :   9
DEVI.DEG                     :  10
TVD .FT                      :  11
AZIM.DEG                     :  12
NORT.FT                      :  13
EAST.FT                      :  14
OFFS.FT                      :  15
~A
# ...
  6070.000 -23.457  1.8280  1.9000  2.0080 -6.0126  1.8280  1.9000  2.0080  1.2000  6069.1  166.20  14.776  52.954  47.893 
  6070.500 -23.205  1.8350  1.9000  2.0080 -5.7520  1.8350  1.9000  2.0080  1.1967  6069.6  166.23  14.766  52.957  47.888 
  6071.000 -22.988  1.8420  1.8960  2.0080 -5.5265  1.8420  1.8960  2.0080  1.1934  6070.1  166.26  14.756  52.959  47.882 
  6071.500 -22.881  1.8490  1.8930  2.0080 -5.4109  1.8490  1.8930  2.0080  1.1900  6070.6  166.29  14.746  52.962  47.877 
  6072.000 -22.954  1.8490  1.8920  2.0040 -5.4754  1.8490  1.8920  2.0040  1.1867  6071.1  166.32  14.736  52.964  47.871 
  6072.500 -22.991  1.8530  1.8890  2.0000 -5.5038  1.8530  1.8890  2.0000  1.1834  6071.6  166.35  14.726  52.967  47.866 
  6073.000 -23.027  1.8560  1.8850  2.0000 -5.5313  1.8560  1.8850  2.0000  1.1800  6072.1  166.38  14.716  52.969  47.861 
  6073.500 -23.102  1.8590  1.8850  2.0000 -5.5977  1.8590  1.8850  2.0000  1.1767  6072.6  166.41  14.706  52.972  47.855 
  6074.000 -23.138  1.8610  1.8850  2.0000 -5.6252  1.8610  1.8850  2.0000  1.1734  6073.1  166.44  14.696  52.974  47.850 
  6074.500 -23.121  1.8630  1.8850  2.0000 -5.5996  1.8630  1.8850  2.0000  1.1700  6073.6  166.47  14.686  52.976  47.845 
  6075.000 -23.103  1.8700  1.8920  2.0030 -5.5731  1.8700  1.8920  2.0030  1.1667  6074.1  166.50  14.676  52.979  47.839 
  6075.500 -23.032  1.8700  1.8950  2.0060 -5.4935  1.8700  1.8950  2.0060  1.1634  6074.6  166.53  14.666  52.981  47.834 
  6076.000 -23.178  1.8700  1.8980  2.0090 -5.6310  1.8700  1.8980  2.0090  1.1600  6075.1  166.56  14.656  52.983  47.829 
  6076.500 -23.504  1.8620  1.9020  2.0110 -5.9484  1.8620  1.9020  2.0110  1.1567  6075.6  166.59  14.647  52.986  47.823 
  6077.000 -24.012  1.8620  1.9050  2.0130 -6.4479  1.8620  1.9050  2.0130  1.1534  6076.1  166.62  14.637  52.988  47.818 
  6077.500 -24.519  1.8620  1.9090  2.0200 -6.9463  1.8620  1.9090  2.0200  1.1500  6076.6  166.65  14.627  52.990  47.813 
  6078.000 -25.135  1.8620  1.9120  2.0270 -7.5538  1.8620  1.9120  2.0270  1.1467  6077.1  166.68  14.617  52.993  47.808 
  6078.500 -25.606  1.8620  1.9120  2.0300 -8.0163  1.8620  1.9120  2.0300  1.1434  6077.6  166.71  14.608  52.995  47.802 
  6079.000 -25.969  1.8610  1.9160  2.0320 -8.3707  1.8610  1.9160  2.0320  1.1400  6078.1  166.74  14.598  52.997  47.797 
  6079.500 -26.151  1.8650  1.9190  2.0340 -8.5442  1.8650  1.9190  2.0340  1.1367  6078.6  166.77  14.588  53.000  47.792 
  6080.000 -26.079  1.8690  1.9190  2.0380 -8.4636  1.8690  1.9190  2.0380  1.1334  6079.1  166.80  14.579  53.002  47.787 
  6080.500 -25.357  1.8750  1.9190  2.0410 -7.7331  1.8750  1.9190  2.0410  1.1300  6079.6  166.83  14.569  53.004  47.781 
  6081.000 -24.778  1.8750  1.9180  2.0410 -7.1455  1.8750  1.9180  2.0410  1.1267  6080.1  166.86  14.560  53.006  47.776 
  6081.500 -24.092  1.8750  1.9180  2.0410 -6.4510  1.8750  1.9180  2.0410  1.1234  6080.6  166.89  14.550  53.009  47.771 
  6082.000 -23.731  1.8750  1.9180  2.0440 -6.0814  1.8750  1.9180  2.0440  1.1200  6081.1  166.92  14.540  53.011  47.766 
  6082.500 -23.876  1.8790  1.9150  2.0480 -6.2179  1.8790  1.9150  2.0480  1.1167  6081.6  166.95  14.531  53.013  47.761 
  6083.000 -24.927  1.8820  1.9110  2.0400 -7.2603  1.8820  1.9110  2.0400  1.1134  6082.1  166.98  14.522  53.015  47.756 
  6083.500 -25.688  1.8790  1.9110  2.0370 -8.0128  1.8790  1.9110  2.0370  1.1100  6082.6  167.01  14.512  53.017  47.750 
  6084.000 -25.544  1.8750  1.9110  2.0330 -7.8602  1.8750  1.9110  2.0330  1.1067  6083.1  167.04  14.503  53.019  47.745 
  6084.500 -25.147  1.8750  1.9100  2.0250 -7.4547  1.8750  1.9100  2.0250  1.1034  6083.6  167.07  14.493  53.022  47.740 
  6085.000 -24.749  1.8740  1.9180  2.0220 -7.0481  1.8740  1.9180  2.0220  1.1000  6084.1  167.10  14.484  53.024  47.735 
  6085.500 -24.316  1.8810  1.9250  2.0180 -6.6066  1.8810  1.9250  2.0180  1.0967  6084.6  167.13  14.475  53.026  47.730 
  6086.000 -23.919  1.8810  1.9280  2.0140 -6.2011  1.8810  1.9280  2.0140  1.0934  6085.1  167.16  14.465  53.028  47.725 
  6086.500 -23.666  1.8780  1.9320  2.0110 -5.9395  1.8780  1.9320  2.0110  1.0900  6085.6  167.19  14.456  53.030  47.720 
  6087.000 -23.270  1.8740  1.9310  2.0100 -5.5350  1.8740  1.9310  2.0100  1.0867  6086.1  167.22  14.447  53.032  47.715 
  6087.500 -23.017  1.8670  1.9240  2.0170 -5.2734  1.8670  1.9240  2.0170  1.0834  6086.6  167.25  14.438  53.034  47.710 
  6088.000 -22.837  1.8590  1.9160  2.0170 -5.0849  1.8590  1.9160  2.0170  1.0800  6087.1  167.28  14.428  53.036  47.705 
  6088.500 -22.549  1.8480  1.9160  2.0170 -4.7883  1.8480  1.9160  2.0170  1.0767  6087.6  167.31  14.419  53.038  47.700 
  6089.000 -22.730  1.8370  1.9160  2.0170 -4.9608  1.8370  1.9160  2.0170  1.0734  6088.1  167.34  14.410  53.041  47.695 
  6089.500 -23.056  1.8330  1.9140  2.0170 -5.2782  1.8330  1.9140  2.0170  1.0700  6088.6  167.37  14.401  53.043  47.690 
  6090.000 -23.999  1.8300  1.9110  2.0310 -6.2127  1.8300  1.9110  2.0310  1.0667  6089.1  167.40  14.392  53.045  47.685 
  6090.500 -24.469  1.8220  1.9090  2.0380 -6.6741  1.8220  1.9090  2.0380  1.0634  6089.6  167.43  14.383  53.047  47.680 
  6091.000 -24.795  1.8260  1.9090  2.0380 -6.9916  1.8260  1.9090  2.0380  1.0600  6090.1  167.46  14.374  53.049  47.675 
  6091.500 -25.121  1.8290  1.9090  2.0380 -7.3090  1.8290  1.9090  2.0380  1.0567  6090.6  167.49  14.365  53.051  47.670 
  6092.000 -25.485  1.8430  1.9080  2.0410 -7.6645  1.8430  1.9080  2.0410  1.0534  6091.1  167.52  14.356  53.053  47.665 
  6092.500 -25.667  1.8500  1.9080  2.0450 -7.8379  1.8500  1.9080  2.0450  1.0500  6091.6  167.55  14.347  53.055  47.660 
  6093.000 -25.740  1.8570  1.9030  2.0730 -7.9024  1.8570  1.9030  2.0730  1.0467  6092.1  167.58  14.338  53.057  47.655 
  6093.500 -25.813  1.8610  1.8980  2.0880 -7.9668  1.8610  1.8980  2.0880  1.0434  6092.6  167.61  14.329  53.058  47.650 
  6094.000 -25.706  1.8650  1.8930  2.0950 -7.8513  1.8650  1.8930  2.0950  1.0400  6093.1  167.64  14.320  53.060  47.645 
  6094.500 -25.453  1.8790  1.8930  2.1090 -7.5898  1.8790  1.8930  2.1090  1.0367  6093.6  167.67  14.311  53.062  47.640 
  6095.000 -25.020  1.8790  1.8860  2.0940 -7.1482  1.8790  1.8860  2.0940  1.0334  6094.1  167.70  14.303  53.064  47.636 
  6095.500 -24.116  1.8640  1.8780  2.0730 -6.2357  1.8640  1.8780  2.0730  1.0300  6094.6  167.73  14.294  53.066  47.631 
  6096.000 -23.683  1.8640  1.8710  2.0510 -5.7941  1.8640  1.8710  2.0510  1.0267  6095.1  167.76  14.285  53.068  47.626 
  6096.500 -23.322  1.8710  1.8640  2.0290 -5.4246  1.8710  1.8640  2.0290  1.0234  6095.6  167.79  14.276  53.070  47.621 
  6097.000 -23.612  1.8780  1.8640  2.0110 -5.7060  1.8780  1.8640  2.0110  1.0200  6096.1  167.82  14.268  53.072  47.616 
  6097.500 -24.011  1.8920  1.8640  1.9930 -6.0965  1.8920  1.8640  1.9930  1.0167  6096.6  167.85  14.259  53.074  47.611 
  6098.000 -24.410  1.8990  1.8630  1.9420 -6.4869  1.8990  1.8630  1.9420  1.0134  6097.1  167.88  14.250  53.076  47.607 
  6098.500 -24.881  1.8990  1.8630  1.9350 -6.9494  1.8990  1.8630  1.9350  1.0100  6097.6  167.91  14.242  53.077  47.602 
  6099.000 -25.171  1.8990  1.8630  1.9310 -7.2308  1.8990  1.8630  1.9310  1.0067  6098.1  167.94  14.233  53.079  47.597 
  6099.500 -25.498  1.9060  1.8630  1.9280 -7.5493  1.9060  1.8630  1.9280  1.0034  6098.6  167.97  14.224  53.081  47.592 
  6100.000 -25.318  1.9060  1.8630  1.9350 -7.3607  1.9060  1.8630  1.9350  1.0000  6099.1  168.00  14.216  53.083  47.587 
  6100.500 -25.103  1.9130  1.8700  1.9420 -7.1372  1.9130  1.8700  1.9420  1.0004  6099.6  168.02  14.207  53.085  47.583 
  6101.000 -24.887  1.9130  1.8730  1.9480 -6.9126  1.9130  1.8730  1.9480  1.0009  6100.1  168.04  14.199  53.087  47.578 
  6101.500 -25.068  1.9050  1.8770  1.9520 -7.0851  1.9050  1.8770  1.9520  1.0013  6100.6  168.06  14.190  53.088  47.573 
  6102.000 -25.793  1.9050  1.8730  1.9560 -7.8015  1.9050  1.8730  1.9560  1.0017  6101.1  168.08  14.182  53.090  47.568 
