~Version Information
VERS.                     2.0: CWLS log ASCII Standard Version 2.00
WRAP.                      NO: One line per depth step
~Well Information Block
#MNEM.UNIT                               Data Type  Information
#---------                               ---------  -----------
STRT.FT                                   350.0000:
STOP.FT                                  6970.0000:
STEP.FT                                     0.5000:
NULL.                 -999.25                     :
COMP.                                             :COMPANY            
WELL.     SAN EMIDIO A #76-19                     :WELL               
FLD .                                             :FIELD              
CTRY.                                             :COUNTRY            
STAT.                                             :STATE              
LOC .                                             :LOCATION           
UWI .                                             :UNIQUE WELL ID     
SRVC.                                             :Service company    
DATE.                                             :LOG DATE           
~Curve Information
#MNEM.UNIT           API CODE  Curve Description
#---------           --------  -----------------
DEPT.FT                      :   1 DEPTH
SP  .MV                      :   2
AM16.OHMM                    :   3
AO10.OHMM                    :   4
AO19.OHMM                    :   5
SBL .MV                      :   6
RS  .OHMM                    :   7
RM  .OHMM                    :   8
RD  .OHMM                    :   9
DEVI.DEG                     :  10
TVD .FT                      :  11
AZIM.DEG                     :  12
NORT.FT                      :  13
EAST.FT                      :  14
OFFS.FT                      :  15
~A
# ...
  6492.500 -30.488  3.4160  3.2430  2.9270 -12.488  3.4160  3.2430  2.9270  0.7500  6491.6  170.00  10.258  54.627  45.881 
  6493.000 -29.839  3.3870  3.2280  2.9980 -11.839  3.3870  3.2280  2.9980  0.7500  6492.1  170.00  10.251  54.629  45.877 
  6493.500 -29.335  3.3070  3.2420  3.1340 -11.335  3.3070  3.2420  3.1340  0.7500  6492.6  170.00  10.245  54.630  45.873 
  6494.000 -29.011  3.2700  3.3060  3.2340 -11.011  3.2700  3.3060  3.2340  0.7500  6493.1  170.00  10.238  54.631  45.869 
  6494.500 -28.724  3.2410  3.3560  3.3130 -10.724  3.2410  3.3560  3.3130  0.7500  6493.6  170.00  10.232  54.632  45.866 
  6495.000 -28.546  3.2120  3.4280  3.3700 -10.546  3.2120  3.4280  3.3700  0.7500  6494.1  170.00  10.225  54.633  45.862 
  6495.500 -28.403  3.1610  3.4560  3.3840 -10.403  3.1610  3.4560  3.3840  0.7500  6494.6  170.00  10.219  54.634  45.858 
  6496.000 -28.333  3.1390  3.4770  3.3910 -10.333  3.1390  3.4770  3.3910  0.7500  6495.1  170.00  10.213  54.635  45.854 
  6496.500 -28.226  3.0960  3.4410  3.3400 -10.226  3.0960  3.4410  3.3400  0.7500  6495.6  170.00  10.206  54.637  45.851 
  6497.000 -28.156  3.0740  3.3470  3.2610 -10.156  3.0740  3.3470  3.2610  0.7500  6496.1  170.00  10.200  54.638  45.847 
  6497.500 -28.122  3.0440  3.2390  3.1310 -10.122  3.0440  3.2390  3.1310  0.7500  6496.6  170.00  10.193  54.639  45.843 
  6498.000 -28.088  2.9940  3.1520  2.9940 -10.088  2.9940  3.1520  2.9940  0.7500  6497.1  170.00  10.187  54.640  45.839 
  6498.500 -28.162  2.9640  3.0440  2.8710 -10.162  2.9640  3.0440  2.8710  0.7500  6497.6  170.00  10.180  54.641  45.836 
  6499.000 -28.165  2.9420  2.9640  2.8420 -10.165  2.9420  2.9640  2.8420  0.7500  6498.1  170.00  10.174  54.642  45.832 
  6499.500 -28.239  2.8990  2.9420  2.8200 -10.239  2.8990  2.9420  2.8200  0.7500  6498.6  170.00  10.167  54.643  45.828 
  6500.000 -28.350  2.8910  2.9630  2.8270 -10.350  2.8910  2.9630  2.8270  0.7500  6499.1  170.00  10.161  54.644  45.824 
  6500.500 -28.495  2.8770  2.9880  2.8410 -10.495  2.8770  2.9880  2.8410  0.7500  6499.6  170.00  10.155  54.646  45.821 
  6501.000 -28.676  2.9130  3.0140  2.8620 -10.676  2.9130  3.0140  2.8620  0.7500  6500.1  170.00  10.148  54.647  45.817 
  6501.500 -28.750  2.9270  3.0560  2.8840 -10.750  2.9270  3.0560  2.8840  0.7500  6500.6  170.00  10.142  54.648  45.813 
  6502.000 -28.787  2.9480  3.0780  2.8980 -10.787  2.9480  3.0780  2.8980  0.7500  6501.1  170.00  10.135  54.649  45.809 
  6502.500 -28.751  2.9480  3.1000  2.9130 -10.751  2.9480  3.1000  2.9130  0.7500  6501.6  170.00  10.129  54.650  45.806 
  6503.000 -28.534  2.9480  3.1140  2.9270 -10.534  2.9480  3.1140  2.9270  0.7500  6502.1  170.00  10.122  54.651  45.802 
  6503.500 -28.281  2.9410  3.1280  2.9550 -10.281  2.9410  3.1280  2.9550  0.7500  6502.6  170.00  10.116  54.652  45.798 
  6504.000 -27.884  2.9450  3.1710  2.9630 -9.8840  2.9450  3.1710  2.9630  0.7500  6503.1  170.00  10.109  54.654  45.794 
  6504.500 -27.559  2.9480  3.2000  2.9700 -9.5590  2.9480  3.2000  2.9700  0.7500  6503.6  170.00  10.103  54.655  45.791 
  6505.000 -27.198  2.9340  3.2290  2.9980 -9.1980  2.9340  3.2290  2.9980  0.7500  6504.1  170.00  10.096  54.656  45.787 
  6505.500 -26.981  2.9260  3.2720  3.0130 -8.9810  2.9260  3.2720  3.0130  0.7500  6504.6  170.00  10.090  54.657  45.783 
  6506.000 -26.656  2.9190  3.3150  3.0240 -8.6560  2.9190  3.3150  3.0240  0.7500  6505.1  170.00  10.084  54.658  45.779 
  6506.500 -26.403  2.9190  3.3290  3.0340 -8.4030  2.9190  3.3290  3.0340  0.7500  6505.6  170.00  10.077  54.659  45.776 
  6507.000 -26.078  2.9190  3.3290  3.0560 -8.0780  2.9190  3.3290  3.0560  0.7500  6506.1  170.00  10.071  54.660  45.772 
  6507.500 -26.042  2.9160  3.3070  3.0630 -8.0420  2.9160  3.3070  3.0630  0.7500  6506.6  170.00  10.064  54.662  45.768 
  6508.000 -26.224  2.9120  3.2790  3.0840 -8.2240  2.9120  3.2790  3.0840  0.7500  6507.1  170.00  10.058  54.663  45.764 
  6508.500 -26.369  2.9190  3.2280  3.0910 -8.3690  2.9190  3.2280  3.0910  0.7500  6507.6  170.00  10.051  54.664  45.761 
  6509.000 -26.551  2.9190  3.2140  3.0990 -8.5510  2.9190  3.2140  3.0990  0.7500  6508.1  170.00  10.045  54.665  45.757 
  6509.500 -26.659  2.9330  3.1920  3.1130 -8.6590  2.9330  3.1920  3.1130  0.7500  6508.6  170.00  10.038  54.666  45.753 
  6510.000 -26.660  2.9400  3.1850  3.1200 -8.6600  2.9400  3.1850  3.1200  0.7500  6509.1  170.00  10.032  54.667  45.749 
  6510.500 -26.678  2.9400  3.1780  3.1380 -8.6780  2.9400  3.1780  3.1380  0.7500  6509.6  170.00  10.026  54.668  45.746 
  6511.000 -26.697  2.9540  3.1700  3.1560 -8.6970  2.9540  3.1700  3.1560  0.7500  6510.1  170.00  10.019  54.669  45.742 
  6511.500 -26.679  2.9620  3.1700  3.1590 -8.6790  2.9620  3.1700  3.1590  0.7500  6510.6  170.00  10.013  54.671  45.738 
  6512.000 -26.661  2.9680  3.1700  3.1630 -8.6610  2.9680  3.1700  3.1630  0.7500  6511.1  170.00  10.006  54.672  45.734 
  6512.500 -26.608  2.9690  3.1700  3.1770 -8.6080  2.9690  3.1700  3.1770  0.7500  6511.6  170.00  9.9998  54.673  45.730 
  6513.000 -26.554  2.9830  3.1700  3.1840 -8.5540  2.9830  3.1700  3.1840  0.7500  6512.1  170.00  9.9934  54.674  45.727 
  6513.500 -26.483  2.9900  3.1700  3.1910 -8.4830  2.9900  3.1700  3.1910  0.7500  6512.6  170.00  9.9869  54.675  45.723 
  6514.000 -26.483  3.0190  3.1700  3.1990 -8.4830  3.0190  3.1700  3.1990  0.7500  6513.1  170.00  9.9805  54.676  45.719 
  6514.500 -26.483  3.0330  3.1700  3.2060 -8.4830  3.0330  3.1700  3.2060  0.7500  6513.6  170.00  9.9740  54.677  45.715 
  6515.000 -26.538  3.0470  3.1700  3.2200 -8.5380  3.0470  3.1700  3.2200  0.7500  6514.1  170.00  9.9676  54.679  45.712 
  6515.500 -26.593  3.0620  3.1770  3.2410 -8.5930  3.0620  3.1770  3.2410  0.7500  6514.6  170.00  9.9611  54.680  45.708 
  6516.000 -26.704  3.0830  3.1840  3.2490 -8.7040  3.0830  3.1840  3.2490  0.7500  6515.1  170.00  9.9547  54.681  45.704 
  6516.500 -26.740  3.0900  3.1840  3.2560 -8.7400  3.0900  3.1840  3.2560  0.7500  6515.6  170.00  9.9482  54.682  45.700 
  6517.000 -26.776  3.0970  3.1870  3.2630 -8.7760  3.0970  3.1870  3.2630  0.7500  6516.1  170.00  9.9418  54.683  45.697 
  6517.500 -26.812  3.1040  3.1910  3.2700 -8.8120  3.1040  3.1910  3.2700  0.7500  6516.6  170.00  9.9353  54.684  45.693 
  6518.000 -26.995  3.1120  3.2050  3.2770 -8.9950  3.1120  3.2050  3.2770  0.7500  6517.1  170.00  9.9289  54.685  45.689 
  6518.500 -27.067  3.1260  3.2190  3.2770 -9.0670  3.1260  3.2190  3.2770  0.7500  6517.6  170.00  9.9225  54.686  45.685 
  6519.000 -27.212  3.1260  3.2480  3.2630 -9.2120  3.1260  3.2480  3.2630  0.7500  6518.1  170.00  9.9160  54.688  45.682 
  6519.500 -27.194  3.1400  3.2620  3.2190 -9.1940  3.1400  3.2620  3.2190  0.7500  6518.6  170.00  9.9096  54.689  45.678 
  6520.000 -27.176  3.1540  3.2770  3.2050 -9.1760  3.1540  3.2770  3.2050  0.7500  6519.1  170.00  9.9031  54.690  45.674 
  6520.500 -27.106  3.1690  3.2910  3.1830 -9.1060  3.1690  3.2910  3.1830  0.7500  6519.6  170.00  9.8967  54.691  45.670 
  6521.000 -27.088  3.1970  3.3060  3.1760 -9.0880  3.1970  3.3060  3.1760  0.7500  6520.1  170.00  9.8902  54.692  45.667 
  6521.500 -27.070  3.2230  3.3200  3.1830 -9.0700  3.2230  3.3200  3.1830  0.7500  6520.6  170.00  9.8838  54.693  45.663 
  6522.000 -26.963  3.2480  3.3270  3.1900 -8.9630  3.2480  3.3270  3.1900  0.7500  6521.1  170.00  9.8773  54.694  45.659 
  6522.500 -26.945  3.2800  3.3340  3.2120 -8.9450  3.2800  3.3340  3.2120  0.7500  6521.6  170.00  9.8709  54.696  45.655 
  6523.000 -26.926  3.3120  3.3480  3.2550 -8.9260  3.3120  3.3480  3.2550  0.7500  6522.1  170.00  9.8644  54.697  45.652 
  6523.500 -27.001  3.3980  3.3630  3.2910 -9.0010  3.3980  3.3630  3.2910  0.7500  6522.6  170.00  9.8580  54.698  45.648 
  6524.000 -27.001  3.4560  3.3840  3.3190 -9.0010  3.4560  3.3840  3.3190  0.7500  6523.1  170.00  9.8516  54.699  45.644 
  6524.500 -27.001  3.5210  3.4060  3.3620 -9.0010  3.5210  3.4060  3.3620  0.7500  6523.6  170.00  9.8451  54.700  45.640 
