~Version Information
VERS.                     2.0: CWLS log ASCII Standard Version 2.00
WRAP.                      NO: One line per depth step
~Well Information Block
#MNEM.UNIT                               Data Type  Information
#---------                               ---------  -----------
STRT.FT                                   350.0000:
STOP.FT                                  6970.0000:
STEP.FT                                     0.5000:
NULL.                 -999.25                     :
COMP.                                             :COMPANY            
WELL.     SAN EMIDIO A #76-19                     :WELL               
FLD .                                             :FIELD              
CTRY.                                             :COUNTRY            
STAT.                                             :STATE              
LOC .                                             :LOCATION           
UWI .                                             :UNIQUE WELL ID     
SRVC.                                             :Service company    
DATE.                                             :LOG DATE           
~Curve Information
#MNEM.UNIT           API CODE  Curve Description
#---------           --------  -----------------
DEPT.FT                      :   1 DEPTH
SP  .MV                      :   2
AM16.OHMM                    :   3
AO10.OHMM                    :   4
AO19.OHMM                    :   5
SBL .MV                      :   6
RS  .OHMM                    :   7
RM  .OHMM                    :   8
RD  .OHMM                    :   9
DEVI.DEG                     :  10
TVD .FT                      :  11
AZIM.DEG                     :  12
NORT.FT                      :  13
EAST.FT                      :  14
OFFS.FT                      :  15
~A
# ...
  5615.000 -25.619  1.9340  1.9050  1.9480 -15.952  1.9340  1.9050  1.9480  1.5750  5614.3  142.00  26.078  46.315  51.189 
  5615.500 -26.165  1.9620  1.9120  1.9550 -16.490  1.9620  1.9120  1.9550  1.5775  5614.8  142.00  26.067  46.324  51.188 
  5616.000 -26.746  1.9730  1.9110  1.9620 -17.062  1.9730  1.9110  1.9620  1.5800  5615.3  142.00  26.056  46.332  51.186 
  5616.500 -27.364  1.9830  1.9110  1.9690 -17.672  1.9830  1.9110  1.9690  1.5825  5615.8  142.00  26.045  46.341  51.184 
  5617.000 -27.836  1.9680  1.9100  1.9680 -18.135  1.9680  1.9100  1.9680  1.5850  5616.3  142.00  26.034  46.349  51.183 
  5617.500 -28.635  1.9530  1.9100  1.9600 -18.926  1.9530  1.9100  1.9600  1.5875  5616.8  142.00  26.023  46.358  51.181 
  5618.000 -29.542  1.9090  1.9020  1.9530 -19.824  1.9090  1.9020  1.9530  1.5900  5617.3  142.00  26.012  46.366  51.179 
  5618.500 -30.159  1.8800  1.8950  1.9450 -20.433  1.8800  1.8950  1.9450  1.5925  5617.8  142.00  26.001  46.375  51.178 
  5619.000 -30.126  1.8440  1.8940  1.9440 -20.391  1.8440  1.8940  1.9440  1.5950  5618.3  142.00  25.990  46.383  51.176 
  5619.500 -29.513  1.8290  1.8930  1.9440 -19.769  1.8290  1.8930  1.9440  1.5975  5618.8  142.00  25.979  46.392  51.174 
  5620.000 -29.190  1.8140  1.8890  1.9430 -19.438  1.8140  1.8890  1.9430  1.6000  5619.3  142.00  25.968  46.401  51.173 
  5620.500 -28.686  1.7990  1.8850  1.9500 -18.925  1.7990  1.8850  1.9500  1.6025  5619.8  142.00  25.957  46.409  51.171 
  5621.000 -28.580  1.7770  1.8780  1.9500 -18.811  1.7770  1.8780  1.9500  1.6050  5620.3  142.00  25.946  46.418  51.169 
  5621.500 -29.414  1.7550  1.8700  1.9560 -19.636  1.7550  1.8700  1.9560  1.6075  5620.8  142.00  25.935  46.426  51.167 
  5622.000 -30.032  1.7470  1.8770  1.9630 -20.246  1.7470  1.8770  1.9630  1.6100  5621.3  142.00  25.924  46.435  51.166 
  5622.500 -31.047  1.7320  1.8830  1.9700 -21.252  1.7320  1.8830  1.9700  1.6125  5621.8  142.00  25.913  46.444  51.164 
  5623.000 -31.919  1.7240  1.8830  1.9760 -22.116  1.7240  1.8830  1.9760  1.6150  5622.3  142.00  25.902  46.452  51.162 
  5623.500 -32.463  1.7170  1.8890  1.9830 -22.651  1.7170  1.8890  1.9830  1.6175  5622.8  142.00  25.891  46.461  51.161 
  5624.000 -32.249  1.7020  1.8890  1.9900 -22.428  1.7020  1.8890  1.9900  1.6200  5623.3  142.00  25.880  46.470  51.159 
  5624.500 -31.528  1.7010  1.8960  2.0000 -21.699  1.7010  1.8960  2.0000  1.6225  5623.8  142.00  25.869  46.478  51.157 
  5625.000 -31.024  1.6940  1.8990  2.0100 -21.186  1.6940  1.8990  2.0100  1.6250  5624.3  142.00  25.857  46.487  51.155 
  5625.500 -30.303  1.6860  1.9020  2.0240 -20.457  1.6860  1.9020  2.0240  1.6275  5624.8  142.00  25.846  46.496  51.154 
  5626.000 -29.690  1.6860  1.9050  2.0380 -19.835  1.6860  1.9050  2.0380  1.6300  5625.3  142.00  25.835  46.505  51.152 
  5626.500 -29.367  1.6850  1.9080  2.0370 -19.504  1.6850  1.9080  2.0370  1.6325  5625.8  142.00  25.824  46.513  51.150 
  5627.000 -29.007  1.6850  1.9150  2.0410 -19.135  1.6850  1.9150  2.0410  1.6350  5626.3  142.00  25.813  46.522  51.148 
  5627.500 -28.684  1.6840  1.9220  2.0440 -18.804  1.6840  1.9220  2.0440  1.6375  5626.8  142.00  25.801  46.531  51.147 
  5628.000 -28.542  1.6870  1.9350  2.0650 -18.653  1.6870  1.9350  2.0650  1.6400  5627.3  142.00  25.790  46.540  51.145 
  5628.500 -28.147  1.6900  1.9420  2.0680 -18.250  1.6900  1.9420  2.0680  1.6425  5627.8  142.00  25.779  46.549  51.143 
  5629.000 -27.932  1.6900  1.9410  2.0710 -18.026  1.6900  1.9410  2.0710  1.6450  5628.3  142.00  25.767  46.558  51.141 
  5629.500 -27.718  1.6890  1.9410  2.0780 -17.803  1.6890  1.9410  2.0780  1.6475  5628.8  142.00  25.756  46.566  51.140 
  5630.000 -27.793  1.6890  1.9480  2.0840 -17.870  1.6890  1.9480  2.0840  1.6500  5629.3  142.00  25.745  46.575  51.138 
  5630.500 -28.012  1.6880  1.9440  2.0910 -18.080  1.6880  1.9440  2.0910  1.6525  5629.8  142.00  25.733  46.584  51.136 
  5631.000 -28.159  1.6840  1.9400  2.1010 -18.219  1.6840  1.9400  2.1010  1.6550  5630.3  142.00  25.722  46.593  51.134 
  5631.500 -28.487  1.6800  1.9320  2.1120 -18.538  1.6800  1.9320  2.1120  1.6575  5630.8  142.00  25.711  46.602  51.133 
  5632.000 -28.996  1.6830  1.9310  2.1180 -19.039  1.6830  1.9310  2.1180  1.6600  5631.3  142.00  25.699  46.611  51.131 
  5632.500 -29.759  1.6860  1.9310  2.1210 -19.793  1.6860  1.9310  2.1210  1.6625  5631.8  142.00  25.688  46.620  51.129 
  5633.000 -30.521  1.6780  1.9230  2.1250 -20.547  1.6780  1.9230  2.1250  1.6650  5632.3  142.00  25.676  46.629  51.127 
  5633.500 -31.536  1.6710  1.9230  2.1310 -21.553  1.6710  1.9230  2.1310  1.6675  5632.8  142.00  25.665  46.638  51.126 
  5634.000 -32.588  1.6700  1.9220  2.1380 -22.597  1.6700  1.9220  2.1380  1.6700  5633.3  142.00  25.653  46.647  51.124 
  5634.500 -33.531  1.6700  1.9210  2.1450 -23.531  1.6700  1.9210  2.1450  1.6725  5633.8  142.00  25.642  46.656  51.122 
  5635.000 -32.846  1.6690  1.9140  2.1510 -22.837  1.6690  1.9140  2.1510  1.6750  5634.3  142.00  25.630  46.665  51.120 
  5635.500 -32.270  1.6690  1.9200  2.1580 -22.253  1.6690  1.9200  2.1580  1.6775  5634.8  142.00  25.619  46.674  51.118 
  5636.000 -31.006  1.6690  1.9130  2.1570 -20.980  1.6690  1.9130  2.1570  1.6800  5635.3  142.00  25.607  46.683  51.117 
  5636.500 -29.598  1.6680  1.9120  2.1570 -19.564  1.6680  1.9120  2.1570  1.6825  5635.8  142.00  25.596  46.692  51.115 
  5637.000 -28.117  1.6740  1.9160  2.1560 -18.074  1.6740  1.9160  2.1560  1.6850  5636.3  142.00  25.584  46.701  51.113 
  5637.500 -26.636  1.6780  1.9190  2.1560 -16.585  1.6780  1.9190  2.1560  1.6875  5636.8  142.00  25.572  46.710  51.111 
  5638.000 -25.082  1.6810  1.9250  2.1520 -15.022  1.6810  1.9250  2.1520  1.6900  5637.3  142.00  25.561  46.719  51.109 
  5638.500 -23.674  1.6950  1.9250  2.1480 -13.606  1.6950  1.9250  2.1480  1.6925  5637.8  142.00  25.549  46.728  51.108 
  5639.000 -22.265  1.7080  1.9240  2.1440 -12.188  1.7080  1.9240  2.1440  1.6950  5638.3  142.00  25.538  46.737  51.106 
  5639.500 -21.471  1.7150  1.9200  2.1400 -11.386  1.7150  1.9200  2.1400  1.6975  5638.8  142.00  25.526  46.746  51.104 
  5640.000 -20.678  1.7250  1.9160  2.1390 -10.584  1.7250  1.9160  2.1390  1.7000  5639.3  142.00  25.514  46.755  51.102 
  5640.500 -20.138  1.7360  1.9080  2.1380 -10.035  1.7360  1.9080  2.1380  1.7025  5639.8  142.00  25.503  46.764  51.100 
  5641.000 -19.634  1.7570  1.9010  2.1380 -9.5229  1.7570  1.9010  2.1380  1.7050  5640.3  142.00  25.491  46.774  51.099 
  5641.500 -20.505  1.7710  1.8860  2.1410 -10.385  1.7710  1.8860  2.1410  1.7075  5640.8  142.00  25.479  46.783  51.097 
  5642.000 -20.507  1.7990  1.8780  2.1440 -10.379  1.7990  1.8780  2.1440  1.7100  5641.3  142.00  25.467  46.792  51.095 
  5642.500 -20.329  1.8130  1.8700  2.1470 -10.192  1.8130  1.8700  2.1470  1.7125  5641.8  142.00  25.456  46.801  51.093 
  5643.000 -20.186  1.8550  1.8700  2.1510 -10.041  1.8550  1.8700  2.1510  1.7150  5642.3  142.00  25.444  46.810  51.091 
  5643.500 -19.936  1.8620  1.8620  2.1570 -9.7822  1.8620  1.8620  2.1570  1.7175  5642.8  142.00  25.432  46.820  51.090 
  5644.000 -19.685  1.8830  1.8620  2.1570 -9.5226  1.8830  1.8620  2.1570  1.7200  5643.3  142.00  25.420  46.829  51.088 
  5644.500 -19.488  1.8970  1.8580  2.1700 -9.3171  1.8970  1.8580  2.1700  1.7225  5643.8  142.00  25.408  46.838  51.086 
  5645.000 -19.291  1.9180  1.8540  2.1700 -9.1115  1.9180  1.8540  2.1700  1.7250  5644.3  142.00  25.396  46.847  51.084 
  5645.500 -19.094  1.9250  1.8380  2.1770 -8.9060  1.9250  1.8380  2.1770  1.7275  5644.8  142.00  25.384  46.857  51.082 
  5646.000 -18.898  1.9320  1.8310  2.1760 -8.7014  1.9320  1.8310  2.1760  1.7300  5645.3  142.00  25.373  46.866  51.080 
  5646.500 -18.793  1.9380  1.8300  2.1610 -8.5879  1.9380  1.8300  2.1610  1.7325  5645.8  142.00  25.361  46.875  51.079 
  5647.000 -18.868  1.9230  1.8220  2.1390 -8.6543  1.9230  1.8220  2.1390  1.7350  5646.3  142.00  25.349  46.885  51.077 
