~Version Information
VERS.                     2.0: CWLS log ASCII Standard Version 2.00
WRAP.                      NO: One line per depth step
~Well Information Block
#MNEM.UNIT                               Data Type  Information
#---------                               ---------  -----------
STRT.FT                                   350.0000:
STOP.FT                                  6970.0000:
STEP.FT                                     0.5000:
NULL.                 -999.25                     :
COMP.                                             :COMPANY            
WELL.     SAN EMIDIO A #76-19                     :WELL               
FLD .                                             :FIELD              
CTRY.                                             :COUNTRY            
STAT.                                             :STATE              
LOC .                                             :LOCATION           
UWI .                                             :UNIQUE WELL ID     
SRVC.                                             :Service company    
DATE.                                             :LOG DATE           
~Curve Information
#MNEM.UNIT           API CODE  Curve Description
#---------           --------  -----------------
DEPT.FT                      :   1 DEPTH
SP  .MV                      :   2
AM16.OHMM                    :   3
AO10.OHMM                    :   4
AO19.OHMM                    :   5
SBL .MV                      :   6
RS  .OHMM                    :   7
RM  .OHMM                    :   8
RD  .OHMM                    :   9
DEVI.DEG                     :  10
TVD .FT                      :  11
AZIM.DEG                     :  12
NORT.FT                      :  13
EAST.FT                      :  14
OFFS.FT                      :  15
~A
# ...
  2560.000 -62.240  17.177  11.495  13.138 -45.802  17.177  11.495  13.138  0.2667  2559.9  96.403  10.356  11.030  15.122 
  2560.500 -61.562  17.393  12.077  13.138 -45.126  17.393  12.077  13.138  0.2675  2560.4  96.573  10.355  11.032  15.123 
  2561.000 -60.954  17.622  13.436  13.138 -44.520  17.622  13.436  13.138  0.2683  2560.9  96.743  10.355  11.034  15.125 
  2561.500 -60.596  17.708  13.982  13.122 -44.164  17.708  13.982  13.122  0.2692  2561.4  96.913  10.355  11.037  15.126 
  2562.000 -60.237  17.751  14.629  13.108 -43.807  17.751  14.629  13.108  0.2700  2561.9  97.083  10.354  11.039  15.127 
  2562.500 -59.200  17.463  15.183  13.093 -42.772  17.463  15.183  13.093  0.2708  2562.4  97.253  10.354  11.041  15.129 
  2563.000 -58.410  16.549  15.664  13.056 -41.984  16.549  15.664  13.056  0.2717  2562.9  97.423  10.354  11.044  15.130 
  2563.500 -57.586  15.656  16.160  12.962 -41.162  15.656  16.160  12.962  0.2725  2563.4  97.593  10.354  11.046  15.132 
  2564.000 -55.972  15.159  16.900  12.868 -39.551  15.159  16.900  12.868  0.2733  2563.9  97.763  10.353  11.048  15.133 
  2564.500 -55.183  14.670  17.382  12.760 -38.764  14.670  17.382  12.760  0.2742  2564.4  97.933  10.353  11.051  15.135 
  2565.000 -53.818  14.166  17.568  12.443 -37.401  14.166  17.568  12.443  0.2750  2564.9  98.103  10.353  11.053  15.136 
  2565.500 -52.634  13.115  17.431  11.817 -36.219  13.115  17.431  11.817  0.2758  2565.4  98.273  10.352  11.056  15.138 
  2566.000 -51.487  12.597  16.920  11.090 -35.074  12.597  16.920  11.090  0.2767  2565.9  98.443  10.352  11.058  15.139 
  2566.500 -51.812  12.409  15.725  10.248 -35.401  12.409  15.725  10.248  0.2775  2566.4  98.613  10.352  11.060  15.140 
  2567.000 -53.433  12.337  14.674  9.7720 -37.024  12.337  14.674  9.7720  0.2783  2566.9  98.783  10.351  11.063  15.142 
  2567.500 -54.083  12.300  14.134  9.3480 -37.676  12.300  14.134  9.3480  0.2792  2567.4  98.953  10.351  11.065  15.143 
  2568.000 -54.769  12.264  13.616  9.0090 -38.364  12.264  13.616  9.0090  0.2800  2567.9  99.123  10.350  11.068  15.145 
  2568.500 -54.736  12.198  13.529  8.9220 -38.333  12.198  13.529  8.9220  0.2808  2568.4  99.293  10.350  11.070  15.146 
  2569.000 -54.271  12.155  13.543  9.0940 -37.871  12.155  13.543  9.0940  0.2817  2568.9  99.463  10.350  11.072  15.148 
  2569.500 -53.446  12.104  13.701  9.2090 -37.048  12.104  13.701  9.2090  0.2825  2569.4  99.633  10.349  11.075  15.149 
  2570.000 -52.334  11.773  14.096  9.4310 -35.938  11.773  14.096  9.4310  0.2833  2569.9  99.803  10.349  11.077  15.150 
  2570.500 -50.971  11.010  14.693  9.7110 -34.577  11.010  14.693  9.7110  0.2842  2570.4  99.973  10.348  11.080  15.152 
  2571.000 -48.708  9.8080  15.102  10.164 -32.316  9.8080  15.102  10.164  0.2850  2570.9  100.14  10.348  11.082  15.153 
  2571.500 -44.863  8.7210  15.274  10.473 -28.473  8.7210  15.274  10.473  0.2858  2571.4  100.31  10.347  11.085  15.155 
  2572.000 -41.522  7.9440  15.194  10.645 -25.134  7.9440  15.194  10.645  0.2867  2571.9  100.48  10.347  11.087  15.156 
  2572.500 -23.295  7.3030  14.942  10.659 -6.9093  7.3030  14.942  10.659  0.2875  2572.4  100.65  10.347  11.090  15.158 
  2573.000 -20.348  6.6990  14.136  10.450 -3.9644  6.6990  14.136  10.450  0.2883  2572.9  100.82  10.346  11.092  15.159 
  2573.500 -18.913  6.3100  13.035  10.090 -2.5315  6.3100  13.035  10.090  0.2892  2573.4  100.99  10.346  11.094  15.160 
  2574.000 -17.693  5.8060  12.279  8.9600 -1.3137  5.8060  12.279  8.9600  0.2900  2573.9  101.16  10.345  11.097  15.162 
  2574.500 -17.731  5.7760  9.6100  8.3260 -1.3538  5.7760  9.6100  8.3260  0.2908  2574.4  101.33  10.345  11.099  15.163 
  2575.000 -19.136  5.7540  8.5020  8.2110 -2.7609  5.7540  8.5020  8.2110  0.2917  2574.9  101.50  10.344  11.102  15.165 
  2575.500 -19.894  5.6030  7.9550  8.0380 -3.5210  5.6030  7.9550  8.0380  0.2925  2575.4  101.67  10.344  11.104  15.166 
  2576.000 -18.963  5.3790  7.6450  7.4980 -2.5921  5.3790  7.6450  7.4980  0.2933  2575.9  101.84  10.343  11.107  15.167 
  2576.500 -18.713  5.3640  7.3570  7.4540 -2.3442  5.3640  7.3570  7.4540  0.2942  2576.4  102.01  10.342  11.109  15.169 
  2577.000 -18.680  5.3930  7.2560  7.7050 -2.3133  5.3930  7.2560  7.7050  0.2950  2576.9  102.18  10.342  11.112  15.170 
  2577.500 -18.863  5.5360  7.2340  8.0210 -2.4984  5.5360  7.2340  8.0210  0.2958  2577.4  102.35  10.341  11.114  15.172 
  2578.000 -19.260  5.6070  7.2980  8.2220 -2.8975  5.6070  7.2980  8.2220  0.2967  2577.9  102.52  10.341  11.117  15.173 
  2578.500 -20.017  5.8160  7.3760  8.5160 -3.6566  5.8160  7.3760  8.5160  0.2975  2578.4  102.69  10.340  11.120  15.174 
  2579.000 -21.746  6.0020  7.5200  8.8760 -5.3877  6.0020  7.5200  8.8760  0.2983  2578.9  102.86  10.340  11.122  15.176 
  2579.500 -24.590  6.3320  7.6850  9.1990 -8.2338  6.3320  7.6850  9.1990  0.2992  2579.4  103.03  10.339  11.125  15.177 
  2580.000 -28.511  7.4250  7.9570  9.5870 -12.157  7.4250  7.9570  9.5870  0.3000  2579.9  103.20  10.338  11.127  15.179 
  2580.500 -35.094  8.5760  8.2020  10.241 -18.742  8.5760  8.2020  10.241  0.3008  2580.4  103.37  10.338  11.130  15.180 
  2581.000 -37.542  9.2580  8.5250  10.722 -21.192  9.2580  8.5250  10.722  0.3017  2580.9  103.54  10.337  11.132  15.181 
  2581.500 -39.127  9.8330  9.1500  11.369 -22.779  9.8330  9.1500  11.369  0.3025  2581.4  103.71  10.337  11.135  15.183 
  2582.000 -40.676  10.912  9.8830  11.786 -24.330  10.912  9.8830  11.786  0.3033  2581.9  103.88  10.336  11.137  15.184 
  2582.500 -41.650  11.890  10.300  12.310 -25.306  11.890  10.300  12.310  0.3042  2582.4  104.05  10.335  11.140  15.185 
  2583.000 -42.695  12.486  10.522  12.806 -26.354  12.486  10.522  12.806  0.3050  2582.9  104.22  10.335  11.143  15.187 
  2583.500 -43.164  12.917  10.637  13.180 -26.825  12.917  10.637  13.180  0.3058  2583.4  104.39  10.334  11.145  15.188 
  2584.000 -43.490  13.283  10.694  13.560 -27.153  13.283  10.694  13.560  0.3067  2583.9  104.56  10.333  11.148  15.189 
  2584.500 -43.601  13.571  10.686  13.905 -27.266  13.571  10.686  13.905  0.3075  2584.4  104.73  10.333  11.150  15.191 
  2585.000 -43.496  13.736  10.585  14.185 -27.163  13.736  10.585  14.185  0.3083  2584.9  104.90  10.332  11.153  15.192 
  2585.500 -43.031  13.785  10.405  14.328 -26.700  13.785  10.405  14.328  0.3092  2585.4  105.07  10.331  11.156  15.193 
  2586.000 -42.495  13.742  10.153  14.378 -26.166  13.742  10.153  14.378  0.3100  2585.9  105.24  10.331  11.158  15.195 
  2586.500 -41.958  13.612  9.9070  14.407 -25.631  13.612  9.9070  14.407  0.3108  2586.4  105.41  10.330  11.161  15.196 
  2587.000 -41.314  13.482  9.5690  14.349 -24.989  13.482  9.5690  14.349  0.3117  2586.9  105.58  10.329  11.163  15.198 
  2587.500 -41.064  13.280  9.3170  14.067 -24.742  13.280  9.3170  14.067  0.3125  2587.4  105.75  10.328  11.166  15.199 
  2588.000 -40.491  13.171  9.0500  13.844 -24.171  13.171  9.0500  13.844  0.3133  2587.9  105.92  10.328  11.169  15.200 
  2588.500 -39.848  13.099  8.8840  13.606 -23.530  13.099  8.8840  13.606  0.3142  2588.4  106.09  10.327  11.171  15.201 
  2589.000 -39.669  13.048  8.7970  13.462 -23.353  13.048  8.7970  13.462  0.3150  2588.9  106.26  10.326  11.174  15.203 
  2589.500 -39.636  13.033  8.7100  13.224 -23.322  13.033  8.7100  13.224  0.3158  2589.4  106.43  10.325  11.177  15.204 
  2590.000 -39.998  13.040  8.6960  13.115 -23.686  13.040  8.6960  13.115  0.3167  2589.9  106.60  10.325  11.179  15.205 
  2590.500 -40.756  13.119  8.8030  13.043 -24.446  13.119  8.8030  13.043  0.3175  2590.4  106.77  10.324  11.182  15.207 
  2591.000 -42.305  13.197  8.9390  12.992 -25.997  13.197  8.9390  12.992  0.3183  2590.9  106.94  10.323  11.185  15.208 
  2591.500 -43.602  13.254  9.4640  13.092 -27.296  13.254  9.4640  13.092  0.3192  2591.4  107.11  10.322  11.187  15.209 
  2592.000 -45.151  13.455  10.154  13.351 -28.848  13.455  10.154  13.351  0.3200  2591.9  107.28  10.321  11.190  15.211 
