~Version Information
VERS.                     2.0: CWLS log ASCII Standard Version 2.00
WRAP.                      NO: One line per depth step
~Well Information Block
#MNEM.UNIT                               Data Type  Information
#---------                               ---------  -----------
STRT.FT                                   350.0000:
STOP.FT                                  6970.0000:
STEP.FT                                     0.5000:
NULL.                 -999.25                     :
COMP.                                             :COMPANY            
WELL.     SAN EMIDIO A #76-19                     :WELL               
FLD .                                             :FIELD              
CTRY.                                             :COUNTRY            
STAT.                                             :STATE              
LOC .                                             :LOCATION           
UWI .                                             :UNIQUE WELL ID     
SRVC.                                             :Service company    
DATE.                                             :LOG DATE           
~Curve Information
#MNEM.UNIT           API CODE  Curve Description
#---------           --------  -----------------
DEPT.FT                      :   1 DEPTH
SP  .MV                      :   2
AM16.OHMM                    :   3
AO10.OHMM                    :   4
AO19.OHMM                    :   5
SBL .MV                      :   6
RS  .OHMM                    :   7
RM  .OHMM                    :   8
RD  .OHMM                    :   9
DEVI.DEG                     :  10
TVD .FT                      :  11
AZIM.DEG                     :  12
NORT.FT                      :  13
EAST.FT                      :  14
OFFS.FT                      :  15
~A
# ...
  1682.500 -60.525  17.203 -999.25  24.395 -40.388  17.203 -999.25  24.395  0.1959  1682.4  26.102  9.1551  7.8609  12.032 
  1683.000 -60.524  17.225  19.991  23.973 -40.389  17.225  19.991  23.973  0.1950  1682.9  26.642  9.1566  7.8617  12.034 
  1683.500 -60.596  17.239 -999.25  23.551 -40.463  17.239 -999.25  23.551  0.1942  1683.4  27.182  9.1581  7.8625  12.035 
  1684.000 -61.425  17.254 -999.25  23.129 -41.294  17.254 -999.25  23.129  0.1934  1683.9  27.722  9.1596  7.8633  12.037 
  1684.500 -61.821  17.225 -999.25  22.707 -41.692  17.225 -999.25  22.707  0.1925  1684.4  28.262  9.1611  7.8641  12.039 
  1685.000 -61.784  17.067  22.443  22.285 -41.658  17.067  22.443  22.285  0.1917  1684.9  28.802  9.1625  7.8649  12.040 
  1685.500 -61.243  16.815  23.019  21.863 -41.119  16.815  23.019  21.863  0.1909  1685.4  29.342  9.1640  7.8657  12.042 
  1686.000 -59.980  16.017  23.453  21.441 -39.858  16.017  23.453  21.441  0.1900  1685.9  29.882  9.1654  7.8665  12.043 
  1686.500 -58.645  15.326  23.814  21.019 -38.525  15.326  23.814  21.019  0.1892  1686.4  30.422  9.1668  7.8673  12.045 
  1687.000 -56.517  13.693  24.032  20.597 -36.399  13.693  24.032  20.597  0.1884  1686.9  30.962  9.1682  7.8682  12.047 
  1687.500 -53.596  9.9150  24.392  20.175 -33.480  9.9150  24.392  20.175  0.1875  1687.4  31.502  9.1696  7.8691  12.048 
  1688.000 -49.882  8.6420  24.466  19.753 -29.768  8.6420  24.466  19.753  0.1867  1687.9  32.042  9.1710  7.8699  12.050 
  1688.500 -47.718  7.5480 -999.25  17.904 -27.606  7.5480 -999.25  17.904  0.1859  1688.4  32.582  9.1724  7.8708  12.051 
  1689.000 -43.643  6.8000  24.686  16.314 -23.533  6.8000  24.686  16.314  0.1850  1688.9  33.122  9.1737  7.8717  12.053 
  1689.500 -38.666  6.3690  25.190  12.744 -18.559  6.3690  25.190  12.744  0.1842  1689.4  33.662  9.1751  7.8726  12.055 
  1690.000 -33.581  5.8940  25.695  10.528 -13.476  5.8940  25.695  10.528  0.1834  1689.9  34.202  9.1764  7.8735  12.056 
  1690.500 -31.345  5.5850  26.128  9.6140 -11.242  5.5850  26.128  9.6140  0.1825  1690.4  34.742  9.1777  7.8744  12.058 
  1691.000 -30.047  5.4410  26.417  8.8230 -9.9458  5.4410  26.417  8.8230  0.1817  1690.9  35.282  9.1790  7.8753  12.059 
  1691.500 -29.974  5.4050  26.850  8.4480 -9.8749  5.4050  26.850  8.4480  0.1809  1691.4  35.822  9.1803  7.8762  12.061 
  1692.000 -29.757  5.4840  27.212  8.3760 -9.6601  5.4840  27.212  8.3760  0.1800  1691.9  36.362  9.1816  7.8771  12.062 
  1692.500 -29.540  5.5560  27.860  8.5490 -9.4452  5.5560  27.860  8.5490  0.1792  1692.4  36.902  9.1828  7.8781  12.064 
  1693.000 -29.251  5.6360  28.869  8.7860 -9.1583  5.6360  28.869  8.7860  0.1784  1692.9  37.442  9.1840  7.8790  12.065 
  1693.500 -28.998  5.8520  29.591  9.0380 -8.9074  5.8520  29.591  9.0380  0.1775  1693.4  37.982  9.1853  7.8800  12.067 
  1694.000 -28.853  6.2550  30.168  9.3910 -8.7645  6.2550  30.168  9.3910  0.1767  1693.9  38.522  9.1865  7.8809  12.068 
  1694.500 -29.033  6.6150  30.816  9.9590 -8.9466  6.6150  30.816  9.9590  0.1759  1694.4  39.062  9.1877  7.8819  12.070 
  1695.000 -30.439  7.2910  31.178  10.247 -10.355  7.2910  31.178  10.247  0.1750  1694.9  39.602  9.1888  7.8829  12.072 
  1695.500 -31.484  8.0320  31.323  10.672 -11.402  8.0320  31.323  10.672  0.1742  1695.4  40.142  9.1900  7.8839  12.073 
  1696.000 -33.827  8.5510  31.325  11.356 -13.747  8.5510  31.325  11.356  0.1734  1695.9  40.682  9.1911  7.8848  12.075 
  1696.500 -37.793  9.2420  30.966  11.967 -17.715  9.2420  30.966  11.967  0.1725  1696.4  41.222  9.1923  7.8858  12.076 
  1697.000 -42.480  9.9690  30.249  12.514 -22.404  9.9690  30.249  12.514  0.1717  1696.9  41.762  9.1934  7.8868  12.078 
  1697.500 -45.400  11.530  28.739  13.270 -25.326  11.530  28.739  13.270  0.1709  1697.4  42.302  9.1945  7.8878  12.079 
  1698.000 -49.979  12.099  27.949  13.716 -29.907  12.099  27.949  13.716  0.1700  1697.9  42.842  9.1956  7.8888  12.081 
  1698.500 -54.017  12.984  27.158  14.284 -33.947  12.984  27.158  14.284  0.1692  1698.4  43.382  9.1967  7.8899  12.082 
  1699.000 -57.045  13.919  27.160  14.723 -36.978  13.919  27.160  14.723  0.1684  1698.9  43.922  9.1977  7.8909  12.083 
  1699.500 -58.811  14.927  19.957  15.170 -38.746  14.927  19.957  15.170  0.1675  1699.4  44.462  9.1988  7.8919  12.085 
  1700.000 -60.289  15.460  18.395  15.537 -40.226  15.460  18.395  15.537  0.1667  1699.9  45.002  9.1998  7.8929  12.086 
  1700.500 -60.830  15.856  14.891  15.767 -40.769  15.856  14.891  15.767  0.1663  1700.4  44.777  9.2008  7.8940  12.088 
  1701.000 -61.514  16.107  13.891  16.047 -41.455  16.107  13.891  16.047  0.1659  1700.9  44.552  9.2019  7.8950  12.089 
  1701.500 -61.658  16.180  11.416  16.242 -41.601  16.180  11.416  16.242  0.1655  1701.4  44.327  9.2029  7.8960  12.091 
  1702.000 -60.576  16.129  11.395  16.371 -40.521  16.129  11.395  16.371  0.1650  1701.9  44.102  9.2039  7.8970  12.092 
  1702.500 -58.952  15.914 -999.25  16.472 -38.899  15.914 -999.25  16.472  0.1646  1702.4  43.877  9.2050  7.8980  12.094 
  1703.000 -57.077  15.532  11.359  16.529 -37.026  15.532  11.359  16.529  0.1642  1702.9  43.652  9.2060  7.8990  12.095 
  1703.500 -55.021  14.907  11.345  16.565 -34.973  14.907  11.345  16.565  0.1638  1703.4  43.427  9.2070  7.9000  12.096 
  1704.000 -52.965  13.871  11.345  16.529 -32.919  13.871  11.345  16.529  0.1634  1703.9  43.202  9.2081  7.9009  12.098 
  1704.500 -50.368  12.799  11.331  16.227 -30.324  12.799  11.331  16.227  0.1630  1704.4  42.977  9.2091  7.9019  12.099 
  1705.000 -47.051  11.482  11.316  15.536 -27.009  11.482  11.316  15.536  0.1625  1704.9  42.752  9.2101  7.9029  12.101 
  1705.500 -44.382  9.9060  11.173  14.672 -24.342  9.9060  11.173  14.672  0.1621  1705.4  42.527  9.2112  7.9038  12.102 
  1706.000 -42.470  9.1220  10.914  13.967 -22.432  9.1220  10.914  13.967  0.1617  1705.9  42.302  9.2122  7.9048  12.104 
  1706.500 -39.982  8.5680  10.367  13.168 -19.946  8.5680  10.367  13.168  0.1613  1706.4  42.077  9.2133  7.9057  12.105 
  1707.000 -36.375  8.1370  9.6550  11.837 -16.341  8.1370  9.6550  11.837  0.1609  1706.9  41.852  9.2143  7.9066  12.106 
  1707.500 -33.094  7.7990  8.6910  11.103 -13.062  7.7990  8.6910  11.103  0.1605  1707.4  41.627  9.2154  7.9076  12.108 
  1708.000 -31.290  7.5760  8.1300  10.520 -11.260  7.5760  8.1300  10.520  0.1600  1707.9  41.402  9.2164  7.9085  12.109 
  1708.500 -30.028  7.4100  7.8560  9.9220 -10.001  7.4100  7.8560  9.9220  0.1596  1708.4  41.177  9.2175  7.9094  12.111 
  1709.000 -29.739  7.2590  7.6690  9.2390 -9.7137  7.2590  7.6690  9.2390  0.1592  1708.9  40.952  9.2185  7.9103  12.112 
  1709.500 -30.063  7.2380  7.5470  8.6120 -10.040  7.2380  7.5470  8.6120  0.1588  1709.4  40.727  9.2196  7.9112  12.113 
  1710.000 -30.170  7.5330  7.7420  8.4400 -10.149  7.5330  7.7420  8.4400  0.1584  1709.9  40.502  9.2206  7.9121  12.115 
  1710.500 -30.134  7.7920  8.1230  8.4040 -10.115  7.7920  8.1230  8.4040  0.1580  1710.4  40.277  9.2217  7.9130  12.116 
  1711.000 -30.169  8.1740  8.4040  8.5620 -10.152  8.1740  8.4040  8.5620  0.1575  1710.9  40.052  9.2227  7.9139  12.117 
  1711.500 -30.277  8.4980  8.7210  8.7420 -10.262  8.4980  8.7210  8.7420  0.1571  1711.4  39.827  9.2238  7.9148  12.119 
  1712.000 -30.817  8.8720  9.0950  8.9000 -10.804  8.8720  9.0950  8.9000  0.1567  1711.9  39.602  9.2248  7.9157  12.120 
  1712.500 -31.934  9.4480  9.6130  9.2600 -11.923  9.4480  9.6130  9.2600  0.1563  1712.4  39.377  9.2259  7.9165  12.122 
  1713.000 -33.412  10.203  10.808  9.7350 -13.404  10.203  10.808  9.7350  0.1559  1712.9  39.152  9.2269  7.9174  12.123 
  1713.500 -36.332  11.168  11.297  10.159 -16.326  11.168  11.297  10.159  0.1555  1713.4  38.927  9.2280  7.9182  12.124 
  1714.000 -39.685  11.657  11.887  10.756 -19.681  11.657  11.887  10.756  0.1550  1713.9  38.702  9.2290  7.9191  12.126 
  1714.500 -42.822  12.427  12.629  11.159 -22.820  12.427  12.629  11.159  0.1546  1714.4  38.477  9.2301  7.9199  12.127 
