~Version Information
VERS.                     2.0: CWLS log ASCII Standard Version 2.00
WRAP.                      NO: One line per depth step
~Well Information Block
#MNEM.UNIT                               Data Type  Information
#---------                               ---------  -----------
STRT.FT                                   350.0000:
STOP.FT                                  6970.0000:
STEP.FT                                     0.5000:
NULL.                 -999.25                     :
COMP.                                             :COMPANY            
WELL.     SAN EMIDIO A #76-19                     :WELL               
FLD .                                             :FIELD              
CTRY.                                             :COUNTRY            
STAT.                                             :STATE              
LOC .                                             :LOCATION           
UWI .                                             :UNIQUE WELL ID     
SRVC.                                             :Service company    
DATE.                                             :LOG DATE           
~Curve Information
#MNEM.UNIT           API CODE  Curve Description
#---------           --------  -----------------
DEPT.FT                      :   1 DEPTH
SP  .MV                      :   2
AM16.OHMM                    :   3
AO10.OHMM                    :   4
AO19.OHMM                    :   5
SBL .MV                      :   6
RS  .OHMM                    :   7
RM  .OHMM                    :   8
RD  .OHMM                    :   9
DEVI.DEG                     :  10
TVD .FT                      :  11
AZIM.DEG                     :  12
NORT.FT                      :  13
EAST.FT                      :  14
OFFS.FT                      :  15
~A
# ...
  5192.500 -10.554  1.7460  1.9400  1.9610 -8.1096  1.7460  1.9400  1.9610  1.5333  5192.1  115.90  35.639  36.400  50.939 
  5193.000 -11.098  1.7530  1.9610  1.9580 -8.6450  1.7530  1.9610  1.9580  1.5366  5192.6  116.04  35.633  36.412  50.944 
  5193.500 -11.603  1.7530  1.9830  1.9550 -9.1415  1.7530  1.9830  1.9550  1.5400  5193.1  116.18  35.627  36.424  50.948 
  5194.000 -11.856  1.7600  1.9910  1.9400 -9.3859  1.7600  1.9910  1.9400  1.5433  5193.6  116.32  35.621  36.436  50.952 
  5194.500 -11.495  1.7680  1.9980  1.9260 -9.0164  1.7680  1.9980  1.9260  1.5466  5194.1  116.46  35.615  36.448  50.957 
  5195.000 -11.349  1.7710  1.9910  1.9120 -8.8618  1.7710  1.9910  1.9120  1.5500  5194.6  116.60  35.609  36.460  50.961 
  5195.500 -11.132  1.7750  1.9840  1.9050 -8.6363  1.7750  1.9840  1.9050  1.5533  5195.1  116.74  35.603  36.472  50.965 
  5196.000 -10.951  1.7820  1.9770  1.8900 -8.4467  1.7820  1.9770  1.8900  1.5566  5195.6  116.88  35.597  36.485  50.969 
  5196.500 -10.841  1.7830  1.9620  1.8870 -8.3282  1.7830  1.9620  1.8870  1.5600  5196.1  117.02  35.591  36.497  50.974 
  5197.000 -10.769  1.7760  1.9550  1.8840 -8.2476  1.7760  1.9550  1.8840  1.5633  5196.6  117.16  35.585  36.509  50.978 
  5197.500 -10.840  1.7690  1.9410  1.8840 -8.3101  1.7690  1.9410  1.8840  1.5666  5197.1  117.30  35.578  36.521  50.982 
  5198.000 -10.949  1.7400  1.9200  1.8880 -8.4105  1.7400  1.9200  1.8880  1.5700  5197.6  117.44  35.572  36.533  50.986 
  5198.500 -10.948  1.7260  1.8910  1.8910 -8.4010  1.7260  1.8910  1.8910  1.5733  5198.1  117.58  35.566  36.545  50.990 
  5199.000 -11.020  1.7110  1.8550  1.8990 -8.4644  1.7110  1.8550  1.8990  1.5766  5198.6  117.72  35.559  36.557  50.994 
  5199.500 -11.056  1.7040  1.8340  1.9060 -8.4919  1.7040  1.8340  1.9060  1.5800  5199.0  117.86  35.553  36.570  50.998 
  5200.000 -11.092  1.6970  1.8050  1.9170 -8.5194  1.6970  1.8050  1.9170  1.5833  5199.5  118.00  35.546  36.582  51.002 
  5200.500 -11.164  1.6900  1.7840  1.9270 -8.5828  1.6900  1.7840  1.9270  1.5837  5200.0  118.05  35.540  36.594  51.006 
  5201.000 -11.780  1.6830  1.7550  1.9420 -9.1903  1.6830  1.7550  1.9420  1.5841  5200.5  118.09  35.533  36.606  51.010 
  5201.500 -12.178  1.6830  1.7470  1.9490 -9.5797  1.6830  1.7470  1.9490  1.5846  5201.0  118.14  35.527  36.618  51.014 
  5202.000 -12.414  1.6830  1.7330  1.9560 -9.8072  1.6830  1.7330  1.9560  1.5850  5201.5  118.18  35.520  36.631  51.018 
  5202.500 -12.650  1.6750  1.7330  1.9770 -10.035  1.6750  1.7330  1.9770  1.5854  5202.0  118.23  35.514  36.643  51.022 
  5203.000 -12.506  1.6680  1.7400  1.9840 -9.8821  1.6680  1.7400  1.9840  1.5858  5202.5  118.27  35.507  36.655  51.026 
  5203.500 -12.289  1.6680  1.7470  1.9880 -9.6565  1.6680  1.7470  1.9880  1.5862  5203.0  118.32  35.501  36.667  51.030 
  5204.000 -12.145  1.6720  1.7470  1.9920 -9.5040  1.6720  1.7470  1.9920  1.5866  5203.5  118.36  35.494  36.679  51.034 
  5204.500 -12.073  1.6750  1.7440  2.0100 -9.4234  1.6750  1.7440  2.0100  1.5871  5204.0  118.41  35.488  36.692  51.038 
  5205.000 -12.000  1.6820  1.7400  2.0270 -9.3419  1.6820  1.7400  2.0270  1.5875  5204.5  118.45  35.481  36.704  51.042 
  5205.500 -11.857  1.6900  1.7440  2.0350 -9.1903  1.6900  1.7440  2.0350  1.5879  5205.0  118.50  35.474  36.716  51.046 
  5206.000 -11.822  1.6970  1.7470  2.0420 -9.1468  1.6970  1.7470  2.0420  1.5883  5205.5  118.54  35.468  36.728  51.050 
  5206.500 -11.823  1.7040  1.7470  2.0490 -9.1392  1.7040  1.7470  2.0490  1.5887  5206.0  118.59  35.461  36.740  51.054 
  5207.000 -11.787  1.7110  1.7540  2.0560 -9.0947  1.7110  1.7540  2.0560  1.5891  5206.5  118.63  35.454  36.752  51.058 
  5207.500 -11.788  1.7180  1.7540  2.0740 -9.0871  1.7180  1.7540  2.0740  1.5896  5207.0  118.68  35.448  36.765  51.062 
  5208.000 -11.824  1.7250  1.7570  2.0920 -9.1146  1.7250  1.7570  2.0920  1.5900  5207.5  118.72  35.441  36.777  51.066 
  5208.500 -11.824  1.7320  1.7610  2.0990 -9.1061  1.7320  1.7610  2.0990  1.5904  5208.0  118.77  35.434  36.789  51.070 
  5209.000 -11.897  1.7390  1.7680  2.1060 -9.1705  1.7390  1.7680  2.1060  1.5908  5208.5  118.81  35.428  36.801  51.073 
  5209.500 -12.006  1.7470  1.7680  2.1170 -9.2710  1.7470  1.7680  2.1170  1.5912  5209.0  118.86  35.421  36.813  51.077 
  5210.000 -12.080  1.7540  1.7640  2.1280 -9.3364  1.7540  1.7640  2.1280  1.5917  5209.5  118.90  35.414  36.825  51.081 
  5210.500 -12.117  1.7680  1.7610  2.1420 -9.3649  1.7680  1.7610  2.1420  1.5921  5210.0  118.95  35.408  36.838  51.085 
  5211.000 -12.152  1.7600  1.7460  2.1490 -9.3913  1.7600  1.7460  2.1490  1.5925  5210.5  118.99  35.401  36.850  51.089 
  5211.500 -12.188  1.7570  1.7350  2.1560 -9.4188  1.7570  1.7350  2.1560  1.5929  5211.0  119.04  35.394  36.862  51.093 
  5212.000 -12.371  1.7530  1.7250  2.1630 -9.5932  1.7530  1.7250  2.1630  1.5933  5211.5  119.08  35.387  36.874  51.096 
  5212.500 -12.462  1.7240  1.6960  2.1270 -9.6757  1.7240  1.6960  2.1270  1.5937  5212.0  119.13  35.381  36.886  51.100 
  5213.000 -12.553  1.7170  1.6810  2.0840 -9.7581  1.7170  1.6810  2.0840  1.5942  5212.5  119.17  35.374  36.898  51.104 
  5213.500 -12.698  1.6810  1.6670  2.0550 -9.8946  1.6810  1.6670  2.0550  1.5946  5213.0  119.22  35.367  36.910  51.108 
  5214.000 -12.844  1.6670  1.6420  2.0330 -10.032  1.6670  1.6420  2.0330  1.5950  5213.5  119.26  35.360  36.923  51.112 
  5214.500 -12.988  1.6450  1.6160  2.0050 -10.167  1.6450  1.6160  2.0050  1.5954  5214.0  119.31  35.353  36.935  51.115 
  5215.000 -13.097  1.6340  1.5870  1.9970 -10.268  1.6340  1.5870  1.9970  1.5958  5214.5  119.35  35.347  36.947  51.119 
  5215.500 -13.205  1.6230  1.5660  1.9830 -10.367  1.6230  1.5660  1.9830  1.5962  5215.0  119.40  35.340  36.959  51.123 
  5216.000 -13.497  1.5940  1.5580  1.9760 -10.651  1.5940  1.5580  1.9760  1.5967  5215.5  119.44  35.333  36.971  51.127 
  5216.500 -13.679  1.5800  1.5440  1.9750 -10.824  1.5800  1.5440  1.9750  1.5971  5216.0  119.49  35.326  36.983  51.130 
  5217.000 -13.679  1.5760  1.5480  1.9750 -10.816  1.5760  1.5480  1.9750  1.5975  5216.5  119.53  35.319  36.995  51.134 
  5217.500 -13.607  1.5730  1.5510  1.9830 -10.735  1.5730  1.5510  1.9830  1.5979  5217.0  119.58  35.312  37.007  51.138 
  5218.000 -13.535  1.5580  1.5510  1.9900 -10.655  1.5580  1.5510  1.9900  1.5983  5217.5  119.62  35.305  37.020  51.141 
  5218.500 -13.355  1.5540  1.5580  1.9970 -10.466  1.5540  1.5580  1.9970  1.5987  5218.0  119.67  35.298  37.032  51.145 
  5219.000 -13.247  1.5510  1.5580  1.9890 -10.350  1.5510  1.5580  1.9890  1.5992  5218.5  119.71  35.292  37.044  51.149 
  5219.500 -13.175  1.5580  1.5650  1.9890 -10.269  1.5580  1.5650  1.9890  1.5996  5219.0  119.76  35.285  37.056  51.153 
  5220.000 -13.067  1.5580  1.5720  1.9820 -10.152  1.5580  1.5720  1.9820  1.6000  5219.5  119.80  35.278  37.068  51.156 
  5220.500 -13.032  1.5580  1.5650  1.9610 -10.109  1.5580  1.5650  1.9610  1.6004  5220.0  119.85  35.271  37.080  51.160 
  5221.000 -13.032  1.5610  1.5650  1.9460 -10.100  1.5610  1.5650  1.9460  1.6008  5220.5  119.89  35.264  37.092  51.163 
  5221.500 -12.996  1.5650  1.5650  1.9320 -10.056  1.5650  1.5650  1.9320  1.6012  5221.0  119.94  35.257  37.104  51.167 
  5222.000 -13.069  1.5650  1.5650  1.9170 -10.120  1.5650  1.5650  1.9170  1.6017  5221.5  119.98  35.250  37.117  51.171 
  5222.500 -13.106  1.5650  1.5570  1.9030 -10.149  1.5650  1.5570  1.9030  1.6021  5222.0  120.03  35.243  37.129  51.174 
  5223.000 -13.142  1.5580  1.5570  1.8880 -10.176  1.5580  1.5570  1.8880  1.6025  5222.5  120.07  35.236  37.141  51.178 
  5223.500 -13.178  1.5500  1.5500  1.8740 -10.204  1.5500  1.5500  1.8740  1.6029  5223.0  120.12  35.229  37.153  51.182 
  5224.000 -13.215  1.5500  1.5500  1.8590 -10.232  1.5500  1.5500  1.8590  1.6033  5223.5  120.16  35.222  37.165  51.185 
  5224.500 -13.289  1.5500  1.5500  1.8450 -10.298  1.5500  1.5500  1.8450  1.6037  5224.0  120.21  35.215  37.177  51.189 
