~Version Information
VERS.                     2.0: CWLS log ASCII Standard Version 2.00
WRAP.                      NO: One line per depth step
~Well Information Block
#MNEM.UNIT                               Data Type  Information
#---------                               ---------  -----------
STRT.FT                                   350.0000:
STOP.FT                                  6970.0000:
STEP.FT                                     0.5000:
NULL.                 -999.25                     :
COMP.                                             :COMPANY            
WELL.     SAN EMIDIO A #76-19                     :WELL               
FLD .                                             :FIELD              
CTRY.                                             :COUNTRY            
STAT.                                             :STATE              
LOC .                                             :LOCATION           
UWI .                                             :UNIQUE WELL ID     
SRVC.                                             :Service company    
DATE.                                             :LOG DATE           
~Curve Information
#MNEM.UNIT           API CODE  Curve Description
#---------           --------  -----------------
DEPT.FT                      :   1 DEPTH
SP  .MV                      :   2
AM16.OHMM                    :   3
AO10.OHMM                    :   4
AO19.OHMM                    :   5
SBL .MV                      :   6
RS  .OHMM                    :   7
RM  .OHMM                    :   8
RD  .OHMM                    :   9
DEVI.DEG                     :  10
TVD .FT                      :  11
AZIM.DEG                     :  12
NORT.FT                      :  13
EAST.FT                      :  14
OFFS.FT                      :  15
~A
# ...
  2105.000 -60.413  16.190  16.500  15.323 -42.057  16.190  16.500  15.323  0.1625  2104.9  79.553  9.5626  9.1243  13.214 
  2105.500 -59.554  16.168  16.722  15.452 -41.200  16.168  16.722  15.452  0.1621  2105.4  79.508  9.5629  9.1257  13.215 
  2106.000 -59.235  16.145  16.771  15.638 -40.883  16.145  16.771  15.638  0.1617  2105.9  79.463  9.5632  9.1271  13.216 
  2106.500 -59.130  16.123  16.806  15.824 -40.780  16.123  16.806  15.824  0.1613  2106.4  79.418  9.5634  9.1285  13.217 
  2107.000 -58.954  16.100  16.834  15.975 -40.606  16.100  16.834  15.975  0.1609  2106.9  79.373  9.5637  9.1299  13.218 
  2107.500 -58.600  16.049  17.049  16.168 -40.254  16.049  17.049  16.168  0.1605  2107.4  79.328  9.5639  9.1313  13.220 
  2108.000 -58.208  15.926  17.401  16.361 -39.864  15.926  17.401  16.361  0.1600  2107.9  79.283  9.5642  9.1326  13.221 
  2108.500 -57.600  15.681  17.580  16.584 -39.259  15.681  17.580  16.584  0.1596  2108.4  79.238  9.5645  9.1340  13.222 
  2109.000 -56.921  15.141  17.766  16.755 -38.582  15.141  17.766  16.755  0.1592  2108.9  79.193  9.5647  9.1354  13.223 
  2109.500 -55.307  14.464  17.916  16.913 -36.970  14.464  17.916  16.913  0.1588  2109.4  79.148  9.5650  9.1367  13.224 
  2110.000 -51.788  13.902  17.915  16.984 -33.453  13.902  17.915  16.984  0.1584  2109.9  79.103  9.5652  9.1381  13.225 
  2110.500 -47.513  13.361  17.843  16.703 -29.180  13.361  17.843  16.703  0.1580  2110.4  79.058  9.5655  9.1394  13.226 
  2111.000 -45.971  12.929  17.626  16.205 -27.640  12.929  17.626  16.205  0.1575  2110.9  79.013  9.5658  9.1408  13.228 
  2111.500 -44.357  12.382  17.165  15.773 -26.028  12.382  17.165  15.773  0.1571  2111.4  78.968  9.5660  9.1421  13.229 
  2112.000 -42.419  11.820  16.732  15.463 -24.092  11.820  16.732  15.463  0.1567  2111.9  78.923  9.5663  9.1435  13.230 
  2112.500 -40.734  11.387  16.264  15.225 -22.409  11.387  16.264  15.225  0.1563  2112.4  78.878  9.5666  9.1448  13.231 
  2113.000 -39.695  10.984  15.745  14.886 -21.373  10.984  15.745  14.886  0.1559  2112.9  78.833  9.5668  9.1462  13.232 
  2113.500 -38.980  10.717  15.198  14.583 -20.660  10.717  15.198  14.583  0.1555  2113.4  78.788  9.5671  9.1475  13.233 
  2114.000 -38.336  10.723  14.730  14.359 -20.018  10.723  14.730  14.359  0.1550  2113.9  78.743  9.5673  9.1488  13.234 
  2114.500 -38.916  10.794  14.319  14.150 -20.600  10.794  14.319  14.150  0.1546  2114.4  78.698  9.5676  9.1501  13.235 
  2115.000 -41.581  11.175  13.836  13.911 -23.267  11.175  13.836  13.911  0.1542  2114.9  78.653  9.5679  9.1515  13.237 
  2115.500 -44.929  11.857  13.368  13.774 -26.617  11.857  13.368  13.774  0.1538  2115.4  78.608  9.5681  9.1528  13.238 
  2116.000 -48.421  12.338  13.180  13.888 -30.111  12.338  13.180  13.888  0.1534  2115.9  78.563  9.5684  9.1541  13.239 
  2116.500 -53.639  13.150  13.200  14.204 -35.331  13.150  13.200  14.204  0.1529  2116.4  78.518  9.5687  9.1554  13.240 
  2117.000 -54.039  13.732  13.279  14.822 -35.733  13.732  13.279  14.822  0.1525  2116.9  78.473  9.5689  9.1567  13.241 
  2117.500 -53.970  14.256  13.400  15.346 -35.667  14.256  13.400  15.346  0.1521  2117.4  78.428  9.5692  9.1580  13.242 
  2118.000 -54.046  14.644  13.795  15.769 -35.745  14.644  13.795  15.769  0.1517  2117.9  78.383  9.5695  9.1593  13.243 
  2118.500 -54.841  14.902  14.283  16.013 -36.542  14.902  14.283  16.013  0.1513  2118.4  78.338  9.5697  9.1606  13.244 
  2119.000 -55.708  15.102  14.880  16.271 -37.411  15.102  14.880  16.271  0.1509  2118.9  78.293  9.5700  9.1619  13.245 
  2119.500 -56.899  15.296  15.260  16.378 -38.604  15.296  15.260  16.378  0.1504  2119.4  78.248  9.5703  9.1632  13.247 
  2120.000 -57.012  15.489  15.511  16.449 -38.719  15.489  15.511  16.449  0.1500  2119.9  78.203  9.5705  9.1644  13.248 
  2120.500 -56.692  15.618  15.603  16.521 -38.401  15.618  15.603  16.521  0.1496  2120.4  78.158  9.5708  9.1657  13.249 
  2121.000 -56.732  15.890  15.638  16.592 -38.443  15.890  15.638  16.592  0.1492  2120.9  78.113  9.5711  9.1670  13.250 
  2121.500 -57.168  16.091  15.645  16.692 -38.881  16.091  15.645  16.692  0.1488  2121.4  78.068  9.5713  9.1683  13.251 
  2122.000 -57.603  16.248  15.608  16.763 -39.318  16.248  15.608  16.763  0.1484  2121.9  78.023  9.5716  9.1695  13.252 
  2122.500 -57.643  16.442  15.543  16.855 -39.361  16.442  15.543  16.855  0.1479  2122.4  77.978  9.5719  9.1708  13.253 
  2123.000 -57.539  16.577  15.434  16.977 -39.259  16.577  15.434  16.977  0.1475  2122.9  77.933  9.5721  9.1720  13.254 
  2123.500 -57.435  16.649  15.368  17.048 -39.157  16.649  15.368  17.048  0.1471  2123.4  77.888  9.5724  9.1733  13.255 
  2124.000 -58.698  16.741  15.281  17.069 -40.422  16.741  15.281  17.069  0.1467  2123.9  77.843  9.5727  9.1746  13.256 
  2124.500 -59.998  16.741  15.194  17.003 -41.724  16.741  15.194  17.003  0.1463  2124.4  77.798  9.5730  9.1758  13.257 
  2125.000 -60.396  16.696  15.136  16.909 -42.124  16.696  15.136  16.909  0.1459  2124.9  77.753  9.5732  9.1770  13.258 
  2125.500 -59.357  16.645  15.070  16.793 -41.087  16.645  15.070  16.793  0.1454  2125.4  77.708  9.5735  9.1783  13.260 
  2126.000 -57.312  16.522  15.019  16.734 -39.044  16.522  15.019  16.734  0.1450  2125.9  77.663  9.5738  9.1795  13.261 
  2126.500 -56.381  16.385  14.982  16.676 -38.115  16.385  14.982  16.676  0.1446  2126.4  77.618  9.5740  9.1808  13.262 
  2127.000 -55.918  16.305  15.053  16.632 -37.655  16.305  15.053  16.632  0.1442  2126.9  77.573  9.5743  9.1820  13.263 
  2127.500 -55.562  16.196  15.167  16.602 -37.301  16.196  15.167  16.602  0.1438  2127.4  77.528  9.5746  9.1832  13.264 
  2128.000 -55.242  16.094  15.325  16.580 -36.983  16.094  15.325  16.580  0.1434  2127.9  77.483  9.5749  9.1844  13.265 
  2128.500 -56.973  16.180  15.475  16.601 -38.716  16.180  15.475  16.601  0.1429  2128.4  77.438  9.5751  9.1856  13.266 
  2129.000 -58.487  16.302  15.640  16.658 -40.232  16.302  15.640  16.658  0.1425  2128.9  77.393  9.5754  9.1869  13.267 
  2129.500 -60.289  16.423  15.840  16.757 -42.036  16.423  15.840  16.757  0.1421  2129.4  77.348  9.5757  9.1881  13.268 
  2130.000 -60.473  16.602  16.178  16.879 -42.222  16.602  16.178  16.879  0.1417  2129.9  77.303  9.5759  9.1893  13.269 
  2130.500 -59.542  16.709  16.529  17.079 -41.293  16.709  16.529  17.079  0.1413  2130.4  77.258  9.5762  9.1905  13.270 
  2131.000 -57.964  16.816  16.859  17.294 -39.717  16.816  16.859  17.294  0.1409  2130.9  77.213  9.5765  9.1917  13.271 
  2131.500 -57.249  17.124  17.110  17.682 -39.005  17.124  17.110  17.682  0.1404  2131.4  77.168  9.5768  9.1929  13.272 
  2132.000 -56.534  17.246  17.534  17.926 -38.292  17.246  17.534  17.926  0.1400  2131.9  77.123  9.5770  9.1941  13.273 
  2132.500 -55.926  17.375  17.965  17.983 -37.686  17.375  17.965  17.983  0.1396  2132.4  77.078  9.5773  9.1953  13.274 
  2133.000 -56.291  17.611  18.165  17.759 -38.053  17.611  18.165  17.759  0.1392  2132.9  77.033  9.5776  9.1964  13.275 
  2133.500 -57.805  17.733  18.229  17.643 -39.569  17.733  18.229  17.643  0.1388  2133.4  76.988  9.5778  9.1976  13.276 
  2134.000 -58.816  17.890  18.257  17.556 -40.582  17.890  18.257  17.556  0.1384  2133.9  76.943  9.5781  9.1988  13.277 
  2134.500 -59.862  18.023  18.321  17.598 -41.630  18.023  18.321  17.598  0.1379  2134.4  76.898  9.5784  9.2000  13.278 
  2135.000 -60.765  18.155  18.500  17.705 -42.535  18.155  18.500  17.705  0.1375  2134.9  76.853  9.5787  9.2011  13.279 
  2135.500 -61.453  18.298  18.614  17.805 -43.225  18.298  18.614  17.805  0.1371  2135.4  76.808  9.5789  9.2023  13.280 
  2136.000 -61.492  18.412  19.153  17.926 -43.266  18.412  19.153  17.926  0.1367  2135.9  76.763  9.5792  9.2035  13.281 
  2136.500 -60.705  18.490  19.317  18.019 -42.482  18.490  19.317  18.019  0.1363  2136.4  76.718  9.5795  9.2046  13.282 
  2137.000 -60.494  18.547  19.396  18.004 -42.273  18.547  19.396  18.004  0.1359  2136.9  76.673  9.5798  9.2058  13.283 
