~Version Information
VERS.                     2.0: CWLS log ASCII Standard Version 2.00
WRAP.                      NO: One line per depth step
~Well Information Block
#MNEM.UNIT                               Data Type  Information
#---------                               ---------  -----------
STRT.FT                                   350.0000:
STOP.FT                                  6970.0000:
STEP.FT                                     0.5000:
NULL.                 -999.25                     :
COMP.                                             :COMPANY            
WELL.     SAN EMIDIO A #76-19                     :WELL               
FLD .                                             :FIELD              
CTRY.                                             :COUNTRY            
STAT.                                             :STATE              
LOC .                                             :LOCATION           
UWI .                                             :UNIQUE WELL ID     
SRVC.                                             :Service company    
DATE.                                             :LOG DATE           
~Curve Information
#MNEM.UNIT           API CODE  Curve Description
#---------           --------  -----------------
DEPT.FT                      :   1 DEPTH
SP  .MV                      :   2
AM16.OHMM                    :   3
AO10.OHMM                    :   4
AO19.OHMM                    :   5
SBL .MV                      :   6
RS  .OHMM                    :   7
RM  .OHMM                    :   8
RD  .OHMM                    :   9
DEVI.DEG                     :  10
TVD .FT                      :  11
AZIM.DEG                     :  12
NORT.FT                      :  13
EAST.FT                      :  14
OFFS.FT                      :  15
~A
# ...
   805.000 -27.991  4.6180  4.5250  5.0080 -4.1554  4.6180  4.5250  5.0080  1.0625  804.95  63.251  5.0818  5.2893  7.3335 
   805.500 -28.931  4.5670  4.5170  5.1440 -5.0975  4.5670  4.5170  5.1440  1.0604  805.45  63.176  5.0860  5.2975  7.3423 
   806.000 -29.582  4.5520  4.5020  5.3100 -5.7506  4.5520  4.5020  5.3100  1.0583  805.95  63.101  5.0902  5.3058  7.3510 
   806.500 -30.089  4.5450  4.4870  5.4830 -6.2597  4.5450  4.4870  5.4830  1.0562  806.45  63.026  5.0944  5.3140  7.3598 
   807.000 -30.705  4.5730  4.4720  5.6340 -6.8778  4.5730  4.4720  5.6340  1.0541  806.95  62.951  5.0985  5.3222  7.3686 
   807.500 -30.996  4.6160  4.4280  5.6620 -7.1709  4.6160  4.4280  5.6620  1.0521  807.45  62.876  5.1027  5.3304  7.3773 
   808.000 -31.251  4.6510  4.3420  5.6550 -7.4280  4.6510  4.3420  5.6550  1.0500  807.95  62.801  5.1069  5.3385  7.3860 
   808.500 -31.325  4.7150  4.3120  5.6620 -7.5041  4.7150  4.3120  5.6620  1.0479  808.45  62.726  5.1111  5.3466  7.3947 
   809.000 -31.291  4.7720  4.3690  5.7050 -7.4722  4.7720  4.3690  5.7050  1.0458  808.95  62.651  5.1153  5.3547  7.4034 
   809.500 -30.609  4.9300  4.4260  5.7410 -6.7924  4.9300  4.4260  5.7410  1.0437  809.45  62.576  5.1195  5.3628  7.4121 
   810.000 -29.926  5.0740  4.6200  5.9280 -6.1115  5.0740  4.6200  5.9280  1.0416  809.95  62.501  5.1237  5.3709  7.4208 
   810.500 -29.423  5.2530  4.7560  6.2020 -5.6106  5.2530  4.7560  6.2020  1.0396  810.45  62.426  5.1279  5.3789  7.4294 
   811.000 -29.101  5.4540  4.8490  6.3380 -5.2907  5.4540  4.8490  6.3380  1.0375  810.95  62.351  5.1321  5.3869  7.4381 
   811.500 -28.923  5.6620  4.9430  6.4030 -5.1148  5.6620  4.9430  6.4030  1.0354  811.45  62.276  5.1363  5.3949  7.4467 
   812.000 -28.601  5.8270  4.9780  6.3960 -4.7949  5.8270  4.9780  6.3960  1.0333  811.95  62.201  5.1405  5.4029  7.4553 
   812.500 -28.063  6.0420  5.0060  6.3740 -4.2590  6.0420  5.0060  6.3740  1.0312  812.45  62.126  5.1447  5.4109  7.4639 
   813.000 -27.813  6.2940  5.0130  6.3740 -4.0111  6.2940  5.0130  6.3740  1.0291  812.95  62.051  5.1489  5.4188  7.4725 
   813.500 -27.419  6.4010  4.9410  6.3880 -3.6192  6.4010  4.9410  6.3880  1.0271  813.45  61.976  5.1531  5.4267  7.4811 
   814.000 -27.240  6.5300  4.8900  6.4310 -3.4423  6.5300  4.8900  6.4310  1.0250  813.95  61.901  5.1573  5.4346  7.4896 
   814.500 -27.099  6.6590  4.9250  6.4820 -3.3034  6.6590  4.9250  6.4820  1.0229  814.45  61.826  5.1615  5.4425  7.4982 
   815.000 -27.389  6.7740  4.9530  6.6110 -3.5955  6.7740  4.9530  6.6110  1.0208  814.95  61.751  5.1658  5.4503  7.5067 
   815.500 -27.752  6.9390  4.9890  6.7410 -3.9606  6.9390  4.9890  6.7410  1.0187  815.45  61.676  5.1700  5.4581  7.5152 
   816.000 -28.512  7.2330  5.0240  6.8480 -4.7227  7.2330  5.0240  6.8480  1.0167  815.95  61.601  5.1742  5.4660  7.5237 
   816.500 -29.776  7.4130  5.1250  6.9280 -5.9889  7.4130  5.1250  6.9280  1.0146  816.45  61.526  5.1784  5.4737  7.5322 
   817.000 -31.473  7.6640  5.2100  6.9710 -7.6880  7.6640  5.2100  6.9710  1.0125  816.95  61.451  5.1826  5.4815  7.5407 
   817.500 -32.557  8.0310  5.2890  7.0070 -8.7741  8.0310  5.2890  7.0070  1.0104  817.45  61.376  5.1869  5.4892  7.5491 
   818.000 -33.425  8.3390  5.3890  7.0570 -9.6442  8.3390  5.3890  7.0570  1.0083  817.95  61.301  5.1911  5.4970  7.5576 
   818.500 -34.401  8.8280  5.5250  7.1290 -10.622  8.8280  5.5250  7.1290  1.0062  818.45  61.226  5.1953  5.5046  7.5660 
   819.000 -36.351  9.1300  5.6370  7.3450 -12.574  9.1300  5.6370  7.3450  1.0042  818.95  61.151  5.1995  5.5123  7.5744 
   819.500 -38.805  9.4170  5.7480  7.6900 -15.031  9.4170  5.7480  7.6900  1.0021  819.45  61.076  5.2038  5.5200  7.5828 
   820.000 -41.620  9.7260  6.1360  7.9700 -17.848  9.7260  6.1360  7.9700  1.0000  819.95  61.001  5.2080  5.5276  7.5912 
   820.500 -43.100  10.373  6.4300  8.2580 -19.330  10.373  6.4300  8.2580  0.9979  820.45  60.926  5.2122  5.5352  7.5996 
   821.000 -44.437  10.984  6.6740  8.4810 -20.669  10.984  6.6740  8.4810  0.9958  820.95  60.851  5.2165  5.5428  7.6080 
   821.500 -45.774  11.574  6.8970  8.6680 -22.008  11.574  6.8970  8.6680  0.9937  821.45  60.776  5.2207  5.5504  7.6163 
   822.000 -46.461  11.991  7.0620  8.8340 -22.697  11.991  7.0620  8.8340  0.9917  821.95  60.701  5.2249  5.5579  7.6246 
   822.500 -46.752  12.623  7.2560  8.8910 -22.990  12.623  7.2560  8.8910  0.9896  822.45  60.626  5.2292  5.5654  7.6330 
   823.000 -47.042  13.047  7.5640  8.9770 -23.282  13.047  7.5640  8.9770  0.9875  822.95  60.551  5.2334  5.5730  7.6413 
   823.500 -47.947  13.270  7.8090  9.0710 -24.189  13.270  7.8090  9.0710  0.9854  823.45  60.476  5.2376  5.5804  7.6495 
   824.000 -48.490  13.601  8.2040  9.1210 -24.734  13.601  8.2040  9.1210  0.9833  823.95  60.401  5.2419  5.5879  7.6578 
   824.500 -49.538  13.823  8.4260  9.2220 -25.785  13.823  8.4260  9.2220  0.9812  824.45  60.326  5.2461  5.5953  7.6661 
   825.000 -49.504  14.103  8.8360  9.3370 -25.753  14.103  8.8360  9.3370  0.9792  824.95  60.251  5.2504  5.6028  7.6743 
   825.500 -49.218  15.110  9.1160  9.4450 -25.469  15.110  9.1160  9.4450  0.9771  825.45  60.176  5.2546  5.6102  7.6825 
   826.000 -48.932  15.916  9.4470  9.6390 -25.185  15.916  9.4470  9.6390  0.9750  825.95  60.101  5.2588  5.6175  7.6908 
   826.500 -49.295  16.721  9.7920  9.8480 -25.550  16.721  9.7920  9.8480  0.9729  826.45  60.026  5.2631  5.6249  7.6990 
   827.000 -49.802  17.102  10.029  10.171 -26.059  17.102  10.029  10.171  0.9708  826.95  59.951  5.2673  5.6322  7.7071 
   827.500 -50.345  18.065  10.381  10.380 -26.604  18.065  10.381  10.380  0.9687  827.45  59.876  5.2716  5.6395  7.7153 
   828.000 -50.852  18.684  10.905  10.582 -27.113  18.684  10.905  10.582  0.9667  827.95  59.801  5.2758  5.6468  7.7235 
   828.500 -51.468  19.374  11.488  10.833 -27.731  19.374  11.488  10.833  0.9646  828.45  59.726  5.2801  5.6541  7.7316 
   829.000 -51.831  19.769  12.135  11.042 -28.097  19.769  12.135  11.042  0.9625  828.95  59.651  5.2843  5.6613  7.7397 
   829.500 -52.302  19.920  12.796  11.229 -28.570  19.920  12.796  11.229  0.9604  829.45  59.576  5.2885  5.6686  7.7478 
   830.000 -52.917  19.977  13.335  11.380 -29.187  19.977  13.335  11.380  0.9583  829.95  59.501  5.2928  5.6758  7.7559 
   830.500 -53.280  19.976  13.889  11.445 -29.552  19.976  13.889  11.445  0.9562  830.45  59.426  5.2970  5.6830  7.7640 
   831.000 -53.860  19.926  14.896  11.445 -30.134  19.926  14.896  11.445  0.9542  830.95  59.351  5.3013  5.6901  7.7721 
   831.500 -54.331  19.393  15.529  11.430 -30.607  19.393  15.529  11.430  0.9521  831.45  59.276  5.3055  5.6973  7.7801 
   832.000 -54.478  18.917  16.161  11.380 -30.756  18.917  16.161  11.380  0.9500  831.95  59.201  5.3098  5.7044  7.7882 
   832.500 -54.480  18.341  16.708  11.322 -30.760  18.341  16.708  11.322  0.9479  832.45  59.126  5.3140  5.7115  7.7962 
   833.000 -54.229  17.448  17.038  11.236 -30.511  17.448  17.038  11.236  0.9458  832.95  59.051  5.3183  5.7186  7.8042 
   833.500 -53.691  16.289  17.268  11.135 -29.976  16.289  17.268  11.135  0.9437  833.45  58.976  5.3225  5.7256  7.8122 
   834.000 -53.153  15.807  17.347  10.969 -29.440  15.807  17.347  10.969  0.9417  833.95  58.901  5.3267  5.7326  7.8202 
   834.500 -52.109  15.065  17.209  10.336 -28.398  15.065  17.209  10.336  0.9396  834.45  58.826  5.3310  5.7397  7.8281 
   835.000 -50.164  14.453  16.871  9.8970 -26.455  14.453  16.871  9.8970  0.9375  834.95  58.751  5.3352  5.7467  7.8361 
   835.500 -47.355  13.855  16.539  9.5800 -23.648  13.855  16.539  9.5800  0.9354  835.45  58.676  5.3395  5.7536  7.8440 
   836.000 -45.338  13.351  16.049  9.2060 -21.633  13.351  16.049  9.2060  0.9333  835.95  58.601  5.3437  5.7606  7.8519 
   836.500 -43.645  13.034  15.603  8.8680 -19.942  13.034  15.603  8.8680  0.9312  836.45  58.526  5.3480  5.7675  7.8598 
   837.000 -41.845  12.976  15.257  8.8030 -18.144  12.976  15.257  8.8030  0.9292  836.95  58.451  5.3522  5.7744  7.8677 
