~Version Information
VERS.                     2.0: CWLS log ASCII Standard Version 2.00
WRAP.                      NO: One line per depth step
~Well Information Block
#MNEM.UNIT                               Data Type  Information
#---------                               ---------  -----------
STRT.FT                                   350.0000:
STOP.FT                                  6970.0000:
STEP.FT                                     0.5000:
NULL.                 -999.25                     :
COMP.                                             :COMPANY            
WELL.     SAN EMIDIO A #76-19                     :WELL               
FLD .                                             :FIELD              
CTRY.                                             :COUNTRY            
STAT.                                             :STATE              
LOC .                                             :LOCATION           
UWI .                                             :UNIQUE WELL ID     
SRVC.                                             :Service company    
DATE.                                             :LOG DATE           
~Curve Information
#MNEM.UNIT           API CODE  Curve Description
#---------           --------  -----------------
DEPT.FT                      :   1 DEPTH
SP  .MV                      :   2
AM16.OHMM                    :   3
AO10.OHMM                    :   4
AO19.OHMM                    :   5
SBL .MV                      :   6
RS  .OHMM                    :   7
RM  .OHMM                    :   8
RD  .OHMM                    :   9
DEVI.DEG                     :  10
TVD .FT                      :  11
AZIM.DEG                     :  12
NORT.FT                      :  13
EAST.FT                      :  14
OFFS.FT                      :  15
~A
# ...
  4315.000 -48.424  11.586  10.957  10.514 -40.149  11.586  10.957  10.514  1.3333  4314.7  29.553  26.769  24.975  36.588 
  4315.500 -48.431  11.369  10.963  10.528 -40.159  11.369  10.963  10.528  1.3333  4315.2  29.538  26.779  24.981  36.599 
  4316.000 -47.787  10.469  10.956  10.463 -39.519  10.469  10.956  10.463  1.3333  4315.7  29.523  26.789  24.986  36.610 
  4316.500 -44.767  9.7630  10.941  10.261 -36.503  9.7630  10.941  10.261  1.3333  4316.2  29.508  26.799  24.992  36.622 
  4317.000 -41.281  9.1430  10.631  10.016 -33.020  9.1430  10.631  10.016  1.3333  4316.7  29.493  26.809  24.998  36.633 
  4317.500 -36.497  8.6250  10.242  9.7710 -28.240  8.6250  10.242  9.7710  1.3333  4317.2  29.478  26.819  25.003  36.644 
  4318.000 -30.849  8.1990  9.7960  9.5550 -22.596  8.1990  9.7960  9.5550  1.3333  4317.7  29.463  26.829  25.009  36.655 
  4318.500 -27.649  7.8740  9.0980  9.4180 -19.399  7.8740  9.0980  9.4180  1.3333  4318.2  29.448  26.839  25.015  36.667 
  4319.000 -27.295  7.6650  8.7730  9.2370 -19.049  7.6650  8.7730  9.2370  1.3333  4318.7  29.433  26.850  25.021  36.678 
  4319.500 -27.156  7.7140  8.4420  8.9710 -18.914  7.7140  8.4420  8.9710  1.3333  4319.2  29.418  26.860  25.026  36.689 
  4320.000 -27.198  8.1160  8.3120  8.9840 -18.959  8.1160  8.3120  8.9840  1.3333  4319.7  29.403  26.870  25.032  36.700 
  4320.500 -32.748  8.3450  8.4840  9.2140 -24.513  8.3450  8.4840  9.2140  1.3333  4320.2  29.388  26.880  25.038  36.711 
  4321.000 -37.686  8.4230  8.7430  9.4940 -29.455  8.4230  8.7430  9.4940  1.3333  4320.7  29.373  26.890  25.043  36.723 
  4321.500 -39.528  8.4360  9.0230  9.6810 -31.300  8.4360  9.0230  9.6810  1.3333  4321.2  29.358  26.900  25.049  36.734 
  4322.000 -40.865  8.3340  9.2950  9.7950 -32.641  8.3340  9.2950  9.7950  1.3333  4321.7  29.343  26.910  25.055  36.745 
  4322.500 -40.403  8.0600  9.4890  9.8880 -32.183  8.0600  9.4890  9.8880  1.3333  4322.2  29.328  26.920  25.061  36.756 
  4323.000 -39.544  7.4620  9.5750  9.9530 -31.328  7.4620  9.5750  9.9530  1.3333  4322.7  29.313  26.931  25.066  36.767 
  4323.500 -36.740  6.9220  9.3800  9.6860 -28.527  6.9220  9.3800  9.6860  1.3333  4323.2  29.298  26.941  25.072  36.779 
  4324.000 -30.445  6.5250  8.8620  9.1240 -22.236  6.5250  8.8620  9.1240  1.3333  4323.7  29.283  26.951  25.078  36.790 
  4324.500 -26.021  6.1430  8.1710  8.3690 -17.816  6.1430  8.1710  8.3690  1.3333  4324.2  29.268  26.961  25.083  36.801 
  4325.000 -22.713  5.8680  7.4730  7.7570 -14.511  5.8680  7.4730  7.7570  1.3333  4324.7  29.253  26.971  25.089  36.812 
  4325.500 -20.775  5.5720  6.9400  7.3540 -12.577  5.5720  6.9400  7.3540  1.3333  4325.2  29.238  26.981  25.095  36.823 
  4326.000 -20.276  5.6650  6.5300  7.1230 -12.082  5.6650  6.5300  7.1230  1.3333  4325.7  29.223  26.992  25.100  36.835 
  4326.500 -19.993  5.7500  6.3640  7.1370 -11.802  5.7500  6.3640  7.1370  1.3333  4326.2  29.208  27.002  25.106  36.846 
  4327.000 -19.854  5.8360  6.4640  7.2940 -11.667  5.8360  6.4640  7.2940  1.3333  4326.7  29.193  27.012  25.112  36.857 
  4327.500 -19.932  5.9560  6.5280  7.5240 -11.749  5.9560  6.5280  7.5240  1.3333  4327.2  29.178  27.022  25.117  36.868 
  4328.000 -20.261  6.0490  6.5990  7.6030 -12.081  6.0490  6.5990  7.6030  1.3333  4327.7  29.163  27.032  25.123  36.879 
  4328.500 -21.094  6.0980  6.6420  7.7530 -12.918  6.0980  6.6420  7.7530  1.3333  4328.2  29.148  27.042  25.129  36.891 
  4329.000 -22.216  6.1620  6.6920  7.8750 -14.044  6.1620  6.6920  7.8750  1.3333  4328.7  29.133  27.052  25.134  36.902 
  4329.500 -23.338  6.1680  6.7850  7.9610 -15.169  6.1680  6.7850  7.9610  1.3333  4329.2  29.118  27.063  25.140  36.913 
  4330.000 -24.603  6.0010  6.8200  8.0040 -16.438  6.0010  6.8200  8.0040  1.3333  4329.7  29.103  27.073  25.146  36.924 
  4330.500 -25.400  5.9140  6.7980  7.9090 -17.239  5.9140  6.7980  7.9090  1.3333  4330.2  29.088  27.083  25.151  36.935 
  4331.000 -24.397  5.9350  6.7400  7.8230 -16.239  5.9350  6.7400  7.8230  1.3333  4330.7  29.073  27.093  25.157  36.946 
  4331.500 -23.034  5.9690  6.6320  7.7500 -14.880  5.9690  6.6320  7.7500  1.3333  4331.2  29.058  27.103  25.163  36.958 
  4332.000 -22.212  5.9900  6.5450  7.6420 -14.062  5.9900  6.5450  7.6420  1.3333  4331.7  29.043  27.114  25.168  36.969 
  4332.500 -21.245  5.9670  6.4730  7.6410 -13.099  5.9670  6.4730  7.6410  1.3333  4332.2  29.028  27.124  25.174  36.980 
  4333.000 -21.394  5.9950  6.7020  7.7560 -13.251  5.9950  6.7020  7.7560  1.3333  4332.7  29.013  27.134  25.180  36.991 
  4333.500 -22.012  6.1450  6.8460  7.9570 -13.873  6.1450  6.8460  7.9570  1.3333  4333.2  28.998  27.144  25.185  37.002 
  4334.000 -22.558  6.1360  6.9390  8.0710 -14.423  6.1360  6.9390  8.0710  1.3333  4333.7  28.983  27.154  25.191  37.014 
  4334.500 -22.778  6.0350  6.9740  8.1360 -14.646  6.0350  6.9740  8.1360  1.3333  4334.2  28.968  27.164  25.197  37.025 
  4335.000 -22.460  5.9550  6.8440  8.1930 -14.332  5.9550  6.8440  8.1930  1.3333  4334.7  28.953  27.175  25.202  37.036 
  4335.500 -21.962  5.7880  6.6280  8.1780 -13.838  5.7880  6.6280  8.1780  1.3333  4335.2  28.938  27.185  25.208  37.047 
  4336.000 -21.750  5.6580  6.3180  8.0620 -13.629  5.6580  6.3180  8.0620  1.3333  4335.7  28.923  27.195  25.213  37.058 
  4336.500 -21.539  5.5560  6.0800  7.8670 -13.422  5.5560  6.0800  7.8670  1.3333  4336.2  28.908  27.205  25.219  37.069 
  4337.000 -21.330  5.5190  5.8500  7.6580 -13.217  5.5190  5.8500  7.6580  1.3333  4336.7  28.893  27.215  25.225  37.081 
  4337.500 -21.119  5.4960  5.6550  7.5140 -13.009  5.4960  5.6550  7.5140  1.3333  4337.2  28.878  27.225  25.230  37.092 
  4338.000 -20.980  5.7680  5.5610  7.3840 -12.874  5.7680  5.5610  7.3840  1.3333  4337.7  28.863  27.236  25.236  37.103 
  4338.500 -20.877  5.9830  5.4880  7.2970 -12.775  5.9830  5.4880  7.2970  1.3333  4338.2  28.848  27.246  25.242  37.114 
  4339.000 -20.846  6.1330  5.3940  7.2320 -12.747  6.1330  5.3940  7.2320  1.3333  4338.7  28.833  27.256  25.247  37.125 
  4339.500 -20.887  6.3120  5.4080  7.2240 -12.792  6.3120  5.4080  7.2240  1.3333  4339.2  28.818  27.266  25.253  37.137 
  4340.000 -21.000  6.5260  5.6380  7.3250 -12.909  6.5260  5.6380  7.3250  1.3333  4339.7  28.803  27.276  25.258  37.148 
  4340.500 -21.510  6.7120  5.9040  7.5540 -13.422  6.7120  5.9040  7.5540  1.3333  4340.2  28.788  27.287  25.264  37.159 
  4341.000 -24.828  7.0850  6.3350  8.0000 -16.744  7.0850  6.3350  8.0000  1.3333  4340.7  28.773  27.297  25.270  37.170 
  4341.500 -29.406  7.7460  6.6150  8.5460 -21.326  7.7460  6.6150  8.5460  1.3333  4341.2  28.758  27.307  25.275  37.181 
  4342.000 -32.580  8.6440  6.8950  8.9340 -24.504  8.6440  6.8950  8.9340  1.3333  4341.7  28.743  27.317  25.281  37.192 
  4342.500 -35.826  9.2110  7.2540  9.4360 -27.753  9.2110  7.2540  9.4360  1.3333  4342.2  28.728  27.327  25.286  37.204 
  4343.000 -38.063  9.8780  7.6560  9.6590 -29.994  9.8780  7.6560  9.6590  1.3333  4342.7  28.713  27.338  25.292  37.215 
  4343.500 -40.770  10.481  7.9070  9.9390 -32.705  10.481  7.9070  9.9390  1.3333  4343.2  28.698  27.348  25.298  37.226 
  4344.000 -42.179  10.933  8.1940  10.226 -34.117  10.933  8.1940  10.226  1.3333  4343.7  28.683  27.358  25.303  37.237 
  4344.500 -43.950  11.479  8.4170  10.420 -35.892  11.479  8.4170  10.420  1.3333  4344.2  28.668  27.368  25.309  37.248 
  4345.000 -44.854  11.945  8.5820  10.513 -36.800  11.945  8.5820  10.513  1.3333  4344.7  28.653  27.378  25.314  37.259 
  4345.500 -45.256  12.383  8.6680  10.318 -37.205  12.383  8.6680  10.318  1.3333  4345.2  28.638  27.389  25.320  37.271 
  4346.000 -45.190  12.691  8.7240  10.145 -37.143  12.691  8.7240  10.145  1.3333  4345.7  28.623  27.399  25.325  37.282 
  4346.500 -45.159  13.085  8.7670  10.094 -37.116  13.085  8.7670  10.094  1.3333  4346.2  28.608  27.409  25.331  37.293 
  4347.000 -45.237  13.537  8.8030  10.122 -37.197  13.537  8.8030  10.122  1.3333  4346.7  28.593  27.419  25.337  37.304 
