~Version Information
VERS.                     2.0: CWLS log ASCII Standard Version 2.00
WRAP.                      NO: One line per depth step
~Well Information Block
#MNEM.UNIT                               Data Type  Information
#---------                               ---------  -----------
STRT.FT                                   350.0000:
STOP.FT                                  6970.0000:
STEP.FT                                     0.5000:
NULL.                 -999.25                     :
COMP.                                             :COMPANY            
WELL.     SAN EMIDIO A #76-19                     :WELL               
FLD .                                             :FIELD              
CTRY.                                             :COUNTRY            
STAT.                                             :STATE              
LOC .                                             :LOCATION           
UWI .                                             :UNIQUE WELL ID     
SRVC.                                             :Service company    
DATE.                                             :LOG DATE           
~Curve Information
#MNEM.UNIT           API CODE  Curve Description
#---------           --------  -----------------
DEPT.FT                      :   1 DEPTH
SP  .MV                      :   2
AM16.OHMM                    :   3
AO10.OHMM                    :   4
AO19.OHMM                    :   5
SBL .MV                      :   6
RS  .OHMM                    :   7
RM  .OHMM                    :   8
RD  .OHMM                    :   9
DEVI.DEG                     :  10
TVD .FT                      :  11
AZIM.DEG                     :  12
NORT.FT                      :  13
EAST.FT                      :  14
OFFS.FT                      :  15
~A
# ...
  3860.000 -43.143  10.564  10.140  8.8490 -32.207  10.564  10.140  8.8490  0.9333  3859.8  13.203  16.151  21.504  26.626 
  3860.500 -43.722  10.793  10.032  9.0140 -32.788  10.793  10.032  9.0140  0.9342  3860.3  13.188  16.159  21.506  26.633 
  3861.000 -45.705  10.944  10.053  9.1860 -34.773  10.944  10.053  9.1860  0.9350  3860.8  13.173  16.167  21.508  26.640 
  3861.500 -47.905  11.145  10.174  9.3870 -36.976  11.145  10.174  9.3870  0.9358  3861.3  13.158  16.175  21.510  26.647 
  3862.000 -49.529  11.396  10.332  9.6170 -38.602  11.396  10.332  9.6170  0.9367  3861.8  13.143  16.183  21.512  26.654 
  3862.500 -50.648  11.582  10.497  9.7310 -39.723  11.582  10.497  9.7310  0.9375  3862.3  13.128  16.191  21.514  26.661 
  3863.000 -49.643  11.502  10.633  9.9100 -38.720  11.502  10.633  9.9100  0.9383  3862.8  13.113  16.199  21.516  26.668 
  3863.500 -49.358  11.430  10.705  9.9530 -38.437  11.430  10.705  9.9530  0.9392  3863.3  13.098  16.207  21.517  26.675 
  3864.000 -49.217  11.422  10.697  9.9160 -38.298  11.422  10.697  9.9160  0.9400  3863.8  13.083  16.215  21.519  26.682 
  3864.500 -49.257  11.501  10.667  9.8440 -38.340  11.501  10.667  9.8440  0.9408  3864.3  13.068  16.223  21.521  26.689 
  3865.000 -49.330  11.601  10.631  9.7930 -38.415  11.601  10.631  9.7930  0.9417  3864.8  13.053  16.231  21.523  26.696 
  3865.500 -49.658  11.809  10.594  9.7280 -38.746  11.809  10.594  9.7280  0.9425  3865.3  13.038  16.239  21.525  26.703 
  3866.000 -50.273  12.060  10.522  9.6690 -39.363  12.060  10.522  9.6690  0.9433  3865.8  13.023  16.247  21.527  26.710 
  3866.500 -50.817  12.275  10.363  9.6400 -39.909  12.275  10.363  9.6400  0.9442  3866.3  13.008  16.255  21.529  26.717 
  3867.000 -51.755  12.469  10.395  9.7040 -40.849  12.469  10.395  9.7040  0.9450  3866.8  12.993  16.263  21.530  26.724 
  3867.500 -52.298  12.698  10.427  9.7540 -41.394  12.698  10.427  9.7540  0.9458  3867.3  12.978  16.271  21.532  26.731 
  3868.000 -52.840  12.935  10.591  9.8330 -41.938  12.935  10.591  9.8330  0.9467  3867.8  12.963  16.279  21.534  26.738 
  3868.500 -54.501  13.085  10.699  9.9180 -43.601  13.085  10.699  9.9180  0.9475  3868.3  12.948  16.287  21.536  26.745 
  3869.000 -55.476  13.286  10.799  10.011 -44.578  13.286  10.799  10.011  0.9483  3868.8  12.933  16.295  21.538  26.752 
  3869.500 -55.767  13.473  10.870  10.011 -44.871  13.473  10.870  10.011  0.9492  3869.3  12.918  16.303  21.540  26.759 
  3870.000 -55.680  13.573  10.848  9.9380 -44.787  13.573  10.848  9.9380  0.9500  3869.8  12.903  16.311  21.542  26.766 
  3870.500 -55.593  13.745  10.653  9.8870 -44.702  13.745  10.653  9.8870  0.9508  3870.3  12.888  16.319  21.543  26.773 
  3871.000 -55.308  13.687  10.494  9.8220 -44.419  13.687  10.494  9.8220  0.9517  3870.8  12.873  16.327  21.545  26.780 
  3871.500 -55.113  13.636  10.400  9.7710 -44.226  13.636  10.400  9.7710  0.9525  3871.3  12.858  16.335  21.547  26.787 
  3872.000 -54.917  13.592  10.465  9.8500 -44.032  13.592  10.465  9.8500  0.9533  3871.8  12.843  16.344  21.549  26.794 
  3872.500 -54.633  13.606  10.622  9.9930 -43.750  13.606  10.622  9.9930  0.9542  3872.3  12.828  16.352  21.551  26.801 
  3873.000 -54.204  13.648  10.708  10.122 -43.323  13.648  10.708  10.122  0.9550  3872.8  12.813  16.360  21.553  26.808 
  3873.500 -53.848  13.684  10.772  10.236 -42.969  13.684  10.772  10.236  0.9558  3873.3  12.798  16.368  21.554  26.815 
  3874.000 -53.526  13.673  10.894  10.322 -42.650  13.673  10.894  10.322  0.9567  3873.8  12.783  16.376  21.556  26.822 
  3874.500 -53.240  13.661  10.947  10.465 -42.366  13.661  10.947  10.465  0.9575  3874.3  12.768  16.384  21.558  26.829 
  3875.000 -52.955  13.624  11.001  10.537 -42.083  13.624  11.001  10.537  0.9583  3874.8  12.753  16.392  21.560  26.836 
  3875.500 -50.836  13.243  11.086  10.651 -39.966  13.243  11.086  10.651  0.9592  3875.3  12.738  16.401  21.562  26.844 
  3876.000 -49.073  12.581  11.107  10.766 -38.205  12.581  11.107  10.766  0.9600  3875.8  12.723  16.409  21.564  26.851 
  3876.500 -46.700  11.954  11.121  10.686 -35.834  11.954  11.121  10.686  0.9608  3876.3  12.708  16.417  21.566  26.858 
  3877.000 -43.715  11.084  11.085  10.549 -32.851  11.084  11.085  10.549  0.9617  3876.8  12.693  16.425  21.567  26.865 
  3877.500 -40.981  10.537  10.789  10.426 -30.119  10.537  10.789  10.426  0.9625  3877.3  12.678  16.433  21.569  26.872 
  3878.000 -37.563  10.363  10.530  10.310 -26.703  10.363  10.530  10.310  0.9633  3877.8  12.663  16.442  21.571  26.879 
  3878.500 -34.686  10.334  10.321  10.166 -23.829  10.334  10.321  10.166  0.9642  3878.3  12.648  16.450  21.573  26.886 
  3879.000 -31.844  10.312  9.9170  10.086 -20.989  10.312  9.9170  10.086  0.9650  3878.8  12.633  16.458  21.575  26.893 
  3879.500 -30.407  10.318  9.7150  9.9780 -19.554  10.318  9.7150  9.9780  0.9658  3879.3  12.618  16.466  21.577  26.900 
  3880.000 -29.762  10.440  9.5350  9.8980 -18.911  10.440  9.5350  9.8980  0.9667  3879.8  12.603  16.474  21.578  26.907 
  3880.500 -31.241  10.842  9.4120  9.9120 -20.392  10.842  9.4120  9.9120  0.9675  3880.3  12.588  16.483  21.580  26.915 
  3881.000 -33.729  11.273  9.5700  10.077 -22.882  11.273  9.5700  10.077  0.9683  3880.8  12.573  16.491  21.582  26.922 
  3881.500 -36.684  11.582  9.8060  10.306 -25.839  11.582  9.8060  10.306  0.9692  3881.3  12.558  16.499  21.584  26.929 
  3882.000 -40.648  12.005  10.144  10.550 -29.805  12.005  10.144  10.550  0.9700  3881.8  12.543  16.507  21.586  26.936 
  3882.500 -44.540  12.336  10.424  10.816 -33.699  12.336  10.424  10.816  0.9708  3882.3  12.528  16.516  21.588  26.943 
  3883.000 -44.112  12.680  10.812  11.081 -33.274  12.680  10.812  11.081  0.9717  3882.8  12.513  16.524  21.589  26.950 
  3883.500 -43.142  13.011  11.041  11.088 -32.306  13.011  11.041  11.088  0.9725  3883.3  12.498  16.532  21.591  26.957 
  3884.000 -42.389  13.262  11.429  10.965 -31.555  13.262  11.429  10.965  0.9733  3883.8  12.483  16.541  21.593  26.965 
  3884.500 -44.624  13.434  11.738  10.907 -33.792  13.434  11.738  10.907  0.9742  3884.3  12.468  16.549  21.595  26.972 
  3885.000 -47.832  13.527  11.938  11.086 -37.002  13.527  11.938  11.086  0.9750  3884.8  12.453  16.557  21.597  26.979 
  3885.500 -49.527  13.541  12.110  11.287 -38.699  13.541  12.110  11.287  0.9758  3885.3  12.438  16.565  21.599  26.986 
  3886.000 -49.926  13.504  12.268  11.495 -39.100  13.504  12.268  11.495  0.9767  3885.8  12.423  16.574  21.601  26.993 
  3886.500 -50.324  13.352  12.534  11.710 -39.500  13.352  12.534  11.710  0.9775  3886.3  12.408  16.582  21.602  27.000 
  3887.000 -50.149  13.244  12.778  11.832 -39.328  13.244  12.778  11.832  0.9783  3886.8  12.393  16.590  21.604  27.008 
  3887.500 -49.791  12.898  12.914  11.694 -38.972  12.898  12.914  11.694  0.9792  3887.3  12.378  16.599  21.606  27.015 
  3888.000 -49.433  12.272  12.964  11.615 -38.616  12.272  12.964  11.615  0.9800  3887.8  12.363  16.607  21.608  27.022 
  3888.500 -48.106  11.631  12.855  11.507 -37.291  11.631  12.855  11.507  0.9808  3888.3  12.348  16.615  21.610  27.029 
  3889.000 -45.984  10.890  12.452  11.247 -35.171  10.890  12.452  11.247  0.9817  3888.8  12.333  16.624  21.611  27.036 
  3889.500 -42.854  10.048  12.034  11.059 -32.043  10.048  12.034  11.059  0.9825  3889.3  12.318  16.632  21.613  27.044 
  3890.000 -36.520  8.8970  11.710  10.757 -25.711  8.8970  11.710  10.757  0.9833  3889.8  12.303  16.641  21.615  27.051 
  3890.500 -32.311  8.2270  11.335  10.425 -21.504  8.2270  11.335  10.425  0.9842  3890.3  12.288  16.649  21.617  27.058 
  3891.000 -29.613  7.7310  10.989  10.116 -18.808  7.7310  10.989  10.116  0.9850  3890.8  12.273  16.657  21.619  27.065 
  3891.500 -26.268  7.4500  10.593  9.7340 -15.466  7.4500  10.593  9.7340  0.9859  3891.3  12.258  16.666  21.621  27.073 
  3892.000 -24.866  7.2120  10.219  9.3020 -14.066  7.2120  10.219  9.3020  0.9867  3891.8  12.243  16.674  21.622  27.080 
