~Version Information
VERS.                     2.0: CWLS log ASCII Standard Version 2.00
WRAP.                      NO: One line per depth step
~Well Information Block
#MNEM.UNIT                               Data Type  Information
#---------                               ---------  -----------
STRT.FT                                   400.0000:
STOP.FT                                  6820.0000:
STEP.FT                                     0.5000:
NULL.                 -999.25                     :
COMP.                                             :COMPANY            
WELL.     SAN EMIDIO A #86-19                     :WELL               
FLD .                                             :FIELD              
CTRY.                                             :COUNTRY            
STAT.                                             :STATE              
LOC .                                             :LOCATION           
UWI .                                             :UNIQUE WELL ID     
SRVC.                                             :Service company    
DATE.                                             :LOG DATE           
~Curve Information
#MNEM.UNIT           API CODE  Curve Description
#---------           --------  -----------------
DEPT.FT                      :   1 DEPTH
SP  .MV                      :   2
AM16.OHMM                    :   3
AO10.OHMM                    :   4
AO19.OHMM                    :   5
SBL .MV                      :   6
RS  .OHMM                    :   7
RM  .OHMM                    :   8
RD  .OHMM                    :   9
DEVI.DEG                     :  10
TVD .FT                      :  11
AZIM.DEG                     :  12
NORT.FT                      :  13
EAST.FT                      :  14
OFFS.FT                      :  15
~A
   400.000 -999.25  0.2370 -999.25 -999.25 -999.25  0.2370 -999.25 -999.25  0.2500  400.00  0.0000  1.5283  0.0000  1.0806 
   400.500 -999.25  0.2440 -999.25 -999.25 -999.25  0.2440 -999.25 -999.25  0.2500  400.50  0.2400  1.5304  0.0000  1.0822 
   401.000 -999.25  0.2510 -999.25 -999.25 -999.25  0.2510 -999.25 -999.25  0.2500  401.00  0.4800  1.5326  0.0000  1.0837 
   401.500 -999.25  0.2580  0.2300 -999.25 -999.25  0.2580  0.2300 -999.25  0.2500  401.50  0.7200  1.5348  0.0001  1.0853 
   402.000 -999.25  0.2950  0.2440 -999.25 -999.25  0.2950  0.2440 -999.25  0.2500  402.00  0.9600  1.5370  0.0001  1.0869 
   402.500 -40.188  0.3160  0.2590 -999.25 -32.188  0.3160  0.2590 -999.25  0.2500  402.50  1.2000  1.5392  0.0001  1.0885 
   403.000 -37.593  0.3670  0.2880 -999.25 -29.593  0.3670  0.2880 -999.25  0.2500  403.00  1.4400  1.5413  0.0002  1.0900 
   403.500 -37.054  0.4030  0.3090 -999.25 -29.054  0.4030  0.3090 -999.25  0.2500  403.50  1.6800  1.5435  0.0003  1.0916 
   404.000 -36.514  0.4820  0.3240 -999.25 -28.514  0.4820  0.3240 -999.25  0.2500  404.00  1.9200  1.5457  0.0003  1.0932 
   404.500 -34.999  0.6110  0.3240 -999.25 -26.999  0.6110  0.3240 -999.25  0.2500  404.50  2.1600  1.5479  0.0004  1.0948 
   405.000 -33.702  1.8960  0.3380 -999.25 -25.702  1.8960  0.3380 -999.25  0.2500  405.00  2.4000  1.5501  0.0005  1.0964 
   405.500 -32.081  4.2430  0.3460 -999.25 -24.081  4.2430  0.3460 -999.25  0.2500  405.50  2.6400  1.5522  0.0006  1.0980 
   406.000 -30.423  5.1620  0.3380 -999.25 -22.423  5.1620  0.3380 -999.25  0.2500  406.00  2.8800  1.5544  0.0007  1.0996 
   406.500 -28.765  8.4000  0.3240 -999.25 -20.765  8.4000  0.3240 -999.25  0.2500  406.50  3.1200  1.5566  0.0008  1.1013 
   407.000 -27.972  9.4340  0.3170 -999.25 -19.972  9.4340  0.3170 -999.25  0.2500  407.00  3.3600  1.5588  0.0010  1.1029 
   407.500 -27.504  10.934  0.2810  0.0050 -19.504  10.934  0.2810  0.0050  0.2500  407.50  3.6000  1.5610  0.0011  1.1045 
   408.000 -26.855  12.485  0.2670  0.0350 -18.855  12.485  0.2670  0.0350  0.2500  408.00  3.8400  1.5631  0.0012  1.1062 
   408.500 -26.277  14.007  0.2600  0.0650 -18.277  14.007  0.2600  0.0650  0.2500  408.50  4.0800  1.5653  0.0014  1.1078 
   409.000 -25.809  15.055  0.2530  0.0950 -17.809  15.055  0.2530  0.0950  0.2500  409.00  4.3200  1.5675  0.0016  1.1095 
   409.500 -25.592  15.752  0.2450  0.1110 -17.592  15.752  0.2450  0.1110  0.2500  409.50  4.5600  1.5697  0.0017  1.1111 
   410.000 -25.394  16.261  0.2460  0.1550 -17.394  16.261  0.2460  0.1550  0.2500  410.00  4.8000  1.5718  0.0019  1.1128 
   410.500 -25.195  16.470  0.2390  0.1490 -17.195  16.470  0.2390  0.1490  0.2500  410.50  5.0400  1.5740  0.0021  1.1145 
   411.000 -25.013  16.542  0.2240  0.1220 -17.013  16.542  0.2240  0.1220  0.2500  411.00  5.2800  1.5762  0.0023  1.1162 
   411.500 -24.904  16.620  0.2030  0.0300 -16.904  16.620  0.2030  0.0300  0.2500  411.50  5.5200  1.5784  0.0025  1.1178 
   412.000 -24.868  16.736  0.1740  0.0290 -16.868  16.736  0.1740  0.0290  0.2500  412.00  5.7600  1.5805  0.0027  1.1195 
   412.500 -24.723  16.793  0.1530  0.0270 -16.723  16.793  0.1530  0.0270  0.2500  412.50  6.0000  1.5827  0.0030  1.1212 
   413.000 -24.686  17.016  0.1170  0.0260 -16.686  17.016  0.1170  0.0260  0.2500  413.00  6.2400  1.5849  0.0032  1.1229 
   413.500 -24.794  17.245  0.0670  0.0250 -16.794  17.245  0.0670  0.0250  0.2500  413.50  6.4800  1.5870  0.0035  1.1246 
   414.000 -25.045  17.439  0.0450  0.0240 -17.045  17.439  0.0450  0.0240  0.2500  414.00  6.7200  1.5892  0.0037  1.1264 
   414.500 -25.369  17.798  0.2820  0.0220 -17.369  17.798  0.2820  0.0220  0.2500  414.50  6.9600  1.5914  0.0040  1.1281 
   415.000 -25.908  18.064  0.7700  0.0210 -17.908  18.064  0.7700  0.0210  0.2500  415.00  7.2000  1.5935  0.0042  1.1298 
   415.500 -26.340  18.380  1.9690  0.0200 -18.340  18.380  1.9690  0.0200  0.2500  415.50  7.4400  1.5957  0.0045  1.1315 
   416.000 -26.014  18.753  3.7570  0.0190 -18.014  18.753  3.7570  0.0190  0.2500  416.00  7.6800  1.5979  0.0048  1.1333 
   416.500 -25.509  19.141  5.2140  0.0180 -17.509  19.141  5.2140  0.0180  0.2500  416.50  7.9200  1.6000  0.0051  1.1350 
   417.000 -25.257  19.550  6.7220  0.0160 -17.257  19.550  6.7220  0.0160  0.2500  417.00  8.1600  1.6022  0.0054  1.1367 
   417.500 -24.824  19.931  11.517  0.0150 -16.824  19.931  11.517  0.0150  0.2500  417.50  8.4000  1.6043  0.0057  1.1385 
   418.000 -24.572  20.767  13.384  0.0140 -16.572  20.767  13.384  0.0140  0.2500  418.00  8.6400  1.6065  0.0061  1.1403 
   418.500 -24.319  21.603  15.279  0.0130 -16.319  21.603  15.279  0.0130  0.2500  418.50  8.8800  1.6086  0.0064  1.1420 
   419.000 -23.813  22.439  17.828  0.0110 -15.813  22.439  17.828  0.0110  0.2500  419.00  9.1200  1.6108  0.0068  1.1438 
   419.500 -23.488  23.275  19.206  0.0100 -15.488  23.275  19.206  0.0100  0.2500  419.50  9.3600  1.6129  0.0071  1.1456 
   420.000 -23.235  24.111  19.874  0.0090 -15.235  24.111  19.874  0.0090  0.2500  420.00  9.6000  1.6151  0.0075  1.1473 
   420.500 -23.054  24.947  21.033  0.0080 -15.054  24.947  21.033  0.0080  0.2500  420.50  9.8400  1.6172  0.0078  1.1491 
   421.000 -22.874  25.783  22.192  0.0060 -14.874  25.783  22.192  0.0060  0.2500  421.00  10.080  1.6194  0.0082  1.1509 
   421.500 -23.341  26.619  23.352  0.0050 -15.341  26.619  23.352  0.0050  0.2500  421.50  10.320  1.6215  0.0086  1.1527 
   422.000 -23.845  27.455  24.511  0.0210 -15.845  27.455  24.511  0.0210  0.2500  422.00  10.560  1.6237  0.0090  1.1545 
   422.500 -24.421  28.291  25.732  0.0290 -16.421  28.291  25.732  0.0290  0.2500  422.50  10.800  1.6258  0.0094  1.1563 
   423.000 -25.247  29.127  27.528  0.0310 -17.247  29.127  27.528  0.0310  0.2500  423.00  11.040  1.6280  0.0098  1.1581 
   423.500 -25.715  29.963  29.109  0.0460 -17.715  29.963  29.109  0.0460  0.2500  423.50  11.280  1.6301  0.0103  1.1599 
   424.000 -26.326  30.799  30.762  0.1410 -18.326  30.799  30.762  0.1410  0.2500  424.00  11.520  1.6323  0.0107  1.1617 
   424.500 -26.722  31.635  32.054  0.6380 -18.722  31.635  32.054  0.6380  0.2500  424.50  11.760  1.6344  0.0111  1.1636 
   425.000 -27.225  32.471  33.275  1.6520 -19.225  32.471  33.275  1.6520  0.2500  425.00  12.000  1.6365  0.0116  1.1654 
   425.500 -27.657  33.307  34.569  6.4850 -19.657  33.307  34.569  6.4850  0.2500  425.50  12.240  1.6387  0.0121  1.1672 
   426.000 -28.088  34.143  35.142  8.4900 -20.088  34.143  35.142  8.4900  0.2500  426.00  12.480  1.6408  0.0125  1.1691 
   426.500 -28.340  34.980  36.364  20.361 -20.340  34.980  36.364  20.361  0.2500  426.50  12.720  1.6429  0.0130  1.1709 
   427.000 -28.303  35.816  37.227  22.168 -20.303  35.816  37.227  22.168  0.2500  427.00  12.960  1.6450  0.0135  1.1728 
   427.500 -28.158  36.652  37.657  23.975 -20.158  36.652  37.657  23.975  0.2500  427.50  13.200  1.6472  0.0140  1.1746 
   428.000 -28.086  36.939  37.945  27.940 -20.086  36.939  37.945  27.940  0.2500  428.00  13.440  1.6493  0.0145  1.1765 
   428.500 -28.014  37.225  38.017  28.814 -20.014  37.225  38.017  28.814  0.2500  428.50  13.680  1.6514  0.0150  1.1783 
   429.000 -27.724  37.512  38.018  29.473 -19.724  37.512  38.018  29.473  0.2500  429.00  13.920  1.6535  0.0156  1.1802 
   429.500 -27.507  37.875  38.091  29.629 -19.507  37.875  38.091  29.629  0.2500  429.50  14.160  1.6556  0.0161  1.1821 
   430.000 -27.254  37.804  37.947  29.642 -19.254  37.804  37.947  29.642  0.2500  430.00  14.400  1.6577  0.0166  1.1840 
   430.500 -26.749  37.445  37.662  29.082 -18.749  37.445  37.662  29.082  0.2500  430.50  14.640  1.6599  0.0172  1.1858 
   431.000 -26.388  36.585  37.303  28.591 -18.388  36.585  37.303  28.591  0.2500  431.00  14.880  1.6620  0.0178  1.1877 
   431.500 -26.063  35.223  36.801  27.456 -18.063  35.223  36.801  27.456  0.2500  431.50  15.120  1.6641  0.0183  1.1896 
   432.000 -25.775  34.361  35.653  26.606 -17.775  34.361  35.653  26.606  0.2500  432.00  15.360  1.6662  0.0189  1.1915 
