~Version Information
VERS.                     2.0: CWLS log ASCII Standard Version 2.00
WRAP.                      NO: One line per depth step
~Well Information Block
#MNEM.UNIT                               Data Type  Information
#---------                               ---------  -----------
STRT.FT                                   330.0000:
STOP.FT                                  8660.0000:
STEP.FT                                     0.5000:
NULL.                 -999.25                     :
COMP.                                             :COMPANY            
WELL.     SAN EMIDIO A #81-29                     :WELL               
FLD .                                             :FIELD              
CTRY.                                             :COUNTRY            
STAT.                                             :STATE              
LOC .                                             :LOCATION           
UWI .                                             :UNIQUE WELL ID     
SRVC.                                             :Service company    
DATE.                                             :LOG DATE           
~Curve Information
#MNEM.UNIT           API CODE  Curve Description
#---------           --------  -----------------
DEPT.FT                      :   1 DEPTH
SP  .MV                      :   2
AM10.OHMM                    :   3
AO10.OHMM                    :   4
AO19.OHMM                    :   5
SBL .MV                      :   6
RS  .OHMM                    :   7
RM  .OHMM                    :   8
RD  .OHMM                    :   9
DEVI.DEG                     :  10
TVD .FT                      :  11
AZIM.DEG                     :  12
NORT.FT                      :  13
EAST.FT                      :  14
OFFS.FT                      :  15
~A
# ...
  6407.500 -25.200  9.3910  16.456  15.521 -10.403  9.3910  16.456  15.521  3.0514  6405.8  184.01 -11.203  19.567  5.9136 
  6408.000 -25.198  9.4270  16.690  16.240 -10.403  9.4270  16.690  16.240  3.0539  6406.3  184.01 -11.230  19.565  5.8935 
  6408.500 -25.016  9.4990  18.987  16.672 -10.224  9.4990  18.987  16.672  3.0563  6406.8  184.01 -11.257  19.563  5.8734 
  6409.000 -24.833  9.9670  21.284  17.715 -10.043  9.9670  21.284  17.715  3.0588  6407.3  184.01 -11.283  19.561  5.8532 
  6409.500 -24.831  10.615  31.719  19.010 -10.044  10.615  31.719  19.010  3.0612  6407.8  184.01 -11.310  19.559  5.8331 
  6410.000 -24.830  11.046  33.880  23.190 -10.045  11.046  33.880  23.190  3.0637  6408.3  184.01 -11.337  19.557  5.8129 
  6410.500 -24.829  12.089  34.244  27.369 -10.046  12.089  34.244  27.369  3.0661  6408.8  184.01 -11.363  19.555  5.7927 
  6411.000 -25.187  12.989  32.810  31.548 -10.407  12.989  32.810  31.548  3.0686  6409.3  184.01 -11.390  19.553  5.7725 
  6411.500 -25.727  13.241  30.297  22.925 -10.949  13.241  30.297  22.925  3.0710  6409.8  184.01 -11.417  19.552  5.7523 
  6412.000 -26.448  13.061  26.346  20.413 -11.673  13.061  26.346  20.413  3.0735  6410.3  184.01 -11.443  19.550  5.7321 
  6412.500 -26.266  11.336  19.534  19.947 -11.493  11.336  19.534  19.947  3.0759  6410.8  184.01 -11.470  19.548  5.7118 
  6413.000 -26.083  10.510  18.132  12.289 -11.312  10.510  18.132  12.289  3.0784  6411.3  184.01 -11.497  19.546  5.6916 
  6413.500 -26.081  9.7550  17.341  12.326 -11.313  9.7550  17.341  12.326  3.0808  6411.8  184.01 -11.524  19.544  5.6713 
  6414.000 -26.079  9.4680  14.285  13.081 -11.313  9.4680  14.285  13.081  3.0833  6412.3  184.01 -11.551  19.542  5.6510 
  6414.500 -26.257  10.043  15.113  14.268 -11.494  10.043  15.113  14.268  3.0826  6412.8  184.04 -11.577  19.540  5.6307 
  6415.000 -26.436  10.655  15.689  15.707 -11.675  10.655  15.689  15.707  3.0819  6413.3  184.07 -11.604  19.538  5.6104 
  6415.500 -26.977  13.064  16.121  18.008 -12.218  13.064  16.121  18.008  3.0812  6413.8  184.11 -11.631  19.537  5.5900 
  6416.000 -28.060  13.892  16.588  18.836 -13.304  13.892  16.588  18.836  3.0805  6414.3  184.14 -11.658  19.535  5.5697 
  6416.500 -28.419  15.942  16.840  19.447 -13.665  15.942  16.840  19.447  3.0798  6414.8  184.17 -11.685  19.533  5.5494 
  6417.000 -28.960  16.266  17.704  25.486 -14.209  16.266  17.704  25.486  3.0791  6415.3  184.21 -11.711  19.531  5.5291 
  6417.500 -29.319  16.482  17.740  23.693 -14.570  16.482  17.740  23.693  3.0784  6415.8  184.24 -11.738  19.529  5.5087 
  6418.000 -29.408  16.590  17.597  21.899 -14.661  16.590  17.597  21.899  3.0778  6416.3  184.27 -11.765  19.527  5.4884 
  6418.500 -29.497  15.044  17.345  20.824 -14.753  15.044  17.345  20.824  3.0771  6416.8  184.30 -11.792  19.525  5.4680 
  6419.000 -29.855  14.505  12.815  19.701 -15.113  14.505  12.815  19.701  3.0764  6417.3  184.34 -11.818  19.523  5.4477 
  6419.500 -29.220  13.859  12.276  14.056 -14.480  13.859  12.276  14.056  3.0757  6417.8  184.37 -11.845  19.521  5.4273 
  6420.000 -28.586  13.176  11.989  13.158 -13.849  13.176  11.989  13.158  3.0750  6418.3  184.40 -11.872  19.519  5.4070 
  6420.500 -28.223  11.019  11.378  12.152 -13.488  11.019  11.378  12.152  3.0743  6418.8  184.44 -11.899  19.516  5.3866 
  6421.000 -27.860  10.264  10.840  11.649 -13.128  10.264  10.840  11.649  3.0736  6419.3  184.47 -11.925  19.514  5.3662 
  6421.500 -27.315  9.3660  10.768  11.002 -12.585  9.3660  10.768  11.002  3.0729  6419.8  184.50 -11.952  19.512  5.3458 
  6422.000 -26.952  8.8270  10.589  10.787 -12.224  8.8270  10.589  10.787  3.0722  6420.3  184.54 -11.979  19.510  5.3254 
  6422.500 -26.769  8.3240  10.265  10.427 -12.044  8.3240  10.265  10.427  3.0716  6420.8  184.57 -12.006  19.508  5.3050 
  6423.000 -26.677  7.7490  9.9780  10.176 -11.954  7.7490  9.9780  10.176  3.0709  6421.3  184.60 -12.032  19.506  5.2846 
  6423.500 -26.586  7.3180  9.7270  10.105 -11.866  7.3180  9.7270  10.105  3.0702  6421.8  184.64 -12.059  19.504  5.2642 
  6424.000 -26.493  6.9950  9.9430  9.9250 -11.775  6.9950  9.9430  9.9250  3.0695  6422.3  184.67 -12.086  19.502  5.2438 
  6424.500 -26.401  6.8510  10.591  9.8180 -11.685  6.8510  10.591  9.8180  3.0688  6422.8  184.70 -12.112  19.499  5.2234 
  6425.000 -26.579  6.7800  11.562  9.6380 -11.866  6.7800  11.562  9.6380  3.0681  6423.3  184.73 -12.139  19.497  5.2030 
  6425.500 -26.577  6.7080  12.749  9.5310 -11.866  6.7080  12.749  9.5310  3.0674  6423.8  184.77 -12.166  19.495  5.1826 
  6426.000 -26.666  6.6370  13.073  9.4230 -11.958  6.6370  13.073  9.4230  3.0667  6424.3  184.80 -12.192  19.493  5.1621 
  6426.500 -26.755  6.6730  13.433  9.3520 -12.049  6.6730  13.433  9.3520  3.0661  6424.8  184.83 -12.219  19.490  5.1417 
  6427.000 -26.933  6.7100  13.793  9.4600 -12.229  6.7100  13.793  9.4600  3.0654  6425.3  184.87 -12.246  19.488  5.1213 
  6427.500 -26.932  6.7280  13.901  9.5680 -12.231  6.7280  13.901  9.5680  3.0647  6425.8  184.90 -12.272  19.486  5.1008 
  6428.000 -26.930  6.7460  14.009  9.9640 -12.231  6.7460  14.009  9.9640  3.0640  6426.3  184.93 -12.299  19.484  5.0804 
  6428.500 -26.928  6.8190  13.938  10.540 -12.232  6.8190  13.938  10.540  3.0633  6426.8  184.97 -12.325  19.481  5.0599 
  6429.000 -26.926  6.8910  13.722  11.044 -12.232  6.8910  13.722  11.044  3.0626  6427.3  185.00 -12.352  19.479  5.0394 
  6429.500 -26.924  6.9630  13.543  11.548 -12.232  6.9630  13.543  11.548  3.0619  6427.8  185.03 -12.379  19.477  5.0190 
  6430.000 -26.832  7.1080  13.400  11.602 -12.143  7.1080  13.400  11.602  3.0612  6428.3  185.06 -12.405  19.474  4.9985 
  6430.500 -26.740  7.2520  13.364  11.656 -12.053  7.2520  13.364  11.656  3.0605  6428.8  185.10 -12.432  19.472  4.9780 
  6431.000 -26.738  7.4680  13.401  11.639 -12.054  7.4680  13.401  11.639  3.0599  6429.3  185.13 -12.458  19.469  4.9575 
  6431.500 -26.736  7.5760  13.473  11.621 -12.054  7.5760  13.473  11.621  3.0592  6429.8  185.16 -12.485  19.467  4.9370 
  6432.000 -26.915  7.6840  13.617  11.729 -12.235  7.6840  13.617  11.729  3.0585  6430.2  185.20 -12.512  19.465  4.9165 
  6432.500 -27.094  8.0800  13.689  12.053 -12.417  8.0800  13.689  12.053  3.0578  6430.7  185.23 -12.538  19.462  4.8960 
  6433.000 -27.092  8.2250  13.941  12.629 -12.417  8.2250  13.941  12.629  3.0571  6431.2  185.26 -12.565  19.460  4.8755 
  6433.500 -27.089  8.4050  14.229  13.097 -12.417  8.4050  14.229  13.097  3.0564  6431.7  185.30 -12.591  19.457  4.8550 
  6434.000 -27.268  8.5850  15.237  14.212 -12.598  8.5850  15.237  14.212  3.0557  6432.2  185.33 -12.618  19.455  4.8345 
  6434.500 -27.447  8.8550  15.201  16.837 -12.779  8.8550  15.201  16.837  3.0550  6432.7  185.36 -12.644  19.452  4.8140 
  6435.000 -27.445  9.1250  14.986  17.017 -12.780  9.1250  14.986  17.017  3.0544  6433.2  185.40 -12.671  19.450  4.7935 
  6435.500 -27.444  9.4490  14.483  17.233 -12.781  9.4490  14.483  17.233  3.0537  6433.7  185.43 -12.697  19.447  4.7729 
  6436.000 -27.533  9.5570  13.333  17.449 -12.873  9.5570  13.333  17.449  3.0530  6434.2  185.46 -12.724  19.445  4.7524 
  6436.500 -27.621  9.6830  12.398  16.946 -12.963  9.6830  12.398  16.946  3.0523  6434.7  185.49 -12.750  19.442  4.7319 
  6437.000 -27.618  9.8100  11.895  16.731 -12.962  9.8100  11.895  16.731  3.0516  6435.2  185.53 -12.777  19.440  4.7113 
  6437.500 -27.526  10.134  11.572  16.516 -12.873  10.134  11.572  16.516  3.0509  6435.7  185.56 -12.803  19.437  4.6908 
  6438.000 -27.435  10.242  11.393  14.683 -12.784  10.242  11.393  14.683  3.0502  6436.2  185.59 -12.830  19.434  4.6702 
  6438.500 -27.251  9.7390  11.141  14.144 -12.603  9.7390  11.141  14.144  3.0495  6436.7  185.63 -12.856  19.432  4.6496 
  6439.000 -27.611  9.3440  11.034  14.126 -12.965  9.3440  11.034  14.126  3.0488  6437.2  185.66 -12.883  19.429  4.6291 
  6439.500 -28.151  8.9490  11.538  14.108 -13.507  8.9490  11.538  14.108  3.0482  6437.7  185.69 -12.909  19.427  4.6085 
