~Version Information
VERS.                     2.0: CWLS log ASCII Standard Version 2.00
WRAP.                      NO: One line per depth step
~Well Information Block
#MNEM.UNIT                               Data Type  Information
#---------                               ---------  -----------
STRT.FT                                   330.0000:
STOP.FT                                  8660.0000:
STEP.FT                                     0.5000:
NULL.                 -999.25                     :
COMP.                                             :COMPANY            
WELL.     SAN EMIDIO A #81-29                     :WELL               
FLD .                                             :FIELD              
CTRY.                                             :COUNTRY            
STAT.                                             :STATE              
LOC .                                             :LOCATION           
UWI .                                             :UNIQUE WELL ID     
SRVC.                                             :Service company    
DATE.                                             :LOG DATE           
~Curve Information
#MNEM.UNIT           API CODE  Curve Description
#---------           --------  -----------------
DEPT.FT                      :   1 DEPTH
SP  .MV                      :   2
AM10.OHMM                    :   3
AO10.OHMM                    :   4
AO19.OHMM                    :   5
SBL .MV                      :   6
RS  .OHMM                    :   7
RM  .OHMM                    :   8
RD  .OHMM                    :   9
DEVI.DEG                     :  10
TVD .FT                      :  11
AZIM.DEG                     :  12
NORT.FT                      :  13
EAST.FT                      :  14
OFFS.FT                      :  15
~A
# ...
  5855.000 -29.793  2.1790  2.0350  1.4950 -15.402  2.1790  2.0350  1.4950  2.5000  5853.8  200.86  11.755  25.273  26.183 
  5855.500 -30.069  2.1770  2.0700  1.5110 -15.675  2.1770  2.0700  1.5110  2.5000  5854.3  200.89  11.735  25.265  26.163 
  5856.000 -30.346  2.1760  2.1050  1.5280 -15.949  2.1760  2.1050  1.5280  2.5000  5854.8  200.93  11.715  25.257  26.143 
  5856.500 -30.535  2.1750  2.1750  1.5450 -16.136  2.1750  2.1750  1.5450  2.5000  5855.3  200.96  11.694  25.249  26.123 
  5857.000 -29.637  2.1750  2.1020  1.5800 -15.235  2.1750  2.1020  1.5800  2.5000  5855.8  201.00  11.674  25.241  26.103 
  5857.500 -29.101  2.1740  2.0290  1.6140 -14.696  2.1740  2.0290  1.6140  2.5000  5856.3  201.03  11.653  25.234  26.083 
  5858.000 -28.385  2.1720  1.9560  1.6850 -13.978  2.1720  1.9560  1.6850  2.5000  5856.8  201.07  11.633  25.226  26.063 
  5858.500 -27.848  2.1710  1.9020  1.7190 -13.438  2.1710  1.9020  1.7190  2.5000  5857.3  201.10  11.613  25.218  26.043 
  5859.000 -27.312  2.1880  1.8470  1.7360 -12.899  2.1880  1.8470  1.7360  2.5000  5857.8  201.14  11.592  25.210  26.023 
  5859.500 -26.597  2.2050  1.8280  1.7530 -12.182  2.2050  1.8280  1.7530  2.5000  5858.3  201.17  11.572  25.202  26.003 
  5860.000 -26.242  2.2040  1.8090  1.7880 -11.824  2.2040  1.8090  1.7880  2.5000  5858.8  201.21  11.552  25.194  25.983 
  5860.500 -26.609  2.2030  1.8080  1.8220 -12.188  2.2030  1.8080  1.8220  2.5000  5859.3  201.24  11.531  25.186  25.963 
  5861.000 -26.976  2.2020  1.7710  1.8570 -12.553  2.2020  1.7710  1.8570  2.5000  5859.8  201.28  11.511  25.179  25.943 
  5861.500 -27.526  2.2000  1.7690  1.8910 -13.100  2.2000  1.7690  1.8910  2.5000  5860.3  201.31  11.491  25.171  25.924 
  5862.000 -27.802  2.1990  1.8040  1.9260 -13.373  2.1990  1.8040  1.9260  2.5000  5860.8  201.35  11.470  25.163  25.904 
  5862.500 -28.079  2.1980  1.8390  1.9600 -13.648  2.1980  1.8390  1.9600  2.5000  5861.3  201.38  11.450  25.155  25.884 
  5863.000 -27.364  2.1970  1.9100  2.0130 -12.930  2.1970  1.9100  2.0130  2.5000  5861.8  201.42  11.430  25.147  25.864 
  5863.500 -26.647  2.1960  1.9810  2.0660 -12.210  2.1960  1.9810  2.0660  2.5000  5862.3  201.45  11.410  25.139  25.844 
  5864.000 -26.112  2.1950  2.0160  2.0820 -11.673  2.1950  2.0160  2.0820  2.5000  5862.8  201.49  11.389  25.131  25.824 
  5864.500 -26.118  2.1940  2.0500  2.0990 -11.676  2.1940  2.0500  2.0990  2.5000  5863.3  201.52  11.369  25.123  25.804 
  5865.000 -26.394  2.2290  2.0850  2.1340 -11.949  2.2290  2.0850  2.1340  2.5000  5863.8  201.56  11.349  25.115  25.784 
  5865.500 -26.671  2.2270  2.1380  2.1690 -12.224  2.2270  2.1380  2.1690  2.5000  5864.3  201.59  11.328  25.107  25.764 
  5866.000 -27.221  2.2440  2.1910  2.2030 -12.771  2.2440  2.1910  2.2030  2.5000  5864.8  201.63  11.308  25.099  25.744 
  5866.500 -27.949  2.2610  2.2610  2.2380 -13.496  2.2610  2.2610  2.2380  2.5000  5865.3  201.66  11.288  25.091  25.724 
  5867.000 -28.678  2.3320  2.2960  2.2540 -14.223  2.3320  2.2960  2.2540  2.5000  5865.8  201.70  11.268  25.083  25.703 
  5867.500 -30.493  2.3310  2.2950  2.2710 -16.035  2.3310  2.2950  2.2710  2.5000  5866.3  201.73  11.247  25.075  25.683 
  5868.000 -32.487  2.4020  2.2940  2.2700 -18.026  2.4020  2.2940  2.2700  2.5000  5866.8  201.77  11.227  25.066  25.663 
  5868.500 -37.555  2.4730  2.2570  2.2680 -23.092  2.4730  2.2570  2.2680  2.5000  5867.3  201.80  11.207  25.058  25.643 
  5869.000 -40.452  2.5790  2.2560  2.2430 -25.986  2.5790  2.2560  2.2430  2.5000  5867.8  201.84  11.187  25.050  25.623 
  5869.500 -42.808  2.7570  2.2550  2.2180 -28.339  2.7570  2.2550  2.2180  2.5000  5868.3  201.87  11.166  25.042  25.603 
  5870.000 -45.344  3.0080  2.2360  2.1930 -30.873  3.0080  2.2360  2.1930  2.5000  5868.8  201.91  11.146  25.034  25.583 
  5870.500 -48.784  3.2220  2.2170  2.1560 -34.310  3.2220  2.2170  2.1560  2.5000  5869.3  201.94  11.126  25.026  25.563 
  5871.000 -59.273  3.4720  2.1800  2.1370 -44.796  3.4720  2.1800  2.1370  2.5000  5869.8  201.98  11.106  25.018  25.543 
  5871.500 -60.725  3.5790  2.2150  2.1180 -46.246  3.5790  2.2150  2.1180  2.5000  5870.3  202.01  11.085  25.009  25.523 
  5872.000 -62.358  3.8650  2.2500  2.1520 -47.876  3.8650  2.2500  2.1520  2.5000  5870.8  202.05  11.065  25.001  25.503 
  5872.500 -63.267  4.0070  2.2840  2.1510 -48.782  4.0070  2.2840  2.1510  2.5000  5871.3  202.08  11.045  24.993  25.483 
  5873.000 -59.840  4.3650  2.3370  2.1490 -45.353  4.3650  2.3370  2.1490  2.5000  5871.8  202.12  11.025  24.985  25.463 
  5873.500 -55.510  4.5790  2.3900  2.6510 -41.020  4.5790  2.3900  2.6510  2.5000  5872.3  202.15  11.005  24.977  25.443 
  5874.000 -45.395  4.6140  2.7120  2.8290 -30.902  4.6140  2.7120  2.8290  2.5000  5872.8  202.19  10.984  24.968  25.423 
  5874.500 -35.101  4.6490  2.8900  3.1150 -20.606  4.6490  2.8900  3.1150  2.5000  5873.3  202.22  10.964  24.960  25.402 
  5875.000 -33.117  4.6120  3.1050  3.4360 -18.619  4.6120  3.1050  3.4360  2.5000  5873.8  202.26  10.944  24.952  25.382 
  5875.500 -30.594  4.6110  3.3550  3.6500 -16.093  4.6110  3.3550  3.6500  2.5000  5874.3  202.29  10.924  24.944  25.362 
  5876.000 -29.154  4.7170  3.6410  3.7930 -14.651  4.7170  3.6410  3.7930  2.5000  5874.8  202.33  10.904  24.935  25.342 
  5876.500 -27.714  4.8240  3.7470  3.9710 -13.208  4.8240  3.7470  3.9710  2.5000  5875.3  202.36  10.884  24.927  25.322 
  5877.000 -31.336  5.1460  3.6030  3.7900 -16.827  5.1460  3.6030  3.7900  2.5000  5875.8  202.40  10.863  24.919  25.302 
  5877.500 -36.584  5.2520  3.4940  3.6100 -22.073  5.2520  3.4940  3.6100  2.5000  5876.3  202.43  10.843  24.910  25.282 
  5878.000 -38.036  5.3590  3.3130  2.8550 -23.522  5.3590  3.3130  2.8550  2.5000  5876.8  202.47  10.823  24.902  25.261 
  5878.500 -40.572  5.3580  2.7380  2.4590 -26.055  5.3580  2.7380  2.4590  2.5000  5877.3  202.50  10.803  24.894  25.241 
  5879.000 -43.651  5.3570  2.2700  2.2240 -29.132  5.3570  2.2700  2.2240  2.5000  5877.8  202.54  10.783  24.885  25.221 
  5879.500 -46.910  6.0380  1.9820  1.9900 -32.388  6.0380  1.9820  1.9900  2.5000  5878.3  202.57  10.763  24.877  25.201 
  5880.000 -48.181  6.8260  1.9810  1.9880 -33.656  6.8260  1.9810  1.9880  2.5000  5878.8  202.61  10.742  24.869  25.181 
  5880.500 -47.284  7.0040  2.0880  2.0590 -32.757  7.0040  2.0880  2.0590  2.5000  5879.3  202.64  10.722  24.860  25.161 
  5881.000 -45.844  6.8960  2.1580  2.1110 -31.314  6.8960  2.1580  2.1110  2.5000  5879.8  202.68  10.702  24.852  25.141 
  5881.500 -46.032  6.7150  2.1030  2.1640 -31.499  6.7150  2.1030  2.1640  2.5000  5880.3  202.71  10.682  24.843  25.120 
  5882.000 -47.122  6.2830  2.0490  2.0910 -32.587  6.2830  2.0490  2.0910  2.5000  5880.8  202.75  10.662  24.835  25.100 
  5882.500 -47.851  5.6360  2.0120  2.0890 -33.313  5.6360  2.0120  2.0890  2.5000  5881.3  202.78  10.642  24.827  25.080 
  5883.000 -48.038  5.3480  1.9750  2.1780 -33.497  5.3480  1.9750  2.1780  2.5000  5881.8  202.82  10.622  24.818  25.060 
  5883.500 -46.599  5.3830  2.1530  2.2670 -32.056  5.3830  2.1530  2.2670  2.5000  5882.3  202.85  10.602  24.810  25.040 
  5884.000 -43.895  5.4180  2.4390  2.5520 -29.349  5.4180  2.4390  2.5520  2.5000  5882.8  202.89  10.582  24.801  25.019 
  5884.500 -30.888  5.4170  2.5280  2.3720 -16.339  5.4170  2.5280  2.3720  2.5000  5883.3  202.92  10.562  24.793  24.999 
  5885.000 -27.100  5.2360  2.6160  2.1190 -12.549  5.2360  2.6160  2.1190  2.5000  5883.8  202.96  10.541  24.784  24.979 
  5885.500 -24.395  4.8400  2.5440  1.9020 -9.8410  4.8400  2.5440  1.9020  2.5000  5884.3  202.99  10.521  24.776  24.959 
  5886.000 -23.497  4.2650  2.4710  1.7220 -8.9403  4.2650  2.4710  1.7220  2.5000  5884.8  203.03  10.501  24.767  24.938 
  5886.500 -22.599  3.6900  2.3800  1.5410 -8.0396  3.6900  2.3800  1.5410  2.5000  5885.3  203.06  10.481  24.759  24.918 
  5887.000 -22.607  2.4320  2.2890  1.4680 -8.0450  2.4320  2.2890  1.4680  2.5000  5885.8  203.10  10.461  24.750  24.898 
