~Version Information
VERS.                     2.0: CWLS log ASCII Standard Version 2.00
WRAP.                      NO: One line per depth step
~Well Information Block
#MNEM.UNIT                               Data Type  Information
#---------                               ---------  -----------
STRT.FT                                   400.0000:
STOP.FT                                  6820.0000:
STEP.FT                                     0.5000:
NULL.                 -999.25                     :
COMP.                                             :COMPANY            
WELL.     SAN EMIDIO A #86-19                     :WELL               
FLD .                                             :FIELD              
CTRY.                                             :COUNTRY            
STAT.                                             :STATE              
LOC .                                             :LOCATION           
UWI .                                             :UNIQUE WELL ID     
SRVC.                                             :Service company    
DATE.                                             :LOG DATE           
~Curve Information
#MNEM.UNIT           API CODE  Curve Description
#---------           --------  -----------------
DEPT.FT                      :   1 DEPTH
SP  .MV                      :   2
AM16.OHMM                    :   3
AO10.OHMM                    :   4
AO19.OHMM                    :   5
SBL .MV                      :   6
RS  .OHMM                    :   7
RM  .OHMM                    :   8
RD  .OHMM                    :   9
DEVI.DEG                     :  10
TVD .FT                      :  11
AZIM.DEG                     :  12
NORT.FT                      :  13
EAST.FT                      :  14
OFFS.FT                      :  15
~A
# ...
  5957.500 -9.5940  2.3200  2.0320  1.8160 -5.6453  2.3200  2.0320  1.8160  0.8333  5956.8  147.14  39.921  22.453  44.105 
  5958.000 -9.5850  2.3000  2.0000  1.7550 -5.6381  2.3000  2.0000  1.7550  0.8333  5957.3  147.15  39.915  22.457  44.104 
  5958.500 -9.5270  2.2800  1.9980  1.7100 -5.5818  2.2800  1.9980  1.7100  0.8333  5957.8  147.16  39.909  22.461  44.102 
  5959.000 -9.5740  2.2550  1.9890  1.6940 -5.6306  2.2550  1.9890  1.6940  0.8333  5958.3  147.17  39.903  22.465  44.101 
  5959.500 -9.6200  2.2350  2.0010  1.6700 -5.6784  2.2350  2.0010  1.6700  0.8333  5958.8  147.18  39.897  22.469  44.099 
  5960.000 -9.5580  2.2160  2.0200  1.6610 -5.6181  2.2160  2.0200  1.6610  0.8333  5959.3  147.19  39.891  22.473  44.098 
  5960.500 -9.2070  2.1830  2.0320  1.6730 -5.2689  2.1830  2.0320  1.6730  0.8333  5959.8  147.20  39.885  22.477  44.096 
  5961.000 -8.8930  2.1670  2.0440  1.6710 -4.9567  2.1670  2.0440  1.6710  0.8333  5960.3  147.21  39.878  22.481  44.095 
  5961.500 -8.6140  2.1650  2.0570  1.6760 -4.6794  2.1650  2.0570  1.6760  0.8333  5960.8  147.22  39.872  22.485  44.093 
  5962.000 -8.2630  2.1700  2.0620  1.6740 -4.3302  2.1700  2.0620  1.6740  0.8333  5961.3  147.23  39.866  22.489  44.092 
  5962.500 -8.0570  2.1820  2.0520  1.6640 -4.1260  2.1820  2.0520  1.6640  0.8333  5961.8  147.24  39.860  22.493  44.090 
  5963.000 -7.8150  2.1870  2.0430  1.6620 -3.8857  2.1870  2.0430  1.6620  0.8333  5962.3  147.25  39.854  22.497  44.089 
  5963.500 -7.6440  2.2060  2.0340  1.6590 -3.7165  2.2060  2.0340  1.6590  0.8333  5962.8  147.26  39.848  22.501  44.087 
  5964.000 -7.5830  2.2190  2.0240  1.6570 -3.6573  2.2190  2.0240  1.6570  0.8333  5963.3  147.27  39.842  22.505  44.085 
  5964.500 -7.4860  2.2670  2.0220  1.6550 -3.5620  2.2670  2.0220  1.6550  0.8333  5963.8  147.28  39.836  22.508  44.084 
  5965.000 -7.7850  2.3160  2.0200  1.6530 -3.8628  2.3160  2.0200  1.6530  0.8333  5964.3  147.29  39.829  22.512  44.082 
  5965.500 -8.3040  2.3990  2.0250  1.6510 -4.3836  2.3990  2.0250  1.6510  0.8333  5964.8  147.30  39.823  22.516  44.081 
  5966.000 -8.6750  2.4470  2.0300  1.6560 -4.7563  2.4470  2.0300  1.6560  0.8333  5965.3  147.31  39.817  22.520  44.079 
  5966.500 -9.0840  2.5390  2.0490  1.6610 -5.1671  2.5390  2.0490  1.6610  0.8333  5965.8  147.32  39.811  22.524  44.078 
  5967.000 -9.6030  2.5940  2.0760  1.7020 -5.6879  2.5940  2.0760  1.7020  0.8333  5966.3  147.33  39.805  22.528  44.076 
  5967.500 -9.9740  2.6060  2.1020  1.7940 -6.0606  2.6060  2.1020  1.7940  0.8333  5966.8  147.34  39.799  22.532  44.075 
  5968.000 -10.202  2.6110  2.1220  1.8770 -6.2904  2.6110  2.1220  1.8770  0.8333  5967.3  147.35  39.793  22.536  44.073 
  5968.500 -9.5260  2.6160  2.1560  1.9110 -5.6162  2.6160  2.1560  1.9110  0.8333  5967.8  147.36  39.787  22.540  44.071 
  5969.000 -8.5960  2.6070  2.1750  1.8870 -4.6880  2.6070  2.1750  1.8870  0.8333  5968.3  147.37  39.781  22.544  44.070 
  5969.500 -7.8830  2.5830  2.1950  1.8850 -3.9767  2.5830  2.1950  1.8850  0.8333  5968.8  147.38  39.774  22.548  44.068 
  5970.000 -7.3150  2.5660  2.2070  1.8730 -3.4105  2.5660  2.2070  1.8730  0.8333  5969.3  147.39  39.768  22.552  44.067 
  5970.500 -6.9620  2.5500  2.2190  1.8600 -3.0593  2.5500  2.2190  1.8600  0.8333  5969.8  147.40  39.762  22.556  44.065 
  5971.000 -6.5050  2.5340  2.2170  1.8350 -2.6040  2.5340  2.2170  1.8350  0.8333  5970.3  147.41  39.756  22.559  44.064 
  5971.500 -6.2980  2.5170  2.1930  1.8120 -2.3988  2.5170  2.1930  1.8120  0.8333  5970.8  147.42  39.750  22.563  44.062 
  5972.000 -6.0200  2.4640  2.1690  1.6870 -2.1226  2.4640  2.1690  1.6870  0.8333  5971.3  147.43  39.744  22.567  44.061 
  5972.500 -6.2470  2.4470  2.1310  1.6130 -2.3513  2.4470  2.1310  1.6130  0.8333  5971.8  147.44  39.738  22.571  44.059 
  5973.000 -6.6910  2.4380  2.0930  1.5170 -2.7971  2.4380  2.0930  1.5170  0.8333  5972.3  147.45  39.731  22.575  44.057 
  5973.500 -7.0270  2.4140  2.0690  1.4870 -3.1349  2.4140  2.0690  1.4870  0.8333  5972.8  147.46  39.725  22.579  44.056 
  5974.000 -7.3300  2.3940  2.0380  1.5340 -3.4396  2.3940  2.0380  1.5340  0.8333  5973.3  147.47  39.719  22.583  44.054 
  5974.500 -7.4480  2.3750  2.0220  1.5680 -3.5594  2.3750  2.0220  1.5680  0.8333  5973.8  147.48  39.713  22.587  44.053 
  5975.000 -7.5660  2.3430  1.9910  1.6090 -3.6792  2.3430  1.9910  1.6090  0.8333  5974.3  147.49  39.707  22.591  44.051 
  5975.500 -7.7600  2.3120  1.9740  1.6360 -3.8749  2.3120  1.9740  1.6360  0.8333  5974.8  147.50  39.701  22.595  44.050 
  5976.000 -7.8060  2.2880  1.9570  1.6630 -3.9227  2.2880  1.9570  1.6630  0.8333  5975.3  147.51  39.695  22.599  44.048 
  5976.500 -7.8190  2.2790  1.9590  1.7030 -3.9375  2.2790  1.9590  1.7030  0.8333  5975.8  147.52  39.689  22.602  44.046 
  5977.000 -7.7920  2.2910  1.9610  1.7230 -3.9122  2.2910  1.9610  1.7230  0.8333  5976.3  147.53  39.682  22.606  44.045 
  5977.500 -7.8040  2.3040  1.9870  1.7200 -3.9260  2.3040  1.9870  1.7200  0.8333  5976.8  147.54  39.676  22.610  44.043 
  5978.000 -7.5970  2.3230  2.0060  1.7190 -3.7208  2.3230  2.0060  1.7190  0.8333  5977.3  147.55  39.670  22.614  44.042 
  5978.500 -7.4260  2.3430  2.0180  1.7200 -3.5516  2.3430  2.0180  1.7200  0.8333  5977.8  147.56  39.664  22.618  44.040 
  5979.000 -6.6420  2.3690  2.0240  1.7220 -2.7693  2.3690  2.0240  1.7220  0.8333  5978.3  147.57  39.658  22.622  44.039 
  5979.500 -6.7600  2.3810  2.0360  1.7120 -2.8891  2.3810  2.0360  1.7120  0.8333  5978.8  147.58  39.652  22.626  44.037 
  5980.000 -7.0590  2.3710  2.0410  1.7090 -3.1899  2.3710  2.0410  1.7090  0.8333  5979.3  147.59  39.646  22.630  44.035 
  5980.500 -7.3600  2.3400  2.0530  1.7150 -3.4926  2.3400  2.0530  1.7150  0.8333  5979.8  147.60  39.639  22.634  44.034 
  5981.000 -7.6980  2.3090  2.0510  1.7190 -3.8324  2.3090  2.0510  1.7190  0.8333  5980.3  147.61  39.633  22.638  44.032 
  5981.500 -7.8890  2.2790  2.0770  1.7170 -4.0252  2.2790  2.0770  1.7170  0.8333  5980.8  147.62  39.627  22.641  44.031 
  5982.000 -7.5370  2.2700  2.0820  1.7230 -3.6749  2.2700  2.0820  1.7230  0.8333  5981.3  147.63  39.621  22.645  44.029 
  5982.500 -7.0770  2.2610  2.0870  1.7210 -3.2167  2.2610  2.0870  1.7210  0.8333  5981.8  147.64  39.615  22.649  44.027 
  5983.000 -7.3790  2.2500  2.0850  1.7180 -3.5205  2.2500  2.0850  1.7180  0.8333  5982.3  147.65  39.609  22.653  44.026 
  5983.500 -7.5330  2.2480  2.0830  1.7240 -3.6762  2.2480  2.0830  1.7240  0.8333  5982.8  147.66  39.603  22.657  44.024 
  5984.000 -7.7980  2.2530  2.0800  1.7290 -3.9430  2.2530  2.0800  1.7290  0.8333  5983.3  147.67  39.596  22.661  44.023 
  5984.500 -8.0990  2.2660  2.0860  1.7260 -4.2458  2.2660  2.0860  1.7260  0.8333  5983.8  147.68  39.590  22.665  44.021 
  5985.000 -8.5080  2.2780  2.0910  1.7310 -4.6565  2.2780  2.0910  1.7310  0.8333  5984.3  147.69  39.584  22.669  44.019 
  5985.500 -8.6980  2.2870  2.0950  1.7220 -4.8483  2.2870  2.0950  1.7220  0.8333  5984.8  147.70  39.578  22.673  44.018 
  5986.000 -8.9620  2.2960  2.0940  1.6980 -5.1141  2.2960  2.0940  1.6980  0.8333  5985.3  147.71  39.572  22.676  44.016 
  5986.500 -8.5400  2.3140  2.0910  1.6890 -4.6938  2.3140  2.0910  1.6890  0.8333  5985.8  147.72  39.566  22.680  44.015 
  5987.000 -7.9730  2.3190  2.0960  1.7080 -4.1286  2.3190  2.0960  1.7080  0.8333  5986.3  147.73  39.560  22.684  44.013 
  5987.500 -7.6580  2.3100  2.0940  1.7350 -3.8154  2.3100  2.0940  1.7350  0.8333  5986.8  147.74  39.553  22.688  44.011 
  5988.000 -7.6300  2.3000  2.0840  1.7900 -3.7892  2.3000  2.0840  1.7900  0.8333  5987.3  147.75  39.547  22.692  44.010 
  5988.500 -7.7300  2.2840  2.0750  1.8310 -3.8909  2.2840  2.0750  1.8310  0.8333  5987.8  147.76  39.541  22.696  44.008 
  5989.000 -7.8290  2.2670  2.0660  1.8720 -3.9917  2.2670  2.0660  1.8720  0.8333  5988.3  147.77  39.535  22.700  44.007 
  5989.500 -8.0620  2.2550  2.0710  1.9270 -4.2265  2.2550  2.0710  1.9270  0.8333  5988.8  147.78  39.529  22.704  44.005 
