~Version Information
VERS.                     2.0: CWLS log ASCII Standard Version 2.00
WRAP.                      NO: One line per depth step
~Well Information Block
#MNEM.UNIT                               Data Type  Information
#---------                               ---------  -----------
STRT.FT                                   330.0000:
STOP.FT                                  8660.0000:
STEP.FT                                     0.5000:
NULL.                 -999.25                     :
COMP.                                             :COMPANY            
WELL.     SAN EMIDIO A #81-29                     :WELL               
FLD .                                             :FIELD              
CTRY.                                             :COUNTRY            
STAT.                                             :STATE              
LOC .                                             :LOCATION           
UWI .                                             :UNIQUE WELL ID     
SRVC.                                             :Service company    
DATE.                                             :LOG DATE           
~Curve Information
#MNEM.UNIT           API CODE  Curve Description
#---------           --------  -----------------
DEPT.FT                      :   1 DEPTH
SP  .MV                      :   2
AM10.OHMM                    :   3
AO10.OHMM                    :   4
AO19.OHMM                    :   5
SBL .MV                      :   6
RS  .OHMM                    :   7
RM  .OHMM                    :   8
RD  .OHMM                    :   9
DEVI.DEG                     :  10
TVD .FT                      :  11
AZIM.DEG                     :  12
NORT.FT                      :  13
EAST.FT                      :  14
OFFS.FT                      :  15
~A
# ...
  4197.500 -24.276  3.7920  5.6350  4.2190 -10.276  3.7920  5.6350  4.2190  0.8416  4197.0  73.698  47.767  16.271  45.281 
  4198.000 -23.367  3.4000  4.9920  3.9880 -9.3670  3.4000  4.9920  3.9880  0.8399  4197.5  73.958  47.769  16.278  45.288 
  4198.500 -23.538  3.2400  4.6350  4.0620 -9.5380  3.2400  4.6350  4.0620  0.8383  4198.0  74.218  47.771  16.285  45.294 
  4199.000 -25.330  3.0790  4.6010  4.4570 -11.330  3.0790  4.6010  4.4570  0.8366  4198.5  74.478  47.773  16.292  45.301 
  4199.500 -29.287  3.2620  4.5660  4.6740 -15.287  3.2620  4.5660  4.6740  0.8349  4199.0  74.738  47.775  16.299  45.307 
  4200.000 -33.060  3.6940  4.6570  4.9260 -19.060  3.6940  4.6570  4.9260  0.8333  4199.5  74.998  47.777  16.306  45.313 
  4200.500 -34.316  3.8390  4.7480  5.3230 -20.316  3.8390  4.7480  5.3230  0.8320  4200.0  74.868  47.779  16.313  45.320 
  4201.000 -33.224  4.1640  4.8750  5.3600 -19.224  4.1640  4.8750  5.3600  0.8308  4200.5  74.738  47.781  16.320  45.326 
  4201.500 -31.054  4.4170  5.0020  5.2180 -17.054  4.4170  5.0020  5.2180  0.8295  4201.0  74.608  47.783  16.327  45.332 
  4202.000 -27.625  4.5260  5.1480  5.0400 -13.625  4.5260  5.1480  5.0400  0.8283  4201.5  74.478  47.785  16.334  45.338 
  4202.500 -25.091  4.0260  5.1140  4.8980 -11.091  4.0260  5.1140  4.8980  0.8270  4202.0  74.348  47.787  16.341  45.345 
  4203.000 -24.003  3.7770  5.0610  4.7560 -10.003  3.7770  5.0610  4.7560  0.8258  4202.5  74.218  47.788  16.348  45.351 
  4203.500 -23.094  3.4210  5.0090  4.5610 -9.0940  3.4210  5.0090  4.5610  0.8245  4203.0  74.088  47.790  16.354  45.357 
  4204.000 -22.006  3.1720  4.6890  4.3660 -8.0060  3.1720  4.6890  4.3660  0.8233  4203.5  73.958  47.792  16.361  45.364 
  4204.500 -23.078  3.0670  4.5830  4.3680 -9.0780  3.0670  4.5830  4.3680  0.8220  4204.0  73.828  47.794  16.368  45.370 
  4205.000 -26.672  3.1400  4.4780  4.5130 -12.672  3.1400  4.4780  4.5130  0.8208  4204.5  73.698  47.796  16.375  45.376 
  4205.500 -28.289  3.3030  4.7300  4.7110 -14.289  3.3030  4.7300  4.7110  0.8195  4205.0  73.568  47.798  16.382  45.382 
  4206.000 -30.802  3.4660  5.4120  4.9090 -16.802  3.4660  5.4120  4.9090  0.8183  4205.5  73.438  47.800  16.389  45.389 
  4206.500 -35.660  4.1850  5.6280  5.4500 -21.660  4.1850  5.6280  5.4500  0.8170  4206.0  73.308  47.803  16.396  45.395 
  4207.000 -36.913  5.1560  5.6660  5.7380 -22.913  5.1560  5.6660  5.7380  0.8158  4206.5  73.178  47.805  16.402  45.401 
  4207.500 -34.740  5.4800  5.5420  5.5780 -20.740  5.4800  5.5420  5.5780  0.8145  4207.0  73.048  47.807  16.409  45.408 
  4208.000 -32.931  5.3030  5.4180  5.4180 -18.931  5.3030  5.4180  5.4180  0.8133  4207.5  72.918  47.809  16.416  45.414 
  4208.500 -31.842  4.9830  5.2050  5.0260 -17.842  4.9830  5.2050  5.0260  0.8120  4208.0  72.788  47.811  16.423  45.420 
  4209.000 -30.393  4.8050  4.9920  4.8840 -16.393  4.8050  4.9920  4.8840  0.8108  4208.5  72.658  47.813  16.430  45.426 
  4209.500 -30.566  4.6280  4.8860  4.7430 -16.566  4.6280  4.8860  4.7430  0.8095  4209.0  72.528  47.815  16.436  45.433 
  4210.000 -34.339  4.5940  4.6370  4.9590 -20.339  4.5940  4.6370  4.9590  0.8083  4209.5  72.398  47.817  16.443  45.439 
  4210.500 -35.596  4.9900  4.4240  5.3560 -21.596  4.9900  4.4240  5.3560  0.8070  4210.0  72.268  47.819  16.450  45.445 
  4211.000 -36.853  5.3150  4.9270  5.5720 -22.853  5.3150  4.9270  5.5720  0.8058  4210.5  72.138  47.822  16.456  45.451 
  4211.500 -41.523  5.4960  5.4300  5.6810 -27.523  5.4960  5.4300  5.6810  0.8045  4211.0  72.008  47.824  16.463  45.458 
  4212.000 -42.955  5.6760  5.4130  5.7900 -28.955  5.6760  5.4130  5.7900  0.8033  4211.5  71.878  47.826  16.470  45.464 
  4212.500 -43.848  6.1820  5.3970  5.8280 -29.848  6.1820  5.3970  5.8280  0.8020  4212.0  71.748  47.828  16.476  45.470 
  4213.000 -45.281  6.5060  5.1840  5.7760 -31.281  6.5060  5.1840  5.7760  0.8008  4212.5  71.618  47.830  16.483  45.476 
  4213.500 -46.717  6.8480  4.9710  5.7240 -32.717  6.8480  4.9710  5.7240  0.7995  4213.0  71.488  47.832  16.490  45.483 
  4214.000 -48.150  7.1900  4.9010  5.6710 -34.150  7.1900  4.9010  5.6710  0.7983  4213.5  71.358  47.835  16.496  45.489 
  4214.500 -49.583  7.8030  4.7960  5.6190 -35.583  7.8030  4.7960  5.6190  0.7970  4214.0  71.228  47.837  16.503  45.495 
  4215.000 -51.375  7.9480  4.7260  5.5850 -37.375  7.9480  4.7260  5.5850  0.7958  4214.5  71.098  47.839  16.509  45.501 
  4215.500 -51.908  8.0930  4.7990  5.5500 -37.908  8.0930  4.7990  5.5500  0.7945  4215.0  70.968  47.841  16.516  45.508 
  4216.000 -53.164  8.5620  5.2660  5.4810 -39.164  8.5620  5.2660  5.4810  0.7933  4215.5  70.838  47.844  16.523  45.514 
  4216.500 -54.421  8.7070  5.9130  5.4470 -40.421  8.7070  5.9130  5.4470  0.7920  4216.0  70.708  47.846  16.529  45.520 
  4217.000 -56.210  8.8520  6.0940  5.4490 -42.210  8.8520  6.0940  5.4490  0.7908  4216.5  70.578  47.848  16.536  45.526 
  4217.500 -56.922  9.3930  6.2030  5.4500 -42.922  9.3930  6.2030  5.4500  0.7895  4217.0  70.448  47.851  16.542  45.532 
  4218.000 -57.634  9.5740  6.2040  5.4520 -43.634  9.5740  6.2040  5.4520  0.7883  4217.5  70.318  47.853  16.549  45.539 
  4218.500 -58.167  9.5400  6.2060  5.4530 -44.167  9.5400  6.2060  5.4530  0.7870  4218.0  70.188  47.855  16.555  45.545 
  4219.000 -58.159  9.5060  6.2070  5.4910 -44.159  9.5060  6.2070  5.4910  0.7858  4218.5  70.058  47.858  16.561  45.551 
  4219.500 -58.062  9.4720  6.1740  5.4930 -44.062  9.4720  6.1740  5.4930  0.7845  4219.0  69.928  47.860  16.568  45.557 
  4220.000 -57.966  9.4020  6.2110  5.4940 -43.966  9.4020  6.2110  5.4940  0.7833  4219.5  69.798  47.862  16.574  45.564 
  4220.500 -56.874  9.3320  6.2130  5.4780 -42.874  9.3320  6.2130  5.4780  0.7820  4220.0  69.668  47.865  16.581  45.570 
  4221.000 -56.145  9.2990  6.3580  5.4610 -42.145  9.2990  6.3580  5.4610  0.7808  4220.5  69.538  47.867  16.587  45.576 
  4221.500 -55.147  9.1930  6.4670  5.3200 -41.147  9.1930  6.4670  5.3200  0.7795  4221.0  69.408  47.869  16.593  45.582 
  4222.000 -54.148  8.9800  6.5760  5.1790 -40.148  8.9800  6.5760  5.1790  0.7783  4221.5  69.278  47.872  16.600  45.588 
  4222.500 -51.975  8.8740  6.6660  5.0190 -37.975  8.8740  6.6660  5.0190  0.7770  4222.0  69.148  47.874  16.606  45.595 
  4223.000 -49.986  8.6610  6.7570  4.8580 -35.986  8.6610  6.7570  4.8580  0.7758  4222.5  69.018  47.877  16.612  45.601 
  4223.500 -49.438  8.0540  6.9750  4.9140 -35.438  8.0540  6.9750  4.9140  0.7745  4223.0  68.888  47.879  16.619  45.607 
  4224.000 -48.349  7.6260  7.0470  4.9700 -34.349  7.6260  7.0470  4.9700  0.7733  4223.5  68.758  47.882  16.625  45.613 
  4224.500 -48.157  7.4130  7.1200  5.1150 -34.157  7.4130  7.1200  5.1150  0.7720  4224.0  68.628  47.884  16.631  45.619 
  4225.000 -47.969  7.5940  7.4100  5.2250 -33.969  7.5940  7.4100  5.2250  0.7708  4224.5  68.498  47.886  16.638  45.625 
  4225.500 -47.781  7.7390  7.6270  5.3690 -33.781  7.7390  7.6270  5.3690  0.7695  4225.0  68.368  47.889  16.644  45.632 
  4226.000 -47.413  7.8830  7.7360  5.5140 -33.413  7.8830  7.7360  5.5140  0.7683  4225.5  68.238  47.891  16.650  45.638 
  4226.500 -46.686  8.1730  7.9880  5.6230 -32.686  8.1730  7.9880  5.6230  0.7670  4226.0  68.108  47.894  16.656  45.644 
  4227.000 -45.960  8.4260  8.1690  5.8040 -31.960  8.4260  8.1690  5.8040  0.7658  4226.5  67.978  47.896  16.662  45.650 
  4227.500 -44.147  8.6790  8.4210  5.9130 -30.147  8.6790  8.4210  5.9130  0.7645  4227.0  67.848  47.899  16.669  45.656 
  4228.000 -42.698  8.8060  8.5660  6.1110 -28.698  8.8060  8.5660  6.1110  0.7633  4227.5  67.718  47.901  16.675  45.662 
  4228.500 -40.165  8.9330  8.6750  6.3100 -26.165  8.9330  8.6750  6.3100  0.7620  4228.0  67.588  47.904  16.681  45.668 
  4229.000 -38.716  9.0610  8.5870  6.5630 -24.716  9.0610  8.5870  6.5630  0.7608  4228.5  67.458  47.907  16.687  45.675 
  4229.500 -39.428  9.1880  8.4980  6.4750 -25.428  9.1880  8.4980  6.4750  0.7595  4229.0  67.328  47.909  16.693  45.681 
