~Version Information
VERS.                     2.0: CWLS log ASCII Standard Version 2.00
WRAP.                      NO: One line per depth step
~Well Information Block
#MNEM.UNIT                               Data Type  Information
#---------                               ---------  -----------
STRT.FT                                   400.0000:
STOP.FT                                  6820.0000:
STEP.FT                                     0.5000:
NULL.                 -999.25                     :
COMP.                                             :COMPANY            
WELL.     SAN EMIDIO A #86-19                     :WELL               
FLD .                                             :FIELD              
CTRY.                                             :COUNTRY            
STAT.                                             :STATE              
LOC .                                             :LOCATION           
UWI .                                             :UNIQUE WELL ID     
SRVC.                                             :Service company    
DATE.                                             :LOG DATE           
~Curve Information
#MNEM.UNIT           API CODE  Curve Description
#---------           --------  -----------------
DEPT.FT                      :   1 DEPTH
SP  .MV                      :   2
AM16.OHMM                    :   3
AO10.OHMM                    :   4
AO19.OHMM                    :   5
SBL .MV                      :   6
RS  .OHMM                    :   7
RM  .OHMM                    :   8
RD  .OHMM                    :   9
DEVI.DEG                     :  10
TVD .FT                      :  11
AZIM.DEG                     :  12
NORT.FT                      :  13
EAST.FT                      :  14
OFFS.FT                      :  15
~A
# ...
  5080.000 -31.032  3.8510  2.5130  2.7930 -24.878  3.8510  2.5130  2.7930  0.2666  5079.4  43.990  44.486  13.894  41.281 
  5080.500 -30.391  3.8060  3.0010  2.8850 -24.237  3.8060  3.0010  2.8850  0.2683  5079.9  44.265  44.488  13.896  41.283 
  5081.000 -29.097  3.6890  3.3510  2.8840 -22.944  3.6890  3.3510  2.8840  0.2700  5080.4  44.540  44.489  13.897  41.286 
  5081.500 -27.261  3.5290  3.6800  2.8390 -21.108  3.5290  3.6800  2.8390  0.2716  5080.9  44.815  44.491  13.899  41.288 
  5082.000 -24.845  3.4120  3.8730  2.7830 -18.692  3.4120  3.8730  2.7830  0.2733  5081.4  45.090  44.493  13.901  41.290 
  5082.500 -22.792  3.3310  3.9210  2.7270 -16.639  3.3310  3.9210  2.7270  0.2750  5081.9  45.365  44.494  13.902  41.293 
  5083.000 -20.884  3.2290  3.9260  2.6820 -14.732  3.2290  3.9260  2.6820  0.2766  5082.4  45.640  44.496  13.904  41.295 
  5083.500 -19.771  3.1550  3.9100  2.6580 -13.619  3.1550  3.9100  2.6580  0.2783  5082.9  45.915  44.498  13.906  41.298 
  5084.000 -19.238  3.1170  3.8650  2.6640 -13.086  3.1170  3.8650  2.6640  0.2800  5083.4  46.190  44.499  13.908  41.300 
  5084.500 -19.104  3.0860  3.8200  2.6830 -12.952  3.0860  3.8200  2.6830  0.2816  5083.9  46.465  44.501  13.909  41.302 
  5085.000 -19.076  3.1490  3.7250  2.7170 -12.925  3.1490  3.7250  2.7170  0.2833  5084.4  46.740  44.503  13.911  41.305 
  5085.500 -19.266  3.2330  3.5720  2.7450 -13.115  3.2330  3.5720  2.7450  0.2850  5084.9  47.015  44.505  13.913  41.307 
  5086.000 -19.783  3.3180  3.4620  2.7720 -13.632  3.3180  3.4620  2.7720  0.2866  5085.4  47.290  44.506  13.915  41.310 
  5086.500 -20.552  3.4170  3.3950  2.8210 -14.401  3.4170  3.3950  2.8210  0.2883  5085.9  47.565  44.508  13.917  41.312 
  5087.000 -21.356  3.4870  3.4080  2.8690 -15.206  3.4870  3.4080  2.8690  0.2900  5086.4  47.840  44.510  13.919  41.315 
  5087.500 -22.236  3.5210  3.4210  2.9320 -16.086  3.5210  3.4210  2.9320  0.2916  5086.9  48.115  44.511  13.920  41.318 
  5088.000 -22.859  3.5480  3.4690  2.9950 -16.709  3.5480  3.4690  2.9950  0.2933  5087.4  48.390  44.513  13.922  41.320 
  5088.500 -23.049  3.5530  3.4890  3.0710 -16.899  3.5530  3.4890  3.0710  0.2950  5087.9  48.665  44.515  13.924  41.323 
  5089.000 -22.227  3.5370  3.5010  3.1700 -16.078  3.5370  3.5010  3.1700  0.2966  5088.4  48.940  44.516  13.926  41.325 
  5089.500 -21.548  3.4850  3.5060  3.2540 -15.399  3.4850  3.5060  3.2540  0.2983  5088.9  49.215  44.518  13.928  41.328 
  5090.000 -20.507  3.3970  3.4900  3.3390 -14.358  3.3970  3.4900  3.3390  0.3000  5089.4  49.490  44.520  13.930  41.330 
  5090.500 -19.576  3.2080  3.4300  3.3940 -13.428  3.2080  3.4300  3.3940  0.3016  5089.9  49.765  44.522  13.932  41.333 
  5091.000 -18.826  3.0690  3.4070  3.4150 -12.678  3.0690  3.4070  3.4150  0.3033  5090.4  50.040  44.523  13.934  41.336 
  5091.500 -18.435  2.9590  3.3550  3.4350 -12.287  2.9590  3.3550  3.4350  0.3050  5090.9  50.315  44.525  13.936  41.338 
  5092.000 -18.044  2.8640  3.2310  3.4610 -11.896  2.8640  3.2310  3.4610  0.3066  5091.4  50.590  44.527  13.938  41.341 
  5092.500 -17.337  2.7970  3.1640  3.3870 -11.190  2.7970  3.1640  3.3870  0.3083  5091.9  50.865  44.528  13.940  41.344 
  5093.000 -17.198  2.7450  3.0320  3.3210 -11.051  2.7450  3.0320  3.3210  0.3100  5092.4  51.140  44.530  13.943  41.346 
  5093.500 -16.849  2.7070  2.9950  3.1310 -10.702  2.7070  2.9950  3.1310  0.3116  5092.9  51.415  44.532  13.945  41.349 
  5094.000 -16.747  2.6760  2.9570  3.1080 -10.600  2.6760  2.9570  3.1080  0.3133  5093.4  51.690  44.533  13.947  41.352 
  5094.500 -16.576  2.6530  2.9980  3.1710 -10.430  2.6530  2.9980  3.1710  0.3150  5093.9  51.965  44.535  13.949  41.355 
  5095.000 -16.513  2.6410  3.0250  3.2340 -10.367  2.6410  3.0250  3.2340  0.3166  5094.4  52.240  44.537  13.951  41.357 
  5095.500 -16.485  2.6290  3.0600  3.2610 -10.339  2.6290  3.0600  3.2610  0.3183  5094.9  52.515  44.539  13.953  41.360 
  5096.000 -16.493  2.6270  3.0940  3.2730 -10.347  2.6270  3.0940  3.2730  0.3200  5095.4  52.790  44.540  13.956  41.363 
  5096.500 -16.501  2.6250  3.1780  3.2430 -10.356  2.6250  3.1780  3.2430  0.3216  5095.9  53.065  44.542  13.958  41.366 
  5097.000 -16.695  2.6510  3.2120  3.1980 -10.550  2.6510  3.2120  3.1980  0.3233  5096.4  53.340  44.544  13.960  41.368 
  5097.500 -18.370  2.7430  3.2250  3.1240 -12.225  2.7430  3.2250  3.1240  0.3250  5096.9  53.615  44.545  13.962  41.371 
  5098.000 -19.139  2.8920  3.2340  3.0930 -12.994  2.8920  3.2340  3.0930  0.3266  5097.4  53.890  44.547  13.965  41.374 
  5098.500 -19.726  3.0840  3.2430  3.0630 -13.582  3.0840  3.2430  3.0630  0.3283  5097.9  54.165  44.549  13.967  41.377 
  5099.000 -20.641  3.2410  3.3100  3.1190 -14.497  3.2410  3.3100  3.1190  0.3300  5098.4  54.440  44.550  13.969  41.380 
  5099.500 -22.929  3.3900  3.3760  3.1750 -16.785  3.3900  3.3760  3.1750  0.3316  5098.9  54.715  44.552  13.972  41.382 
  5100.000 -26.558  3.5390  3.6180  3.3160 -20.414  3.5390  3.6180  3.3160  0.3333  5099.4  54.990  44.554  13.974  41.385 
  5100.500 -29.280  3.7030  3.7530  3.4580 -23.137  3.7030  3.7530  3.4580  0.3337  5099.9  55.115  44.555  13.976  41.388 
  5101.000 -31.424  3.7950  3.8310  3.5500 -25.281  3.7950  3.8310  3.5500  0.3341  5100.4  55.240  44.557  13.979  41.391 
  5101.500 -32.771  3.8870  3.8720  3.5840 -26.628  3.8870  3.8720  3.5840  0.3345  5100.9  55.365  44.559  13.981  41.394 
  5102.000 -34.263  4.0720  3.8630  3.6400 -28.120  4.0720  3.8630  3.6400  0.3350  5101.4  55.490  44.560  13.984  41.397 
  5102.500 -35.321  4.1710  3.8260  3.6170 -29.179  4.1710  3.8260  3.6170  0.3354  5101.9  55.615  44.562  13.986  41.400 
  5103.000 -35.293  4.2200  3.7240  3.5080 -29.151  4.2200  3.7240  3.5080  0.3358  5102.4  55.740  44.564  13.989  41.403 
  5103.500 -34.180  4.1680  3.5280  3.4050 -28.038  4.1680  3.5280  3.4050  0.3362  5102.9  55.865  44.565  13.991  41.405 
  5104.000 -33.392  4.1230  3.4110  3.3170 -27.251  4.1230  3.4110  3.3170  0.3366  5103.4  55.990  44.567  13.993  41.408 
  5104.500 -32.206  4.0780  3.3660  3.2510 -26.065  4.0780  3.3660  3.2510  0.3370  5103.9  56.115  44.569  13.996  41.411 
  5105.000 -31.056  4.0770  3.3280  3.2490 -24.915  4.0770  3.3280  3.2490  0.3375  5104.4  56.240  44.570  13.998  41.414 
  5105.500 -29.907  4.1390  3.3560  3.3380 -23.766  4.1390  3.3560  3.3380  0.3379  5104.9  56.365  44.572  14.001  41.417 
  5106.000 -28.829  4.1880  3.4470  3.4270 -22.689  4.1880  3.4470  3.4270  0.3383  5105.4  56.490  44.573  14.003  41.420 
  5106.500 -28.946  4.2150  3.5530  3.6110 -22.806  4.2150  3.5530  3.6110  0.3387  5105.9  56.615  44.575  14.006  41.423 
  5107.000 -29.317  4.2280  3.6090  3.7170 -23.177  4.2280  3.6090  3.7170  0.3391  5106.4  56.740  44.577  14.008  41.426 
  5107.500 -29.108  4.2120  3.6650  3.7800 -22.968  4.2120  3.6650  3.7800  0.3395  5106.9  56.865  44.578  14.011  41.429 
  5108.000 -28.248  4.1740  3.6930  3.7420 -22.109  4.1740  3.6930  3.7420  0.3400  5107.4  56.990  44.580  14.013  41.432 
  5108.500 -27.353  4.1010  3.6260  3.6620 -21.214  4.1010  3.6260  3.6620  0.3404  5107.9  57.115  44.582  14.016  41.434 
  5109.000 -26.816  3.9910  3.5600  3.5670 -20.677  3.9910  3.5600  3.5670  0.3408  5108.4  57.240  44.583  14.018  41.437 
  5109.500 -25.884  3.9180  3.4570  3.5360 -19.745  3.9180  3.4570  3.5360  0.3412  5108.9  57.365  44.585  14.021  41.440 
  5110.000 -24.951  3.8660  3.3410  3.5710 -18.813  3.8660  3.3410  3.5710  0.3416  5109.4  57.490  44.586  14.023  41.443 
  5110.500 -23.694  3.8710  3.3100  3.6410 -17.556  3.8710  3.3100  3.6410  0.3420  5109.9  57.615  44.588  14.026  41.446 
  5111.000 -22.906  3.8770  3.3440  3.7080 -16.768  3.8770  3.3440  3.7080  0.3425  5110.4  57.740  44.590  14.028  41.449 
  5111.500 -21.721  3.9250  3.4860  3.7750 -15.583  3.9250  3.4860  3.7750  0.3429  5110.9  57.865  44.591  14.031  41.452 
  5112.000 -21.657  3.9530  3.5860  3.8800 -15.520  3.9530  3.5860  3.8800  0.3433  5111.4  57.990  44.593  14.033  41.455 
