~Version Information
VERS.                     2.0: CWLS log ASCII Standard Version 2.00
WRAP.                      NO: One line per depth step
~Well Information Block
#MNEM.UNIT                               Data Type  Information
#---------                               ---------  -----------
STRT.FT                                   400.0000:
STOP.FT                                  6820.0000:
STEP.FT                                     0.5000:
NULL.                 -999.25                     :
COMP.                                             :COMPANY            
WELL.     SAN EMIDIO A #86-19                     :WELL               
FLD .                                             :FIELD              
CTRY.                                             :COUNTRY            
STAT.                                             :STATE              
LOC .                                             :LOCATION           
UWI .                                             :UNIQUE WELL ID     
SRVC.                                             :Service company    
DATE.                                             :LOG DATE           
~Curve Information
#MNEM.UNIT           API CODE  Curve Description
#---------           --------  -----------------
DEPT.FT                      :   1 DEPTH
SP  .MV                      :   2
AM16.OHMM                    :   3
AO10.OHMM                    :   4
AO19.OHMM                    :   5
SBL .MV                      :   6
RS  .OHMM                    :   7
RM  .OHMM                    :   8
RD  .OHMM                    :   9
DEVI.DEG                     :  10
TVD .FT                      :  11
AZIM.DEG                     :  12
NORT.FT                      :  13
EAST.FT                      :  14
OFFS.FT                      :  15
~A
# ...
  6802.500 -89.422  28.712  32.671  30.834 -87.422  28.712  32.671  30.834  1.3499  6801.7  170.19  28.420  26.162  38.595 
  6803.000 -88.666  28.270  32.410  30.683 -86.666  28.270  32.410  30.683  1.3533  6802.2  170.23  28.408  26.164  38.588 
  6803.500 -90.442  27.974  32.150  30.314 -88.442  27.974  32.150  30.314  1.3566  6802.7  170.27  28.397  26.166  38.581 
  6804.000 -91.313  27.679  31.853  30.018 -89.313  27.679  31.853  30.018  1.3599  6803.2  170.31  28.385  26.168  38.575 
  6804.500 -92.040  27.454  31.412  29.649 -90.040  27.454  31.412  29.649  1.3633  6803.7  170.35  28.373  26.170  38.568 
  6805.000 -91.320  27.230  31.297  29.498 -89.320  27.230  31.297  29.498  1.3666  6804.2  170.39  28.362  26.172  38.561 
  6805.500 -90.637  27.151  31.182  29.274 -88.637  27.151  31.182  29.274  1.3699  6804.7  170.43  28.350  26.174  38.554 
  6806.000 -91.111  26.963  30.668  29.050 -89.111  26.963  30.668  29.050  1.3733  6805.2  170.47  28.338  26.176  38.547 
  6806.500 -92.235  26.775  30.445  28.826 -90.235  26.775  30.445  28.826  1.3766  6805.7  170.51  28.326  26.178  38.540 
  6807.000 -91.914  26.694  30.077  28.458 -89.914  26.694  30.077  28.458  1.3799  6806.2  170.55  28.314  26.180  38.533 
  6807.500 -91.772  26.687  29.709  28.090 -89.772  26.687  29.709  28.090  1.3833  6806.7  170.59  28.302  26.181  38.526 
  6808.000 -92.970  26.680  29.484  27.866 -90.970  26.680  29.484  27.866  1.3866  6807.2  170.63  28.290  26.183  38.519 
  6808.500 -94.854  26.527  29.188  27.570 -92.854  26.527  29.188  27.570  1.3899  6807.7  170.67  28.278  26.185  38.512 
  6809.000 -96.015  26.589  29.108  27.777 -94.015  26.589  29.108  27.777  1.3933  6808.2  170.71  28.266  26.187  38.505 
  6809.500 -96.995  26.654  29.101  27.842 -94.995  26.654  29.101  27.842  1.3966  6808.7  170.75  28.254  26.189  38.498 
  6810.000 -97.107  26.933  29.094  28.408 -95.107  26.933  29.094  28.408  1.3999  6809.2  170.79  28.242  26.191  38.490 
  6810.500 -95.664  27.070  29.050  28.761 -93.664  27.070  29.050  28.761  1.4033  6809.7  170.83  28.230  26.193  38.483 
  6811.000 -93.208  27.134  29.006  29.041 -91.208  27.134  29.006  29.041  1.4066  6810.2  170.87  28.218  26.195  38.476 
  6811.500 -91.982  26.190  29.068  29.177 -89.982  26.190  29.068  29.177  1.4099  6810.7  170.91  28.206  26.197  38.469 
  6812.000 -91.082  24.166  29.060  28.808 -89.082  24.166  29.060  28.808  1.4133  6811.2  170.95  28.194  26.199  38.462 
  6812.500 -90.398  23.007  28.981  28.512 -88.398  23.007  28.981  28.512  1.4166  6811.7  170.99  28.182  26.201  38.454 
  6813.000 -89.823  21.487  28.756  28.144 -87.823  21.487  28.756  28.144  1.4200  6812.2  171.03  28.169  26.203  38.447 
  6813.500 -89.284  20.687  28.389  27.921 -87.284  20.687  28.389  27.921  1.4233  6812.7  171.07  28.157  26.205  38.440 
  6814.000 -88.746  20.176  27.876  27.696 -86.746  20.176  27.876  27.696  1.4266  6813.2  171.11  28.145  26.207  38.432 
  6814.500 -88.460  19.880  27.509  27.545 -86.460  19.880  27.509  27.545  1.4300  6813.7  171.15  28.132  26.209  38.425 
  6815.000 -88.101  19.583  27.069  27.466 -86.101  19.583  27.069  27.466  1.4333  6814.2  171.19  28.120  26.211  38.418 
  6815.500 -87.852  19.432  26.772  27.386 -85.852  19.432  26.772  27.386  1.4366  6814.7  171.23  28.108  26.213  38.410 
  6816.000 -87.603  19.352  26.621  27.304 -85.603  19.352  26.621  27.304  1.4400  6815.2  171.27  28.095  26.214  38.403 
  6816.500 -87.534  19.344  26.324  27.152 -85.534  19.344  26.324  27.152  1.4433  6815.7  171.31  28.083  26.216  38.395 
  6817.000 -90.069  19.264  26.100  27.109 -88.069  19.264  26.100  27.109  1.4466  6816.2  171.35  28.070  26.218  38.388 
  6817.500 -90.796  19.255  25.876  27.066 -88.796  19.255  25.876  27.066  1.4500  6816.7  171.39  28.058  26.220  38.380 
  6818.000 -90.872  19.175  25.652  26.913 -88.872  19.175  25.652  26.913  1.4533  6817.2  171.43  28.045  26.222  38.373 
  6818.500 -90.405  19.168  25.429  26.760 -88.405  19.168  25.429  26.760  1.4566  6817.7  171.47  28.033  26.224  38.365 
  6819.000 -89.975  19.159  25.132  26.608 -87.975  19.159  25.132  26.608  1.4600  6818.2  171.51  28.020  26.226  38.358 
  6819.500 -89.834  19.079  24.836  26.456 -87.834  19.079  24.836  26.456  1.4633  6818.7  171.55  28.007  26.228  38.350 
  6820.000 -90.922  19.000  24.468  26.087 -88.922  19.000  24.468  26.087  1.4666  6819.2  171.59  27.995  26.230  38.342 
