~Version Information
VERS.                     2.0: CWLS log ASCII Standard Version 2.00
WRAP.                      NO: One line per depth step
~Well Information Block
#MNEM.UNIT                               Data Type  Information
#---------                               ---------  -----------
STRT.FT                                   330.0000:
STOP.FT                                  8660.0000:
STEP.FT                                     0.5000:
NULL.                 -999.25                     :
COMP.                                             :COMPANY            
WELL.     SAN EMIDIO A #81-29                     :WELL               
FLD .                                             :FIELD              
CTRY.                                             :COUNTRY            
STAT.                                             :STATE              
LOC .                                             :LOCATION           
UWI .                                             :UNIQUE WELL ID     
SRVC.                                             :Service company    
DATE.                                             :LOG DATE           
~Curve Information
#MNEM.UNIT           API CODE  Curve Description
#---------           --------  -----------------
DEPT.FT                      :   1 DEPTH
SP  .MV                      :   2
AM10.OHMM                    :   3
AO10.OHMM                    :   4
AO19.OHMM                    :   5
SBL .MV                      :   6
RS  .OHMM                    :   7
RM  .OHMM                    :   8
RD  .OHMM                    :   9
DEVI.DEG                     :  10
TVD .FT                      :  11
AZIM.DEG                     :  12
NORT.FT                      :  13
EAST.FT                      :  14
OFFS.FT                      :  15
~A
# ...
  8617.500 -10.323  18.850  23.975  24.945 -4.3230  18.850  23.975  24.945  29.580  8520.0  209.29 -491.13 -292.30 -553.97 
  8618.000 -10.680  19.318  24.341  25.308 -4.6800  19.318  24.341  25.308  29.600  8520.4  209.30 -491.35 -292.42 -554.21 
  8618.500 -10.856  19.683  24.888  25.672 -4.8560  19.683  24.888  25.672  29.620  8520.9  209.31 -491.56 -292.54 -554.45 
  8619.000 -10.490  20.049  25.434  26.036 -4.4900  20.049  25.434  26.036  29.640  8521.3  209.32 -491.78 -292.66 -554.68 
  8619.500 -9.4020  20.414  25.798  26.217 -3.4020  20.414  25.798  26.217  29.660  8521.7  209.33 -491.99 -292.78 -554.92 
  8620.000 -8.8550  20.780  26.162  26.399 -2.8550  20.780  26.162  26.399  29.680  8522.2  209.34 -492.21 -292.91 -555.16 
  8620.500 -8.3100  20.425  26.529  26.942 -2.3100  20.425  26.529  26.942  29.700  8522.6  209.35 -492.42 -293.03 -555.40 
  8621.000 -7.7640  20.071  26.895  27.486 -1.7640  20.071  26.895  27.486  29.720  8523.0  209.36 -492.64 -293.15 -555.64 
  8621.500 -6.8540  19.365  26.908  28.089 -0.8540  19.365  26.908  28.089  29.740  8523.5  209.37 -492.86 -293.27 -555.88 
  8622.000 -6.3070  20.091  26.915  28.692 -0.3070  20.091  26.915  28.692  29.760  8523.9  209.38 -493.07 -293.39 -556.11 
  8622.500 -5.9410  20.458  26.923  29.295  0.0590  20.458  26.923  29.295  29.780  8524.3  209.39 -493.29 -293.51 -556.35 
  8623.000 -6.2090  21.183  26.927  30.382 -0.2090  21.183  26.927  30.382  29.800  8524.8  209.40 -493.51 -293.64 -556.59 
  8623.500 -6.4770  21.909  26.932  31.469 -0.4770  21.909  26.932  31.469  29.820  8525.2  209.41 -493.72 -293.76 -556.83 
  8624.000 -6.8340  22.273  26.942  31.830 -0.8340  22.273  26.942  31.830  29.840  8525.6  209.42 -493.94 -293.88 -557.07 
  8624.500 -7.1900  22.637  26.952  32.191 -1.1900  22.637  26.952  32.191  29.860  8526.1  209.43 -494.16 -294.00 -557.31 
  8625.000 -7.9060  22.824  26.960  32.919 -1.9060  22.824  26.960  32.919  29.880  8526.5  209.44 -494.37 -294.13 -557.55 
  8625.500 -7.9930  23.011  27.326  32.923 -1.9930  23.011  27.326  32.923  29.900  8526.9  209.45 -494.59 -294.25 -557.79 
  8626.000 -8.0800  21.946  28.411  32.746 -2.0800  21.946  28.411  32.746  29.920  8527.4  209.46 -494.81 -294.37 -558.03 
  8626.500 -8.4340  20.876  29.496  32.568 -2.4340  20.876  29.496  32.568  29.940  8527.8  209.47 -495.02 -294.49 -558.27 
  8627.000 -8.2500  20.163  29.863  31.854 -2.2500  20.163  29.863  31.854  29.960  8528.2  209.48 -495.24 -294.62 -558.51 
  8627.500 -8.0660  19.450  29.511  31.500 -2.0660  19.450  29.511  31.500  29.980  8528.7  209.49 -495.46 -294.74 -558.75 
  8628.000 -7.1560  19.462  29.157  30.606 -1.1560  19.462  29.157  30.606  30.000  8529.1  209.50 -495.68 -294.86 -559.00 
  8628.500 -7.5120  19.470  28.803  29.713 -1.5120  19.470  28.803  29.713  30.020  8529.5  209.51 -495.89 -294.99 -559.24 
  8629.000 -7.6890  19.474  28.097  28.820 -1.6890  19.474  28.097  28.820  30.040  8530.0  209.52 -496.11 -295.11 -559.48 
  8629.500 -8.0450  19.479  28.281  27.926 -2.0450  19.479  28.281  27.926  30.060  8530.4  209.53 -496.33 -295.23 -559.72 
  8630.000 -8.2210  19.851  28.466  27.569 -2.2210  19.851  28.466  27.569  30.080  8530.8  209.54 -496.55 -295.36 -559.96 
  8630.500 -7.6750  19.856  28.653  27.212 -1.6750  19.856  28.653  27.212  30.100  8531.3  209.55 -496.77 -295.48 -560.20 
  8631.000 -6.9480  19.861  28.840  26.678 -0.9480  19.861  28.840  26.678  30.120  8531.7  209.56 -496.98 -295.60 -560.44 
  8631.500 -6.9430  19.873  29.386  26.144 -0.9430  19.873  29.386  26.144  30.140  8532.1  209.57 -497.20 -295.73 -560.69 
  8632.000 -7.3000  19.878  29.932  25.969 -1.3000  19.878  29.932  25.969  30.160  8532.6  209.58 -497.42 -295.85 -560.93 
  8632.500 -8.0180  19.883  30.658  25.793 -2.0180  19.883  30.658  25.793  30.180  8533.0  209.59 -497.64 -295.98 -561.17 
  8633.000 -8.1940  19.891  31.384  25.621 -2.1940  19.891  31.384  25.621  30.200  8533.4  209.60 -497.86 -296.10 -561.41 
  8633.500 -8.7310  19.898  32.474  25.448 -2.7310  19.898  32.474  25.448  30.220  8533.9  209.61 -498.08 -296.22 -561.66 
  8634.000 -9.2690  19.911  32.838  25.450 -3.2690  19.911  32.838  25.450  30.240  8534.3  209.62 -498.30 -296.35 -561.90 
  8634.500 -9.9870  20.275  33.202  25.452 -3.9870  20.275  33.202  25.452  30.260  8534.7  209.63 -498.52 -296.47 -562.14 
  8635.000 -10.525  20.639  33.568  25.457 -4.5250  20.639  33.568  25.457  30.280  8535.2  209.64 -498.73 -296.60 -562.38 
  8635.500 -10.250  20.826  33.935  25.461 -4.2500  20.826  33.935  25.461  30.300  8535.6  209.65 -498.95 -296.72 -562.63 
  8636.000 -9.9760  21.013  33.763  25.471 -3.9760  21.013  33.763  25.471  30.320  8536.0  209.66 -499.17 -296.85 -562.87 
  8636.500 -9.7000  21.025  33.591  25.473 -3.7000  21.025  33.591  25.473  30.340  8536.5  209.67 -499.39 -296.97 -563.12 
  8637.000 -9.4250  20.671  32.885  25.475 -3.4250  20.671  32.885  25.475  30.360  8536.9  209.68 -499.61 -297.10 -563.36 
  8637.500 -9.5120  20.317  32.174  25.839 -3.5120  20.317  32.174  25.839  30.380  8537.3  209.69 -499.83 -297.22 -563.60 
  8638.000 -9.5990  20.145  31.820  26.202 -3.5990  20.145  31.820  26.202  30.400  8537.8  209.70 -500.05 -297.35 -563.85 
  8638.500 -9.7730  19.973  31.466  26.571 -3.7730  19.973  31.466  26.571  30.420  8538.2  209.71 -500.27 -297.47 -564.09 
  8639.000 -9.7680  19.626  30.575  26.393 -3.7680  19.626  30.575  26.393  30.440  8538.6  209.72 -500.49 -297.60 -564.34 
  8639.500 -9.4020  19.692  29.685  26.216 -3.4020  19.692  29.685  26.216  30.460  8539.0  209.73 -500.71 -297.73 -564.58 
  8640.000 -8.8550  19.758  28.974  25.861 -2.8550  19.758  28.974  25.861  30.480  8539.5  209.74 -500.93 -297.85 -564.82 
  8640.500 -8.6700  19.825  28.263  25.506 -2.6700  19.825  28.263  25.506  30.500  8539.9  209.75 -501.15 -297.98 -565.07 
  8641.000 -8.7560  19.891  27.732  24.079 -2.7560  19.891  27.732  24.079  30.520  8540.3  209.76 -501.37 -298.10 -565.31 
  8641.500 -8.8420  19.533  27.200  23.365 -2.8420  19.533  27.200  23.365  30.540  8540.8  209.77 -501.59 -298.23 -565.56 
  8642.000 -8.7480  19.677  29.368  24.088 -2.7480  19.677  29.368  24.088  30.560  8541.2  209.78 -501.81 -298.36 -565.80 
  8642.500 -8.6550  19.857  30.453  24.811 -2.6550  19.857  30.453  24.811  30.580  8541.6  209.79 -502.03 -298.48 -566.05 
  8643.000 -8.4670  19.930  30.458  25.893 -2.4670  19.930  30.458  25.893  30.600  8542.1  209.80 -502.25 -298.61 -566.30 
  8643.500 -7.9200  19.912  30.463  26.975 -1.9200  19.912  30.463  26.975  30.620  8542.5  209.81 -502.48 -298.74 -566.54 
  8644.000 -8.4590  19.895  29.934  27.698 -2.4590  19.895  29.934  27.698  30.640  8542.9  209.82 -502.70 -298.86 -566.79 
  8644.500 -8.9980  19.824  29.405  27.343 -2.9980  19.824  29.405  27.343  30.660  8543.3  209.83 -502.92 -298.99 -567.03 
  8645.000 -9.5340  19.646  28.694  26.986 -3.5340  19.646  28.694  26.986  30.680  8543.8  209.84 -503.14 -299.12 -567.28 
  8645.500 -10.070  19.503  28.340  26.629 -4.0700  19.503  28.340  26.629  30.700  8544.2  209.85 -503.36 -299.24 -567.53 
  8646.000 -10.427  19.108  27.986  25.920 -4.4270  19.108  27.986  25.920  30.720  8544.6  209.86 -503.58 -299.37 -567.77 
  8646.500 -10.785  18.965  27.095  25.566 -4.7850  18.965  27.095  25.566  30.740  8545.1  209.87 -503.80 -299.50 -568.02 
  8647.000 -11.143  18.751  26.205  25.029 -5.1430  18.751  26.205  25.029  30.760  8545.5  209.88 -504.03 -299.62 -568.27 
  8647.500 -11.590  18.500  25.140  24.492 -5.5900  18.500  25.140  24.492  30.780  8545.9  209.89 -504.25 -299.75 -568.51 
  8648.000 -12.037  18.393  24.788  24.502 -6.0370  18.393  24.788  24.502  30.800  8546.4  209.90 -504.47 -299.88 -568.76 
  8648.500 -12.394  17.998  25.155  24.324 -6.3940  17.998  25.155  24.324  30.820  8546.8  209.91 -504.69 -300.01 -569.01 
  8649.000 -12.751  17.676  25.521  24.146 -6.7510  17.676  25.521  24.146  30.840  8547.2  209.92 -504.91 -300.14 -569.26 
  8649.500 -13.286  17.569  26.247  24.331 -7.2860  17.569  26.247  24.331  30.860  8547.6  209.93 -505.14 -300.26 -569.50 
