~Version Information
VERS.                     2.0: CWLS log ASCII Standard Version 2.00
WRAP.                      NO: One line per depth step
~Well Information Block
#MNEM.UNIT                               Data Type  Information
#---------                               ---------  -----------
STRT.FT                                   330.0000:
STOP.FT                                  8660.0000:
STEP.FT                                     0.5000:
NULL.                 -999.25                     :
COMP.                                             :COMPANY            
WELL.     SAN EMIDIO A #81-29                     :WELL               
FLD .                                             :FIELD              
CTRY.                                             :COUNTRY            
STAT.                                             :STATE              
LOC .                                             :LOCATION           
UWI .                                             :UNIQUE WELL ID     
SRVC.                                             :Service company    
DATE.                                             :LOG DATE           
~Curve Information
#MNEM.UNIT           API CODE  Curve Description
#---------           --------  -----------------
DEPT.FT                      :   1 DEPTH
SP  .MV                      :   2
AM10.OHMM                    :   3
AO10.OHMM                    :   4
AO19.OHMM                    :   5
SBL .MV                      :   6
RS  .OHMM                    :   7
RM  .OHMM                    :   8
RD  .OHMM                    :   9
DEVI.DEG                     :  10
TVD .FT                      :  11
AZIM.DEG                     :  12
NORT.FT                      :  13
EAST.FT                      :  14
OFFS.FT                      :  15
~A
# ...
  3092.500 -33.369  5.9990  10.230  6.8570 -19.004  5.9990  10.230  6.8570  0.8395  3092.2  34.823  28.413  11.400  28.152 
  3093.000 -30.220  5.4960  9.7630  6.6050 -15.856  5.4960  9.7630  6.6050  0.8391  3092.7  34.968  28.419  11.405  28.159 
  3093.500 -27.070  5.1010  9.3320  6.2820 -12.708  5.1010  9.3320  6.2820  0.8387  3093.2  35.113  28.425  11.409  28.166 
  3094.000 -25.452  4.5630  9.0810  5.9590 -11.092  4.5630  9.0810  5.9590  0.8383  3093.7  35.258  28.431  11.413  28.174 
  3094.500 -24.915  4.0960  8.8290  5.5280 -10.556  4.0960  8.8290  5.5280  0.8379  3094.2  35.403  28.436  11.417  28.181 
  3095.000 -25.640  3.4140  6.5330  5.0970 -11.283  3.4140  6.5330  5.0970  0.8374  3094.7  35.548  28.442  11.422  28.188 
  3095.500 -26.184  3.1260  6.1380  5.2940 -11.829  3.1260  6.1380  5.2940  0.8370  3095.2  35.693  28.448  11.426  28.195 
  3096.000 -27.809  3.1610  6.4600  5.4910 -13.456  3.1610  6.4600  5.4910  0.8366  3095.7  35.838  28.454  11.430  28.202 
  3096.500 -30.335  3.3400  6.9620  6.0280 -15.983  3.3400  6.9620  6.0280  0.8362  3096.2  35.983  28.460  11.434  28.210 
  3097.000 -33.222  3.6260  7.4630  6.3500 -18.872  3.6260  7.4630  6.3500  0.8358  3096.7  36.128  28.466  11.439  28.217 
  3097.500 -35.387  4.0560  7.6770  6.8870 -21.039  4.0560  7.6770  6.8870  0.8354  3097.2  36.273  28.472  11.443  28.224 
  3098.000 -37.914  4.8440  7.8920  7.4970 -23.567  4.8440  7.8920  7.4970  0.8349  3097.7  36.418  28.478  11.447  28.231 
  3098.500 -40.800  6.8510  8.1240  7.9260 -26.455  6.8510  8.1240  7.9260  0.8345  3098.2  36.563  28.484  11.452  28.239 
  3099.000 -45.669  7.6030  8.3560  8.7500 -31.326  7.6030  8.3560  8.7500  0.8341  3098.7  36.708  28.490  11.456  28.246 
  3099.500 -47.294  7.9250  11.081  9.7180 -32.953  7.9250  11.081  9.7180  0.8337  3099.2  36.853  28.495  11.460  28.253 
  3100.000 -49.099  8.2830  11.403  9.9690 -34.759  8.2830  11.403  9.9690  0.8333  3099.7  36.998  28.501  11.465  28.260 
  3100.500 -49.642  9.8250  12.084  10.470 -35.304  9.8250  12.084  10.470  0.8341  3100.2  36.923  28.507  11.469  28.267 
  3101.000 -50.005  11.187  12.550  10.613 -35.669  11.187  12.550  10.613  0.8349  3100.7  36.848  28.513  11.473  28.275 
  3101.500 -50.369  11.617  13.087  11.043 -36.034  11.617  13.087  11.043  0.8358  3101.2  36.773  28.519  11.478  28.282 
  3102.000 -50.551  12.262  13.517  11.688 -36.218  12.262  13.517  11.688  0.8366  3101.7  36.698  28.524  11.482  28.289 
  3102.500 -50.914  12.298  13.875  12.476 -36.583  12.298  13.875  12.476  0.8374  3102.2  36.623  28.530  11.487  28.296 
  3103.000 -49.656  12.226  13.983  13.228 -35.327  12.226  13.983  13.228  0.8383  3102.7  36.548  28.536  11.491  28.303 
  3103.500 -48.397  12.154  13.839  13.658 -34.069  12.154  13.839  13.658  0.8391  3103.2  36.473  28.542  11.495  28.311 
  3104.000 -46.418  11.579  13.587  13.622 -32.092  11.579  13.587  13.622  0.8399  3103.7  36.398  28.548  11.500  28.318 
  3104.500 -43.898  11.005  13.336  13.442 -29.574  11.005  13.336  13.442  0.8408  3104.2  36.323  28.554  11.504  28.325 
  3105.000 -41.739  9.3200  12.690  13.119 -27.416  9.3200  12.690  13.119  0.8416  3104.7  36.248  28.560  11.508  28.332 
  3105.500 -40.120  8.4230  12.475  12.544 -25.799  8.4230  12.475  12.544  0.8424  3105.2  36.173  28.566  11.513  28.340 
  3106.000 -37.960  7.3470  11.901  11.898 -23.641  7.3470  11.901  11.898  0.8433  3105.7  36.098  28.572  11.517  28.347 
  3106.500 -36.522  6.3420  11.040  11.468 -22.205  6.3420  11.040  11.468  0.8441  3106.2  36.023  28.578  11.521  28.354 
  3107.000 -35.263  5.9120  10.322  10.714 -20.947  5.9120  10.322  10.714  0.8449  3106.7  35.948  28.584  11.526  28.362 
  3107.500 -33.464  5.6240  9.2100  9.3510 -19.150  5.6240  9.2100  9.3510  0.8458  3107.2  35.873  28.590  11.530  28.369 
  3108.000 -33.917  4.9430  8.7440  7.7370 -19.605  4.9430  8.7440  7.7370  0.8466  3107.7  35.798  28.596  11.534  28.376 
  3108.500 -34.370  4.6550  6.6990  6.3740 -20.059  4.6550  6.6990  6.3740  0.8474  3108.2  35.723  28.602  11.539  28.383 
  3109.000 -34.103  4.3320  6.8070  6.0150 -19.794  4.3320  6.8070  6.0150  0.8483  3108.7  35.648  28.608  11.543  28.391 
  3109.500 -33.835  4.0450  6.9140  5.9060 -19.528  4.0450  6.9140  5.9060  0.8491  3109.2  35.573  28.614  11.547  28.398 
  3110.000 -32.937  4.0090  6.9850  5.9060 -18.632  4.0090  6.9850  5.9060  0.8499  3109.7  35.498  28.620  11.552  28.405 
  3110.500 -32.489  3.9730  7.0570  5.8340 -18.185  3.9730  7.0570  5.8340  0.8508  3110.2  35.423  28.626  11.556  28.413 
  3111.000 -32.041  3.9720  7.0200  5.6900 -17.739  3.9720  7.0200  5.6900  0.8516  3110.7  35.348  28.632  11.560  28.420 
  3111.500 -31.323  3.9720  6.9840  5.5460 -17.023  3.9720  6.9840  5.5460  0.8524  3111.2  35.273  28.638  11.564  28.427 
  3112.000 -30.605  3.9000  6.9300  5.3300 -16.306  3.9000  6.9300  5.3300  0.8533  3111.7  35.198  28.644  11.569  28.435 
  3112.500 -29.347  3.7560  6.8760  5.2400 -15.050  3.7560  6.8760  5.2400  0.8541  3112.2  35.123  28.650  11.573  28.442 
  3113.000 -27.548  3.5770  6.8400  5.1500 -13.253  3.5770  6.8400  5.1500  0.8549  3112.7  35.048  28.656  11.577  28.449 
  3113.500 -25.749  3.4330  6.9110  4.8260 -11.456  3.4330  6.9110  4.8260  0.8558  3113.2  34.973  28.662  11.582  28.457 
  3114.000 -24.851  3.1810  7.0540  4.7540 -10.559  3.1810  7.0540  4.7540  0.8566  3113.7  34.898  28.668  11.586  28.464 
  3114.500 -24.313  3.0730  7.1970  4.8070 -10.023  3.0730  7.1970  4.8070  0.8574  3114.2  34.823  28.675  11.590  28.471 
  3115.000 -24.405  3.1090  7.3400  4.8610 -10.117  3.1090  7.3400  4.8610  0.8583  3114.7  34.748  28.681  11.594  28.479 
  3115.500 -24.498  3.2520  7.4830  5.0040 -10.211  3.2520  7.4830  5.0040  0.8591  3115.2  34.673  28.687  11.599  28.486 
  3116.000 -25.041  3.3950  7.9130  5.1460 -10.756  3.3950  7.9130  5.1460  0.8599  3115.7  34.598  28.693  11.603  28.494 
  3116.500 -25.405  3.5740  8.0030  5.3430 -11.122  3.5740  8.0030  5.3430  0.8608  3116.2  34.523  28.699  11.607  28.501 
  3117.000 -25.768  3.7890  8.0920  5.5400 -11.487  3.7890  8.0920  5.5400  0.8616  3116.7  34.448  28.705  11.611  28.508 
  3117.500 -26.040  3.9320  8.1270  5.9690 -11.760  3.9320  8.1270  5.9690  0.8624  3117.2  34.373  28.712  11.616  28.516 
  3118.000 -26.313  4.0390  8.1630  6.1840 -12.035  4.0390  8.1630  6.1840  0.8633  3117.7  34.298  28.718  11.620  28.523 
  3118.500 -26.857  4.1460  8.0550  6.4350 -12.581  4.1460  8.0550  6.4350  0.8641  3118.2  34.223  28.724  11.624  28.531 
  3119.000 -27.220  4.1820  7.8390  6.6490 -12.945  4.1820  7.8390  6.6490  0.8649  3118.7  34.148  28.730  11.628  28.538 
  3119.500 -27.583  4.1810  7.4450  6.7740 -13.310  4.1810  7.4450  6.7740  0.8658  3119.2  34.073  28.737  11.633  28.545 
  3120.000 -28.126  4.1810  7.3010  6.8990 -13.855  4.1810  7.3010  6.8990  0.8666  3119.7  33.998  28.743  11.637  28.553 
  3120.500 -29.390  4.1990  7.1570  7.0060 -15.121  4.1990  7.1570  7.0060  0.8674  3120.2  33.923  28.749  11.641  28.560 
  3121.000 -31.555  4.2160  7.0130  7.1850 -17.287  4.2160  7.0130  7.1850  0.8683  3120.7  33.848  28.755  11.645  28.568 
  3121.500 -33.179  4.2880  7.0850  7.2920 -18.913  4.2880  7.0850  7.2920  0.8691  3121.2  33.773  28.762  11.650  28.575 
  3122.000 -35.164  4.3590  7.1560  7.5250 -20.900  4.3590  7.1560  7.5250  0.8699  3121.7  33.698  28.768  11.654  28.583 
  3122.500 -37.149  4.7170  7.2990  7.7570 -22.886  4.7170  7.2990  7.7570  0.8708  3122.2  33.623  28.774  11.658  28.590 
  3123.000 -38.773  4.8600  7.4780  8.5810 -24.512  4.8600  7.4780  8.5810  0.8716  3122.7  33.548  28.781  11.662  28.597 
  3123.500 -40.397  5.1830  7.7640  9.1540 -26.138  5.1830  7.7640  9.1540  0.8724  3123.2  33.473  28.787  11.666  28.605 
  3124.000 -41.301  5.5410  7.9070  10.158 -27.044  5.5410  7.9070  10.158  0.8733  3123.7  33.398  28.793  11.671  28.612 
  3124.500 -42.745  6.2580  8.2300  10.444 -28.489  6.2580  8.2300  10.444  0.8741  3124.2  33.323  28.800  11.675  28.620 
