~Version Information
VERS.                     2.0: CWLS log ASCII Standard Version 2.00
WRAP.                      NO: One line per depth step
~Well Information Block
#MNEM.UNIT                               Data Type  Information
#---------                               ---------  -----------
STRT.FT                                   330.0000:
STOP.FT                                  8660.0000:
STEP.FT                                     0.5000:
NULL.                 -999.25                     :
COMP.                                             :COMPANY            
WELL.     SAN EMIDIO A #81-29                     :WELL               
FLD .                                             :FIELD              
CTRY.                                             :COUNTRY            
STAT.                                             :STATE              
LOC .                                             :LOCATION           
UWI .                                             :UNIQUE WELL ID     
SRVC.                                             :Service company    
DATE.                                             :LOG DATE           
~Curve Information
#MNEM.UNIT           API CODE  Curve Description
#---------           --------  -----------------
DEPT.FT                      :   1 DEPTH
SP  .MV                      :   2
AM10.OHMM                    :   3
AO10.OHMM                    :   4
AO19.OHMM                    :   5
SBL .MV                      :   6
RS  .OHMM                    :   7
RM  .OHMM                    :   8
RD  .OHMM                    :   9
DEVI.DEG                     :  10
TVD .FT                      :  11
AZIM.DEG                     :  12
NORT.FT                      :  13
EAST.FT                      :  14
OFFS.FT                      :  15
~A
# ...
  4750.000 -28.919  1.8830  1.5540  1.6790 -17.092  1.8830  1.5540  1.6790  0.7500  4749.5  116.50  46.873  22.227  48.861 
  4750.500 -29.817  1.9730  1.5560  1.8790 -17.994  1.9730  1.5560  1.8790  0.7508  4750.0  116.62  46.870  22.233  48.863 
  4751.000 -32.507  2.1720  1.5930  2.0240 -20.687  2.1720  1.5930  2.0240  0.7516  4750.5  116.75  46.867  22.239  48.865 
  4751.500 -34.301  2.3700  1.6670  2.1330 -22.484  2.3700  1.6670  2.1330  0.7525  4751.0  116.87  46.864  22.245  48.867 
  4752.000 -36.274  2.7310  1.8120  2.2410 -24.460  2.7310  1.8120  2.2410  0.7533  4751.5  117.00  46.861  22.250  48.869 
  4752.500 -38.072  3.0560  1.9570  2.3500 -26.261  3.0560  1.9570  2.3500  0.7541  4752.0  117.12  46.858  22.256  48.871 
  4753.000 -40.586  3.1470  2.1010  2.3870 -28.779  3.1470  2.1010  2.3870  0.7550  4752.5  117.25  46.855  22.262  48.873 
  4753.500 -38.778  3.2370  2.4260  2.4250 -26.974  3.2370  2.4260  2.4250  0.7558  4753.0  117.37  46.852  22.268  48.875 
  4754.000 -36.786  3.4540  2.5350  2.3370 -24.985  3.4540  2.5350  2.3370  0.7566  4753.5  117.50  46.849  22.274  48.877 
  4754.500 -36.058  3.3130  2.5730  2.2490 -24.260  3.3130  2.5730  2.2490  0.7575  4754.0  117.62  46.846  22.280  48.879 
  4755.000 -36.411  3.0990  2.5390  2.1260 -24.617  3.0990  2.5390  2.1260  0.7583  4754.5  117.75  46.843  22.286  48.881 
  4755.500 -38.209  2.9570  2.4690  2.0020 -26.418  2.9570  2.4690  2.0020  0.7591  4755.0  117.87  46.840  22.291  48.883 
  4756.000 -42.344  2.9580  2.3630  1.9690 -30.556  2.9580  2.3630  1.9690  0.7600  4755.5  118.00  46.836  22.297  48.885 
  4756.500 -43.958  3.2110  2.2920  2.0590 -32.173  3.2110  2.2920  2.0590  0.7608  4756.0  118.12  46.833  22.303  48.887 
  4757.000 -44.851  3.3550  2.2220  2.1500 -33.070  3.3550  2.2220  2.1500  0.7616  4756.5  118.25  46.830  22.309  48.889 
  4757.500 -43.043  3.4990  2.1880  2.1700 -31.265  3.4990  2.1880  2.1700  0.7625  4757.0  118.37  46.827  22.315  48.891 
  4758.000 -41.595  3.7530  2.1900  2.1890 -29.820  3.7530  2.1900  2.1890  0.7633  4757.5  118.50  46.824  22.321  48.893 
  4758.500 -40.867  3.8610  2.3170  2.1020 -29.095  3.8610  2.3170  2.1020  0.7641  4758.0  118.62  46.821  22.326  48.894 
  4759.000 -39.962  3.7370  2.4440  2.0140 -28.194  3.7370  2.4440  2.0140  0.7650  4758.5  118.75  46.817  22.332  48.896 
  4759.500 -39.056  3.6130  2.5180  1.9080 -27.291  3.6130  2.5180  1.9080  0.7658  4759.0  118.87  46.814  22.338  48.898 
  4760.000 -37.420  3.1850  2.4830  1.8920 -25.658  3.1850  2.4830  1.8920  0.7666  4759.5  119.00  46.811  22.344  48.900 
  4760.500 -37.325  2.9890  2.3060  1.8750 -25.566  2.9890  2.3060  1.8750  0.7675  4760.0  119.12  46.808  22.350  48.902 
  4761.000 -37.230  2.7930  2.0920  1.9850 -25.475  2.7930  2.0920  1.9850  0.7683  4760.5  119.25  46.804  22.356  48.904 
  4761.500 -35.958  2.8660  1.8790  2.0230 -24.206  2.8660  1.8790  2.0230  0.7691  4761.0  119.37  46.801  22.362  48.905 
  4762.000 -33.970  2.9400  1.8450  2.0600 -22.221  2.9400  1.8450  2.0600  0.7700  4761.5  119.50  46.798  22.367  48.907 
  4762.500 -31.261  2.8690  1.9180  2.0730 -19.515  2.8690  1.9180  2.0730  0.7708  4762.0  119.62  46.794  22.373  48.909 
  4763.000 -30.169  2.7980  1.9900  2.0870 -18.426  2.7980  1.9900  2.0870  0.7716  4762.5  119.75  46.791  22.379  48.911 
  4763.500 -28.902  2.5850  1.9930  2.1000 -17.163  2.5850  1.9930  2.1000  0.7725  4763.0  119.87  46.788  22.385  48.913 
  4764.000 -28.354  2.4790  1.9230  2.0840 -16.618  2.4790  1.9230  2.0840  0.7733  4763.5  120.00  46.784  22.391  48.914 
  4764.500 -29.247  2.4080  1.9600  2.0680 -17.514  2.4080  1.9600  2.0680  0.7741  4764.0  120.12  46.781  22.397  48.916 
  4765.000 -29.782  2.5350  2.0690  2.0520 -18.052  2.5350  2.0690  2.0520  0.7750  4764.5  120.25  46.778  22.403  48.918 
  4765.500 -30.318  2.6620  2.1240  2.0350 -18.592  2.6620  2.1240  2.0350  0.7758  4765.0  120.37  46.774  22.408  48.919 
  4766.000 -31.211  2.7720  2.1790  2.0010 -19.488  2.7720  2.1790  2.0010  0.7766  4765.5  120.50  46.771  22.414  48.921 
  4766.500 -32.644  2.8810  2.3600  1.9670 -20.924  2.8810  2.3600  1.9670  0.7775  4766.0  120.62  46.767  22.420  48.923 
  4767.000 -33.898  2.9900  2.5420  2.0580 -22.181  2.9900  2.5420  2.0580  0.7783  4766.5  120.75  46.764  22.426  48.925 
  4767.500 -35.511  3.0620  2.8310  2.1500 -23.798  3.0620  2.8310  2.1500  0.7791  4767.0  120.87  46.760  22.432  48.926 
  4768.000 -38.206  3.1350  2.8680  2.1330 -26.496  3.1350  2.8680  2.1330  0.7800  4767.5  121.00  46.757  22.438  48.928 
  4768.500 -37.298  3.2620  2.9050  2.1160 -25.591  3.2620  2.9050  2.1160  0.7808  4768.0  121.12  46.753  22.443  48.929 
  4769.000 -36.751  3.3890  2.8180  2.0460 -25.047  3.3890  2.8180  2.0460  0.7816  4768.5  121.25  46.750  22.449  48.931 
  4769.500 -36.023  3.1400  2.7300  1.9770 -24.323  3.1400  2.7300  1.9770  0.7825  4769.0  121.37  46.746  22.455  48.933 
  4770.000 -39.982  3.0340  2.6240  1.9430 -28.285  3.0340  2.6240  1.9430  0.7833  4769.5  121.50  46.743  22.461  48.934 
  4770.500 -45.377  3.1610  2.5170  1.9800 -33.683  3.1610  2.5170  1.9800  0.7841  4770.0  121.62  46.739  22.467  48.936 
  4771.000 -47.351  3.2870  2.3410  2.0170 -35.660  3.2870  2.3410  2.0170  0.7850  4770.5  121.75  46.735  22.473  48.937 
  4771.500 -48.609  3.5390  2.3780  2.1270 -36.922  3.5390  2.3780  2.1270  0.7858  4771.0  121.87  46.732  22.478  48.939 
  4772.000 -47.881  3.7920  2.4870  2.1820 -36.197  3.7920  2.4870  2.1820  0.7866  4771.5  122.00  46.728  22.484  48.941 
  4772.500 -46.613  4.1170  2.5960  2.2370 -34.932  4.1170  2.5960  2.2370  0.7875  4772.0  122.12  46.725  22.490  48.942 
  4773.000 -45.345  4.2620  2.7590  2.3100 -33.667  4.2620  2.7590  2.3100  0.7883  4772.5  122.25  46.721  22.496  48.944 
  4773.500 -42.993  4.1920  2.9220  2.3840 -31.319  4.1920  2.9220  2.3840  0.7891  4773.0  122.37  46.717  22.502  48.945 
  4774.000 -41.005  4.0320  3.0310  2.2780 -29.334  4.0320  3.0310  2.2780  0.7900  4773.5  122.50  46.713  22.507  48.947 
  4774.500 -36.131  3.8710  2.9610  2.1720 -24.463  3.8710  2.9610  2.1720  0.7908  4774.0  122.62  46.710  22.513  48.948 
  4775.000 -33.423  3.2630  2.8200  2.0490 -21.758  3.2630  2.8200  2.0490  0.7916  4774.5  122.75  46.706  22.519  48.950 
  4775.500 -30.350  2.7990  2.6060  1.9260 -18.688  2.7990  2.6060  1.9260  0.7925  4775.0  122.87  46.702  22.525  48.951 
  4776.000 -29.262  2.4950  2.5010  1.8550 -17.604  2.4950  2.5010  1.8550  0.7933  4775.5  123.00  46.699  22.531  48.952 
  4776.500 -28.895  2.1920  2.2520  1.7850 -17.240  2.1920  2.2520  1.7850  0.7941  4776.0  123.12  46.695  22.536  48.954 
  4777.000 -28.710  1.9420  2.1460  1.6440 -17.058  1.9420  2.1460  1.6440  0.7950  4776.5  123.25  46.691  22.542  48.955 
  4777.500 -28.524  1.6930  2.0030  1.5740 -16.875  1.6930  2.0030  1.5740  0.7958  4777.0  123.37  46.687  22.548  48.957 
  4778.000 -28.333  1.6230  1.9330  1.5040 -16.688  1.6230  1.9330  1.5040  0.7966  4777.5  123.50  46.683  22.554  48.958 
  4778.500 -27.966  1.5160  1.8280  1.5770 -16.324  1.5160  1.8280  1.5770  0.7975  4778.0  123.62  46.679  22.560  48.959 
  4779.000 -27.600  1.7330  1.7580  1.6870 -15.961  1.7330  1.7580  1.6870  0.7983  4778.5  123.75  46.676  22.565  48.961 
  4779.500 -27.235  1.9850  1.7950  1.7410 -15.599  1.9850  1.7950  1.7410  0.7991  4779.0  123.87  46.672  22.571  48.962 
  4780.000 -26.778  1.9510  1.8680  1.7960 -15.146  1.9510  1.8680  1.7960  0.8000  4779.5  124.00  46.668  22.577  48.963 
  4780.500 -26.320  1.9160  1.9230  1.9420 -14.691  1.9160  1.9230  1.9420  0.8008  4780.0  124.12  46.664  22.583  48.965 
  4781.000 -26.309  1.8460  1.9780  1.9800 -14.683  1.8460  1.9780  1.9800  0.8016  4780.5  124.25  46.660  22.589  48.966 
  4781.500 -26.842  1.7760  2.0880  2.0170 -15.219  1.7760  2.0880  2.0170  0.8024  4781.0  124.37  46.656  22.594  48.967 
  4782.000 -27.555  1.8490  2.1970  1.9830 -15.936  1.8490  2.1970  1.9830  0.8033  4781.5  124.50  46.652  22.600  48.969 
