~Version Information
VERS.                     2.0: CWLS log ASCII Standard Version 2.00
WRAP.                      NO: One line per depth step
~Well Information Block
#MNEM.UNIT                               Data Type  Information
#---------                               ---------  -----------
STRT.FT                                   400.0000:
STOP.FT                                  6820.0000:
STEP.FT                                     0.5000:
NULL.                 -999.25                     :
COMP.                                             :COMPANY            
WELL.     SAN EMIDIO A #86-19                     :WELL               
FLD .                                             :FIELD              
CTRY.                                             :COUNTRY            
STAT.                                             :STATE              
LOC .                                             :LOCATION           
UWI .                                             :UNIQUE WELL ID     
SRVC.                                             :Service company    
DATE.                                             :LOG DATE           
~Curve Information
#MNEM.UNIT           API CODE  Curve Description
#---------           --------  -----------------
DEPT.FT                      :   1 DEPTH
SP  .MV                      :   2
AM16.OHMM                    :   3
AO10.OHMM                    :   4
AO19.OHMM                    :   5
SBL .MV                      :   6
RS  .OHMM                    :   7
RM  .OHMM                    :   8
RD  .OHMM                    :   9
DEVI.DEG                     :  10
TVD .FT                      :  11
AZIM.DEG                     :  12
NORT.FT                      :  13
EAST.FT                      :  14
OFFS.FT                      :  15
~A
# ...
  5535.000 -13.044  1.9280  2.1010  1.8780 -7.6010  1.9280  2.1010  1.8780  0.7500  5534.4  111.29  45.076  17.810  44.468 
  5535.500 -13.093  1.9260  2.0410  1.8900 -7.6518  1.9260  2.0410  1.8900  0.7500  5534.9  111.28  45.074  17.816  44.470 
  5536.000 -13.101  1.9250  2.0330  1.9170 -7.6616  1.9250  2.0330  1.9170  0.7500  5535.4  111.27  45.072  17.822  44.473 
  5536.500 -13.070  1.9240  2.0670  1.9270 -7.6323  1.9240  2.0670  1.9270  0.7500  5535.9  111.26  45.069  17.829  44.475 
  5537.000 -13.042  1.9220  2.1020  1.9370 -7.6061  1.9220  2.1020  1.9370  0.7500  5536.4  111.25  45.067  17.835  44.478 
  5537.500 -13.050  1.9200  2.1220  1.9490 -7.6159  1.9200  2.1220  1.9490  0.7500  5536.9  111.24  45.064  17.841  44.481 
  5538.000 -13.092  1.9190  2.1430  1.9590 -7.6596  1.9190  2.1430  1.9590  0.7500  5537.4  111.23  45.062  17.847  44.483 
  5538.500 -13.064  1.9170  2.1910  1.9690 -7.6334  1.9170  2.1910  1.9690  0.7500  5537.9  111.22  45.060  17.853  44.486 
  5539.000 -13.070  1.9160  2.2400  2.0100 -7.6412  1.9160  2.2400  2.0100  0.7500  5538.4  111.21  45.057  17.859  44.489 
  5539.500 -13.112  1.9070  2.2600  2.0190 -7.6849  1.9070  2.2600  2.0190  0.7500  5538.9  111.20  45.055  17.865  44.491 
  5540.000 -13.154  1.8950  2.2370  2.0290 -7.7287  1.8950  2.2370  2.0290  0.7500  5539.4  111.19  45.053  17.871  44.494 
  5540.500 -13.383  1.8830  2.2140  2.0550 -7.9595  1.8830  2.2140  2.0550  0.7500  5539.9  111.18  45.050  17.877  44.497 
  5541.000 -13.571  1.8670  2.1980  2.0540 -8.1492  1.8670  2.1980  2.0540  0.7500  5540.4  111.17  45.048  17.883  44.499 
  5541.500 -13.831  1.8690  2.1750  2.0460 -8.4110  1.8690  2.1750  2.0460  0.7500  5540.9  111.16  45.046  17.890  44.502 
  5542.000 -14.130  1.8710  2.1520  2.0370 -8.7118  1.8710  2.1520  2.0370  0.7500  5541.4  111.15  45.043  17.896  44.504 
  5542.500 -13.991  1.8740  2.1440  2.0280 -8.5746  1.8740  2.1440  2.0280  0.7500  5541.9  111.14  45.041  17.902  44.507 
  5543.000 -13.675  1.8770  2.1420  2.0130 -8.2603  1.8770  2.1420  2.0130  0.7500  5542.4  111.13  45.038  17.908  44.510 
  5543.500 -13.535  1.8720  2.1330  1.9970 -8.1221  1.8720  2.1330  1.9970  0.7500  5542.9  111.12  45.036  17.914  44.512 
  5544.000 -13.507  1.8660  2.1390  1.9730 -8.0959  1.8660  2.1390  1.9730  0.7500  5543.4  111.11  45.034  17.920  44.515 
  5544.500 -13.732  1.8500  2.1590  1.9650 -8.3226  1.8500  2.1590  1.9650  0.7500  5543.9  111.10  45.031  17.926  44.518 
  5545.000 -13.955  1.8270  2.1790  1.9570 -8.5474  1.8270  2.1790  1.9570  0.7500  5544.4  111.09  45.029  17.932  44.520 
  5545.500 -14.144  1.8180  2.1930  1.9410 -8.7382  1.8180  2.1930  1.9410  0.7500  5544.9  111.08  45.027  17.938  44.523 
  5546.000 -14.296  1.8100  2.1910  1.9320 -8.8919  1.8100  2.1910  1.9320  0.7500  5545.4  111.07  45.024  17.944  44.526 
  5546.500 -14.485  1.8010  2.1820  1.9240 -9.0827  1.8010  2.1820  1.9240  0.7500  5545.9  111.06  45.022  17.951  44.528 
  5547.000 -14.709  1.8000  2.1740  1.9150 -9.3085  1.8000  2.1740  1.9150  0.7500  5546.4  111.05  45.020  17.957  44.531 
  5547.500 -14.647  1.7760  2.1720  1.9130 -9.2482  1.7760  2.1720  1.9130  0.7500  5546.9  111.04  45.017  17.963  44.534 
  5548.000 -14.509  1.7680  2.1710  1.9080 -9.1120  1.7680  2.1710  1.9080  0.7500  5547.4  111.03  45.015  17.969  44.536 
  5548.500 -14.477  1.7520  2.1770  1.9040 -9.0818  1.7520  2.1770  1.9040  0.7500  5547.9  111.02  45.013  17.975  44.539 
  5549.000 -14.341  1.7400  2.1820  1.8880 -8.9475  1.7400  2.1820  1.8880  0.7500  5548.4  111.01  45.010  17.981  44.542 
  5549.500 -14.203  1.7280  2.1880  1.8780 -8.8113  1.7280  2.1880  1.8780  0.7500  5548.9  111.00  45.008  17.987  44.544 
  5550.000 -13.994  1.7050  2.1860  1.8700 -8.6041  1.7050  2.1860  1.8700  0.7500  5549.4  110.99  45.006  17.993  44.547 
  5550.500 -13.822  1.6820  2.1780  1.8540 -8.4338  1.6820  2.1780  1.8540  0.7500  5549.9  110.98  45.003  17.999  44.550 
  5551.000 -13.791  1.6660  2.1480  1.8530 -8.4046  1.6660  2.1480  1.8530  0.7500  5550.4  110.97  45.001  18.006  44.552 
  5551.500 -13.834  1.6500  2.1390  1.8440 -8.4494  1.6500  2.1390  1.8440  0.7500  5550.9  110.96  44.999  18.012  44.555 
  5552.000 -13.986  1.6480  2.1310  1.8390 -8.6032  1.6480  2.1310  1.8390  0.7500  5551.4  110.95  44.996  18.018  44.558 
  5552.500 -14.067  1.6470  2.1220  1.8350 -8.6859  1.6470  2.1220  1.8350  0.7500  5551.9  110.94  44.994  18.024  44.560 
  5553.000 -14.110  1.6530  2.1060  1.8230 -8.7307  1.6530  2.1060  1.8230  0.7500  5552.4  110.93  44.991  18.030  44.563 
  5553.500 -14.082  1.6800  2.0970  1.8110 -8.7045  1.6800  2.0970  1.8110  0.7500  5552.9  110.92  44.989  18.036  44.566 
  5554.000 -13.946  1.7000  2.0890  1.7860 -8.5702  1.7000  2.0890  1.7860  0.7500  5553.4  110.91  44.987  18.042  44.568 
  5554.500 -13.772  1.7270  2.0730  1.7710 -8.3980  1.7270  2.0730  1.7710  0.7500  5553.9  110.90  44.984  18.048  44.571 
  5555.000 -13.633  1.7480  2.0640  1.7550 -8.2608  1.7480  2.0640  1.7550  0.7500  5554.4  110.89  44.982  18.054  44.574 
  5555.500 -13.461  1.7750  2.0480  1.7390 -8.0905  1.7750  2.0480  1.7390  0.7500  5554.9  110.88  44.980  18.061  44.576 
  5556.000 -13.252  1.7960  2.0330  1.7300 -7.8833  1.7960  2.0330  1.7300  0.7500  5555.4  110.87  44.977  18.067  44.579 
  5556.500 -13.077  1.8300  2.0310  1.7220 -7.7101  1.8300  2.0310  1.7220  0.7500  5555.9  110.86  44.975  18.073  44.582 
  5557.000 -12.905  1.8640  2.0300  1.7200 -7.5398  1.8640  2.0300  1.7200  0.7500  5556.4  110.85  44.973  18.079  44.584 
  5557.500 -12.730  1.8850  2.0280  1.7260 -7.3666  1.8850  2.0280  1.7260  0.7500  5556.9  110.84  44.971  18.085  44.587 
  5558.000 -12.557  1.9260  2.0270  1.7390 -7.1954  1.9260  2.0270  1.7390  0.7500  5557.4  110.83  44.968  18.091  44.590 
  5558.500 -12.418  1.9610  2.0320  1.7450 -7.0581  1.9610  2.0320  1.7450  0.7500  5557.9  110.82  44.966  18.097  44.592 
  5559.000 -12.283  1.9950  2.0460  1.7930 -6.9249  1.9950  2.0460  1.7930  0.7500  5558.4  110.81  44.964  18.103  44.595 
  5559.500 -12.180  2.0120  2.0660  1.8070 -6.8237  2.0120  2.0660  1.8070  0.7500  5558.9  110.80  44.961  18.110  44.598 
  5560.000 -12.079  2.0290  2.0860  1.8700 -6.7244  2.0290  2.0860  1.8700  0.7500  5559.4  110.79  44.959  18.116  44.600 
  5560.500 -12.051  2.0980  2.1060  1.9120 -6.6982  2.0980  2.1060  1.9120  0.7500  5559.9  110.78  44.957  18.122  44.603 
  5561.000 -12.022  2.1120  2.1260  1.9530 -6.6710  2.1120  2.1260  1.9530  0.7500  5560.4  110.77  44.954  18.128  44.606 
  5561.500 -12.030  2.1180  2.1530  1.9810 -6.6808  2.1180  2.1530  1.9810  0.7500  5560.9  110.76  44.952  18.134  44.608 
  5562.000 -12.036  2.1270  2.1730  2.0080 -6.6885  2.1270  2.1730  2.0080  0.7500  5561.4  110.75  44.950  18.140  44.611 
  5562.500 -12.079  2.1370  2.2010  2.0210 -6.7333  2.1370  2.2010  2.0210  0.7500  5561.9  110.74  44.947  18.146  44.614 
  5563.000 -12.159  2.1420  2.2210  2.0340 -6.8151  2.1420  2.2210  2.0340  0.7500  5562.4  110.73  44.945  18.152  44.617 
  5563.500 -12.313  2.1400  2.2410  2.0320 -6.9708  2.1400  2.2410  2.0320  0.7500  5562.9  110.72  44.943  18.158  44.619 
  5564.000 -12.427  2.1390  2.2540  2.0310 -7.0866  2.1390  2.2540  2.0310  0.7500  5563.4  110.71  44.940  18.165  44.622 
  5564.500 -12.726  2.1310  2.2670  2.0300 -7.3874  2.1310  2.2670  2.0300  0.7500  5563.9  110.70  44.938  18.171  44.625 
  5565.000 -12.913  2.1220  2.2650  2.0280 -7.5761  2.1220  2.2650  2.0280  0.7500  5564.4  110.69  44.936  18.177  44.627 
  5565.500 -13.391  2.0990  2.2710  2.0200 -8.0559  2.0990  2.2710  2.0200  0.7500  5564.9  110.68  44.933  18.183  44.630 
  5566.000 -14.049  2.0760  2.2770  2.0180 -8.7157  2.0760  2.2770  2.0180  0.7500  5565.4  110.67  44.931  18.189  44.633 
  5566.500 -15.395  2.0390  2.2970  2.0170 -10.063  2.0390  2.2970  2.0170  0.7500  5565.9  110.66  44.929  18.195  44.635 
  5567.000 -16.417  2.0010  2.3030  2.0160 -11.087  2.0010  2.3030  2.0160  0.7500  5566.4  110.65  44.926  18.201  44.638 
