~Version Information
VERS.                     2.0: CWLS log ASCII Standard Version 2.00
WRAP.                      NO: One line per depth step
~Well Information Block
#MNEM.UNIT                               Data Type  Information
#---------                               ---------  -----------
STRT.FT                                   330.0000:
STOP.FT                                  8660.0000:
STEP.FT                                     0.5000:
NULL.                 -999.25                     :
COMP.                                             :COMPANY            
WELL.     SAN EMIDIO A #81-29                     :WELL               
FLD .                                             :FIELD              
CTRY.                                             :COUNTRY            
STAT.                                             :STATE              
LOC .                                             :LOCATION           
UWI .                                             :UNIQUE WELL ID     
SRVC.                                             :Service company    
DATE.                                             :LOG DATE           
~Curve Information
#MNEM.UNIT           API CODE  Curve Description
#---------           --------  -----------------
DEPT.FT                      :   1 DEPTH
SP  .MV                      :   2
AM10.OHMM                    :   3
AO10.OHMM                    :   4
AO19.OHMM                    :   5
SBL .MV                      :   6
RS  .OHMM                    :   7
RM  .OHMM                    :   8
RD  .OHMM                    :   9
DEVI.DEG                     :  10
TVD .FT                      :  11
AZIM.DEG                     :  12
NORT.FT                      :  13
EAST.FT                      :  14
OFFS.FT                      :  15
~A
   330.000 -999.25 -999.25 -999.25 -999.25 -999.25 -999.25 -999.25 -999.25  1.0917  329.95  6.0000  5.3944  0.0311  3.8364 
   330.500 -999.25 -999.25 -999.25 -999.25 -999.25 -999.25 -999.25 -999.25  1.0904  330.45  6.1000  5.4038  0.0321  3.8438 
   331.000 -999.25 -999.25 -999.25 -999.25 -999.25 -999.25 -999.25 -999.25  1.0892  330.95  6.2000  5.4133  0.0331  3.8512 
   331.500 -999.25 -999.25 -999.25 -999.25 -999.25 -999.25 -999.25 -999.25  1.0879  331.45  6.3000  5.4227  0.0342  3.8586 
   332.000 -999.25 -999.25 -999.25 -999.25 -999.25 -999.25 -999.25 -999.25  1.0867  331.95  6.4000  5.4321  0.0352  3.8660 
   332.500 -999.25 -999.25 -999.25 -999.25 -999.25 -999.25 -999.25 -999.25  1.0854  332.45  6.5000  5.4415  0.0363  3.8734 
   333.000 -999.25 -999.25 -999.25 -999.25 -999.25 -999.25 -999.25 -999.25  1.0842  332.95  6.6000  5.4509  0.0374  3.8808 
   333.500 -999.25 -999.25 -999.25 -999.25 -999.25 -999.25 -999.25 -999.25  1.0829  333.45  6.7000  5.4603  0.0385  3.8882 
   334.000 -999.25 -999.25 -999.25 -999.25 -999.25 -999.25 -999.25 -999.25  1.0817  333.95  6.8000  5.4697  0.0396  3.8957 
   334.500 -999.25 -999.25 -999.25 -999.25 -999.25 -999.25 -999.25 -999.25  1.0804  334.45  6.9000  5.4791  0.0407  3.9031 
   335.000 -999.25 -999.25 -999.25 -999.25 -999.25 -999.25 -999.25 -999.25  1.0792  334.95  7.0000  5.4884  0.0419  3.9105 
   335.500 -999.25 -999.25 -999.25 -999.25 -999.25 -999.25 -999.25 -999.25  1.0779  335.45  7.1000  5.4977  0.0430  3.9179 
   336.000 -999.25 -999.25 -999.25 -999.25 -999.25 -999.25 -999.25 -999.25  1.0767  335.95  7.2000  5.5071  0.0442  3.9253 
   336.500 -999.25 -999.25 -999.25 -999.25 -999.25 -999.25 -999.25 -999.25  1.0754  336.45  7.3000  5.5164  0.0454  3.9328 
   337.000 -0.4530 -999.25 -999.25 -999.25  19.547 -999.25 -999.25 -999.25  1.0742  336.95  7.4000  5.5257  0.0466  3.9402 
   337.500 -2.1710 -999.25 -999.25 -999.25  17.829 -999.25 -999.25 -999.25  1.0729  337.45  7.5000  5.5349  0.0478  3.9476 
   338.000 -3.8890 -999.25 -999.25 -999.25  16.111 -999.25 -999.25 -999.25  1.0717  337.95  7.6000  5.5442  0.0491  3.9551 
   338.500 -14.382  0.1020 -999.25 -999.25  5.6180  0.1020 -999.25 -999.25  1.0704  338.45  7.7000  5.5535  0.0503  3.9625 
   339.000 -16.915  0.4260 -999.25 -999.25  3.0850  0.4260 -999.25 -999.25  1.0692  338.95  7.8000  5.5627  0.0516  3.9699 
   339.500 -19.447  1.1090 -999.25 -999.25  0.5530  1.1090 -999.25 -999.25  1.0679  339.45  7.9000  5.5719  0.0529  3.9773 
   340.000 -22.885  4.0610 -999.25 -999.25 -2.8850  4.0610 -999.25 -999.25  1.0667  339.95  8.0000  5.5812  0.0542  3.9848 
   340.500 -24.332  4.3850 -999.25 -999.25 -4.3320  4.3850 -999.25 -999.25  1.0654  340.45  8.1000  5.5904  0.0555  3.9922 
   341.000 -27.226  15.978 -999.25 -999.25 -7.2260  15.978 -999.25 -999.25  1.0642  340.95  8.2000  5.5996  0.0568  3.9997 
   341.500 -29.035  18.318 -999.25 -999.25 -9.0350  18.318 -999.25 -999.25  1.0629  341.45  8.3000  5.6087  0.0582  4.0071 
   342.000 -29.578  19.469 -999.25 -999.25 -9.5780  19.469 -999.25 -999.25  1.0617  341.95  8.4000  5.6179  0.0595  4.0145 
   342.500 -30.121  19.037 -999.25 -999.25 -10.121  19.037 -999.25 -999.25  1.0604  342.45  8.5000  5.6270  0.0609  4.0220 
   343.000 -30.120  18.388 -999.25 -999.25 -10.120  18.388 -999.25 -999.25  1.0592  342.95  8.6000  5.6362  0.0622  4.0294 
   343.500 -30.120  15.400 -999.25 -999.25 -10.120  15.400 -999.25 -999.25  1.0579  343.45  8.7000  5.6453  0.0636  4.0368 
   344.000 -29.940  14.139 -999.25 -999.25 -9.9400  14.139 -999.25 -999.25  1.0567  343.95  8.8000  5.6544  0.0651  4.0443 
   344.500 -29.940  13.095 -999.25 -999.25 -9.9400  13.095 -999.25 -999.25  1.0554  344.45  8.9000  5.6635  0.0665  4.0517 
   345.000 -30.121  11.510 -999.25 -999.25 -10.121  11.510 -999.25 -999.25  1.0542  344.95  9.0000  5.6726  0.0679  4.0592 
   345.500 -30.845  10.754 -999.25 -999.25 -10.845  10.754 -999.25 -999.25  1.0529  345.45  9.1000  5.6817  0.0694  4.0666 
   346.000 -31.207  10.285  0.0960 -999.25 -11.207  10.285  0.0960 -999.25  1.0517  345.95  9.2000  5.6907  0.0708  4.0741 
   346.500 -31.568  10.105  0.4290 -999.25 -11.568  10.105  0.4290 -999.25  1.0504  346.45  9.3000  5.6998  0.0723  4.0815 
   347.000 -32.111  9.9970  0.7620 -999.25 -12.111  9.9970  0.7620 -999.25  1.0492  346.95  9.4000  5.7088  0.0738  4.0889 
   347.500 -32.653  10.104  1.0950 -999.25 -12.653  10.104  1.0950 -999.25  1.0479  347.45  9.5000  5.7178  0.0753  4.0964 
   348.000 -33.197  10.212  1.4270 -999.25 -13.197  10.212  1.4270 -999.25  1.0467  347.95  9.6000  5.7268  0.0768  4.1038 
   348.500 -33.558  10.572  12.984 -999.25 -13.558  10.572  12.984 -999.25  1.0454  348.45  9.7000  5.7358  0.0784  4.1113 
   349.000 -33.739  11.039  14.388 -999.25 -13.739  11.039  14.388 -999.25  1.0442  348.95  9.8000  5.7448  0.0799  4.1187 
   349.500 -33.920  11.435  16.116 -999.25 -13.920  11.435  16.116 -999.25  1.0429  349.45  9.9000  5.7538  0.0815  4.1262 
   350.000 -34.101  11.309  19.685 -999.25 -14.101  11.309  19.685 -999.25  1.0417  349.95  10.000  5.7627  0.0831  4.1336 
   350.500 -34.463  11.182  23.255 -999.25 -14.463  11.182  23.255 -999.25  1.0404  350.45  10.100  5.7717  0.0847  4.1411 
   351.000 -34.734  10.750  22.802 -999.25 -14.734  10.750  22.802 -999.25  1.0392  350.95  10.200  5.7806  0.0863  4.1485 
   351.500 -35.005  10.462  22.348 -999.25 -15.005  10.462  22.348 -999.25  1.0379  351.45  10.300  5.7895  0.0879  4.1560 
   352.000 -35.186  10.065  21.894 -999.25 -15.186  10.065  21.894 -999.25  1.0367  351.95  10.400  5.7984  0.0895  4.1634 
   352.500 -35.367  9.7770  21.440 -999.25 -15.367  9.7770  21.440 -999.25  1.0354  352.45  10.500  5.8073  0.0912  4.1708 
   353.000 -35.548  9.4880  21.796 -999.25 -15.548  9.4880  21.796 -999.25  1.0342  352.95  10.600  5.8162  0.0928  4.1783 
   353.500 -35.186  9.5960  22.873 -999.25 -15.186  9.5960  22.873 -999.25  1.0329  353.45  10.700  5.8250  0.0945  4.1857 
   354.000 -33.920  9.7400  23.589 -999.25 -13.920  9.7400  23.589 -999.25  1.0317  353.95  10.800  5.8339  0.0962  4.1932 
   354.500 -32.835  9.9550  24.306 -999.25 -12.835  9.9550  24.306 -999.25  1.0304  354.45  10.900  5.8427  0.0979  4.2006 
   355.000 -32.473  10.315  24.662 -999.25 -12.473  10.315  24.662 -999.25  1.0292  354.95  11.000  5.8515  0.0996  4.2081 
   355.500 -32.292  10.567  24.299 -999.25 -12.292  10.567  24.299 -999.25  1.0279  355.45  11.100  5.8603  0.1013  4.2155 
   356.000 -32.110  10.278  23.936  1.5040 -12.110  10.278  23.936  1.5040  1.0267  355.95  11.200  5.8691  0.1031  4.2230 
   356.500 -31.930  10.062  23.211  4.0610 -11.930  10.062  23.211  4.0610  1.0254  356.45  11.300  5.8779  0.1048  4.2304 
   357.000 -32.654  9.9180  22.128  4.7460 -12.654  9.9180  22.128  4.7460  1.0242  356.95  11.400  5.8866  0.1066  4.2379 
   357.500 -33.016  9.8990  22.665  7.0500 -13.016  9.8990  22.665  7.0500  1.0229  357.45  11.500  5.8954  0.1084  4.2453 
   358.000 -33.287  9.8810  23.201  13.208 -13.287  9.8810  23.201  13.208  1.0217  357.95  11.600  5.9041  0.1102  4.2527 
   358.500 -33.558  10.168  24.277  15.008 -13.558  10.168  24.277  15.008  1.0204  358.45  11.700  5.9128  0.1120  4.2602 
   359.000 -34.101  10.420  24.094  18.033 -14.101  10.420  24.094  18.033  1.0192  358.95  11.800  5.9215  0.1138  4.2676 
   359.500 -34.101  10.564  23.911  18.790 -14.101  10.564  23.911  18.790  1.0179  359.45  11.900  5.9302  0.1156  4.2751 
   360.000 -34.010  10.563  22.826  19.640 -14.010  10.563  22.826  19.640  1.0167  359.95  12.000  5.9389  0.1175  4.2825 
   360.500 -33.919  10.527  22.102  20.491 -13.919  10.527  22.102  20.491  1.0154  360.45  12.100  5.9476  0.1193  4.2899 
   361.000 -33.829  10.473  21.379  21.497 -13.829  10.473  21.379  21.497  1.0142  360.95  12.200  5.9562  0.1212  4.2974 
   361.500 -33.739  10.418  21.015  22.502 -13.739  10.418  21.015  22.502  1.0129  361.45  12.300  5.9649  0.1231  4.3048 
   362.000 -33.739  10.418  21.012  23.508 -13.739  10.418  21.012  23.508  1.0117  361.95  12.400  5.9735  0.1250  4.3123 
