~Version Information
VERS.                     2.0: CWLS log ASCII Standard Version 2.00
WRAP.                      NO: One line per depth step
~Well Information Block
#MNEM.UNIT                               Data Type  Information
#---------                               ---------  -----------
STRT.FT                                   400.0000:
STOP.FT                                  6820.0000:
STEP.FT                                     0.5000:
NULL.                 -999.25                     :
COMP.                                             :COMPANY            
WELL.     SAN EMIDIO A #86-19                     :WELL               
FLD .                                             :FIELD              
CTRY.                                             :COUNTRY            
STAT.                                             :STATE              
LOC .                                             :LOCATION           
UWI .                                             :UNIQUE WELL ID     
SRVC.                                             :Service company    
DATE.                                             :LOG DATE           
~Curve Information
#MNEM.UNIT           API CODE  Curve Description
#---------           --------  -----------------
DEPT.FT                      :   1 DEPTH
SP  .MV                      :   2
AM16.OHMM                    :   3
AO10.OHMM                    :   4
AO19.OHMM                    :   5
SBL .MV                      :   6
RS  .OHMM                    :   7
RM  .OHMM                    :   8
RD  .OHMM                    :   9
DEVI.DEG                     :  10
TVD .FT                      :  11
AZIM.DEG                     :  12
NORT.FT                      :  13
EAST.FT                      :  14
OFFS.FT                      :  15
~A
# ...
  1245.000 -44.543  14.239  15.279  15.088 -36.543  14.239  15.279  15.088  0.5000  1245.0  322.70  2.7717  0.3166  2.1837 
  1245.500 -44.181  14.031  16.234  15.260 -36.181  14.031  16.234  15.260  0.5000  1245.5  322.63  2.7751  0.3140  2.1843 
  1246.000 -43.820  13.902  17.376  15.382 -35.820  13.902  17.376  15.382  0.5000  1246.0  322.56  2.7786  0.3113  2.1849 
  1246.500 -42.014  13.594  18.324  15.454 -34.014  13.594  18.324  15.454  0.5000  1246.5  322.49  2.7821  0.3087  2.1855 
  1247.000 -39.779  12.783  19.244  15.504 -31.779  12.783  19.244  15.504  0.5000  1247.0  322.42  2.7855  0.3060  2.1860 
  1247.500 -38.013  11.534  21.444  15.468 -30.013  11.534  21.444  15.468  0.5000  1247.5  322.35  2.7890  0.3033  2.1866 
  1248.000 -35.741  10.364  21.806  15.353 -27.741  10.364  21.806  15.353  0.5000  1248.0  322.28  2.7924  0.3007  2.1871 
  1248.500 -33.506  8.8430  21.381  14.972 -25.506  8.8430  21.381  14.972  0.5000  1248.5  322.21  2.7959  0.2980  2.1877 
  1249.000 -29.902  7.1490  20.308  14.613 -21.902  7.1490  20.308  14.613  0.5000  1249.0  322.14  2.7993  0.2953  2.1882 
  1249.500 -28.063  6.1950  17.872  14.096 -20.063  6.1950  17.872  14.096  0.5000  1249.5  322.07  2.8028  0.2926  2.1888 
  1250.000 -24.819  5.1260  14.932  12.825 -16.819  5.1260  14.932  12.825  0.5000  1250.0  322.00  2.8062  0.2899  2.1893 
  1250.500 -21.900  4.5020  16.339  9.6020 -13.900  4.5020  16.339  9.6020  0.5000  1250.5  321.93  2.8096  0.2872  2.1898 
  1251.000 -20.096  4.1290  12.406  6.8310 -12.096  4.1290  12.406  6.8310  0.5000  1251.0  321.86  2.8131  0.2846  2.1903 
  1251.500 -19.805  3.9500  11.050  5.5680 -11.805  3.9500  11.050  5.5680  0.5000  1251.5  321.79  2.8165  0.2819  2.1909 
  1252.000 -19.930  3.7130  9.2700  4.8800 -11.930  3.7130  9.2700  4.8800  0.5000  1252.0  321.72  2.8199  0.2792  2.1914 
  1252.500 -20.054  3.6210  7.9640  4.3350 -12.054  3.6210  7.9640  4.3350  0.5000  1252.5  321.65  2.8233  0.2764  2.1919 
  1253.000 -20.303  3.6210  7.2030  3.6750 -12.303  3.6210  7.2030  3.6750  0.5000  1253.0  321.58  2.8268  0.2737  2.1924 
  1253.500 -20.552  3.6290  6.3930  3.6840 -12.552  3.6290  6.3930  3.6840  0.5000  1253.5  321.51  2.8302  0.2710  2.1929 
  1254.000 -20.800  3.6440  6.0630  3.7640 -12.800  3.6440  6.0630  3.7640  0.5000  1254.0  321.44  2.8336  0.2683  2.1934 
  1254.500 -20.905  3.6730  6.0850  3.8440 -12.905  3.6730  6.0850  3.8440  0.5000  1254.5  321.37  2.8370  0.2656  2.1938 
  1255.000 -20.939  3.7020  6.1500  3.9020 -12.939  3.7020  6.1500  3.9020  0.5000  1255.0  321.30  2.8404  0.2628  2.1943 
  1255.500 -20.937  3.7310  6.1870  3.9600 -12.937  3.7310  6.1870  3.9600  0.5000  1255.5  321.23  2.8438  0.2601  2.1948 
  1256.000 -20.934  3.7530  6.2450  4.1190 -12.934  3.7530  6.2450  4.1190  0.5000  1256.0  321.16  2.8472  0.2574  2.1953 
  1256.500 -20.931  3.7900  6.2950  4.3360 -12.931  3.7900  6.2950  4.3360  0.5000  1256.5  321.09  2.8506  0.2546  2.1957 
  1257.000 -20.893  3.8330  6.3750  4.4880 -12.893  3.8330  6.3750  4.4880  0.5000  1257.0  321.02  2.8540  0.2519  2.1962 
  1257.500 -20.856  3.8700  6.4040  4.6390 -12.856  3.8700  6.4040  4.6390  0.5000  1257.5  320.95  2.8574  0.2491  2.1966 
  1258.000 -20.763  3.9130  6.4470  4.8700 -12.763  3.9130  6.4470  4.8700  0.5000  1258.0  320.88  2.8608  0.2464  2.1971 
  1258.500 -20.670  3.9570  6.4770  5.1800 -12.670  3.9570  6.4770  5.1800  0.5000  1258.5  320.81  2.8641  0.2436  2.1975 
  1259.000 -20.576  3.9830  6.5200  5.5260 -12.576  3.9830  6.5200  5.5260  0.5000  1259.0  320.74  2.8675  0.2409  2.1980 
  1259.500 -20.483  4.0080  6.5570  5.8210 -12.483  4.0080  6.5570  5.8210  0.5000  1259.5  320.67  2.8709  0.2381  2.1984 
  1260.000 -20.335  4.0730  6.5790  6.0300 -12.335  4.0730  6.5790  6.0300  0.5000  1260.0  320.60  2.8743  0.2353  2.1988 
  1260.500 -20.298  4.1670  6.5930  6.1890 -12.298  4.1670  6.5930  6.1890  0.5000  1260.5  320.53  2.8776  0.2326  2.1992 
  1261.000 -20.222  4.1890  6.5800  6.3340 -12.222  4.1890  6.5800  6.3340  0.5000  1261.0  320.46  2.8810  0.2298  2.1997 
  1261.500 -20.112  4.2110  6.4580  6.4070 -12.112  4.2110  6.4580  6.4070  0.5000  1261.5  320.39  2.8844  0.2270  2.2001 
  1262.000 -20.109  4.3190  6.3370  6.4650 -12.109  4.3190  6.3370  6.4650  0.5000  1262.0  320.32  2.8877  0.2242  2.2005 
  1262.500 -20.826  4.3950  6.0570  6.5310 -12.826  4.3950  6.0570  6.5310  0.5000  1262.5  320.25  2.8911  0.2214  2.2009 
  1263.000 -21.689  4.4710  5.8210  6.6110 -13.689  4.4710  5.8210  6.6110  0.5000  1263.0  320.18  2.8944  0.2186  2.2013 
  1263.500 -22.947  4.5940  5.5700  6.7910 -14.947  4.5940  5.5700  6.7910  0.5000  1263.5  320.11  2.8978  0.2158  2.2016 
  1264.000 -24.528  4.6660  5.3840  6.9000 -16.528  4.6660  5.3840  6.9000  0.5000  1264.0  320.04  2.9011  0.2130  2.2020 
  1264.500 -26.255  4.7490  5.4490  7.1240 -18.255  4.7490  5.4490  7.1240  0.5000  1264.5  319.97  2.9045  0.2102  2.2024 
  1265.000 -26.828  4.8320  5.5210  7.2680 -18.828  4.8320  5.5210  7.2680  0.5000  1265.0  319.90  2.9078  0.2074  2.2028 
  1265.500 -26.717  4.9830  5.5930  7.3840 -18.717  4.9830  5.5930  7.3840  0.5000  1265.5  319.83  2.9111  0.2046  2.2031 
  1266.000 -25.418  5.0840  5.6160  7.4570 -17.418  5.0840  5.6160  7.4570  0.5000  1266.0  319.76  2.9145  0.2018  2.2035 
  1266.500 -24.479  5.1490  5.6160  7.4940 -16.479  5.1490  5.6160  7.4940  0.5000  1266.5  319.69  2.9178  0.1990  2.2039 
  1267.000 -23.180  5.2650  5.6020  7.4590 -15.180  5.2650  5.6020  7.4590  0.5000  1267.0  319.62  2.9211  0.1961  2.2042 
  1267.500 -21.952  5.2010  5.5310  7.4240 -13.952  5.2010  5.5310  7.4240  0.5000  1267.5  319.55  2.9244  0.1933  2.2046 
  1268.000 -21.194  5.1300  5.3810  7.3530 -13.194  5.1300  5.3810  7.3530  0.5000  1268.0  319.48  2.9277  0.1905  2.2049 
  1268.500 -20.507  5.1010  5.2450  7.3400 -12.507  5.1010  5.2450  7.3400  0.5000  1268.5  319.41  2.9311  0.1876  2.2052 
  1269.000 -20.216  5.1090  5.1520  7.3340 -12.216  5.1090  5.1520  7.3340  0.5000  1269.0  319.34  2.9344  0.1848  2.2056 
  1269.500 -20.104  5.1530  5.0950  7.3130 -12.104  5.1530  5.0950  7.3130  0.5000  1269.5  319.27  2.9377  0.1819  2.2059 
  1270.000 -20.067  5.1960  5.0670  7.1640 -12.067  5.1960  5.0670  7.1640  0.5000  1270.0  319.20  2.9410  0.1791  2.2062 
  1270.500 -20.136  5.2830  5.0670  6.8630 -12.136  5.2830  5.0670  6.8630  0.5000  1270.5  319.13  2.9443  0.1762  2.2065 
  1271.000 -20.313  5.3620  5.0680  6.6840 -12.313  5.3620  5.0680  6.6840  0.5000  1271.0  319.06  2.9476  0.1734  2.2068 
  1271.500 -20.455  5.4780  5.0830  6.6570 -12.455  5.4780  5.0830  6.6570  0.5000  1271.5  318.99  2.9509  0.1705  2.2071 
  1272.000 -20.705  5.5640  5.1050  6.6860 -12.705  5.5640  5.1050  6.6860  0.5000  1272.0  318.92  2.9542  0.1676  2.2074 
  1272.500 -21.205  5.8660  5.1410  6.7810 -13.205  5.8660  5.1410  6.7810  0.5000  1272.5  318.85  2.9574  0.1648  2.2077 
  1273.000 -21.851  6.1250  5.2060  6.8610 -13.851  6.1250  5.2060  6.8610  0.5000  1273.0  318.78  2.9607  0.1619  2.2080 
  1273.500 -23.686  6.5060  5.2930  7.0340 -15.686  6.5060  5.2930  7.0340  0.5000  1273.5  318.71  2.9640  0.1590  2.2083 
  1274.000 -25.556  6.7440  5.4590  7.1570 -17.556  6.7440  5.4590  7.1570  0.5000  1274.0  318.64  2.9673  0.1561  2.2086 
  1274.500 -28.254  6.9810  5.6600  7.3880 -20.254  6.9810  5.6600  7.3880  0.5000  1274.5  318.57  2.9705  0.1532  2.2088 
  1275.000 -30.953  7.2330  5.9840  7.7190 -22.953  7.2330  5.9840  7.7190  0.5000  1275.0  318.50  2.9738  0.1503  2.2091 
  1275.500 -34.875  7.5280  6.3650  8.0080 -26.875  7.5280  6.3650  8.0080  0.5000  1275.5  318.43  2.9771  0.1474  2.2094 
  1276.000 -37.573  7.9230  6.8170  8.3100 -29.573  7.9230  6.8170  8.3100  0.5000  1276.0  318.36  2.9803  0.1445  2.2096 
  1276.500 -39.768  8.7920  7.3060  8.5700 -31.768  8.7920  7.3060  8.5700  0.5000  1276.5  318.29  2.9836  0.1416  2.2099 
  1277.000 -41.241  9.6680  7.7800  8.8720 -33.241  9.6680  7.7800  8.8720  0.5000  1277.0  318.22  2.9869  0.1387  2.2101 
