~Version Information
VERS.                     2.0: CWLS log ASCII Standard Version 2.00
WRAP.                      NO: One line per depth step
~Well Information Block
#MNEM.UNIT                               Data Type  Information
#---------                               ---------  -----------
STRT.FT                                   330.0000:
STOP.FT                                  8660.0000:
STEP.FT                                     0.5000:
NULL.                 -999.25                     :
COMP.                                             :COMPANY            
WELL.     SAN EMIDIO A #81-29                     :WELL               
FLD .                                             :FIELD              
CTRY.                                             :COUNTRY            
STAT.                                             :STATE              
LOC .                                             :LOCATION           
UWI .                                             :UNIQUE WELL ID     
SRVC.                                             :Service company    
DATE.                                             :LOG DATE           
~Curve Information
#MNEM.UNIT           API CODE  Curve Description
#---------           --------  -----------------
DEPT.FT                      :   1 DEPTH
SP  .MV                      :   2
AM10.OHMM                    :   3
AO10.OHMM                    :   4
AO19.OHMM                    :   5
SBL .MV                      :   6
RS  .OHMM                    :   7
RM  .OHMM                    :   8
RD  .OHMM                    :   9
DEVI.DEG                     :  10
TVD .FT                      :  11
AZIM.DEG                     :  12
NORT.FT                      :  13
EAST.FT                      :  14
OFFS.FT                      :  15
~A
# ...
  5302.500 -27.648  1.7830  1.6160  1.4730 -16.205  1.7830  1.6160  1.4730  1.6584  5301.8  161.88  34.283  25.825  42.503 
  5303.000 -27.105  1.7960  1.6040  1.4740 -15.659  1.7960  1.6040  1.4740  1.6567  5302.3  161.85  34.269  25.829  42.496 
  5303.500 -26.650  1.7960  1.5930  1.4740 -15.201  1.7960  1.5930  1.4740  1.6550  5302.8  161.83  34.255  25.834  42.489 
  5304.000 -26.196  1.7960  1.5810  1.4750 -14.745  1.7960  1.5810  1.4750  1.6533  5303.3  161.80  34.242  25.838  42.483 
  5304.500 -24.932  1.7960  1.5810  1.4750 -13.478  1.7960  1.5810  1.4750  1.6517  5303.8  161.78  34.228  25.843  42.476 
  5305.000 -24.208  1.7960  1.5810  1.4750 -12.751  1.7960  1.5810  1.4750  1.6500  5304.3  161.75  34.214  25.847  42.470 
  5305.500 -24.207  1.7970  1.5810  1.4750 -12.748  1.7970  1.5810  1.4750  1.6483  5304.8  161.73  34.201  25.852  42.464 
  5306.000 -24.025  1.7970  1.5810  1.4760 -12.563  1.7970  1.5810  1.4760  1.6467  5305.3  161.70  34.187  25.856  42.457 
  5306.500 -24.024  1.7970  1.5820  1.4760 -12.559  1.7970  1.5820  1.4760  1.6450  5305.8  161.68  34.173  25.861  42.451 
  5307.000 -24.022  1.7790  1.5460  1.4770 -12.555  1.7790  1.5460  1.4770  1.6433  5306.3  161.65  34.160  25.866  42.444 
  5307.500 -24.111  1.7610  1.5280  1.4770 -12.641  1.7610  1.5280  1.4770  1.6417  5306.8  161.63  34.146  25.870  42.438 
  5308.000 -24.201  1.7790  1.5100  1.4770 -12.728  1.7790  1.5100  1.4770  1.6400  5307.3  161.60  34.132  25.875  42.431 
  5308.500 -24.381  1.7970  1.4930  1.4780 -12.906  1.7970  1.4930  1.4780  1.6383  5307.8  161.58  34.119  25.879  42.425 
  5309.000 -24.562  1.7860  1.4750  1.4780 -13.084  1.7860  1.4750  1.4780  1.6367  5308.3  161.55  34.105  25.884  42.419 
  5309.500 -24.682  1.7740  1.4750  1.4780 -13.201  1.7740  1.4750  1.4780  1.6350  5308.8  161.53  34.092  25.888  42.412 
  5310.000 -24.801  1.7630  1.4390  1.4790 -13.318  1.7630  1.4390  1.4790  1.6333  5309.3  161.50  34.078  25.893  42.406 
  5310.500 -24.921  1.7620  1.4210  1.4910 -13.435  1.7620  1.4210  1.4910  1.6317  5309.8  161.48  34.065  25.897  42.399 
  5311.000 -25.010  1.7630  1.4040  1.5030 -13.521  1.7630  1.4040  1.5030  1.6300  5310.3  161.45  34.051  25.902  42.393 
  5311.500 -25.100  1.7630  1.3680  1.5160 -13.609  1.7630  1.3680  1.5160  1.6283  5310.8  161.43  34.038  25.906  42.387 
  5312.000 -24.918  1.7270  1.3680  1.5160 -13.424  1.7270  1.3680  1.5160  1.6267  5311.3  161.40  34.024  25.911  42.381 
  5312.500 -24.736  1.7270  1.3690  1.5160 -13.239  1.7270  1.3690  1.5160  1.6250  5311.8  161.38  34.011  25.915  42.374 
  5313.000 -24.374  1.7270  1.3510  1.5170 -12.875  1.7270  1.3510  1.5170  1.6233  5312.3  161.35  33.998  25.920  42.368 
  5313.500 -24.012  1.7280  1.3330  1.5170 -12.510  1.7280  1.3330  1.5170  1.6217  5312.8  161.33  33.984  25.924  42.362 
  5314.000 -23.470  1.7280  1.3330  1.5170 -11.965  1.7280  1.3330  1.5170  1.6200  5313.3  161.30  33.971  25.929  42.355 
  5314.500 -23.108  1.7280  1.3330  1.5060 -11.601  1.7280  1.3330  1.5060  1.6183  5313.8  161.28  33.957  25.933  42.349 
  5315.000 -22.926  1.7280  1.3510  1.4940 -11.416  1.7280  1.3510  1.4940  1.6167  5314.3  161.25  33.944  25.938  42.343 
  5315.500 -22.745  1.7280  1.3690  1.4830 -11.232  1.7280  1.3690  1.4830  1.6150  5314.8  161.23  33.931  25.942  42.337 
  5316.000 -22.563  1.7280  1.3700  1.4830 -11.048  1.7280  1.3700  1.4830  1.6133  5315.3  161.20  33.917  25.947  42.330 
  5316.500 -22.742  1.7110  1.3700  1.4830 -11.224  1.7110  1.3700  1.4830  1.6117  5315.8  161.18  33.904  25.952  42.324 
  5317.000 -22.921  1.6930  1.3700  1.4840 -11.400  1.6930  1.3700  1.4840  1.6100  5316.3  161.15  33.891  25.956  42.318 
  5317.500 -23.464  1.6930  1.3700  1.4720 -11.941  1.6930  1.3700  1.4720  1.6083  5316.8  161.13  33.877  25.961  42.312 
  5318.000 -22.921  1.6930  1.3700  1.4600 -11.395  1.6930  1.3700  1.4600  1.6067  5317.3  161.10  33.864  25.965  42.306 
  5318.500 -22.378  1.6940  1.3890  1.4490 -10.849  1.6940  1.3890  1.4490  1.6050  5317.8  161.08  33.851  25.970  42.300 
  5319.000 -21.835  1.6940  1.4070  1.4400 -10.304  1.6940  1.4070  1.4400  1.6033  5318.3  161.05  33.838  25.974  42.293 
  5319.500 -21.653  1.6940  1.4070  1.4320 -10.119  1.6940  1.4070  1.4320  1.6017  5318.8  161.03  33.824  25.979  42.287 
  5320.000 -21.652  1.6940  1.4070  1.4230 -10.115  1.6940  1.4070  1.4230  1.6000  5319.3  161.00  33.811  25.983  42.281 
  5320.500 -21.651  1.6940  1.4070  1.4150 -10.112  1.6940  1.4070  1.4150  1.5983  5319.8  160.98  33.798  25.988  42.275 
  5321.000 -21.650  1.6940  1.4190  1.4270 -10.108  1.6940  1.4190  1.4270  1.5967  5320.3  160.95  33.785  25.992  42.269 
  5321.500 -21.920  1.6950  1.4310  1.4390 -10.375  1.6950  1.4310  1.4390  1.5950  5320.8  160.93  33.772  25.997  42.263 
  5322.000 -22.189  1.6950  1.4440  1.4520 -10.642  1.6950  1.4440  1.4520  1.5933  5321.3  160.90  33.759  26.001  42.257 
  5322.500 -22.459  1.6770  1.4430  1.4520 -10.909  1.6770  1.4430  1.4520  1.5917  5321.8  160.88  33.746  26.006  42.251 
  5323.000 -22.729  1.6590  1.4440  1.4520 -11.176  1.6590  1.4440  1.4520  1.5900  5322.3  160.85  33.732  26.011  42.245 
  5323.500 -23.091  1.6590  1.4440  1.4520 -11.536  1.6590  1.4440  1.4520  1.5883  5322.8  160.83  33.719  26.015  42.239 
  5324.000 -21.645  1.6590  1.4560  1.4530 -10.087  1.6590  1.4560  1.4530  1.5867  5323.3  160.80  33.706  26.020  42.233 
  5324.500 -20.921  1.6590  1.4680  1.4530 -9.3603  1.6590  1.4680  1.4530  1.5850  5323.8  160.78  33.693  26.024  42.227 
  5325.000 -20.559  1.6600  1.4810  1.4540 -8.9956  1.6600  1.4810  1.4540  1.5833  5324.3  160.75  33.680  26.029  42.221 
  5325.500 -20.377  1.6480  1.4810  1.4540 -8.8110  1.6480  1.4810  1.4540  1.5817  5324.8  160.73  33.667  26.033  42.215 
  5326.000 -20.466  1.6360  1.4810  1.4550 -8.8973  1.6360  1.4810  1.4550  1.5800  5325.3  160.70  33.654  26.038  42.209 
  5326.500 -20.556  1.6250  1.4810  1.4550 -8.9846  1.6250  1.4810  1.4550  1.5783  5325.8  160.68  33.641  26.042  42.203 
  5327.000 -20.736  1.6250  1.4810  1.4550 -9.1620  1.6250  1.4810  1.4550  1.5767  5326.3  160.65  33.628  26.047  42.197 
  5327.500 -20.915  1.6250  1.4810  1.4550 -9.3383  1.6250  1.4810  1.4550  1.5750  5326.8  160.63  33.615  26.052  42.191 
  5328.000 -20.914  1.6430  1.4820  1.4560 -9.3346  1.6430  1.4820  1.4560  1.5733  5327.3  160.60  33.602  26.056  42.185 
  5328.500 -20.642  1.6610  1.5000  1.4560 -9.0600  1.6610  1.5000  1.4560  1.5717  5327.8  160.58  33.589  26.061  42.179 
  5329.000 -20.369  1.6610  1.5180  1.4560 -8.7843  1.6610  1.5180  1.4560  1.5700  5328.3  160.55  33.576  26.065  42.173 
  5329.500 -20.097  1.6610  1.5180  1.4570 -8.5096  1.6610  1.5180  1.4570  1.5683  5328.8  160.53  33.563  26.070  42.167 
  5330.000 -19.825  1.6620  1.5180  1.4570 -8.2350  1.6620  1.5180  1.4570  1.5667  5329.3  160.50  33.551  26.074  42.161 
  5330.500 -19.463  1.6620  1.5190  1.4570 -7.8703  1.6620  1.5190  1.4570  1.5650  5329.8  160.48  33.538  26.079  42.155 
  5331.000 -19.100  1.6620  1.5370  1.4580 -7.5046  1.6620  1.5370  1.4580  1.5633  5330.3  160.45  33.525  26.084  42.149 
  5331.500 -17.655  1.6620  1.5550  1.4580 -6.0570  1.6620  1.5550  1.4580  1.5617  5330.8  160.43  33.512  26.088  42.144 
  5332.000 -16.751  1.6630  1.5550  1.4590 -5.1503  1.6630  1.5550  1.4590  1.5600  5331.3  160.40  33.499  26.093  42.138 
  5332.500 -15.485  1.6630  1.5550  1.4590 -3.8816  1.6630  1.5550  1.4590  1.5583  5331.8  160.38  33.486  26.097  42.132 
  5333.000 -15.754  1.6630  1.5910  1.4590 -4.1480  1.6630  1.5910  1.4590  1.5567  5332.3  160.35  33.474  26.102  42.126 
  5333.500 -16.024  1.6630  1.5910  1.4600 -4.4153  1.6630  1.5910  1.4600  1.5550  5332.8  160.33  33.461  26.106  42.120 
  5334.000 -17.470  1.6630  1.5910  1.4600 -5.8586  1.6630  1.5910  1.4600  1.5533  5333.3  160.30  33.448  26.111  42.115 
  5334.500 -18.192  1.6630  1.5910  1.4600 -6.5779  1.6630  1.5910  1.4600  1.5517  5333.8  160.28  33.435  26.115  42.109 
