~Version Information
VERS.                     2.0: CWLS log ASCII Standard Version 2.00
WRAP.                      NO: One line per depth step
~Well Information Block
#MNEM.UNIT                               Data Type  Information
#---------                               ---------  -----------
STRT.FT                                   330.0000:
STOP.FT                                  8660.0000:
STEP.FT                                     0.5000:
NULL.                 -999.25                     :
COMP.                                             :COMPANY            
WELL.     SAN EMIDIO A #81-29                     :WELL               
FLD .                                             :FIELD              
CTRY.                                             :COUNTRY            
STAT.                                             :STATE              
LOC .                                             :LOCATION           
UWI .                                             :UNIQUE WELL ID     
SRVC.                                             :Service company    
DATE.                                             :LOG DATE           
~Curve Information
#MNEM.UNIT           API CODE  Curve Description
#---------           --------  -----------------
DEPT.FT                      :   1 DEPTH
SP  .MV                      :   2
AM10.OHMM                    :   3
AO10.OHMM                    :   4
AO19.OHMM                    :   5
SBL .MV                      :   6
RS  .OHMM                    :   7
RM  .OHMM                    :   8
RD  .OHMM                    :   9
DEVI.DEG                     :  10
TVD .FT                      :  11
AZIM.DEG                     :  12
NORT.FT                      :  13
EAST.FT                      :  14
OFFS.FT                      :  15
~A
# ...
  3645.000 -68.784  10.641 -999.25  5.4770 -54.784  10.641 -999.25  5.4770  1.3708  3644.6  1.6482  38.167  12.777  36.023 
  3645.500 -69.149  10.568  6.3010  5.5120 -55.149  10.568  6.3010  5.5120  1.3712  3645.1  1.6332  38.179  12.778  36.032 
  3646.000 -69.694  10.496 -999.25  5.5470 -55.694  10.496 -999.25  5.5470  1.3716  3645.6  1.6182  38.191  12.778  36.041 
  3646.500 -69.879  10.423  6.6580  5.5820 -55.879  10.423  6.6580  5.5820  1.3721  3646.1  1.6032  38.203  12.778  36.049 
  3647.000 -69.162  10.404  6.9080  5.6350 -55.162  10.404  6.9080  5.6350  1.3725  3646.6  1.5882  38.215  12.779  36.058 
  3647.500 -67.725  10.385  7.0510  5.6880 -53.725  10.385  7.0510  5.6880  1.3729  3647.1  1.5732  38.227  12.779  36.067 
  3648.000 -67.279  10.420 -999.25  5.7230 -53.279  10.420 -999.25  5.7230  1.3733  3647.6  1.5582  38.239  12.779  36.075 
  3648.500 -66.833  10.419  7.1560  5.7580 -52.833  10.419  7.1560  5.7580  1.3737  3648.1  1.5432  38.251  12.780  36.084 
  3649.000 -63.955  10.419  7.4420  5.7750 -49.955  10.419  7.4420  5.7750  1.3741  3648.6  1.5282  38.263  12.780  36.093 
  3649.500 -62.338  10.382 -999.25  5.7920 -48.338  10.382 -999.25  5.7920  1.3746  3649.1  1.5132  38.275  12.780  36.101 
  3650.000 -58.559  10.345  7.7280  5.8270 -44.559  10.345  7.7280  5.8270  1.3750  3649.6  1.4982  38.287  12.781  36.110 
  3650.500 -56.041  10.272  8.0130  5.8260 -42.041  10.272  8.0130  5.8260  1.3754  3650.1  1.4832  38.299  12.781  36.119 
  3651.000 -54.694  10.182  8.4070  5.8250 -40.694  10.182  8.4070  5.8250  1.3758  3650.6  1.4682  38.311  12.781  36.128 
  3651.500 -53.347  10.091  8.5140  5.7880 -39.347  10.091  8.5140  5.7880  1.3762  3651.1  1.4532  38.323  12.782  36.136 
  3652.000 -50.288  9.6600 -999.25  5.7520 -36.288  9.6600 -999.25  5.7520  1.3767  3651.6  1.4382  38.335  12.782  36.145 
  3652.500 -47.770  9.1930  8.6550  5.4280 -33.770  9.1930  8.6550  5.4280  1.3771  3652.1  1.4232  38.347  12.782  36.154 
  3653.000 -45.072  8.7620  8.2600  5.1760 -31.072  8.7620  8.2600  5.1760  1.3775  3652.6  1.4082  38.359  12.782  36.162 
  3653.500 -42.915  8.2590  7.2910  4.7810 -28.915  8.2590  7.2910  4.7810  1.3779  3653.1  1.3932  38.371  12.783  36.171 
  3654.000 -40.937  5.3180  5.4250  4.3500 -26.937  5.3180  5.4250  4.3500  1.3783  3653.6  1.3782  38.383  12.783  36.180 
  3654.500 -38.599  4.8150  5.0660  3.8470 -24.599  4.8150  5.0660  3.8470  1.3787  3654.1  1.3632  38.395  12.783  36.188 
  3655.000 -36.261  4.4550  4.8860  3.5230 -22.261  4.4550  4.8860  3.5230  1.3792  3654.6  1.3482  38.407  12.784  36.197 
  3655.500 -34.824  3.7010  4.5980  3.1640 -20.824  3.7010  4.5980  3.1640  1.3796  3655.1  1.3332  38.419  12.784  36.206 
  3656.000 -34.649  2.5530  4.4540  3.2160 -20.649  2.5530  4.4540  3.2160  1.3800  3655.6  1.3182  38.431  12.784  36.215 
  3656.500 -35.915  2.4800  4.5240  3.2690 -21.915  2.4800  4.5240  3.2690  1.3804  3656.1  1.3032  38.443  12.784  36.223 
  3657.000 -36.820  2.5870  4.6310  3.5550 -22.820  2.5870  4.6310  3.5550  1.3808  3656.6  1.2882  38.455  12.785  36.232 
  3657.500 -37.906  2.7300  4.9530  3.7700 -23.906  2.7300  4.9530  3.7700  1.3812  3657.1  1.2732  38.467  12.785  36.241 
  3658.000 -38.631  2.9440  5.2030  3.9840 -24.631  2.9440  5.2030  3.9840  1.3817  3657.6  1.2582  38.479  12.785  36.249 
  3658.500 -39.716 -999.25 -999.25  4.3770 -25.716 -999.25 -999.25  4.3770  1.3821  3658.1  1.2433  38.491  12.786  36.258 
  3659.000 -36.478  3.4440  5.7030  4.6630 -22.478  3.4440  5.7030  4.6630  1.3825  3658.6  1.2283  38.503  12.786  36.267 
  3659.500 -35.221  4.1600  5.9170  4.6980 -21.221  4.1600  5.9170  4.6980  1.3829  3659.1  1.2133  38.515  12.786  36.276 
  3660.000 -33.964  4.3750  5.8090  4.4460 -19.964  4.3750  5.8090  4.4460  1.3833  3659.6  1.1983  38.527  12.786  36.284 
  3660.500 -32.707  4.0870  5.6650  4.3380 -18.707  4.0870  5.6650  4.3380  1.3837  3660.1  1.1833  38.540  12.787  36.293 
  3661.000 -30.910  3.9070  5.5560  4.2300 -16.910  3.9070  5.5560  4.2300  1.3842  3660.6  1.1683  38.552  12.787  36.302 
  3661.500 -30.014  3.5110  5.1970  4.0850 -16.014  3.5110  5.1970  4.0850  1.3846  3661.1  1.1533  38.564  12.787  36.310 
  3662.000 -28.216  3.2600 -999.25  3.9410 -14.216  3.2600 -999.25  3.9410  1.3850  3661.6  1.1383  38.576  12.787  36.319 
  3662.500 -27.320  2.9720  4.8720  3.8320 -13.320  2.9720  4.8720  3.8320  1.3854  3662.1  1.1233  38.588  12.787  36.328 
  3663.000 -25.883  2.7560 -999.25  3.7240 -11.883  2.7560 -999.25  3.7240  1.3858  3662.6  1.1083  38.600  12.788  36.337 
  3663.500 -23.185  2.5400  4.5480  3.6150 -9.1850  2.5400  4.5480  3.6150  1.3862  3663.1  1.0933  38.612  12.788  36.345 
  3664.000 -21.568  2.4310 -999.25  3.6500 -7.5680  2.4310 -999.25  3.6500  1.3867  3663.6  1.0783  38.624  12.788  36.354 
  3664.500 -21.212  2.3230  4.1870  3.7030 -7.2120  2.3230  4.1870  3.7030  1.3871  3664.1  1.0633  38.636  12.788  36.363 
  3665.000 -20.315  2.2860  3.9000  3.7560 -6.3150  2.2860  3.9000  3.7560  1.3875  3664.6  1.0483  38.648  12.789  36.371 
  3665.500 -20.860  2.2850  3.6830  3.8270 -6.8600  2.2850  3.6830  3.8270  1.3879  3665.1  1.0333  38.660  12.789  36.380 
  3666.000 -21.405  2.2840  3.5390  3.8260 -7.4050  2.2840  3.5390  3.8260  1.3883  3665.6  1.0183  38.673  12.789  36.389 
  3666.500 -22.131  2.2830  3.4670  3.8070 -8.1310  2.2830  3.4670  3.8070  1.3887  3666.1  1.0033  38.685  12.789  36.398 
  3667.000 -22.496  2.2820  3.3940  3.7880 -8.4960  2.2820  3.3940  3.7880  1.3892  3666.6  0.9883  38.697  12.789  36.406 
  3667.500 -22.860  2.3170 -999.25  3.7520 -8.8600  2.3170 -999.25  3.7520  1.3896  3667.1  0.9733  38.709  12.790  36.415 
  3668.000 -23.406  2.3880  3.2850  3.8580 -9.4060  2.3880  3.2850  3.8580  1.3900  3667.6  0.9583  38.721  12.790  36.424 
  3668.500 -23.951  2.5310  3.1760  3.9830 -9.9510  2.5310  3.1760  3.9830  1.3904  3668.1  0.9433  38.733  12.790  36.432 
  3669.000 -24.676  2.6730  3.1750  4.1080 -10.676  2.6730  3.1750  4.1080  1.3908  3668.6  0.9283  38.745  12.790  36.441 
  3669.500 -25.221  2.8870  3.2460  4.3580 -11.221  2.8870  3.2460  4.3580  1.3912  3669.1  0.9133  38.757  12.790  36.450 
  3670.000 -25.946  3.1730  3.3530  4.6440 -11.946  3.1730  3.3530  4.6440  1.3917  3669.6  0.8983  38.770  12.791  36.459 
  3670.500 -26.851  3.5670  3.6030  4.9650 -12.851  3.5670  3.6030  4.9650  1.3921  3670.1  0.8833  38.782  12.791  36.467 
  3671.000 -28.117  4.1040  3.7450  5.2160 -14.117  4.1040  3.7450  5.2160  1.3925  3670.6  0.8683  38.794  12.791  36.476 
  3671.500 -30.464  6.3260 -999.25  5.5020 -16.464  6.3260 -999.25  5.5020  1.3929  3671.1  0.8533  38.806  12.791  36.485 
  3672.000 -32.451  7.1860  4.0660  5.7160 -18.451  7.1860  4.0660  5.7160  1.3933  3671.6  0.8383  38.818  12.791  36.494 
  3672.500 -38.581 -999.25  4.7470  5.8400 -24.581 -999.25  4.7470  5.8400  1.3937  3672.1  0.8233  38.830  12.792  36.502 
  3673.000 -42.369  7.6860  5.0690  5.9650 -28.369  7.6860  5.0690  5.9650  1.3942  3672.6  0.8083  38.843  12.792  36.511 
  3673.500 -44.356  8.8330  5.2110  6.0720 -30.356  8.8330  5.2110  6.0720  1.3946  3673.1  0.7933  38.855  12.792  36.520 
  3674.000 -46.342  8.7960 -999.25  5.9630 -32.342  8.7960 -999.25  5.9630  1.3950  3673.6  0.7783  38.867  12.792  36.528 
  3674.500 -47.248  8.6880  5.4250  5.8910 -33.248  8.6880  5.4250  5.8910  1.3954  3674.1  0.7633  38.879  12.792  36.537 
  3675.000 -48.153 -999.25  5.4950  5.8180 -34.153 -999.25  5.4950  5.8180  1.3958  3674.6  0.7483  38.891  12.792  36.546 
  3675.500 -48.698  8.5070 -999.25  6.0320 -34.698  8.5070 -999.25  6.0320  1.3963  3675.1  0.7333  38.903  12.793  36.555 
  3676.000 -48.883  8.3620  5.5290  6.3540 -34.883  8.3620  5.5290  6.3540  1.3967  3675.6  0.7183  38.916  12.793  36.563 
  3676.500 -49.068  8.3250  5.5280  6.6760 -35.068  8.3250  5.5280  6.6760  1.3971  3676.1  0.7033  38.928  12.793  36.572 
  3677.000 -49.252  8.3240  5.7430  6.7650 -35.252  8.3240  5.7430  6.7650  1.3975  3676.6  0.6883  38.940  12.793  36.581 
