~Version Information
VERS.                     2.0: CWLS log ASCII Standard Version 2.00
WRAP.                      NO: One line per depth step
~Well Information Block
#MNEM.UNIT                               Data Type  Information
#---------                               ---------  -----------
STRT.FT                                   400.0000:
STOP.FT                                  6820.0000:
STEP.FT                                     0.5000:
NULL.                 -999.25                     :
COMP.                                             :COMPANY            
WELL.     SAN EMIDIO A #86-19                     :WELL               
FLD .                                             :FIELD              
CTRY.                                             :COUNTRY            
STAT.                                             :STATE              
LOC .                                             :LOCATION           
UWI .                                             :UNIQUE WELL ID     
SRVC.                                             :Service company    
DATE.                                             :LOG DATE           
~Curve Information
#MNEM.UNIT           API CODE  Curve Description
#---------           --------  -----------------
DEPT.FT                      :   1 DEPTH
SP  .MV                      :   2
AM16.OHMM                    :   3
AO10.OHMM                    :   4
AO19.OHMM                    :   5
SBL .MV                      :   6
RS  .OHMM                    :   7
RM  .OHMM                    :   8
RD  .OHMM                    :   9
DEVI.DEG                     :  10
TVD .FT                      :  11
AZIM.DEG                     :  12
NORT.FT                      :  13
EAST.FT                      :  14
OFFS.FT                      :  15
~A
# ...
  4657.500 -29.652  9.4900  10.411  8.7710 -23.280  9.4900  10.411  8.7710  0.2375  4656.9  109.94  44.778  13.273  41.049 
  4658.000 -28.717  9.1220  10.611  8.7410 -22.345  9.1220  10.611  8.7410  0.2367  4657.4  110.47  44.777  13.275  41.049 
  4658.500 -27.348  7.8620  10.775  8.7180 -20.976  7.8620  10.775  8.7180  0.2358  4657.9  111.00  44.777  13.277  41.050 
  4659.000 -25.329  7.2060  10.846  8.6950 -18.957  7.2060  10.846  8.6950  0.2350  4658.4  111.53  44.776  13.279  41.051 
  4659.500 -22.658  6.7880  10.859  8.5930 -16.287  6.7880  10.859  8.5930  0.2342  4658.9  112.06  44.775  13.281  41.052 
  4660.000 -16.187  6.4480  10.815  8.1890 -9.8158  6.4480  10.815  8.1890  0.2333  4659.4  112.59  44.774  13.283  41.053 
  4660.500 -13.769  6.1450  10.540  7.6120 -7.3981  6.1450  10.540  7.6120  0.2325  4659.9  113.12  44.774  13.285  41.053 
  4661.000 -12.256  5.8770  9.8340  7.2230 -5.8853  5.8770  9.8340  7.2230  0.2317  4660.4  113.65  44.773  13.287  41.054 
  4661.500 -11.466  5.5740  9.0270  6.8540 -5.0956  5.5740  9.0270  6.8540  0.2308  4660.9  114.18  44.772  13.288  41.055 
  4662.000 -10.713  5.3210  8.4290  6.4790 -4.3429  5.3210  8.4290  6.4790  0.2300  4661.4  114.71  44.771  13.290  41.056 
  4662.500 -10.069  5.1320  7.9810  6.2190 -3.6991  5.1320  7.9810  6.2190  0.2292  4661.9  115.24  44.770  13.292  41.056 
  4663.000 -9.5330  4.9220  7.4910  5.9660 -3.1634  4.9220  7.4910  5.9660  0.2283  4662.4  115.77  44.769  13.294  41.057 
  4663.500 -9.1410  4.8490  7.1010  5.7770 -2.7716  4.8490  7.1010  5.7770  0.2275  4662.9  116.30  44.769  13.296  41.058 
  4664.000 -8.8220  4.6460  6.7980  5.5670 -2.4529  4.6460  6.7980  5.5670  0.2267  4663.4  116.83  44.768  13.297  41.058 
  4664.500 -8.4690  4.5810  6.4150  5.3360 -2.1001  4.5810  6.4150  5.3360  0.2258  4663.9  117.36  44.767  13.299  41.059 
  4665.000 -8.2930  4.4500  6.1980  5.1620 -1.9244  4.4500  6.1980  5.1620  0.2250  4664.4  117.89  44.766  13.301  41.059 
  4665.500 -8.1210  4.4050  5.9810  5.1030 -1.7527  4.4050  5.9810  5.1030  0.2242  4664.9  118.42  44.765  13.303  41.060 
  4666.000 -7.9810  4.3390  5.8710  5.2820 -1.6129  4.3390  5.8710  5.2820  0.2233  4665.4  118.95  44.764  13.304  41.060 
  4666.500 -7.9510  4.3600  5.8060  5.4820 -1.5832  4.3600  5.8060  5.4820  0.2225  4665.9  119.48  44.763  13.306  41.061 
  4667.000 -7.9250  4.4450  5.8330  5.7250 -1.5574  4.4450  5.8330  5.7250  0.2217  4666.4  120.01  44.762  13.308  41.061 
  4667.500 -8.0750  4.5300  6.1630  6.0190 -1.7077  4.5300  6.1630  6.0190  0.2208  4666.9  120.54  44.761  13.309  41.062 
  4668.000 -8.2260  4.7650  6.5570  6.1900 -1.8590  4.7650  6.5570  6.1900  0.2200  4667.4  121.07  44.760  13.311  41.062 
  4668.500 -8.4110  4.9370  6.7500  6.4620 -2.0442  4.9370  6.7500  6.4620  0.2192  4667.9  121.60  44.759  13.313  41.063 
  4669.000 -8.5960  5.0580  7.0440  6.6480 -2.2295  5.0580  7.0440  6.6480  0.2183  4668.4  122.13  44.758  13.314  41.063 
  4669.500 -9.1520  5.2510  7.2370  6.8620 -2.7857  5.2510  7.2370  6.8620  0.2175  4668.9  122.66  44.757  13.316  41.064 
  4670.000 -9.5920  5.3720  7.3500  7.0410 -3.2260  5.3720  7.3500  7.0410  0.2167  4669.4  123.19  44.756  13.317  41.064 
  4670.500 -9.9240  5.5220  7.4130  7.2260 -3.5582  5.5220  7.4130  7.2260  0.2158  4669.9  123.72  44.755  13.319  41.064 
  4671.000 -10.583  5.6570  7.4480  7.3330 -4.2175  5.6570  7.4480  7.3330  0.2150  4670.4  124.25  44.754  13.320  41.065 
  4671.500 -11.204  5.7570  7.4830  7.4250 -4.8388  5.7570  7.4830  7.4250  0.2142  4670.9  124.78  44.753  13.322  41.065 
  4672.000 -11.898  5.8490  7.5390  7.5250 -5.5330  5.8490  7.5390  7.5250  0.2133  4671.4  125.31  44.752  13.323  41.065 
  4672.500 -12.701  5.8260  7.5810  7.6310 -6.3363  5.8260  7.5810  7.6310  0.2125  4671.9  125.84  44.751  13.325  41.066 
  4673.000 -13.286  5.7740  7.6020  7.6880 -6.9215  5.7740  7.6020  7.6880  0.2117  4672.4  126.37  44.750  13.326  41.066 
  4673.500 -12.533  5.6500  7.5540  7.7440 -6.1688  5.6500  7.5540  7.7440  0.2108  4672.9  126.90  44.748  13.328  41.066 
  4674.000 -11.093  5.5920  7.5060  7.6490 -4.7291  5.5920  7.5060  7.6490  0.2100  4673.4  127.43  44.747  13.329  41.066 
  4674.500 -9.1460  5.5330  7.1950  7.5830 -2.7823  5.5330  7.1950  7.5830  0.2092  4673.9  127.96  44.746  13.331  41.067 
  4675.000 -8.0660  5.5100  6.7980  7.4670 -1.7026  5.5100  6.7980  7.4670  0.2083  4674.4  128.49  44.745  13.332  41.067 
  4675.500 -7.2400  5.5160  6.3580  7.3280 -0.8768  5.5160  6.3580  7.3280  0.2075  4674.9  129.02  44.744  13.334  41.067 
  4676.000 -6.3810  5.5230  5.9890  7.2480 -0.0181  5.5230  5.9890  7.2480  0.2067  4675.4  129.55  44.743  13.335  41.067 
  4676.500 -6.0960  5.6000  5.7510  7.1460  0.2666  5.6000  5.7510  7.1460  0.2058  4675.9  130.08  44.742  13.336  41.067 
  4677.000 -5.7780  5.7140  5.5770  7.0880  0.5844  5.7140  5.5770  7.0880  0.2050  4676.4  130.61  44.740  13.338  41.068 
  4677.500 -5.8200  5.8280  5.4970  7.0640  0.5421  5.8280  5.4970  7.0640  0.2042  4676.9  131.14  44.739  13.339  41.068 
  4678.000 -6.2260  6.1780  5.4740  7.0990  0.1359  6.1780  5.4740  7.0990  0.2033  4677.4  131.67  44.738  13.340  41.068 
  4678.500 -7.0660  6.4070  5.4790  7.1340 -0.7044  6.4070  5.4790  7.1340  0.2025  4677.9  132.20  44.737  13.342  41.068 
  4679.000 -7.6500  6.5860  5.5070  7.1700 -1.2886  6.5860  5.5070  7.1700  0.2017  4678.4  132.73  44.736  13.343  41.068 
  4679.500 -9.0320  6.7500  5.5630  7.3470 -2.6709  6.7500  5.5630  7.3470  0.2008  4678.9  133.26  44.735  13.344  41.068 
  4680.000 -11.102  7.1090  5.6910  7.4110 -4.7412  7.1090  5.6910  7.4110  0.2000  4679.4  133.79  44.733  13.346  41.068 
  4680.500 -13.497  7.5030  5.8410  7.4740 -7.1364  7.5030  5.8410  7.4740  0.1992  4679.9  134.32  44.732  13.347  41.068 
  4681.000 -20.307  7.8250  5.9700  7.5520 -13.947  7.8250  5.9700  7.5520  0.1983  4680.4  134.85  44.731  13.348  41.068 
  4681.500 -23.462  8.0830  6.2700  7.6300 -17.102  8.0830  6.2700  7.6300  0.1975  4680.9  135.38  44.730  13.349  41.068 
  4682.000 -24.953  8.1860  6.4270  7.7370 -18.593  8.1860  6.4270  7.7370  0.1967  4681.4  135.91  44.728  13.350  41.068 
  4682.500 -25.827  8.2900  6.7060  7.8040 -19.467  8.2900  6.7060  7.8040  0.1958  4681.9  136.44  44.727  13.352  41.068 
  4683.000 -26.920  8.5680  6.9500  7.8710 -20.561  8.5680  6.9500  7.8710  0.1950  4682.4  136.97  44.726  13.353  41.068 
  4683.500 -27.614  8.7250  7.1350  7.9340 -21.255  8.7250  7.1350  7.9340  0.1942  4682.9  137.50  44.725  13.354  41.068 
  4684.000 -27.476  8.8960  7.3070  7.9540 -21.117  8.8960  7.3070  7.9540  0.1933  4683.4  138.03  44.723  13.355  41.068 
  4684.500 -27.194  9.0390  7.4560  7.9530 -20.835  9.0390  7.4560  7.9530  0.1925  4683.9  138.56  44.722  13.356  41.068 
  4685.000 -26.984  9.2960  7.5920  7.9230 -20.626  9.2960  7.5920  7.9230  0.1917  4684.4  139.09  44.721  13.357  41.068 
  4685.500 -26.954  9.4030  7.6990  7.9110 -20.596  9.4030  7.6990  7.9110  0.1908  4684.9  139.62  44.720  13.358  41.067 
  4686.000 -27.504  9.6110  7.7690  7.8990 -21.146  9.6110  7.7690  7.8990  0.1900  4685.4  140.15  44.718  13.359  41.067 
  4686.500 -28.270  9.8110  7.8330  7.8830 -21.913  9.8110  7.8330  7.8830  0.1892  4685.9  140.68  44.717  13.360  41.067 
  4687.000 -29.001  10.069  7.9030  7.8820 -22.644  10.069  7.9030  7.8820  0.1883  4686.4  141.21  44.716  13.362  41.067 
  4687.500 -29.985  10.333  7.9810  7.8810 -23.628  10.333  7.9810  7.8810  0.1875  4686.9  141.74  44.715  13.363  41.067 
  4688.000 -30.715  10.541  8.0590  7.8980 -24.358  10.541  8.0590  7.8980  0.1867  4687.4  142.27  44.713  13.364  41.066 
  4688.500 -31.409  10.719  8.1580  7.9150 -25.053  10.719  8.1580  7.9150  0.1858  4687.9  142.80  44.712  13.365  41.066 
  4689.000 -31.923  10.862  8.2620  7.9630 -25.567  10.862  8.2620  7.9630  0.1850  4688.4  143.33  44.711  13.365  41.066 
  4689.500 -32.472  10.990  8.3650  8.0260 -26.116  10.990  8.3650  8.0260  0.1842  4688.9  143.86  44.709  13.366  41.066 
