~Version Information
VERS.                     2.0: CWLS log ASCII Standard Version 2.00
WRAP.                      NO: One line per depth step
~Well Information Block
#MNEM.UNIT                               Data Type  Information
#---------                               ---------  -----------
STRT.FT                                   330.0000:
STOP.FT                                  8660.0000:
STEP.FT                                     0.5000:
NULL.                 -999.25                     :
COMP.                                             :COMPANY            
WELL.     SAN EMIDIO A #81-29                     :WELL               
FLD .                                             :FIELD              
CTRY.                                             :COUNTRY            
STAT.                                             :STATE              
LOC .                                             :LOCATION           
UWI .                                             :UNIQUE WELL ID     
SRVC.                                             :Service company    
DATE.                                             :LOG DATE           
~Curve Information
#MNEM.UNIT           API CODE  Curve Description
#---------           --------  -----------------
DEPT.FT                      :   1 DEPTH
SP  .MV                      :   2
AM10.OHMM                    :   3
AO10.OHMM                    :   4
AO19.OHMM                    :   5
SBL .MV                      :   6
RS  .OHMM                    :   7
RM  .OHMM                    :   8
RD  .OHMM                    :   9
DEVI.DEG                     :  10
TVD .FT                      :  11
AZIM.DEG                     :  12
NORT.FT                      :  13
EAST.FT                      :  14
OFFS.FT                      :  15
~A
# ...
   882.500 -45.059  4.4990  5.7590  5.9400 -25.059  4.4990  5.7590  5.9400  0.7208  882.40  27.025  11.910  2.8430  10.432 
   883.000 -45.785  4.3900  5.9020  6.0660 -25.785  4.3900  5.9020  6.0660  0.7217  882.90  27.110  11.916  2.8459  10.438 
   883.500 -46.240  4.3360  6.0460  6.2090 -26.240  4.3360  6.0460  6.2090  0.7225  883.40  27.195  11.921  2.8488  10.444 
   884.000 -46.695  4.2820  6.0100  6.2450 -26.695  4.2820  6.0100  6.2450  0.7233  883.90  27.280  11.927  2.8517  10.450 
   884.500 -47.964  4.2450  5.9730  6.3170 -27.964  4.2450  5.9730  6.3170  0.7242  884.40  27.365  11.932  2.8546  10.456 
   885.000 -48.872  4.2450  5.9370  6.1730 -28.872  4.2450  5.9370  6.1730  0.7250  884.90  27.450  11.938  2.8575  10.462 
   885.500 -48.874  4.2440  5.8650  5.9570 -28.874  4.2440  5.8650  5.9570  0.7258  885.40  27.535  11.944  2.8604  10.468 
   886.000 -48.876  4.2440  5.7920  5.8840 -28.876  4.2440  5.7920  5.8840  0.7267  885.90  27.620  11.949  2.8634  10.474 
   886.500 -47.794  4.1720  5.6480  5.8120 -27.794  4.1720  5.6480  5.8120  0.7275  886.40  27.705  11.955  2.8663  10.480 
   887.000 -47.073  4.1350  5.5750  5.7400 -27.073  4.1350  5.5750  5.7400  0.7283  886.90  27.790  11.961  2.8693  10.486 
   887.500 -46.171  4.0810  5.5390  5.6320 -26.171  4.0810  5.5390  5.6320  0.7292  887.40  27.875  11.966  2.8723  10.492 
   888.000 -45.269  4.0270  5.5750  5.5960 -25.269  4.0270  5.5750  5.5960  0.7300  887.90  27.960  11.972  2.8752  10.498 
   888.500 -44.006  3.9900  5.5920  5.5600 -24.006  3.9900  5.5920  5.5600  0.7308  888.40  28.045  11.977  2.8782  10.505 
   889.000 -42.743  3.9180  5.6100  5.5230 -22.743  3.9180  5.6100  5.5230  0.7317  888.90  28.130  11.983  2.8812  10.511 
   889.500 -42.293  3.8810  5.6100  5.5230 -22.293  3.8810  5.6100  5.5230  0.7325  889.40  28.215  11.989  2.8843  10.517 
   890.000 -41.843  3.8450  5.6090  5.5590 -21.843  3.8450  5.6090  5.5590  0.7333  889.90  28.300  11.994  2.8873  10.523 
   890.500 -42.208  3.8090  5.5730  5.5590 -22.208  3.8090  5.5730  5.5590  0.7342  890.40  28.385  12.000  2.8903  10.529 
   891.000 -43.658  3.7720  5.5730  5.5770 -23.658  3.7720  5.5730  5.5770  0.7350  890.90  28.470  12.006  2.8934  10.535 
   891.500 -44.023  3.7360  5.5900  5.5940 -24.023  3.7360  5.5900  5.5940  0.7358  891.40  28.555  12.011  2.8965  10.541 
   892.000 -43.483  3.6640  5.6080  5.6480 -23.483  3.6640  5.6080  5.6480  0.7367  891.90  28.640  12.017  2.8996  10.547 
   892.500 -43.123  3.6630  5.6430  5.7020 -23.123  3.6630  5.6430  5.7020  0.7375  892.40  28.725  12.022  2.9026  10.554 
   893.000 -43.307  3.6630  5.8950  5.8100 -23.307  3.6630  5.8950  5.8100  0.7383  892.90  28.810  12.028  2.9058  10.560 
   893.500 -43.490  3.6990  6.1470  5.9180 -23.490  3.6990  6.1470  5.9180  0.7392  893.40  28.895  12.034  2.9089  10.566 
   894.000 -44.398  3.7700  6.3990  6.0260 -24.398  3.7700  6.3990  6.0260  0.7400  893.90  28.980  12.039  2.9120  10.572 
   894.500 -44.672  3.9140  6.6500  6.2050 -24.672  3.9140  6.6500  6.2050  0.7408  894.40  29.065  12.045  2.9151  10.578 
   895.000 -44.945  4.0580  6.7580  6.3850 -24.945  4.0580  6.7580  6.3850  0.7417  894.90  29.150  12.051  2.9183  10.585 
   895.500 -46.034  4.2370  6.8660  6.5650 -26.034  4.2370  6.8660  6.5650  0.7425  895.40  29.235  12.056  2.9215  10.591 
   896.000 -46.580  4.3450  6.9010  6.8530 -26.580  4.3450  6.9010  6.8530  0.7433  895.90  29.320  12.062  2.9246  10.597 
   896.500 -46.582  4.4530  6.6490  7.1050 -26.582  4.4530  6.6490  7.1050  0.7442  896.40  29.405  12.068  2.9278  10.603 
   897.000 -46.223  4.7400  6.3960  7.1410 -26.223  4.7400  6.3960  7.1410  0.7450  896.90  29.490  12.073  2.9310  10.610 
   897.500 -45.864  4.7040  6.0000  6.9600 -25.864  4.7040  6.0000  6.9600  0.7458  897.40  29.575  12.079  2.9342  10.616 
   898.000 -44.601  4.6310  5.7120  6.8160 -24.601  4.6310  5.7120  6.8160  0.7467  897.90  29.660  12.085  2.9375  10.622 
   898.500 -44.060  4.5590  5.4230  6.2760 -24.060  4.5590  5.4230  6.2760  0.7475  898.40  29.745  12.090  2.9407  10.629 
   899.000 -43.520  4.3430  5.2970  5.9880 -23.520  4.3430  5.2970  5.9880  0.7483  898.90  29.830  12.096  2.9439  10.635 
   899.500 -42.076  3.8020  5.1700  5.8620 -22.076  3.8020  5.1700  5.8620  0.7492  899.40  29.915  12.102  2.9472  10.641 
   900.000 -40.993  3.5860  5.0260  5.7350 -20.993  3.5860  5.0260  5.7350  0.7500  899.90  30.000  12.107  2.9505  10.647 
   900.500 -40.092  3.2970  4.9180  5.3750 -20.092  3.2970  4.9180  5.3750  0.7487  900.40  30.260  12.113  2.9538  10.654 
   901.000 -39.913  3.1710  4.8990  5.3030 -19.913  3.1710  4.8990  5.3030  0.7475  900.90  30.520  12.119  2.9571  10.660 
   901.500 -40.278  3.0450  4.8810  5.4110 -20.278  3.0450  4.8810  5.4110  0.7462  901.40  30.780  12.124  2.9604  10.666 
   902.000 -41.004  3.0800  4.9170  5.5190 -21.004  3.0800  4.9170  5.5190  0.7450  901.90  31.040  12.130  2.9638  10.673 
   902.500 -41.369  3.2240  4.9520  5.6260 -21.369  3.2240  4.9520  5.6260  0.7437  902.40  31.300  12.135  2.9671  10.679 
   903.000 -42.276  3.3680  5.0960  5.7340 -22.276  3.3680  5.0960  5.7340  0.7425  902.90  31.560  12.141  2.9705  10.685 
   903.500 -43.364  3.5830  5.2040  5.8060 -23.364  3.5830  5.2040  5.8060  0.7412  903.40  31.820  12.146  2.9739  10.692 
   904.000 -43.729  3.7270  5.4190  5.9500 -23.729  3.7270  5.4190  5.9500  0.7400  903.90  32.080  12.152  2.9774  10.698 
   904.500 -44.274  3.8710  5.5630  6.0580 -24.274  3.8710  5.5630  6.0580  0.7387  904.40  32.340  12.157  2.9808  10.704 
   905.000 -44.819  4.0140  5.7070  6.1120 -24.819  4.0140  5.7070  6.1120  0.7375  904.90  32.600  12.163  2.9843  10.711 
   905.500 -45.364  4.1580  5.9940  6.1650 -25.364  4.1580  5.9940  6.1650  0.7362  905.40  32.860  12.168  2.9878  10.717 
   906.000 -45.910  4.3020  6.1740  6.2730 -25.910  4.3020  6.1740  6.2730  0.7350  905.90  33.120  12.173  2.9913  10.723 
   906.500 -46.637  4.4090  6.3540  6.3810 -26.637  4.4090  6.3540  6.3810  0.7337  906.40  33.380  12.179  2.9948  10.729 
   907.000 -47.001  4.4990  6.5330  6.4350 -27.001  4.4990  6.5330  6.4350  0.7325  906.90  33.640  12.184  2.9983  10.736 
   907.500 -47.365  4.5890  6.8570  6.4890 -27.365  4.5890  6.8570  6.4890  0.7312  907.40  33.900  12.189  3.0019  10.742 
   908.000 -48.273  4.6240  6.9470  6.5790 -28.273  4.6240  6.9470  6.5790  0.7300  907.90  34.160  12.195  3.0055  10.748 
   908.500 -48.637  4.6600  7.0360  6.6680 -28.637  4.6600  7.0360  6.6680  0.7287  908.40  34.420  12.200  3.0091  10.754 
   909.000 -48.911  4.6600  7.0360  6.7400 -28.911  4.6600  7.0360  6.7400  0.7275  908.90  34.680  12.205  3.0127  10.761 
   909.500 -49.185  4.6230  6.9270  6.7760 -29.185  4.6230  6.9270  6.7760  0.7262  909.40  34.940  12.210  3.0163  10.767 
   910.000 -48.465  4.5510  6.8910  6.8120 -28.465  4.5510  6.8910  6.8120  0.7250  909.90  35.200  12.216  3.0200  10.773 
   910.500 -47.563  4.4420  6.8550  6.8480 -27.563  4.4420  6.8550  6.8480  0.7237  910.40  35.460  12.221  3.0236  10.779 
   911.000 -46.480  4.3700  6.8540  6.8480 -26.480  4.3700  6.8540  6.8480  0.7225  910.90  35.720  12.226  3.0273  10.786 
   911.500 -45.578  4.3340  6.8900  6.8110 -25.578  4.3340  6.8900  6.8110  0.7212  911.40  35.980  12.231  3.0310  10.792 
   912.000 -45.490  4.4770  6.9260  6.8110 -25.490  4.4770  6.9260  6.8110  0.7200  911.90  36.240  12.236  3.0347  10.798 
   912.500 -45.402  4.7290  7.0690  6.9910 -25.402  4.7290  7.0690  6.9910  0.7187  912.40  36.500  12.241  3.0384  10.804 
   913.000 -46.129  5.0170  7.2490  7.2070 -26.129  5.0170  7.2490  7.2070  0.7175  912.90  36.760  12.246  3.0422  10.810 
   913.500 -45.770  5.1240  7.6090  7.4230 -25.770  5.1240  7.6090  7.4230  0.7162  913.40  37.020  12.251  3.0460  10.817 
   914.000 -45.411  5.4840  7.7880  8.0350 -25.411  5.4840  7.7880  8.0350  0.7150  913.90  37.280  12.256  3.0497  10.823 
   914.500 -44.690  5.5560  8.1840  8.3220 -24.690  5.5560  8.1840  8.3220  0.7137  914.40  37.540  12.261  3.0535  10.829 
