~Version Information
VERS.                     2.0: CWLS log ASCII Standard Version 2.00
WRAP.                      NO: One line per depth step
~Well Information Block
#MNEM.UNIT                               Data Type  Information
#---------                               ---------  -----------
STRT.FT                                   400.0000:
STOP.FT                                  6820.0000:
STEP.FT                                     0.5000:
NULL.                 -999.25                     :
COMP.                                             :COMPANY            
WELL.     SAN EMIDIO A #86-19                     :WELL               
FLD .                                             :FIELD              
CTRY.                                             :COUNTRY            
STAT.                                             :STATE              
LOC .                                             :LOCATION           
UWI .                                             :UNIQUE WELL ID     
SRVC.                                             :Service company    
DATE.                                             :LOG DATE           
~Curve Information
#MNEM.UNIT           API CODE  Curve Description
#---------           --------  -----------------
DEPT.FT                      :   1 DEPTH
SP  .MV                      :   2
AM16.OHMM                    :   3
AO10.OHMM                    :   4
AO19.OHMM                    :   5
SBL .MV                      :   6
RS  .OHMM                    :   7
RM  .OHMM                    :   8
RD  .OHMM                    :   9
DEVI.DEG                     :  10
TVD .FT                      :  11
AZIM.DEG                     :  12
NORT.FT                      :  13
EAST.FT                      :  14
OFFS.FT                      :  15
~A
# ...
  2967.500 -41.119  10.430  12.276  8.5080 -33.872  10.430  12.276  8.5080  0.8292  2967.0  6.2432  35.393  13.934  34.879 
  2968.000 -42.060  10.781  12.368  8.7800 -34.813  10.781  12.368  8.7800  0.8267  2967.5  6.3932  35.400  13.934  34.885 
  2968.500 -42.893  11.189  12.554  9.0520 -35.647  11.189  12.554  9.0520  0.8242  2968.0  6.5432  35.407  13.935  34.891 
  2969.000 -43.402  11.598  12.927  9.2520 -36.156  11.598  12.927  9.2520  0.8217  2968.5  6.6932  35.414  13.936  34.896 
  2969.500 -44.199  11.877  13.393  9.5750 -36.953  11.877  13.393  9.5750  0.8192  2969.0  6.8432  35.422  13.937  34.902 
  2970.000 -44.635  12.163  13.916  9.9110 -37.390  12.163  13.916  9.9110  0.8167  2969.5  6.9932  35.429  13.938  34.907 
  2970.500 -45.072  12.500  14.303  10.313 -37.827  12.500  14.303  10.313  0.8142  2970.0  7.1432  35.436  13.939  34.913 
  2971.000 -45.545  12.801  14.611  10.714 -38.300  12.801  14.611  10.714  0.8117  2970.5  7.2932  35.443  13.940  34.919 
  2971.500 -45.729  13.037  15.063  11.094 -38.484  13.037  15.063  11.094  0.8092  2971.0  7.4432  35.450  13.941  34.924 
  2972.000 -45.770  13.309  15.464  11.359 -38.526  13.309  15.464  11.359  0.8067  2971.5  7.5932  35.457  13.941  34.930 
  2972.500 -45.594  13.330  15.815  11.667 -38.350  13.330  15.815  11.667  0.8042  2972.0  7.7432  35.464  13.942  34.935 
  2973.000 -45.095  13.257  16.087  11.860 -37.851  13.257  16.087  11.860  0.8017  2972.5  7.8932  35.471  13.943  34.941 
  2973.500 -44.272  13.119  16.144  11.909 -37.028  13.119  16.144  11.909  0.7992  2973.0  8.0432  35.478  13.944  34.947 
  2974.000 -43.591  12.889  16.143  11.872 -36.348  12.889  16.143  11.872  0.7967  2973.5  8.1932  35.484  13.945  34.952 
  2974.500 -43.308  12.579  15.761  11.850 -36.065  12.579  15.761  11.850  0.7942  2974.0  8.3432  35.491  13.946  34.958 
  2975.000 -43.709  12.370  15.365  11.849 -36.466  12.370  15.365  11.849  0.7917  2974.5  8.4932  35.498  13.947  34.963 
  2975.500 -43.930  12.261  14.868  11.991 -36.687  12.261  14.868  11.991  0.7892  2975.0  8.6432  35.505  13.948  34.969 
  2976.000 -44.007  12.231  14.695  12.465 -36.765  12.231  14.695  12.465  0.7867  2975.5  8.7932  35.512  13.949  34.974 
  2976.500 -44.011  12.202  14.816  12.830 -36.769  12.202  14.816  12.830  0.7842  2976.0  8.9432  35.518  13.951  34.980 
  2977.000 -43.835  12.050  15.009  13.289 -36.593  12.050  15.009  13.289  0.7817  2976.5  9.0932  35.525  13.952  34.985 
  2977.500 -43.300  11.984  15.698  13.748 -36.058  11.984  15.698  13.748  0.7792  2977.0  9.2432  35.532  13.953  34.991 
  2978.000 -42.620  11.919  16.545  14.156 -35.379  11.919  16.545  14.156  0.7767  2977.5  9.3932  35.539  13.954  34.996 
  2978.500 -41.292  10.776  17.384  14.385 -34.051  10.776  17.384  14.385  0.7742  2978.0  9.5432  35.545  13.955  35.002 
  2979.000 -39.712  10.142  17.943  14.377 -32.471  10.142  17.943  14.377  0.7717  2978.5  9.6932  35.552  13.956  35.007 
  2979.500 -36.511  9.2580  18.208  14.268 -29.270  9.2580  18.208  14.268  0.7692  2979.0  9.8432  35.558  13.957  35.013 
  2980.000 -34.355  8.1580  18.222  13.499 -27.115  8.1580  18.222  13.499  0.7667  2979.5  9.9932  35.565  13.958  35.018 
  2980.500 -30.938  6.7710  18.092  12.090 -23.698  6.7710  18.092  12.090  0.7642  2980.0  10.143  35.572  13.960  35.024 
  2981.000 -28.637  6.3170  15.311  10.818 -21.397  6.3170  15.311  10.818  0.7617  2980.5  10.293  35.578  13.961  35.029 
  2981.500 -26.301  5.9360  13.873  10.005 -19.061  5.9360  13.873  10.005  0.7592  2981.0  10.443  35.585  13.962  35.035 
  2982.000 -24.145  5.7330  12.112  9.2780 -16.906  5.7330  12.112  9.2780  0.7567  2981.5  10.593  35.591  13.963  35.040 
  2982.500 -22.277  5.5750  11.027  8.7680 -15.038  5.5750  11.027  8.7680  0.7542  2982.0  10.743  35.598  13.964  35.046 
  2983.000 -19.868  5.2860  10.530  8.2570 -12.629  5.2860  10.530  8.2570  0.7517  2982.5  10.893  35.604  13.966  35.051 
  2983.500 -17.856  5.0480  9.8400  7.8680 -10.618  5.0480  9.8400  7.8680  0.7492  2983.0  11.043  35.611  13.967  35.056 
  2984.000 -15.484  4.9180  8.9190  7.4570 -8.2458  4.9180  8.9190  7.4570  0.7467  2983.5  11.193  35.617  13.968  35.062 
  2984.500 -14.264  4.8520  7.8910  7.2050 -7.0260  4.8520  7.8910  7.2050  0.7442  2984.0  11.343  35.623  13.969  35.067 
  2985.000 -13.728  4.8080  7.5020  7.0890 -6.4903  4.8080  7.5020  7.0890  0.7417  2984.5  11.493  35.630  13.971  35.073 
  2985.500 -13.697  4.8000  7.1920  6.9010 -6.4595  4.8000  7.1920  6.9010  0.7392  2985.0  11.643  35.636  13.972  35.078 
  2986.000 -13.846  4.8070  6.9540  6.9080 -6.6088  4.8070  6.9540  6.9080  0.7367  2985.5  11.793  35.642  13.973  35.083 
  2986.500 -13.922  4.8340  6.9610  6.9500 -6.6851  4.8340  6.9610  6.9500  0.7342  2986.0  11.943  35.648  13.975  35.089 
  2987.000 -14.107  4.8840  7.0100  7.0350 -6.8703  4.8840  7.0100  7.0350  0.7317  2986.5  12.093  35.655  13.976  35.094 
  2987.500 -14.580  4.9980  7.1170  7.1490 -7.3436  4.9980  7.1170  7.1490  0.7292  2987.0  12.243  35.661  13.977  35.100 
  2988.000 -14.872  5.1190  7.3240  7.3210 -7.6358  5.1190  7.3240  7.3210  0.7267  2987.5  12.393  35.667  13.979  35.105 
  2988.500 -15.669  5.3050  7.5600  7.5930 -8.4331  5.3050  7.5600  7.5930  0.7242  2988.0  12.543  35.673  13.980  35.110 
  2989.000 -16.646  5.6130  7.8390  7.9870 -9.4104  5.6130  7.8390  7.9870  0.7217  2988.5  12.693  35.679  13.981  35.116 
  2989.500 -17.767  5.9850  8.1190  8.3090 -10.532  5.9850  8.1190  8.3090  0.7192  2989.0  12.843  35.686  13.983  35.121 
  2990.000 -20.689  6.5950  8.3620  8.5380 -13.454  6.5950  8.3620  8.5380  0.7167  2989.5  12.993  35.692  13.984  35.126 
  2990.500 -23.935  7.2620  8.6270  8.8530 -16.700  7.2620  8.6270  8.8530  0.7142  2990.0  13.143  35.698  13.986  35.131 
  2991.000 -28.261  7.8790  8.8050  9.2470 -21.026  7.8790  8.8050  9.2470  0.7117  2990.5  13.293  35.704  13.987  35.137 
  2991.500 -31.651  8.3660  8.8620  9.6700 -24.417  8.3660  8.8620  9.6700  0.7092  2991.0  13.443  35.710  13.989  35.142 
  2992.000 -35.077  8.9620  8.8900  10.172 -27.843  8.9620  8.8900  10.172  0.7067  2991.5  13.593  35.716  13.990  35.147 
  2992.500 -38.035  9.3490  8.9250  10.688 -30.801  9.3490  8.9250  10.688  0.7042  2992.0  13.743  35.722  13.991  35.153 
  2993.000 -40.020  9.7930  9.1820  11.061 -32.786  9.7930  9.1820  11.061  0.7017  2992.5  13.893  35.728  13.993  35.158 
  2993.500 -41.465  10.302  9.5190  11.534 -34.232  10.302  9.5190  11.534  0.6992  2993.0  14.043  35.734  13.994  35.163 
  2994.000 -42.298  10.646  9.8850  11.864 -35.065  10.646  9.8850  11.864  0.6967  2993.5  14.193  35.740  13.996  35.168 
  2994.500 -42.951  11.148  10.049  11.949 -35.718  11.148  10.049  11.949  0.6942  2994.0  14.343  35.745  13.997  35.173 
  2995.000 -43.532  11.585  10.148  11.998 -36.299  11.585  10.148  11.998  0.6917  2994.5  14.493  35.751  13.999  35.179 
  2995.500 -44.005  11.886  10.040  12.040 -36.773  11.886  10.040  12.040  0.6892  2995.0  14.643  35.757  14.000  35.184 
  2996.000 -44.478  12.244  9.9450  12.061 -37.246  12.244  9.9450  12.061  0.6867  2995.5  14.793  35.763  14.002  35.189 
  2996.500 -44.914  12.588  9.8300  12.168 -37.682  12.588  9.8300  12.168  0.6842  2996.0  14.943  35.769  14.003  35.194 
  2997.000 -45.387  12.932  9.7640  12.296 -38.155  12.932  9.7640  12.296  0.6817  2996.5  15.093  35.774  14.005  35.199 
  2997.500 -45.824  13.182  9.7130  12.532 -38.593  13.182  9.7130  12.532  0.6792  2997.0  15.243  35.780  14.007  35.204 
  2998.000 -46.080  13.462  9.7190  12.833 -38.849  13.462  9.7190  12.833  0.6767  2997.5  15.393  35.786  14.008  35.210 
  2998.500 -46.373  13.791  9.7470  13.040 -39.142  13.791  9.7470  13.040  0.6742  2998.0  15.543  35.791  14.010  35.215 
  2999.000 -46.558  14.099  9.7890  13.255 -39.328  14.099  9.7890  13.255  0.6717  2998.5  15.693  35.797  14.011  35.220 
  2999.500 -46.815  14.364  9.8460  13.448 -39.585  14.364  9.8460  13.448  0.6692  2999.0  15.843  35.803  14.013  35.225 
