~Version Information
VERS.                     2.0: CWLS log ASCII Standard Version 2.00
WRAP.                      NO: One line per depth step
~Well Information Block
#MNEM.UNIT                               Data Type  Information
#---------                               ---------  -----------
STRT.FT                                   400.0000:
STOP.FT                                  6820.0000:
STEP.FT                                     0.5000:
NULL.                 -999.25                     :
COMP.                                             :COMPANY            
WELL.     SAN EMIDIO A #86-19                     :WELL               
FLD .                                             :FIELD              
CTRY.                                             :COUNTRY            
STAT.                                             :STATE              
LOC .                                             :LOCATION           
UWI .                                             :UNIQUE WELL ID     
SRVC.                                             :Service company    
DATE.                                             :LOG DATE           
~Curve Information
#MNEM.UNIT           API CODE  Curve Description
#---------           --------  -----------------
DEPT.FT                      :   1 DEPTH
SP  .MV                      :   2
AM16.OHMM                    :   3
AO10.OHMM                    :   4
AO19.OHMM                    :   5
SBL .MV                      :   6
RS  .OHMM                    :   7
RM  .OHMM                    :   8
RD  .OHMM                    :   9
DEVI.DEG                     :  10
TVD .FT                      :  11
AZIM.DEG                     :  12
NORT.FT                      :  13
EAST.FT                      :  14
OFFS.FT                      :  15
~A
# ...
  6380.000 -19.870  3.0520  2.3470  2.0910 -17.416  3.0520  2.3470  2.0910  0.6667  6379.3  178.19  35.161  25.187  42.673 
  6380.500 -20.087  3.0670  2.4190  2.1270 -17.634  3.0670  2.4190  2.1270  0.6667  6379.8  178.26  35.155  25.188  42.669 
  6381.000 -20.267  3.0740  2.4980  2.1710 -17.816  3.0740  2.4980  2.1710  0.6667  6380.3  178.33  35.149  25.188  42.665 
  6381.500 -20.593  3.0740  2.5630  2.1490 -18.144  3.0740  2.5630  2.1490  0.6667  6380.8  178.40  35.143  25.188  42.661 
  6382.000 -20.592  3.0670  2.6280  2.0920 -18.145  3.0670  2.6280  2.0920  0.6667  6381.3  178.47  35.137  25.188  42.657 
  6382.500 -20.338  3.0670  2.7070  2.0270 -17.892  3.0670  2.7070  2.0270  0.6667  6381.8  178.54  35.132  25.188  42.653 
  6383.000 -19.940  3.0810  2.7580  1.9840 -17.496  3.0810  2.7580  1.9840  0.6667  6382.3  178.61  35.126  25.188  42.649 
  6383.500 -19.217  3.1750  2.7000  1.9770 -16.775  3.1750  2.7000  1.9770  0.6667  6382.8  178.68  35.120  25.189  42.645 
  6384.000 -18.348  3.2110  2.6570  2.0700 -15.908  3.2110  2.6570  2.0700  0.6667  6383.3  178.75  35.114  25.189  42.641 
  6384.500 -17.010  3.3840  2.6280  2.2070 -14.571  3.3840  2.6280  2.2070  0.6667  6383.8  178.82  35.108  25.189  42.637 
  6385.000 -15.924  3.5930  2.6280  2.3580 -13.487  3.5930  2.6280  2.3580  0.6667  6384.3  178.89  35.103  25.189  42.633 
  6385.500 -14.622  3.8010  2.6500  2.4880 -12.187  3.8010  2.6500  2.4880  0.6667  6384.8  178.96  35.097  25.189  42.629 
  6386.000 -13.428  4.0030  2.7000  2.6180 -10.995  4.0030  2.7000  2.6180  0.6667  6385.3  179.03  35.091  25.189  42.624 
  6386.500 -12.162  4.2260  2.7870  2.7260 -9.7305  4.2260  2.7870  2.7260  0.6667  6385.8  179.10  35.085  25.189  42.620 
  6387.000 -11.113  4.4420  2.8660  2.8480 -8.6833  4.4420  2.8660  2.8480  0.6667  6386.3  179.17  35.079  25.189  42.616 
  6387.500 -10.281  4.5140  2.9810  2.9340 -7.8531  4.5140  2.9810  2.9340  0.6667  6386.8  179.24  35.074  25.189  42.612 
  6388.000 -9.5930  4.5070  3.1470  2.9850 -7.1668  4.5070  3.1470  2.9850  0.6667  6387.3  179.31  35.068  25.189  42.608 
  6388.500 -9.1590  4.3700  3.2330  2.9780 -6.7346  4.3700  3.2330  2.9780  0.6667  6387.8  179.38  35.062  25.190  42.604 
  6389.000 -9.3390  4.2120  3.3850  2.9130 -6.9164  4.2120  3.3850  2.9130  0.6667  6388.3  179.45  35.056  25.190  42.600 
  6389.500 -9.6280  4.0040  3.5140  2.6180 -7.2071  4.0040  3.5140  2.6180  0.6667  6388.8  179.52  35.050  25.190  42.596 
  6390.000 -9.9900  3.3770  3.6370  2.2660 -7.5709  3.3770  3.6370  2.2660  0.6667  6389.3  179.59  35.044  25.190  42.592 
  6390.500 -10.242  3.0320  3.4640  2.0500 -7.8247  3.0320  3.4640  2.0500  0.6667  6389.8  179.66  35.039  25.190  42.588 
  6391.000 -10.531  2.7440  2.7510  1.9130 -8.1154  2.7440  2.7510  1.9130  0.6667  6390.3  179.73  35.033  25.190  42.584 
  6391.500 -10.784  2.5640  2.4200  1.9060 -8.3702  2.5640  2.4200  1.9060  0.6667  6390.8  179.80  35.027  25.190  42.580 
  6392.000 -10.892  2.5210  2.2480  1.9200 -8.4800  2.5210  2.2480  1.9200  0.6667  6391.3  179.87  35.021  25.190  42.576 
  6392.500 -11.072  2.5070  2.1260  1.9420 -8.6617  2.5070  2.1260  1.9420  0.6667  6391.8  179.94  35.015  25.190  42.571 
  6393.000 -11.326  2.4850  2.1110  1.9640 -8.9175  2.4850  2.1110  1.9640  0.6667  6392.3  180.01  35.010  25.190  42.567 
  6393.500 -11.506  2.4780  2.0970  1.9710 -9.0993  2.4780  2.0970  1.9710  0.6667  6392.8  180.08  35.004  25.190  42.563 
  6394.000 -11.614  2.4780  2.1040  1.9780 -9.2090  2.4780  2.1040  1.9780  0.6667  6393.3  180.15  34.998  25.190  42.559 
  6394.500 -11.758  2.4860  2.1040  1.9930 -9.3548  2.4860  2.1040  1.9930  0.6667  6393.8  180.22  34.992  25.190  42.555 
  6395.000 -11.866  2.4780  2.0540  1.9930 -9.4646  2.4780  2.0540  1.9930  0.6667  6394.3  180.29  34.986  25.190  42.551 
  6395.500 -11.974  2.4710  2.0040  1.9930 -9.5744  2.4710  2.0040  1.9930  0.6667  6394.8  180.36  34.980  25.190  42.547 
  6396.000 -12.119  2.4640  1.9530  2.0000 -9.7211  2.4640  1.9530  2.0000  0.6667  6395.3  180.43  34.975  25.190  42.543 
  6396.500 -12.082  2.4570  1.9460  2.0070 -9.6859  2.4570  1.9460  2.0070  0.6667  6395.8  180.50  34.969  25.190  42.538 
  6397.000 -11.720  2.4140  1.9680  2.0150 -9.3257  2.4140  1.9680  2.0150  0.6667  6396.3  180.57  34.963  25.190  42.534 
  6397.500 -11.358  2.3710  2.0250  2.0290 -8.9654  2.3710  2.0250  2.0290  0.6667  6396.8  180.64  34.957  25.189  42.530 
  6398.000 -10.996  2.3130  2.0900  2.0290 -8.6052  2.3130  2.0900  2.0290  0.6667  6397.3  180.71  34.951  25.189  42.526 
  6398.500 -10.761  2.2270  2.1410  2.0290 -8.3720  2.2270  2.1410  2.0290  0.6667  6397.8  180.78  34.946  25.189  42.522 
  6399.000 -10.525  2.1840  2.1620  2.0290 -8.1377  2.1840  2.1620  2.0290  0.6667  6398.3  180.85  34.940  25.189  42.518 
  6399.500 -10.272  2.1550  2.1770  2.0220 -7.8865  2.1550  2.1770  2.0220  0.6667  6398.8  180.92  34.934  25.189  42.513 
  6400.000 -10.308  2.1700  2.1770  2.0150 -7.9243  2.1700  2.1770  2.0150  0.6667  6399.3  180.99  34.928  25.189  42.509 
  6400.500 -10.380  2.1840  2.1840  2.0080 -7.9980  2.1840  2.1840  2.0080  0.6667  6399.8  180.98  34.922  25.189  42.505 
  6401.000 -10.562  2.1910  2.1840  2.0000 -8.1818  2.1910  2.1840  2.0000  0.6667  6400.3  180.98  34.916  25.189  42.501 
  6401.500 -10.708  2.2200  2.1840  1.9930 -8.3296  2.2200  2.1840  1.9930  0.6667  6400.8  180.97  34.911  25.189  42.497 
  6402.000 -10.781  2.2340  2.1760  1.9780 -8.4043  2.2340  2.1760  1.9780  0.6667  6401.3  180.97  34.905  25.189  42.492 
  6402.500 -10.889  2.2630  2.1760  1.9780 -8.5141  2.2630  2.1760  1.9780  0.6667  6401.8  180.96  34.899  25.189  42.488 
  6403.000 -10.962  2.2770  2.1620  1.9780 -8.5889  2.2770  2.1620  1.9780  0.6667  6402.3  180.96  34.893  25.188  42.484 
  6403.500 -11.035  2.2980  2.1400  1.9780 -8.6636  2.2980  2.1400  1.9780  0.6667  6402.8  180.95  34.887  25.188  42.480 
  6404.000 -11.000  2.3200  2.1260  1.9710 -8.6304  2.3200  2.1260  1.9710  0.6667  6403.3  180.95  34.882  25.188  42.476 
  6404.500 -10.928  2.3630  2.1250  1.9710 -8.5602  2.3630  2.1250  1.9710  0.6667  6403.8  180.94  34.876  25.188  42.472 
  6405.000 -10.929  2.4060  2.1320  1.9780 -8.5630  2.4060  2.1320  1.9780  0.6667  6404.3  180.94  34.870  25.188  42.467 
  6405.500 -11.001  2.4270  2.1320  1.9990 -8.6367  2.4270  2.1320  1.9990  0.6667  6404.8  180.93  34.864  25.188  42.463 
  6406.000 -11.002  2.4630  2.1250  2.0350 -8.6395  2.4630  2.1250  2.0350  0.6667  6405.3  180.93  34.858  25.188  42.459 
  6406.500 -11.039  2.5060  2.1250  2.1070 -8.6783  2.5060  2.1250  2.1070  0.6667  6405.8  180.92  34.852  25.188  42.455 
  6407.000 -11.040  2.5420  2.1320  2.1930 -8.6810  2.5420  2.1320  2.1930  0.6667  6406.3  180.92  34.847  25.188  42.451 
  6407.500 -11.004  2.5780  2.1240  2.2790 -8.6468  2.5780  2.1240  2.2790  0.6667  6406.8  180.91  34.841  25.188  42.446 
  6408.000 -10.968  2.6140  2.1240  2.3730 -8.6126  2.6140  2.1240  2.3730  0.6667  6407.3  180.91  34.835  25.187  42.442 
  6408.500 -10.897  2.6570  2.1240  2.4300 -8.5433  2.6570  2.1240  2.4300  0.6667  6407.8  180.90  34.829  25.187  42.438 
  6409.000 -10.681  2.6850  2.1460  2.4880 -8.3291  2.6850  2.1460  2.4880  0.6667  6408.3  180.90  34.823  25.187  42.434 
  6409.500 -10.537  2.7140  2.1960  2.5520 -8.1869  2.7140  2.1960  2.5520  0.6667  6408.8  180.89  34.818  25.187  42.430 
  6410.000 -10.284  2.7210  2.2890  2.5950 -7.9356  2.7210  2.2890  2.5950  0.6667  6409.3  180.89  34.812  25.187  42.426 
  6410.500 -10.013  2.7140  2.3680  2.6020 -7.6664  2.7140  2.3680  2.6020  0.6667  6409.8  180.88  34.806  25.187  42.421 
  6411.000 -9.7430  2.6850  2.4260  2.5370 -7.3982  2.6850  2.4260  2.5370  0.6667  6410.3  180.88  34.800  25.187  42.417 
  6411.500 -9.4540  2.6700  2.4760  2.4940 -7.1109  2.6700  2.4760  2.4940  0.6667  6410.8  180.87  34.794  25.187  42.413 
  6412.000 -9.2010  2.6410  2.4830  2.4290 -6.8597  2.6410  2.4830  2.4290  0.6667  6411.3  180.87  34.788  25.187  42.409 
