~Version Information
VERS.                     2.0: CWLS log ASCII Standard Version 2.00
WRAP.                      NO: One line per depth step
~Well Information Block
#MNEM.UNIT                               Data Type  Information
#---------                               ---------  -----------
STRT.FT                                   330.0000:
STOP.FT                                  8660.0000:
STEP.FT                                     0.5000:
NULL.                 -999.25                     :
COMP.                                             :COMPANY            
WELL.     SAN EMIDIO A #81-29                     :WELL               
FLD .                                             :FIELD              
CTRY.                                             :COUNTRY            
STAT.                                             :STATE              
LOC .                                             :LOCATION           
UWI .                                             :UNIQUE WELL ID     
SRVC.                                             :Service company    
DATE.                                             :LOG DATE           
~Curve Information
#MNEM.UNIT           API CODE  Curve Description
#---------           --------  -----------------
DEPT.FT                      :   1 DEPTH
SP  .MV                      :   2
AM10.OHMM                    :   3
AO10.OHMM                    :   4
AO19.OHMM                    :   5
SBL .MV                      :   6
RS  .OHMM                    :   7
RM  .OHMM                    :   8
RD  .OHMM                    :   9
DEVI.DEG                     :  10
TVD .FT                      :  11
AZIM.DEG                     :  12
NORT.FT                      :  13
EAST.FT                      :  14
OFFS.FT                      :  15
~A
# ...
  2540.000 -67.843  10.545  9.5410  7.8600 -51.582  10.545  9.5410  7.8600  1.3000  2539.8  13.398  18.420  7.7601  18.512 
  2540.500 -68.568  10.831  9.8990  7.9490 -52.308  10.831  9.8990  7.9490  1.2995  2540.3  13.378  18.431  7.7627  18.521 
  2541.000 -68.749  10.974  10.472  8.1640 -52.491  10.974  10.472  8.1640  1.2991  2540.8  13.358  18.442  7.7654  18.531 
  2541.500 -68.840  11.045  10.687  8.2710 -52.584  11.045  10.687  8.2710  1.2987  2541.3  13.338  18.453  7.7680  18.541 
  2542.000 -68.931  11.117  10.937  8.3780 -52.676  11.117  10.937  8.3780  1.2983  2541.8  13.318  18.464  7.7706  18.550 
  2542.500 -69.113  11.116  11.116  8.4850 -52.860  11.116  11.116  8.4850  1.2979  2542.3  13.298  18.475  7.7732  18.560 
  2543.000 -69.023  11.116  11.116  8.5920 -52.772  11.116  11.116  8.5920  1.2975  2542.8  13.278  18.486  7.7758  18.570 
  2543.500 -68.933  11.116  11.116  8.2330 -52.684  11.116  11.116  8.2330  1.2970  2543.3  13.258  18.497  7.7784  18.579 
  2544.000 -68.392  11.044  11.079  8.0890 -52.144  11.044  11.079  8.0890  1.2966  2543.8  13.238  18.508  7.7810  18.589 
  2544.500 -67.851  10.900  10.972  7.7660 -51.605  10.900  10.972  7.7660  1.2962  2544.3  13.218  18.519  7.7836  18.599 
  2545.000 -66.227  10.792  10.792  7.3350 -49.983  10.792  10.792  7.3350  1.2958  2544.8  13.198  18.530  7.7861  18.608 
  2545.500 -65.143  10.577  10.577  7.0840 -48.901  10.577  10.577  7.0840  1.2954  2545.3  13.178  18.541  7.7887  18.618 
  2546.000 -62.795  10.361  10.325  6.8860 -46.554  10.361  10.325  6.8860  1.2950  2545.8  13.158  18.552  7.7913  18.627 
  2546.500 -60.989  9.5720  9.8950  6.6890 -44.750  9.5720  9.8950  6.6890  1.2945  2546.3  13.138  18.563  7.7939  18.637 
  2547.000 -57.917  7.1700  9.3210  6.4010 -41.680  7.1700  9.3210  6.4010  1.2941  2546.8  13.118  18.574  7.7964  18.647 
  2547.500 -55.569  6.8120  8.3530  5.9700 -39.333  6.8120  8.3530  5.9700  1.2937  2547.3  13.098  18.585  7.7990  18.656 
  2548.000 -53.221  6.2020  7.9580  5.7190 -36.987  6.2020  7.9580  5.7190  1.2933  2547.8  13.078  18.596  7.8015  18.666 
  2548.500 -51.595  5.3060  7.5280  5.4310 -35.363  5.3060  7.5280  5.4310  1.2929  2548.3  13.058  18.607  7.8041  18.675 
  2549.000 -49.245  4.8390  6.9540  5.2700 -33.015  4.8390  6.9540  5.2700  1.2925  2548.8  13.038  18.618  7.8066  18.685 
  2549.500 -46.716  4.2660  6.4880  5.1080 -30.487  4.2660  6.4880  5.1080  1.2920  2549.3  13.018  18.629  7.8092  18.694 
  2550.000 -37.861  3.7630  6.1290  4.8210 -21.634  3.7630  6.1290  4.8210  1.2916  2549.8  12.998  18.640  7.8117  18.704 
  2550.500 -35.333  3.5120  5.7340  4.9280 -19.108  3.5120  5.7340  4.9280  1.2912  2550.3  12.978  18.651  7.8142  18.714 
  2551.000 -34.250  3.0820  5.6620  4.9630 -18.026  3.0820  5.6620  4.9630  1.2908  2550.8  12.958  18.662  7.8168  18.723 
  2551.500 -33.889  2.7590  5.7870  4.9980 -17.667  2.7590  5.7870  4.9980  1.2904  2551.3  12.938  18.673  7.8193  18.733 
  2552.000 -34.794  2.6510  5.9130  5.1050 -18.574  2.6510  5.9130  5.1050  1.2900  2551.8  12.918  18.684  7.8218  18.742 
  2552.500 -36.963  2.7220  6.3060  5.2120 -20.745  2.7220  6.3060  5.2120  1.2895  2552.3  12.898  18.695  7.8243  18.752 
  2553.000 -38.229  2.9370  6.6280  5.4980 -22.012  2.9370  6.6280  5.4980  1.2891  2552.8  12.878  18.706  7.8268  18.761 
  2553.500 -40.037  3.4380  7.0220  5.6410 -23.822  3.4380  7.0220  5.6410  1.2887  2553.3  12.858  18.716  7.8293  18.771 
  2554.000 -45.098  3.9400  7.2550  5.8920 -28.885  3.9400  7.2550  5.8920  1.2883  2553.8  12.838  18.727  7.8318  18.780 
  2554.500 -48.352  4.6920  7.4880  6.2500 -32.140  4.6920  7.4880  6.2500  1.2879  2554.3  12.818  18.738  7.8343  18.790 
  2555.000 -54.137  5.4080  7.7210  6.6430 -37.927  5.4080  7.7210  6.6430  1.2875  2554.8  12.798  18.749  7.8368  18.799 
  2555.500 -56.668  5.9100  7.9530  6.8760 -40.460  5.9100  7.9530  6.8760  1.2870  2555.3  12.778  18.760  7.8393  18.809 
  2556.000 -59.560  6.9850  8.4900  7.1080 -43.354  6.9850  8.4900  7.1080  1.2866  2555.8  12.758  18.771  7.8418  18.818 
  2556.500 -61.368  7.9520  8.6690  7.8240 -45.163  7.9520  8.6690  7.8240  1.2862  2556.3  12.738  18.782  7.8442  18.828 
  2557.000 -64.080  8.5970  8.8120  7.9670 -47.877  8.5970  8.8120  7.9670  1.2858  2556.8  12.718  18.793  7.8467  18.837 
  2557.500 -65.526  8.9550  8.9550  8.1100 -49.325  8.9550  8.9550  8.1100  1.2854  2557.3  12.698  18.804  7.8492  18.847 
  2558.000 -65.888  9.2060  9.0800  8.3430 -49.688  9.2060  9.0800  8.3430  1.2850  2557.8  12.678  18.815  7.8516  18.856 
  2558.500 -66.251  9.5640  9.2060  8.5750 -50.053  9.5640  9.2060  8.5750  1.2845  2558.3  12.658  18.826  7.8541  18.866 
  2559.000 -66.071  10.567  9.2410  8.7890 -49.875  10.567  9.2410  8.7890  1.2841  2558.8  12.638  18.837  7.8565  18.875 
  2559.500 -64.626  10.531  9.2760  8.8610 -48.432  10.531  9.2760  8.8610  1.2837  2559.3  12.618  18.848  7.8590  18.885 
  2560.000 -63.723  10.459  9.2040  8.7170 -47.530  10.459  9.2040  8.7170  1.2833  2559.8  12.598  18.859  7.8614  18.894 
  2560.500 -60.472  10.315  9.0960  8.4650 -44.281  10.315  9.0960  8.4650  1.2829  2560.3  12.578  18.870  7.8639  18.903 
  2561.000 -55.051  9.9200  8.7730  8.1780 -38.862  9.9200  8.7730  8.1780  1.2825  2560.8  12.558  18.881  7.8663  18.913 
  2561.500 -52.522  7.1960  8.3250  7.9270 -36.334  7.1960  8.3250  7.9270  1.2820  2561.3  12.538  18.892  7.8687  18.922 
  2562.000 -49.270  6.8010  7.8770  7.5320 -33.084  6.8010  7.8770  7.5320  1.2816  2561.8  12.518  18.902  7.8712  18.932 
  2562.500 -47.643  6.2990  7.0160  6.9940 -31.459  6.2990  7.0160  6.9940  1.2812  2562.3  12.498  18.913  7.8736  18.941 
  2563.000 -44.572  5.5820  6.4060  6.3480 -28.390  5.5820  6.4060  6.3480  1.2808  2562.8  12.478  18.924  7.8760  18.951 
  2563.500 -40.597  5.2950  4.5420  5.3080 -24.416  5.2950  4.5420  5.3080  1.2804  2563.3  12.458  18.935  7.8784  18.960 
  2564.000 -38.610  5.0080  4.1480  4.9130 -22.431  5.0080  4.1480  4.9130  1.2800  2563.8  12.438  18.946  7.8808  18.969 
  2564.500 -37.888  4.3620  4.0400  4.7690 -21.711  4.3620  4.0400  4.7690  1.2796  2564.3  12.418  18.957  7.8832  18.979 
  2565.000 -37.166  3.9320  3.9680  4.5890 -20.990  3.9320  3.9680  4.5890  1.2791  2564.8  12.398  18.968  7.8856  18.988 
  2565.500 -37.529  3.6450  3.9670  4.7320 -21.355  3.6450  3.9670  4.7320  1.2787  2565.3  12.378  18.979  7.8880  18.998 
  2566.000 -37.710  2.8920  3.8950  4.8390 -21.538  2.8920  3.8950  4.8390  1.2783  2565.8  12.358  18.990  7.8904  19.007 
  2566.500 -39.518  2.7840  4.1700  4.9640 -23.348  2.7840  4.1700  4.9640  1.2779  2566.3  12.338  19.001  7.8928  19.016 
  2567.000 -41.146  2.8910  4.4440  5.0890 -24.977  2.8910  4.4440  5.0890  1.2775  2566.8  12.318  19.011  7.8951  19.026 
  2567.500 -43.134  3.1410  4.7190  5.2500 -26.967  3.1410  4.7190  5.2500  1.2771  2567.3  12.298  19.022  7.8975  19.035 
  2568.000 -45.304  3.3200  4.9930  5.4110 -29.139  3.3200  4.9930  5.4110  1.2766  2567.8  12.278  19.033  7.8999  19.045 
  2568.500 -49.282  3.5000  5.2680  5.5540 -33.118  3.5000  5.2680  5.5540  1.2762  2568.3  12.258  19.044  7.9022  19.054 
  2569.000 -51.993  4.2520  5.5420  5.6970 -35.831  4.2520  5.5420  5.6970  1.2758  2568.8  12.238  19.055  7.9046  19.063 
  2569.500 -53.801  5.5410  6.2580  5.9470 -37.641  5.5410  6.2580  5.9470  1.2754  2569.3  12.218  19.066  7.9070  19.073 
  2570.000 -56.513  5.9350  6.8310  6.1970 -40.355  5.9350  6.8310  6.1970  1.2750  2569.8  12.198  19.077  7.9093  19.082 
  2570.500 -57.598  6.3470  7.2610  6.5910 -41.441  6.3470  7.2610  6.5910  1.2746  2570.3  12.178  19.088  7.9117  19.091 
  2571.000 -56.876  6.7590  7.8340  6.6260 -40.721  6.7590  7.8340  6.6260  1.2741  2570.8  12.158  19.099  7.9140  19.101 
  2571.500 -55.793  6.7230  7.7620  6.5360 -39.640  6.7230  7.7620  6.5360  1.2737  2571.3  12.138  19.109  7.9163  19.110 
  2572.000 -54.890  6.6510  7.6900  6.4460 -38.738  6.6510  7.6900  6.4460  1.2733  2571.8  12.118  19.120  7.9187  19.119 
