~Version Information
VERS.                     2.0: CWLS log ASCII Standard Version 2.00
WRAP.                      NO: One line per depth step
~Well Information Block
#MNEM.UNIT                               Data Type  Information
#---------                               ---------  -----------
STRT.FT                                   330.0000:
STOP.FT                                  8660.0000:
STEP.FT                                     0.5000:
NULL.                 -999.25                     :
COMP.                                             :COMPANY            
WELL.     SAN EMIDIO A #81-29                     :WELL               
FLD .                                             :FIELD              
CTRY.                                             :COUNTRY            
STAT.                                             :STATE              
LOC .                                             :LOCATION           
UWI .                                             :UNIQUE WELL ID     
SRVC.                                             :Service company    
DATE.                                             :LOG DATE           
~Curve Information
#MNEM.UNIT           API CODE  Curve Description
#---------           --------  -----------------
DEPT.FT                      :   1 DEPTH
SP  .MV                      :   2
AM10.OHMM                    :   3
AO10.OHMM                    :   4
AO19.OHMM                    :   5
SBL .MV                      :   6
RS  .OHMM                    :   7
RM  .OHMM                    :   8
RD  .OHMM                    :   9
DEVI.DEG                     :  10
TVD .FT                      :  11
AZIM.DEG                     :  12
NORT.FT                      :  13
EAST.FT                      :  14
OFFS.FT                      :  15
~A
# ...
  6960.000 -29.248  19.977  41.565  47.714 -17.099  19.977  41.565  47.714  8.5968  6956.1  212.01 -53.915  4.1986 -35.155 
  6960.500 -28.342  19.510  40.490  43.907 -16.195  19.510  40.490  43.907  8.6035  6956.6  212.01 -53.979  4.1589 -35.228 
  6961.000 -27.256  19.115  39.056  43.371 -15.112  19.115  39.056  43.371  8.6102  6957.1  212.01 -54.042  4.1193 -35.301 
  6961.500 -26.712  18.755  38.701  42.834 -14.570  18.755  38.701  42.834  8.6169  6957.5  212.01 -54.106  4.0796 -35.374 
  6962.000 -26.710  18.252  37.626  41.762 -14.571  18.252  37.626  41.762  8.6236  6958.0  212.01 -54.169  4.0398 -35.447 
  6962.500 -27.069  14.550  37.269  41.406 -14.932  14.550  37.269  41.406  8.6304  6958.5  212.01 -54.233  4.0001 -35.520 
  6963.000 -27.429  14.766  36.913  40.690 -15.294  14.766  36.913  40.690  8.6371  6959.0  212.01 -54.297  3.9603 -35.593 
  6963.500 -27.427  15.845  38.717  39.974 -15.295  15.845  38.717  39.974  8.6438  6959.5  212.01 -54.360  3.9204 -35.667 
  6964.000 -27.155  15.522  40.878  38.182 -15.025  15.522  40.878  38.182  8.6505  6960.0  212.01 -54.424  3.8806 -35.740 
  6964.500 -26.882  15.270  42.680  39.984 -14.755  15.270  42.680  39.984  8.6572  6960.5  212.01 -54.488  3.8407 -35.813 
  6965.000 -26.518  15.055  47.358  40.886 -14.393  15.055  47.358  40.886  8.6640  6961.0  212.01 -54.552  3.8008 -35.887 
  6965.500 -26.516  15.235  48.800  41.788 -14.393  15.235  48.800  41.788  8.6707  6961.5  212.01 -54.616  3.7608 -35.960 
  6966.000 -26.515  15.487  49.163  43.592 -14.395  15.487  49.163  43.592  8.6774  6962.0  212.01 -54.680  3.7208 -36.033 
  6966.500 -26.603  15.595  48.089  43.596 -14.485  15.595  48.089  43.596  8.6841  6962.5  212.01 -54.744  3.6808 -36.107 
  6967.000 -26.691  15.488  47.014  43.240 -14.575  15.488  47.014  43.240  8.6908  6963.0  212.01 -54.808  3.6408 -36.181 
  6967.500 -26.690  15.165  45.221  42.885 -14.577  15.165  45.221  42.885  8.6976  6963.5  212.01 -54.872  3.6007 -36.254 
  6968.000 -26.688  14.698  43.786  41.809 -14.577  14.698  43.786  41.809  8.7043  6964.0  212.01 -54.936  3.5606 -36.328 
  6968.500 -26.867  14.303  41.274  40.733 -14.759  14.303  41.274  40.733  8.7110  6964.5  212.01 -55.000  3.5205 -36.402 
  6969.000 -27.045  14.411  39.839  36.784 -14.939  14.411  39.839  36.784  8.7177  6965.0  212.01 -55.065  3.4803 -36.476 
  6969.500 -27.224  14.016  37.686  34.991 -15.120  14.016  37.686  34.991  8.7244  6965.5  212.01 -55.129  3.4401 -36.550 
  6970.000 -27.222  13.441  35.174  33.557 -15.121  13.441  35.174  33.557  8.7312  6966.0  212.01 -55.193  3.3999 -36.624 
  6970.500 -27.221  12.974  33.918  30.684 -15.122  12.974  33.918  30.684  8.7379  6966.4  212.01 -55.258  3.3596 -36.698 
  6971.000 -27.580  12.363  32.663  28.891 -15.484  12.363  32.663  28.891  8.7446  6966.9  212.01 -55.322  3.3193 -36.772 
  6971.500 -27.578  12.687  29.073  27.097 -15.484  12.687  29.073  27.097  8.7513  6967.4  212.01 -55.387  3.2790 -36.846 
  6972.000 -27.577  13.263  27.639  24.584 -15.485  13.263  27.639  24.584  8.7580  6967.9  212.01 -55.451  3.2387 -36.920 
  6972.500 -27.665  13.874  26.205  25.306 -15.576  13.874  26.205  25.306  8.7648  6968.4  212.01 -55.516  3.1983 -36.994 
  6973.000 -27.754  14.306  27.467  26.028 -15.667  14.306  27.467  26.028  8.7715  6968.9  212.01 -55.581  3.1579 -37.068 
  6973.500 -27.842  15.062  28.728  29.270 -15.758  15.062  28.728  29.270  8.7782  6969.4  212.01 -55.645  3.1174 -37.143 
  6974.000 -27.931  15.637  30.709  31.791 -15.849  15.637  30.709  31.791  8.7849  6969.9  212.01 -55.710  3.0769 -37.217 
  6974.500 -27.928  16.752  32.691  34.312 -15.848  16.752  32.691  34.312  8.7916  6970.4  212.01 -55.775  3.0364 -37.292 
  6975.000 -28.016  17.400  34.135  36.114 -15.939  17.400  34.135  36.114  8.7984  6970.9  212.01 -55.840  2.9959 -37.366 
  6975.500 -28.105  18.875  35.218  36.296 -16.030  18.875  35.218  36.296  8.8051  6971.4  212.01 -55.905  2.9553 -37.441 
  6976.000 -28.374  19.414  35.041  36.479 -16.302  19.414  35.041  36.479  8.8118  6971.9  212.01 -55.970  2.9147 -37.515 
  6976.500 -28.644  19.882  34.864  36.664 -16.574  19.882  34.864  36.664  8.8185  6972.4  212.01 -56.035  2.8741 -37.590 
  6977.000 -28.822  20.129  34.869  36.849 -16.754  20.129  34.869  36.849  8.8253  6972.9  212.01 -56.100  2.8335 -37.665 
  6977.500 -29.001  20.132  34.874  36.853 -16.936  20.132  34.874  36.853  8.8320  6973.4  212.01 -56.165  2.7928 -37.740 
  6978.000 -29.181  20.135  34.877  36.857 -17.118  20.135  34.877  36.857  8.8387  6973.9  212.01 -56.230  2.7521 -37.814 
  6978.500 -29.358  20.319  34.880  36.860 -17.298  20.319  34.880  36.860  8.8454  6974.4  212.01 -56.295  2.7113 -37.889 
  6979.000 -29.537  20.503  35.248  36.863 -17.479  20.503  35.248  36.863  8.8521  6974.8  212.01 -56.360  2.6705 -37.964 
  6979.500 -29.535  20.866  35.432  37.228 -17.479  20.866  35.432  37.228  8.8589  6975.3  212.01 -56.426  2.6297 -38.039 
  6980.000 -29.534  21.230  35.615  37.052 -17.481  21.230  35.615  37.052  8.8656  6975.8  212.01 -56.491  2.5889 -38.115 
  6980.500 -29.442  21.955  35.978  36.875 -17.391  21.955  35.978  36.875  8.8723  6976.3  212.01 -56.556  2.5480 -38.190 
  6981.000 -29.350  22.318  36.341  37.059 -17.302  22.318  36.341  37.059  8.8790  6976.8  212.01 -56.622  2.5071 -38.265 
  6981.500 -29.348  22.682  37.785  37.242 -17.302  22.682  37.785  37.242  8.8857  6977.3  212.01 -56.687  2.4662 -38.340 
  6982.000 -29.346  23.046  38.148  37.426 -17.302  23.046  38.148  37.426  8.8925  6977.8  212.01 -56.753  2.4252 -38.415 
  6982.500 -29.524  23.769  38.871  37.610 -17.483  23.769  38.871  37.610  8.8992  6978.3  212.01 -56.818  2.3842 -38.491 
  6983.000 -29.522  24.132  40.852  37.614 -17.483  24.132  40.852  37.614  8.9059  6978.8  212.01 -56.884  2.3432 -38.566 
  6983.500 -29.701  24.136  42.832  37.618 -17.665  24.136  42.832  37.618  8.9126  6979.3  212.01 -56.950  2.3021 -38.642 
  6984.000 -29.880  24.319  44.275  38.521 -17.846  24.319  44.275  38.521  8.9193  6979.8  212.01 -57.015  2.2610 -38.717 
  6984.500 -30.060  24.502  45.717  39.424 -18.028  24.502  45.717  39.424  8.9261  6980.3  212.01 -57.081  2.2199 -38.793 
  6985.000 -30.238  25.229  47.519  40.868 -18.209  25.229  47.519  40.868  8.9328  6980.8  212.01 -57.147  2.1788 -38.868 
  6985.500 -30.417  25.412  49.322  42.670 -18.390  25.412  49.322  42.670  8.9395  6981.3  212.01 -57.213  2.1376 -38.944 
  6986.000 -30.776  25.595  50.405  42.852 -18.752  25.595  50.405  42.852  8.9462  6981.8  212.01 -57.279  2.0964 -39.020 
  6986.500 -30.955  25.778  51.847  43.035 -18.933  25.778  51.847  43.035  8.9529  6982.3  212.01 -57.345  2.0551 -39.096 
  6987.000 -30.953  25.962  52.930  43.401 -18.933  25.962  52.930  43.401  8.9597  6982.7  212.01 -57.411  2.0139 -39.172 
  6987.500 -31.312  25.609  54.551  43.405 -19.295  25.609  54.551  43.405  8.9664  6983.2  212.01 -57.477  1.9726 -39.248 
  6988.000 -31.491  25.613  56.171  43.408 -19.476  25.613  56.171  43.408  8.9731  6983.7  212.01 -57.543  1.9312 -39.324 
  6988.500 -31.761  24.898  57.434  43.411 -19.749  24.898  57.434  43.411  8.9798  6984.2  212.01 -57.609  1.8899 -39.400 
  6989.000 -32.031  24.183  58.696  43.417 -20.021  24.183  58.696  43.417  8.9865  6984.7  212.01 -57.676  1.8485 -39.476 
  6989.500 -32.208  23.827  60.140  43.600 -20.200  23.827  60.140  43.600  8.9933  6985.2  212.01 -57.742  1.8070 -39.552 
  6990.000 -32.478  23.112  61.942  43.782 -20.473  23.112  61.942  43.782  9.0000  6985.7  212.01 -57.808  1.7656 -39.628 
  6990.500 -32.747  22.397  63.744  43.966 -20.744  22.397  63.744  43.966  9.0125  6986.2  212.02 -57.875  1.7241 -39.704 
  6991.000 -33.106  21.682  64.467  44.150 -21.106  21.682  64.467  44.150  9.0250  6986.7  212.04 -57.941  1.6824 -39.781 
  6991.500 -33.286  21.326  65.190  44.334 -21.288  21.326  65.190  44.334  9.0375  6987.2  212.06 -58.008  1.6408 -39.857 
  6992.000 -33.465  21.329  65.913  44.518 -21.469  21.329  65.913  44.518  9.0500  6987.7  212.07 -58.074  1.5990 -39.934 
