~Version Information
VERS.                     2.0: CWLS log ASCII Standard Version 2.00
WRAP.                      NO: One line per depth step
~Well Information Block
#MNEM.UNIT                               Data Type  Information
#---------                               ---------  -----------
STRT.FT                                   400.0000:
STOP.FT                                  6820.0000:
STEP.FT                                     0.5000:
NULL.                 -999.25                     :
COMP.                                             :COMPANY            
WELL.     SAN EMIDIO A #86-19                     :WELL               
FLD .                                             :FIELD              
CTRY.                                             :COUNTRY            
STAT.                                             :STATE              
LOC .                                             :LOCATION           
UWI .                                             :UNIQUE WELL ID     
SRVC.                                             :Service company    
DATE.                                             :LOG DATE           
~Curve Information
#MNEM.UNIT           API CODE  Curve Description
#---------           --------  -----------------
DEPT.FT                      :   1 DEPTH
SP  .MV                      :   2
AM16.OHMM                    :   3
AO10.OHMM                    :   4
AO19.OHMM                    :   5
SBL .MV                      :   6
RS  .OHMM                    :   7
RM  .OHMM                    :   8
RD  .OHMM                    :   9
DEVI.DEG                     :  10
TVD .FT                      :  11
AZIM.DEG                     :  12
NORT.FT                      :  13
EAST.FT                      :  14
OFFS.FT                      :  15
~A
# ...
  3812.500 -49.149  14.873  14.184  11.265 -42.339  14.873  14.184  11.265  0.2188  3811.9  54.742  40.465  13.591  38.223 
  3813.000 -49.004  14.658  14.421  11.337 -42.195  14.658  14.421  11.337  0.2208  3812.4  54.372  40.466  13.592  38.225 
  3813.500 -48.823  14.408  14.623  11.410 -42.014  14.408  14.623  11.410  0.2229  3812.9  54.002  40.467  13.594  38.227 
  3814.000 -48.643  14.114  14.789  11.425 -41.834  14.114  14.789  11.425  0.2250  3813.4  53.632  40.468  13.596  38.229 
  3814.500 -48.571  13.892  14.984  11.261 -41.762  13.892  14.984  11.261  0.2271  3813.9  53.262  40.469  13.597  38.231 
  3815.000 -48.408  13.656  15.157  11.132 -41.600  13.656  15.157  11.132  0.2292  3814.4  52.892  40.471  13.599  38.233 
  3815.500 -48.246  13.391  15.244  10.932 -41.438  13.391  15.244  10.932  0.2313  3814.9  52.522  40.472  13.600  38.235 
  3816.000 -48.029  13.213  15.151  10.847 -41.221  13.213  15.151  10.847  0.2333  3815.4  52.152  40.473  13.602  38.237 
  3816.500 -47.885  13.134  15.052  10.862 -41.077  13.134  15.052  10.862  0.2354  3815.9  51.782  40.474  13.604  38.239 
  3817.000 -47.632  13.207  14.909  10.877 -40.825  13.207  14.909  10.877  0.2375  3816.4  51.412  40.476  13.605  38.241 
  3817.500 -47.506  13.251  14.752  11.014 -40.699  13.251  14.752  11.014  0.2396  3816.9  51.042  40.477  13.607  38.243 
  3818.000 -47.380  13.359  14.702  11.266 -40.573  13.359  14.702  11.266  0.2417  3817.4  50.672  40.478  13.608  38.245 
  3818.500 -47.019  13.432  14.710  11.518 -40.212  13.432  14.710  11.518  0.2438  3817.9  50.302  40.480  13.610  38.247 
  3819.000 -46.730  13.497  14.783  11.770 -39.924  13.497  14.783  11.770  0.2458  3818.4  49.932  40.481  13.612  38.249 
  3819.500 -46.586  13.548  14.949  12.008 -39.780  13.548  14.949  12.008  0.2479  3818.9  49.562  40.483  13.613  38.252 
  3820.000 -46.442  13.636  15.172  12.174 -39.636  13.636  15.172  12.174  0.2500  3819.4  49.192  40.484  13.615  38.254 
  3820.500 -46.152  13.658  15.439  12.448 -39.347  13.658  15.439  12.448  0.2521  3819.9  48.822  40.485  13.617  38.256 
  3821.000 -45.863  13.680  15.949  12.578 -39.058  13.680  15.949  12.578  0.2542  3820.4  48.452  40.487  13.618  38.258 
  3821.500 -45.539  13.645  16.381  12.780 -38.734  13.645  16.381  12.780  0.2563  3820.9  48.082  40.488  13.620  38.260 
  3822.000 -45.142  13.402  16.848  12.953 -38.337  13.402  16.848  12.953  0.2583  3821.4  47.712  40.490  13.622  38.263 
  3822.500 -44.168  12.957  17.330  12.975 -37.364  12.957  17.330  12.975  0.2604  3821.9  47.342  40.491  13.623  38.265 
  3823.000 -42.292  12.592  17.582  12.911 -35.488  12.592  17.582  12.911  0.2625  3822.4  46.972  40.493  13.625  38.267 
  3823.500 -40.416  12.047  17.748  12.603 -33.612  12.047  17.748  12.603  0.2646  3822.9  46.602  40.495  13.627  38.270 
  3824.000 -37.278  11.602  17.792  12.080 -30.474  11.602  17.792  12.080  0.2667  3823.4  46.232  40.496  13.628  38.272 
  3824.500 -34.247  11.201  17.649  11.750 -27.444  11.201  17.649  11.750  0.2688  3823.9  45.862  40.498  13.630  38.274 
  3825.000 -32.660  10.757  17.499  11.263 -25.857  10.757  17.499  11.263  0.2708  3824.4  45.492  40.499  13.632  38.277 
  3825.500 -31.578  10.212  17.069  11.020 -24.775  10.212  17.069  11.020  0.2729  3824.9  45.122  40.501  13.633  38.279 
  3826.000 -30.964  9.6810  16.180  10.740 -24.161  9.6810  16.180  10.740  0.2750  3825.4  44.752  40.503  13.635  38.281 
  3826.500 -31.036  9.5380  15.304  10.691 -24.234  9.5380  15.304  10.691  0.2771  3825.9  44.382  40.505  13.637  38.284 
  3827.000 -31.505  9.6180  14.637  10.713 -24.703  9.6180  14.637  10.713  0.2792  3826.4  44.012  40.506  13.639  38.286 
  3827.500 -33.417  9.6910  13.396  11.087 -26.615  9.6910  13.396  11.087  0.2813  3826.9  43.642  40.508  13.640  38.289 
  3828.000 -35.328  9.9930  12.923  11.447 -28.526  9.9930  12.923  11.447  0.2833  3827.4  43.272  40.510  13.642  38.291 
  3828.500 -36.338  10.504  12.543  11.814 -29.537  10.504  12.543  11.814  0.2854  3827.9  42.902  40.512  13.644  38.294 
  3829.000 -38.106  10.950  12.580  12.167 -31.305  10.950  12.580  12.167  0.2875  3828.4  42.532  40.514  13.645  38.296 
  3829.500 -40.090  11.360  12.746  12.541 -33.289  11.360  12.746  12.541  0.2896  3828.9  42.162  40.515  13.647  38.299 
  3830.000 -41.460  11.734  12.890  12.836 -34.659  11.734  12.890  12.836  0.2917  3829.4  41.792  40.517  13.649  38.301 
  3830.500 -42.867  12.130  13.221  13.275 -36.067  12.130  13.221  13.275  0.2938  3829.9  41.422  40.519  13.650  38.304 
  3831.000 -43.588  12.432  13.732  13.570 -36.788  12.432  13.732  13.570  0.2958  3830.4  41.052  40.521  13.652  38.306 
  3831.500 -44.346  12.835  14.228  13.873 -37.546  12.835  14.228  13.873  0.2979  3830.9  40.682  40.523  13.654  38.309 
  3832.000 -44.887  13.094  14.487  14.132 -38.087  13.094  14.487  14.132  0.3000  3831.4  40.312  40.525  13.655  38.312 
  3832.500 -45.175  13.275  14.933  14.406 -38.376  13.275  14.933  14.406  0.3021  3831.9  39.942  40.527  13.657  38.314 
  3833.000 -45.427  13.455  15.322  14.636 -38.628  13.455  15.322  14.636  0.3042  3832.4  39.572  40.529  13.659  38.317 
  3833.500 -45.535  13.578  15.847  14.795 -38.736  13.578  15.847  14.795  0.3062  3832.9  39.202  40.531  13.661  38.319 
  3834.000 -45.571  13.672  16.077  14.903 -38.772  13.672  16.077  14.903  0.3083  3833.4  38.832  40.533  13.662  38.322 
  3834.500 -45.354  13.680  16.172  14.739 -38.556  13.680  16.172  14.739  0.3104  3833.9  38.462  40.536  13.664  38.325 
  3835.000 -44.777  13.638  16.187  14.575 -37.979  13.638  16.187  14.575  0.3125  3834.4  38.092  40.538  13.666  38.328 
  3835.500 -44.056  13.531  16.101  14.432 -37.258  13.531  16.101  14.432  0.3146  3834.9  37.722  40.540  13.667  38.330 
  3836.000 -43.190  13.273  15.915  14.188 -36.393  13.273  15.915  14.188  0.3167  3835.4  37.352  40.542  13.669  38.333 
  3836.500 -42.684  12.965  15.622  13.981 -35.887  12.965  15.622  13.981  0.3187  3835.9  36.982  40.544  13.671  38.336 
  3837.000 -42.287  12.671  15.264  13.709 -35.490  12.671  15.264  13.709  0.3208  3836.4  36.612  40.547  13.672  38.339 
  3837.500 -42.071  12.162  15.006  13.365 -35.274  12.162  15.006  13.365  0.3229  3836.9  36.242  40.549  13.674  38.341 
  3838.000 -41.782  11.553  14.590  13.071 -34.986  11.553  14.590  13.071  0.3250  3837.4  35.872  40.551  13.676  38.344 
  3838.500 -41.674  11.015  14.340  12.699 -34.878  11.015  14.340  12.699  0.3271  3837.9  35.502  40.553  13.677  38.347 
  3839.000 -41.638  10.700  14.168  12.262 -34.842  10.700  14.168  12.262  0.3292  3838.4  35.132  40.556  13.679  38.350 
  3839.500 -41.709  10.471  13.795  11.853 -34.913  10.471  13.795  11.853  0.3312  3838.9  34.762  40.558  13.681  38.353 
  3840.000 -41.854  10.292  13.344  11.638 -35.059  10.292  13.344  11.638  0.3333  3839.4  34.392  40.561  13.682  38.355 
  3840.500 -42.323  10.472  13.036  11.711 -35.528  10.472  13.036  11.711  0.3354  3839.9  34.022  40.563  13.684  38.358 
  3841.000 -43.405  10.660  12.678  11.784 -36.610  10.660  12.678  11.784  0.3375  3840.4  33.652  40.565  13.686  38.361 
  3841.500 -45.028  10.840  12.312  11.986 -38.233  10.840  12.312  11.986  0.3396  3840.9  33.282  40.568  13.687  38.364 
  3842.000 -45.569  10.934  12.385  12.195 -38.775  10.934  12.385  12.195  0.3417  3841.4  32.912  40.570  13.689  38.367 
  3842.500 -45.623  11.086  12.479  12.368 -38.829  11.086  12.479  12.368  0.3437  3841.9  32.542  40.573  13.690  38.370 
  3843.000 -45.678  11.223  12.595  12.512 -38.884  11.223  12.595  12.512  0.3458  3842.4  32.172  40.575  13.692  38.373 
  3843.500 -45.424  11.339  12.753  12.700 -38.630  11.339  12.753  12.700  0.3479  3842.9  31.802  40.578  13.694  38.376 
  3844.000 -44.955  11.397  12.984  12.894 -38.162  11.397  12.984  12.894  0.3500  3843.4  31.432  40.581  13.695  38.379 
  3844.500 -44.305  11.434  13.337  13.003 -37.512  11.434  13.337  13.003  0.3521  3843.9  31.062  40.583  13.697  38.382 
