~Version Information
VERS.                     2.0: CWLS log ASCII Standard Version 2.00
WRAP.                      NO: One line per depth step
~Well Information Block
#MNEM.UNIT                               Data Type  Information
#---------                               ---------  -----------
STRT.FT                                   400.0000:
STOP.FT                                  6820.0000:
STEP.FT                                     0.5000:
NULL.                 -999.25                     :
COMP.                                             :COMPANY            
WELL.     SAN EMIDIO A #86-19                     :WELL               
FLD .                                             :FIELD              
CTRY.                                             :COUNTRY            
STAT.                                             :STATE              
LOC .                                             :LOCATION           
UWI .                                             :UNIQUE WELL ID     
SRVC.                                             :Service company    
DATE.                                             :LOG DATE           
~Curve Information
#MNEM.UNIT           API CODE  Curve Description
#---------           --------  -----------------
DEPT.FT                      :   1 DEPTH
SP  .MV                      :   2
AM16.OHMM                    :   3
AO10.OHMM                    :   4
AO19.OHMM                    :   5
SBL .MV                      :   6
RS  .OHMM                    :   7
RM  .OHMM                    :   8
RD  .OHMM                    :   9
DEVI.DEG                     :  10
TVD .FT                      :  11
AZIM.DEG                     :  12
NORT.FT                      :  13
EAST.FT                      :  14
OFFS.FT                      :  15
~A
# ...
  3390.000 -38.465  13.052  25.183  17.393 -31.437  13.052  25.183  17.393  0.0333  3389.4  352.49  38.364  14.231  37.190 
  3390.500 -36.913  12.443  25.261  17.035 -29.885  12.443  25.261  17.035  0.0316  3389.9  352.87  38.364  14.231  37.190 
  3391.000 -35.072  12.034  23.975  16.224 -28.044  12.034  23.975  16.224  0.0300  3390.4  353.24  38.365  14.231  37.191 
  3391.500 -33.267  10.843  22.187  15.270 -26.240  10.843  22.187  15.270  0.0283  3390.9  353.62  38.365  14.231  37.191 
  3392.000 -31.354  8.1510  20.398  14.516 -24.327  8.1510  20.398  14.516  0.0267  3391.4  353.99  38.365  14.231  37.191 
  3392.500 -28.286  6.7370  19.195  13.698 -21.259  6.7370  19.195  13.698  0.0250  3391.9  354.37  38.365  14.231  37.191 
  3393.000 -26.697  6.3060  17.946  11.997 -19.670  6.3060  17.946  11.997  0.0233  3392.4  354.74  38.366  14.231  37.191 
  3393.500 -25.145  5.8400  16.884  11.158 -18.119  5.8400  16.884  11.158  0.0216  3392.9  355.12  38.366  14.231  37.191 
  3394.000 -22.582  5.5610  13.646  10.591 -15.556  5.5610  13.646  10.591  0.0200  3393.4  355.49  38.366  14.231  37.191 
  3394.500 -21.030  5.3170  12.441  10.125 -14.004  5.3170  12.441  10.125  0.0183  3393.9  355.87  38.366  14.231  37.191 
  3395.000 -19.008  5.1960  10.617  9.7090 -11.982  5.1960  10.617  9.7090  0.0167  3394.4  356.24  38.366  14.231  37.192 
  3395.500 -17.456  5.1610  9.7490  8.6680 -10.431  5.1610  9.7490  8.6680  0.0150  3394.9  356.62  38.366  14.231  37.192 
  3396.000 -16.877  5.1690  9.0960  8.6190 -9.8519  5.1690  9.0960  8.6190  0.0133  3395.4  356.99  38.366  14.231  37.192 
  3396.500 -16.912  5.1760  8.6810  8.7060 -9.8872  5.1760  8.6810  8.7060  0.0116  3395.9  357.37  38.367  14.231  37.192 
  3397.000 -17.055  5.2350  8.1570  8.8070 -10.030  5.2350  8.1570  8.8070  0.0100  3396.4  357.74  38.367  14.231  37.192 
  3397.500 -17.342  5.2600  8.0570  8.9800 -10.318  5.2600  8.0570  8.9800  0.0083  3396.9  358.12  38.367  14.231  37.192 
  3398.000 -17.881  5.2860  8.2660  9.1530 -10.857  5.2860  8.2660  9.1530  0.0067  3397.4  358.49  38.367  14.231  37.192 
  3398.500 -17.989  5.2790  8.3960  9.1890 -10.965  5.2790  8.3960  9.1890  0.0050  3397.9  358.87  38.367  14.231  37.192 
  3399.000 -17.518  5.2370  8.4540  9.2260 -10.494  5.2370  8.4540  9.2260  0.0033  3398.4  359.24  38.367  14.231  37.192 
  3399.500 -16.110  5.1950  8.4620  9.2120 -9.0867  5.1950  8.4620  9.2120  0.0017  3398.9  359.62  38.367  14.231  37.192 
  3400.000 -14.918  5.0590  8.4410  9.1700 -7.8950  5.0590  8.4410  9.1700  0.0000  3399.4  359.99  38.367  14.231  37.192 
  3400.500 -14.520  4.9800  8.3120  9.0770 -7.4972  4.9800  8.3120  9.0770  0.0025  3399.9  359.89  38.367  14.231  37.192 
  3401.000 -14.376  4.9880  8.0610  8.8760 -7.3535  4.9880  8.0610  8.8760  0.0050  3400.4  359.78  38.367  14.231  37.192 
  3401.500 -14.448  5.0340  7.7810  8.7180 -7.4258  5.0340  7.7810  8.7180  0.0075  3400.9  359.68  38.367  14.231  37.192 
  3402.000 -14.592  5.0810  7.5660  8.6540 -7.5700  5.0810  7.5660  8.6540  0.0100  3401.4  359.57  38.367  14.231  37.192 
  3402.500 -15.493  5.3110  7.4800  8.8050 -8.4713  5.3110  7.4800  8.8050  0.0125  3401.9  359.47  38.367  14.231  37.192 
  3403.000 -16.755  5.3980  7.4730  9.0560 -9.7335  5.3980  7.4730  9.0560  0.0150  3402.4  359.36  38.367  14.231  37.192 
  3403.500 -18.991  5.5340  7.4950  9.3440 -11.970  5.5340  7.4950  9.3440  0.0175  3402.9  359.26  38.368  14.231  37.192 
  3404.000 -21.263  5.7000  7.5450  9.5520 -14.242  5.7000  7.5450  9.5520  0.0200  3403.4  359.15  38.368  14.231  37.193 
  3404.500 -23.571  5.8360  7.6890  9.7820 -16.550  5.8360  7.6890  9.7820  0.0225  3403.9  359.05  38.368  14.231  37.193 
  3405.000 -26.637  5.9800  7.7820  9.9260 -19.617  5.9800  7.7820  9.9260  0.0250  3404.4  358.94  38.368  14.231  37.193 
  3405.500 -29.053  6.0660  7.8470  10.005 -22.033  6.0660  7.8470  10.005  0.0275  3404.9  358.84  38.368  14.231  37.193 
  3406.000 -30.171  6.1460  7.8760  10.048 -23.151  6.1460  7.8760  10.048  0.0300  3405.4  358.73  38.369  14.231  37.193 
  3406.500 -28.655  6.1530  7.8760  9.8550 -21.635  6.1530  7.8760  9.8550  0.0325  3405.9  358.63  38.369  14.230  37.193 
  3407.000 -27.465  6.1250  7.6830  9.6320 -20.446  6.1250  7.6830  9.6320  0.0350  3406.4  358.52  38.369  14.230  37.194 
  3407.500 -26.743  6.1100  7.3100  9.5030 -19.724  6.1100  7.3100  9.5030  0.0375  3406.9  358.42  38.370  14.230  37.194 
  3408.000 -26.490  6.1390  7.0870  9.3600 -19.471  6.1390  7.0870  9.3600  0.0400  3407.4  358.31  38.370  14.230  37.194 
  3408.500 -26.778  6.1750  6.8790  9.2810 -19.759  6.1750  6.8790  9.2810  0.0425  3407.9  358.21  38.370  14.230  37.194 
  3409.000 -27.246  6.2760  6.7500  9.2670 -20.228  6.2760  6.7500  9.2670  0.0450  3408.4  358.10  38.371  14.230  37.195 
  3409.500 -28.039  6.5640  6.6860  9.3610 -21.021  6.5640  6.6860  9.3610  0.0475  3408.9  358.00  38.371  14.230  37.195 
  3410.000 -29.085  6.8300  6.6640  9.4680 -22.067  6.8300  6.6640  9.4680  0.0500  3409.4  357.89  38.371  14.230  37.195 
  3410.500 -30.383  7.1530  6.7010  9.7060 -23.365  7.1530  6.7010  9.7060  0.0525  3409.9  357.79  38.372  14.230  37.195 
  3411.000 -32.366  7.7420  6.8370  10.043 -25.349  7.7420  6.8370  10.043  0.0550  3410.4  357.68  38.372  14.230  37.196 
  3411.500 -33.881  8.0220  7.1960  10.367 -26.864  8.0220  7.1960  10.367  0.0575  3410.9  357.58  38.373  14.230  37.196 
  3412.000 -35.829  8.5470  7.4480  10.712 -28.812  8.5470  7.4480  10.712  0.0600  3411.4  357.47  38.373  14.230  37.196 
  3412.500 -38.245  9.2720  7.7860  11.035 -31.228  9.2720  7.7860  11.035  0.0625  3411.9  357.37  38.374  14.230  37.197 
  3413.000 -40.481  10.019  8.0090  11.322 -33.465  10.019  8.0090  11.322  0.0650  3412.4  357.26  38.375  14.230  37.197 
  3413.500 -44.304  11.183  8.1600  11.610 -37.288  11.183  8.1600  11.610  0.0675  3412.9  357.16  38.375  14.230  37.198 
  3414.000 -47.009  12.023  8.2390  11.840 -39.993  12.023  8.2390  11.840  0.0700  3413.4  357.05  38.376  14.230  37.198 
  3414.500 -48.487  12.562  8.4970  11.912 -41.471  12.562  8.4970  11.912  0.0725  3413.9  356.95  38.376  14.230  37.198 
  3415.000 -49.822  13.144  8.8570  11.826 -42.807  13.144  8.8570  11.826  0.0750  3414.4  356.84  38.377  14.230  37.199 
  3415.500 -50.002  13.496  9.2160  11.711 -42.987  13.496  9.2160  11.711  0.0775  3414.9  356.74  38.378  14.230  37.199 
  3416.000 -50.037  13.726  9.4240  11.597 -43.022  13.726  9.4240  11.597  0.0800  3415.4  356.63  38.378  14.230  37.200 
  3416.500 -50.001  13.884  9.6040  11.475 -42.987  13.884  9.6040  11.475  0.0825  3415.9  356.53  38.379  14.230  37.200 
  3417.000 -49.928  13.999  9.7050  11.295 -42.914  13.999  9.7050  11.295  0.0850  3416.4  356.42  38.380  14.230  37.201 
  3417.500 -49.892  14.064  9.8060  11.145 -42.878  14.064  9.8060  11.145  0.0875  3416.9  356.32  38.381  14.230  37.201 
  3418.000 -49.856  14.021  9.8990  11.023 -42.842  14.021  9.8990  11.023  0.0900  3417.4  356.21  38.381  14.230  37.202 
  3418.500 -49.638  13.928  9.9570  10.880 -42.625  13.928  9.9570  10.880  0.0925  3417.9  356.11  38.382  14.230  37.202 
  3419.000 -49.530  13.777  9.9570  10.729 -42.517  13.777  9.9570  10.729  0.0950  3418.4  356.00  38.383  14.230  37.203 
  3419.500 -49.493  13.713  9.8930  10.564 -42.480  13.713  9.8930  10.564  0.0975  3418.9  355.90  38.384  14.230  37.203 
  3420.000 -49.528  13.706  9.8570  10.399 -42.515  13.706  9.8570  10.399  0.1000  3419.4  355.79  38.385  14.230  37.204 
  3420.500 -49.925  13.735  9.8930  10.213 -42.913  13.735  9.8930  10.213  0.1025  3419.9  355.69  38.386  14.230  37.205 
  3421.000 -50.537  13.929  10.008  10.026 -43.525  13.929  10.008  10.026  0.1050  3420.4  355.58  38.387  14.230  37.205 
  3421.500 -50.970  14.094  10.130  9.8110 -43.958  14.094  10.130  9.8110  0.1075  3420.9  355.48  38.388  14.229  37.206 
  3422.000 -51.511  14.317  10.396  9.8400 -44.499  14.317  10.396  9.8400  0.1100  3421.4  355.37  38.388  14.229  37.206 
