~Version Information
VERS.                     2.0: CWLS log ASCII Standard Version 2.00
WRAP.                      NO: One line per depth step
~Well Information Block
#MNEM.UNIT                               Data Type  Information
#---------                               ---------  -----------
STRT.FT                                   400.0000:
STOP.FT                                  6820.0000:
STEP.FT                                     0.5000:
NULL.                 -999.25                     :
COMP.                                             :COMPANY            
WELL.     SAN EMIDIO A #86-19                     :WELL               
FLD .                                             :FIELD              
CTRY.                                             :COUNTRY            
STAT.                                             :STATE              
LOC .                                             :LOCATION           
UWI .                                             :UNIQUE WELL ID     
SRVC.                                             :Service company    
DATE.                                             :LOG DATE           
~Curve Information
#MNEM.UNIT           API CODE  Curve Description
#---------           --------  -----------------
DEPT.FT                      :   1 DEPTH
SP  .MV                      :   2
AM16.OHMM                    :   3
AO10.OHMM                    :   4
AO19.OHMM                    :   5
SBL .MV                      :   6
RS  .OHMM                    :   7
RM  .OHMM                    :   8
RD  .OHMM                    :   9
DEVI.DEG                     :  10
TVD .FT                      :  11
AZIM.DEG                     :  12
NORT.FT                      :  13
EAST.FT                      :  14
OFFS.FT                      :  15
~A
# ...
  4235.000 -13.329  4.3850  6.3020  6.3200 -6.7380  4.3850  6.3020  6.3200  0.3333  4234.4  296.84  43.131  13.301  39.904 
  4235.500 -13.255  4.3200  6.1300  6.2980 -6.6642  4.3200  6.1300  6.2980  0.3333  4234.9  296.80  43.133  13.299  39.903 
  4236.000 -13.290  4.2560  6.0150  6.2990 -6.6995  4.2560  6.0150  6.2990  0.3333  4235.4  296.75  43.134  13.296  39.902 
  4236.500 -13.327  4.2130  5.9580  6.2990 -6.7367  4.2130  5.9580  6.2990  0.3333  4235.9  296.71  43.135  13.293  39.901 
  4237.000 -13.417  4.1700  5.9440  6.3710 -6.8270  4.1700  5.9440  6.3710  0.3333  4236.4  296.66  43.137  13.291  39.900 
  4237.500 -13.507  4.1490  5.9440  6.3930 -6.9172  4.1490  5.9440  6.3930  0.3333  4236.9  296.62  43.138  13.288  39.899 
  4238.000 -13.685  4.1270  5.9660  6.4500 -7.0955  4.1270  5.9660  6.4500  0.3333  4237.4  296.57  43.139  13.286  39.898 
  4238.500 -13.794  4.0700  6.0090  6.5510 -7.2048  4.0700  6.0090  6.5510  0.3333  4237.9  296.53  43.141  13.283  39.897 
  4239.000 -13.865  4.0420  6.0950  6.6230 -7.2760  4.0420  6.0950  6.6230  0.3333  4238.4  296.48  43.142  13.280  39.897 
  4239.500 -13.720  4.0060  6.1530  6.6740 -7.1313  4.0060  6.1530  6.6740  0.3333  4238.9  296.44  43.143  13.278  39.896 
  4240.000 -13.540  3.9850  6.2460  6.5950 -6.9515  3.9850  6.2460  6.5950  0.3333  4239.4  296.39  43.145  13.275  39.895 
  4240.500 -13.250  3.9560  6.3260  6.5450 -6.6618  3.9560  6.3260  6.5450  0.3333  4239.9  296.35  43.146  13.273  39.894 
  4241.000 -12.961  3.9130  6.3830  6.4300 -6.3731  3.9130  6.3830  6.4300  0.3333  4240.4  296.30  43.147  13.270  39.893 
  4241.500 -12.672  3.8850  6.3760  6.3150 -6.0843  3.8850  6.3760  6.3150  0.3333  4240.9  296.26  43.148  13.267  39.892 
  4242.000 -12.383  3.8560  6.2900  6.1940 -5.7956  3.8560  6.2900  6.1940  0.3333  4241.4  296.21  43.150  13.265  39.891 
  4242.500 -11.950  3.8350  6.1180  6.0430 -5.3628  3.8350  6.1180  6.0430  0.3333  4241.9  296.17  43.151  13.262  39.890 
  4243.000 -11.553  3.8280  5.8380  5.9210 -4.9661  3.8280  5.8380  5.9210  0.3333  4242.4  296.12  43.152  13.259  39.889 
  4243.500 -11.228  3.8280  5.6810  5.7710 -4.6413  3.8280  5.6810  5.7710  0.3333  4242.9  296.08  43.153  13.257  39.888 
  4244.000 -11.191  3.8430  5.5730  5.7560 -4.6046  3.8430  5.5730  5.7560  0.3333  4243.4  296.03  43.155  13.254  39.887 
  4244.500 -11.479  3.8570  5.5380  5.8360 -4.8929  3.8570  5.5380  5.8360  0.3333  4243.9  295.99  43.156  13.252  39.886 
  4245.000 -11.695  3.8790  5.5020  5.8930 -5.1091  3.8790  5.5020  5.8930  0.3333  4244.4  295.94  43.157  13.249  39.885 
  4245.500 -12.163  3.8940  5.4590  5.8720 -5.5774  3.8940  5.4590  5.8720  0.3333  4244.9  295.90  43.159  13.246  39.884 
  4246.000 -12.272  3.9300  5.4090  5.8290 -5.6866  3.9300  5.4090  5.8290  0.3333  4245.4  295.85  43.160  13.244  39.883 
  4246.500 -12.380  3.9800  5.3660  5.7580 -5.7949  3.9800  5.3660  5.7580  0.3333  4245.9  295.81  43.161  13.241  39.882 
  4247.000 -12.595  4.0740  5.3020  5.7000 -6.0102  4.0740  5.3020  5.7000  0.3333  4246.4  295.76  43.162  13.239  39.881 
  4247.500 -12.667  4.1960  5.2230  5.6070 -6.0824  4.1960  5.2230  5.6070  0.3333  4246.9  295.72  43.164  13.236  39.881 
  4248.000 -12.811  4.2500  5.1370  5.6140 -6.2267  4.2500  5.1370  5.6140  0.3333  4247.4  295.67  43.165  13.233  39.880 
  4248.500 -13.640  4.3040  5.0730  5.8010 -7.0559  4.3040  5.0730  5.8010  0.3333  4247.9  295.63  43.166  13.231  39.879 
  4249.000 -15.082  4.4770  4.9790  5.9520 -8.4982  4.4770  4.9790  5.9520  0.3333  4248.4  295.58  43.167  13.228  39.878 
  4249.500 -15.334  4.5630  4.9080  6.2110 -8.7505  4.5630  4.9080  6.2110  0.3333  4248.9  295.54  43.169  13.225  39.877 
  4250.000 -15.370  4.6490  4.8580  6.3550 -8.7867  4.6490  4.8580  6.3550  0.3333  4249.4  295.49  43.170  13.223  39.876 
  4250.500 -15.475  5.0080  5.0080  6.2690 -8.8920  5.0080  5.0080  6.2690  0.3333  4249.9  295.45  43.171  13.220  39.875 
  4251.000 -15.833  5.1730  5.1300  6.2400 -9.2502  5.1730  5.1300  6.2400  0.3333  4250.4  295.40  43.172  13.218  39.874 
  4251.500 -16.696  5.3670  5.2950  6.2040 -10.113  5.3670  5.2950  6.2040  0.3333  4250.9  295.36  43.174  13.215  39.873 
  4252.000 -19.435  5.6110  5.4460  6.2460 -12.853  5.6110  5.4460  6.2460  0.3333  4251.4  295.31  43.175  13.212  39.872 
  4252.500 -24.699  5.8840  5.5030  6.4470 -18.117  5.8840  5.5030  6.4470  0.3333  4251.9  295.27  43.176  13.210  39.871 
  4253.000 -29.133  6.2570  5.6820  6.7490 -22.551  6.2570  5.6820  6.7490  0.3333  4252.4  295.22  43.177  13.207  39.870 
  4253.500 -32.413  6.5870  5.7930  7.0930 -25.832  6.5870  5.7930  7.0930  0.3333  4252.9  295.18  43.179  13.204  39.869 
  4254.000 -34.647  6.8520  5.9040  7.4230 -28.066  6.8520  5.9040  7.4230  0.3333  4253.4  295.13  43.180  13.202  39.868 
  4254.500 -36.087  7.0530  6.2990  7.7170 -29.506  7.0530  6.2990  7.7170  0.3333  4253.9  295.09  43.181  13.199  39.867 
  4255.000 -37.022  7.3470  6.6650  7.9040 -30.441  7.3470  6.6650  7.9040  0.3333  4254.4  295.04  43.182  13.196  39.866 
  4255.500 -36.334  7.5910  7.0960  8.0900 -29.754  7.5910  7.0960  8.0900  0.3333  4254.9  295.00  43.184  13.194  39.865 
  4256.000 -35.357  7.7060  7.4190  8.1550 -28.777  7.7060  7.4190  8.1550  0.3333  4255.4  294.95  43.185  13.191  39.864 
  4256.500 -34.417  7.7420  7.6410  8.0250 -27.837  7.7420  7.6410  8.0250  0.3333  4255.9  294.91  43.186  13.189  39.863 
  4257.000 -31.312  7.6840  7.7130  7.7950 -24.732  7.6840  7.7130  7.7950  0.3333  4256.4  294.86  43.187  13.186  39.862 
  4257.500 -28.062  7.4320  7.6550  7.4720 -21.483  7.4320  7.6550  7.4720  0.3333  4256.9  294.82  43.188  13.183  39.861 
  4258.000 -25.679  6.5270  7.4540  7.1770 -19.100  6.5270  7.4540  7.1770  0.3333  4257.4  294.77  43.190  13.181  39.860 
  4258.500 -23.512  5.7950  7.2380  6.6530 -16.933  5.7950  7.2380  6.6530  0.3333  4257.9  294.73  43.191  13.178  39.859 
  4259.000 -20.660  5.1480  7.0300  6.3010 -14.081  5.1480  7.0300  6.3010  0.3333  4258.4  294.68  43.192  13.175  39.858 
  4259.500 -17.591  4.8390  6.6560  5.7260 -11.013  4.8390  6.6560  5.7260  0.3333  4258.9  294.64  43.193  13.173  39.857 
  4260.000 -15.135  4.4370  6.2610  5.1440 -8.5569  4.4370  6.2610  5.1440  0.3333  4259.4  294.59  43.195  13.170  39.856 
  4260.500 -12.607  4.2570  5.8940  4.7130 -6.0291  4.2570  5.8940  4.7130  0.3333  4259.9  294.55  43.196  13.167  39.855 
  4261.000 -11.991  4.1130  5.2620  4.4540 -5.4134  4.1130  5.2620  4.4540  0.3333  4260.4  294.50  43.197  13.165  39.854 
  4261.500 -12.132  3.9910  4.7670  4.2600 -5.5547  3.9910  4.7670  4.2600  0.3333  4260.9  294.46  43.198  13.162  39.853 
  4262.000 -12.274  3.9480  4.4650  4.1810 -5.6969  3.9480  4.4650  4.1810  0.3333  4261.4  294.41  43.199  13.159  39.852 
  4262.500 -12.524  3.9120  4.2060  4.3250 -5.9472  3.9120  4.2060  4.3250  0.3333  4261.9  294.37  43.201  13.157  39.851 
  4263.000 -12.557  3.8830  4.0410  4.4180 -5.9804  3.8830  4.0410  4.4180  0.3333  4262.4  294.32  43.202  13.154  39.850 
  4263.500 -12.663  3.8540  4.0190  4.5180 -6.0867  3.8540  4.0190  4.5180  0.3333  4262.9  294.28  43.203  13.152  39.849 
  4264.000 -12.769  3.8470  4.2200  4.6040 -6.1930  3.8470  4.2200  4.6040  0.3333  4263.4  294.23  43.204  13.149  39.848 
  4264.500 -12.838  3.8530  4.4060  4.6680 -6.2622  3.8530  4.4060  4.6680  0.3333  4263.9  294.19  43.205  13.146  39.847 
  4265.000 -13.087  3.8600  4.6140  4.7330 -6.5115  3.8600  4.6140  4.7330  0.3333  4264.4  294.14  43.207  13.144  39.846 
  4265.500 -13.193  3.8820  4.9300  4.6030 -6.6177  3.8820  4.9300  4.6030  0.3333  4264.9  294.10  43.208  13.141  39.844 
  4266.000 -13.407  3.8960  5.2310  4.5600 -6.8320  3.8960  5.2310  4.5600  0.3333  4265.4  294.05  43.209  13.138  39.843 
  4266.500 -13.512  3.9140  5.4390  4.4380 -6.9372  3.9140  5.4390  4.4380  0.3333  4265.9  294.01  43.210  13.136  39.842 
  4267.000 -13.654  3.9310  5.6120  4.3300 -7.0795  3.9310  5.6120  4.3300  0.3333  4266.4  293.96  43.211  13.133  39.841 
