~Version Information
VERS.                     2.0: CWLS log ASCII Standard Version 2.00
WRAP.                      NO: One line per depth step
~Well Information Block
#MNEM.UNIT                               Data Type  Information
#---------                               ---------  -----------
STRT.FT                                   400.0000:
STOP.FT                                  6820.0000:
STEP.FT                                     0.5000:
NULL.                 -999.25                     :
COMP.                                             :COMPANY            
WELL.     SAN EMIDIO A #86-19                     :WELL               
FLD .                                             :FIELD              
CTRY.                                             :COUNTRY            
STAT.                                             :STATE              
LOC .                                             :LOCATION           
UWI .                                             :UNIQUE WELL ID     
SRVC.                                             :Service company    
DATE.                                             :LOG DATE           
~Curve Information
#MNEM.UNIT           API CODE  Curve Description
#---------           --------  -----------------
DEPT.FT                      :   1 DEPTH
SP  .MV                      :   2
AM16.OHMM                    :   3
AO10.OHMM                    :   4
AO19.OHMM                    :   5
SBL .MV                      :   6
RS  .OHMM                    :   7
RM  .OHMM                    :   8
RD  .OHMM                    :   9
DEVI.DEG                     :  10
TVD .FT                      :  11
AZIM.DEG                     :  12
NORT.FT                      :  13
EAST.FT                      :  14
OFFS.FT                      :  15
~A
# ...
  1667.500 -38.303  8.1920  23.590  13.899 -30.384  8.1920  23.590  13.899  0.6146  1667.5  44.470  5.1468 -0.3345  3.4028 
  1668.000 -35.640  7.6960  21.286  13.546 -27.721  7.6960  21.286  13.546  0.6167  1668.0  44.355  5.1507 -0.3307  3.4082 
  1668.500 -33.194  7.2500  18.408  13.029 -25.275  7.2500  18.408  13.029  0.6187  1668.5  44.240  5.1545 -0.3270  3.4136 
  1669.000 -30.963  6.8620  19.195  12.296 -23.044  6.8620  19.195  12.296  0.6208  1669.0  44.125  5.1584 -0.3232  3.4190 
  1669.500 -29.273  6.5230  17.327  11.462 -21.355  6.5230  17.327  11.462  0.6229  1669.5  44.010  5.1623 -0.3194  3.4245 
  1670.000 -28.050  6.3720  16.680  10.995 -20.132  6.3720  16.680  10.995  0.6250  1670.0  43.895  5.1663 -0.3156  3.4299 
  1670.500 -26.828  6.3000  14.273  10.376 -18.910  6.3000  14.273  10.376  0.6271  1670.5  43.780  5.1702 -0.3118  3.4354 
  1671.000 -26.398  6.2780  10.811  10.053 -18.481  6.2780  10.811  10.053  0.6292  1671.0  43.665  5.1742 -0.3081  3.4409 
  1671.500 -26.329  6.2490  10.674  9.5140 -18.412  6.2490  10.674  9.5140  0.6312  1671.5  43.550  5.1782 -0.3043  3.4464 
  1672.000 -26.348  6.2480  10.659  9.4990 -18.431  6.2480  10.659  9.4990  0.6333  1672.0  43.435  5.1822 -0.3005  3.4519 
  1672.500 -26.368  6.2550  10.644  9.7710 -18.451  6.2550  10.644  9.7710  0.6354  1672.5  43.320  5.1862 -0.2967  3.4575 
  1673.000 -26.408  6.2690  10.608  10.259 -18.492  6.2690  10.608  10.259  0.6375  1673.0  43.205  5.1903 -0.2928  3.4630 
  1673.500 -26.483  6.3260  10.586  10.381 -18.567  6.3260  10.586  10.381  0.6396  1673.5  43.090  5.1944 -0.2890  3.4686 
  1674.000 -26.556  6.3900  10.528  10.539 -18.640  6.3900  10.528  10.539  0.6417  1674.0  42.975  5.1985 -0.2852  3.4742 
  1674.500 -26.811  6.5980  10.477  10.696 -18.895  6.5980  10.477  10.696  0.6437  1674.5  42.860  5.2026 -0.2814  3.4798 
  1675.000 -27.101  6.7920  10.412  10.890 -19.186  6.7920  10.412  10.890  0.6458  1675.0  42.745  5.2067 -0.2776  3.4854 
  1675.500 -27.788  7.1580  10.405  11.141 -19.873  7.1580  10.405  11.141  0.6479  1675.5  42.630  5.2109 -0.2737  3.4911 
  1676.000 -30.239  7.7170  10.461  11.593 -22.324  7.7170  10.461  11.593  0.6500  1676.0  42.515  5.2151 -0.2699  3.4968 
  1676.500 -34.779  8.2270  10.626  11.995 -26.864  8.2270  10.626  11.995  0.6521  1676.5  42.400  5.2193 -0.2661  3.5024 
  1677.000 -38.599  8.7730  10.827  12.432 -30.685  8.7730  10.827  12.432  0.6542  1677.0  42.285  5.2235 -0.2622  3.5081 
  1677.500 -41.375  9.4040  11.143  12.885 -33.461  9.4040  11.143  12.885  0.6562  1677.5  42.170  5.2277 -0.2584  3.5139 
  1678.000 -43.682  10.007  11.537  13.207 -35.768  10.007  11.537  13.207  0.6583  1678.0  42.055  5.2320 -0.2545  3.5196 
  1678.500 -45.521  10.890  11.882  13.624 -37.607  10.890  11.882  13.624  0.6604  1678.5  41.940  5.2363 -0.2507  3.5253 
  1679.000 -47.720  11.572  12.255  14.148 -39.807  11.572  12.255  14.148  0.6625  1679.0  41.825  5.2406 -0.2468  3.5311 
  1679.500 -50.351  12.499  12.513  14.528 -42.438  12.499  12.513  14.528  0.6646  1679.5  41.710  5.2449 -0.2430  3.5369 
  1680.000 -52.370  13.827  13.137  15.325 -44.457  13.827  13.137  15.325  0.6667  1680.0  41.595  5.2493 -0.2391  3.5427 
  1680.500 -53.885  14.710  13.654  16.567 -45.972  14.710  13.654  16.567  0.6687  1680.5  41.480  5.2536 -0.2352  3.5485 
  1681.000 -55.184  15.342  14.042  17.206 -47.272  15.342  14.042  17.206  0.6708  1681.0  41.365  5.2580 -0.2314  3.5544 
  1681.500 -55.511  15.837  14.415  17.766 -47.599  15.837  14.415  17.766  0.6729  1681.5  41.250  5.2625 -0.2275  3.5602 
  1682.000 -55.729  16.311  14.651  18.239 -47.817  16.311  14.651  18.239  0.6750  1682.0  41.135  5.2669 -0.2236  3.5661 
  1682.500 -55.840  16.497  14.931  18.591 -47.928  16.497  14.931  18.591  0.6771  1682.5  41.020  5.2713 -0.2198  3.5720 
  1683.000 -55.878  16.561  15.125  18.892 -47.967  16.561  15.125  18.892  0.6792  1683.0  40.905  5.2758 -0.2159  3.5779 
  1683.500 -55.880  16.525  15.361  19.079 -47.969  16.525  15.361  19.079  0.6812  1683.5  40.790  5.2803 -0.2120  3.5839 
  1684.000 -55.774  16.338  15.469  19.143 -47.863  16.338  15.469  19.143  0.6833  1684.0  40.675  5.2849 -0.2081  3.5898 
  1684.500 -55.488  16.251  15.554  18.999 -47.577  16.251  15.554  18.999  0.6854  1684.5  40.560  5.2894 -0.2042  3.5958 
  1685.000 -55.095  16.035  15.540  18.625 -47.185  16.035  15.540  18.625  0.6875  1685.0  40.445  5.2940 -0.2003  3.6017 
  1685.500 -54.342  15.776  15.503  18.315 -46.432  15.776  15.503  18.315  0.6896  1685.5  40.330  5.2985 -0.1964  3.6077 
  1686.000 -53.768  15.373  15.510  18.085 -45.858  15.373  15.510  18.085  0.6917  1686.0  40.215  5.3032 -0.1925  3.6138 
  1686.500 -53.049  14.920  15.588  17.869 -45.140  14.920  15.588  17.869  0.6937  1686.5  40.100  5.3078 -0.1886  3.6198 
  1687.000 -52.187  14.274  15.789  17.589 -44.278  14.274  15.789  17.589  0.6958  1687.0  39.985  5.3124 -0.1847  3.6258 
  1687.500 -51.037  13.583  16.392  17.229 -43.128  13.583  16.392  17.229  0.6979  1687.5  39.870  5.3171 -0.1808  3.6319 
  1688.000 -49.382  12.965  17.405  16.948 -41.473  12.965  17.405  16.948  0.7000  1688.0  39.755  5.3218 -0.1769  3.6380 
  1688.500 -47.188  12.383  18.216  16.582 -39.280  12.383  18.216  16.582  0.7021  1688.5  39.640  5.3265 -0.1730  3.6441 
  1689.000 -45.137  11.765  18.718  16.222 -37.229  11.765  18.718  16.222  0.7042  1689.0  39.525  5.3313 -0.1691  3.6502 
  1689.500 -42.186  10.867  18.962  15.855 -34.278  10.867  18.962  15.855  0.7062  1689.5  39.410  5.3360 -0.1652  3.6563 
  1690.000 -40.028  10.227  18.976  15.611 -32.120  10.227  18.976  15.611  0.7083  1690.0  39.295  5.3408 -0.1613  3.6625 
  1690.500 -37.833  9.7880  18.710  14.418 -29.926  9.7880  18.710  14.418  0.7104  1690.5  39.180  5.3456 -0.1574  3.6687 
  1691.000 -35.855  9.4790  17.402  11.443 -27.948  9.4790  17.402  11.443  0.7125  1691.0  39.065  5.3504 -0.1534  3.6748 
  1691.500 -33.300  9.0620  16.101  10.911 -25.393  9.0620  16.101  10.911  0.7146  1691.5  38.950  5.3553 -0.1495  3.6810 
  1692.000 -31.573  8.8750  15.203  10.300 -23.666  8.8750  15.203  10.300  0.7167  1692.0  38.835  5.3602 -0.1456  3.6873 
  1692.500 -30.856  8.7950  14.707  9.5670 -22.950  8.7950  14.707  9.5670  0.7187  1692.5  38.720  5.3651 -0.1417  3.6935 
  1693.000 -30.876  8.7660  14.491  9.1360 -22.970  8.7660  14.491  9.1360  0.7208  1693.0  38.605  5.3700 -0.1377  3.6997 
  1693.500 -30.895  8.7730  14.318  8.9560 -22.989  8.7730  14.318  8.9560  0.7229  1693.5  38.490  5.3749 -0.1338  3.7060 
  1694.000 -30.899  8.8010  14.210  8.7760 -22.993  8.8010  14.210  8.7760  0.7250  1694.0  38.375  5.3799 -0.1299  3.7123 
  1694.500 -30.829  8.8650  14.109  8.6820 -22.924  8.8650  14.109  8.6820  0.7271  1694.5  38.260  5.3849 -0.1260  3.7186 
  1695.000 -30.651  9.0160  14.109  8.6390 -22.746  9.0160  14.109  8.6390  0.7292  1695.0  38.145  5.3899 -0.1220  3.7249 
  1695.500 -30.546  9.1450  14.108  8.7740 -22.641  9.1450  14.108  8.7740  0.7313  1695.5  38.030  5.3949 -0.1181  3.7313 
  1696.000 -30.404  9.5100  14.158  8.9540 -22.499  9.5100  14.158  8.9540  0.7333  1696.0  37.915  5.3999 -0.1142  3.7376 
  1696.500 -31.559  9.8330  14.337  9.2120 -23.655  9.8330  14.337  9.2120  0.7354  1696.5  37.800  5.4050 -0.1102  3.7440 
  1697.000 -33.902  10.113  14.559  9.7930 -25.998  10.113  14.559  9.7930  0.7375  1697.0  37.685  5.4101 -0.1063  3.7504 
  1697.500 -38.478  10.687  15.033  10.210 -30.574  10.687  15.033  10.210  0.7396  1697.5  37.570  5.4152 -0.1024  3.7568 
  1698.000 -41.397  11.017  15.629  10.626 -33.493  11.017  15.629  10.626  0.7417  1698.0  37.455  5.4204 -0.0984  3.7632 
  1698.500 -43.525  11.254  16.110  11.114 -35.622  11.254  16.110  11.114  0.7438  1698.5  37.340  5.4255 -0.0945  3.7696 
  1699.000 -44.679  11.548  16.555  11.781 -36.776  11.548  16.555  11.781  0.7458  1699.0  37.225  5.4307 -0.0906  3.7760 
  1699.500 -45.582  11.670  16.956  12.708 -37.679  11.670  16.956  12.708  0.7479  1699.5  37.110  5.4359 -0.0866  3.7825 
