~Version Information
VERS.                     2.0: CWLS log ASCII Standard Version 2.00
WRAP.                      NO: One line per depth step
~Well Information Block
#MNEM.UNIT                               Data Type  Information
#---------                               ---------  -----------
STRT.FT                                   400.0000:
STOP.FT                                  6820.0000:
STEP.FT                                     0.5000:
NULL.                 -999.25                     :
COMP.                                             :COMPANY            
WELL.     SAN EMIDIO A #86-19                     :WELL               
FLD .                                             :FIELD              
CTRY.                                             :COUNTRY            
STAT.                                             :STATE              
LOC .                                             :LOCATION           
UWI .                                             :UNIQUE WELL ID     
SRVC.                                             :Service company    
DATE.                                             :LOG DATE           
~Curve Information
#MNEM.UNIT           API CODE  Curve Description
#---------           --------  -----------------
DEPT.FT                      :   1 DEPTH
SP  .MV                      :   2
AM16.OHMM                    :   3
AO10.OHMM                    :   4
AO19.OHMM                    :   5
SBL .MV                      :   6
RS  .OHMM                    :   7
RM  .OHMM                    :   8
RD  .OHMM                    :   9
DEVI.DEG                     :  10
TVD .FT                      :  11
AZIM.DEG                     :  12
NORT.FT                      :  13
EAST.FT                      :  14
OFFS.FT                      :  15
~A
# ...
   822.500 -50.554  11.713  27.683  17.781 -42.554  11.713  27.683  17.781  0.2687  822.49  69.275  1.2773  0.9571  1.5799 
   823.000 -48.820  11.046  27.688  17.673 -40.820  11.046  27.688  17.673  0.2692  822.99  68.970  1.2782  0.9592  1.5821 
   823.500 -46.548  10.336  27.551  17.351 -38.548  10.336  27.551  17.351  0.2696  823.49  68.665  1.2790  0.9614  1.5842 
   824.000 -43.304  9.7400  27.197  16.762 -35.304  9.7400  27.197  16.762  0.2700  823.99  68.360  1.2799  0.9636  1.5864 
   824.500 -39.339  9.1170  26.269  15.707 -31.339  9.1170  26.269  15.707  0.2704  824.49  68.055  1.2808  0.9658  1.5886 
   825.000 -36.744  8.3630  24.623  15.018 -28.744  8.3630  24.623  15.018  0.2708  824.99  67.750  1.2817  0.9680  1.5908 
   825.500 -34.003  7.5600  21.901  13.906 -26.003  7.5600  21.901  13.906  0.2712  825.49  67.445  1.2826  0.9702  1.5929 
   826.000 -31.768  6.5550  18.533  12.391 -23.768  6.5550  18.533  12.391  0.2717  825.99  67.140  1.2835  0.9724  1.5951 
   826.500 -29.856  5.6590  19.062  10.252 -21.856  5.6590  19.062  10.252  0.2721  826.49  66.835  1.2844  0.9746  1.5973 
   827.000 -28.989  5.1640  17.002  9.1110 -20.989  5.1640  17.002  9.1110  0.2725  826.99  66.530  1.2854  0.9767  1.5996 
   827.500 -28.265  4.8340  16.069  8.0560 -20.265  4.8340  16.069  8.0560  0.2729  827.49  66.225  1.2863  0.9789  1.6018 
   828.000 -27.938  4.7130  14.921  7.8410 -19.938  4.7130  14.921  7.8410  0.2733  827.99  65.920  1.2873  0.9811  1.6040 
   828.500 -27.863  4.5050  12.258  7.5900 -19.863  4.5050  12.258  7.5900  0.2737  828.49  65.615  1.2883  0.9833  1.6062 
   829.000 -27.823  4.4120  10.945  7.3820 -19.823  4.4120  10.945  7.3820  0.2742  828.99  65.310  1.2893  0.9854  1.6085 
   829.500 -27.749  4.3270  9.7830  7.2250 -19.749  4.3270  9.7830  7.2250  0.2746  829.49  65.005  1.2903  0.9876  1.6107 
   830.000 -27.745  4.2840  9.2660  7.1030 -19.745  4.2840  9.2660  7.1030  0.2750  829.99  64.700  1.2913  0.9898  1.6130 
   830.500 -27.598  4.2780  8.7430  6.9890 -19.598  4.2780  8.7430  6.9890  0.2754  830.49  64.395  1.2924  0.9920  1.6153 
   831.000 -27.487  4.2780  8.2480  7.0610 -19.487  4.2780  8.2480  7.0610  0.2758  830.99  64.090  1.2934  0.9941  1.6175 
   831.500 -27.485  4.2930  7.9400  7.2050 -19.485  4.2930  7.9400  7.2050  0.2762  831.49  63.785  1.2945  0.9963  1.6198 
   832.000 -27.483  4.3300  7.7250  7.3920 -19.483  4.3300  7.7250  7.3920  0.2767  831.99  63.480  1.2956  0.9984  1.6221 
   832.500 -27.481  4.3660  7.5820  7.6090 -19.481  4.3660  7.5820  7.6090  0.2771  832.49  63.175  1.2967  1.0006  1.6244 
   833.000 -27.404  4.4530  7.5330  7.7200 -19.404  4.4530  7.5330  7.7200  0.2775  832.99  62.870  1.2978  1.0028  1.6267 
   833.500 -27.257  4.5110  7.5260  7.8320 -19.257  4.5110  7.5260  7.8320  0.2779  833.49  62.565  1.2989  1.0049  1.6290 
   834.000 -27.145  4.5620  7.5410  8.2060 -19.145  4.5620  7.5410  8.2060  0.2783  833.99  62.260  1.3000  1.0071  1.6313 
   834.500 -27.035  4.6120  7.5700  8.4360 -19.035  4.6120  7.5700  8.4360  0.2787  834.49  61.955  1.3012  1.0092  1.6337 
   835.000 -27.464  4.8140  7.6140  8.7100 -19.464  4.8140  7.6140  8.7100  0.2792  834.99  61.650  1.3023  1.0113  1.6360 
   835.500 -28.144  5.0800  7.6430  8.9610 -20.144  5.0800  7.6430  8.9610  0.2796  835.49  61.345  1.3035  1.0135  1.6383 
   836.000 -28.754  5.4830  7.6720  9.2560 -20.754  5.4830  7.6720  9.2560  0.2800  835.99  61.040  1.3047  1.0156  1.6407 
   836.500 -32.641  6.0360  7.7740  9.5370 -24.641  6.0360  7.7740  9.5370  0.2804  836.49  60.735  1.3059  1.0178  1.6430 
   837.000 -35.879  6.4890  7.8530  9.7380 -27.879  6.4890  7.8530  9.7380  0.2808  836.99  60.430  1.3071  1.0199  1.6454 
   837.500 -38.109  6.9920  7.9110  9.9470 -30.109  6.9920  7.9110  9.9470  0.2812  837.49  60.125  1.3083  1.0220  1.6478 
   838.000 -41.167  7.4090  7.9690  10.213 -33.167  7.4090  7.9690  10.213  0.2817  837.99  59.820  1.3095  1.0241  1.6502 
   838.500 -43.901  8.1060  8.0340  10.530 -35.901  8.1060  8.0340  10.530  0.2821  838.49  59.515  1.3108  1.0263  1.6525 
   839.000 -45.987  8.6090  8.1070  10.839 -37.987  8.6090  8.1070  10.839  0.2825  838.99  59.210  1.3120  1.0284  1.6549 
   839.500 -47.281  9.0980  8.1500  11.134 -39.281  9.0980  8.1500  11.134  0.2829  839.49  58.905  1.3133  1.0305  1.6573 
   840.000 -48.178  9.4570  8.2370  11.486 -40.178  9.4570  8.2370  11.486  0.2833  839.99  58.600  1.3146  1.0326  1.6597 
   840.500 -49.579  10.190  8.3170  11.860 -41.579  10.190  8.3170  11.860  0.2837  840.49  58.295  1.3159  1.0347  1.6621 
   841.000 -50.513  10.614  8.4180  12.083 -42.513  10.614  8.4180  12.083  0.2842  840.99  57.990  1.3172  1.0368  1.6646 
   841.500 -50.871  11.196  8.5620  12.371 -42.871  11.196  8.5620  12.371  0.2846  841.49  57.685  1.3185  1.0389  1.6670 
   842.000 -51.660  11.563  8.6700  12.659 -43.660  11.563  8.6700  12.659  0.2850  841.99  57.380  1.3199  1.0410  1.6694 
   842.500 -52.485  11.994  8.8500  13.018 -44.485  11.994  8.8500  13.018  0.2854  842.49  57.075  1.3212  1.0431  1.6718 
   843.000 -53.166  12.749  9.0660  13.320 -45.166  12.749  9.0660  13.320  0.2858  842.99  56.770  1.3226  1.0452  1.6743 
   843.500 -53.487  13.209  9.1740  13.572 -45.487  13.209  9.1740  13.572  0.2862  843.49  56.465  1.3240  1.0473  1.6767 
   844.000 -54.025  13.726  9.2820  13.745 -46.025  13.726  9.2820  13.745  0.2867  843.99  56.160  1.3254  1.0493  1.6792 
   844.500 -54.418  14.165  9.5850  13.832 -46.418  14.165  9.5850  13.832  0.2871  844.49  55.855  1.3268  1.0514  1.6816 
   845.000 -54.578  14.510  9.8000  13.861 -46.578  14.510  9.8000  13.861  0.2875  844.99  55.550  1.3282  1.0535  1.6841 
   845.500 -54.737  14.726  10.160  13.861 -46.737  14.726  10.160  13.861  0.2879  845.49  55.245  1.3296  1.0556  1.6866 
   846.000 -54.876  14.949  10.448  13.869 -46.876  14.949  10.448  13.869  0.2883  845.99  54.940  1.3311  1.0576  1.6891 
   846.500 -54.909  15.201  10.757  13.898 -46.909  15.201  10.757  13.898  0.2887  846.49  54.635  1.3325  1.0597  1.6915 
   847.000 -54.942  15.395  11.160  13.956 -46.942  15.395  11.160  13.956  0.2892  846.99  54.330  1.3340  1.0617  1.6940 
   847.500 -54.904  15.575  11.763  14.021 -46.904  15.575  11.763  14.021  0.2896  847.49  54.025  1.3355  1.0638  1.6965 
   848.000 -54.901  15.748  12.223  14.079 -46.901  15.748  12.223  14.079  0.2900  847.99  53.720  1.3370  1.0658  1.6990 
   848.500 -54.898  15.885  12.712  14.137 -46.898  15.885  12.712  14.137  0.2904  848.49  53.415  1.3385  1.0678  1.7015 
   849.000 -54.858  16.058  13.524  14.145 -46.858  16.058  13.524  14.145  0.2908  848.99  53.110  1.3400  1.0699  1.7041 
   849.500 -54.855  16.145  14.357  14.124 -46.855  16.145  14.357  14.124  0.2912  849.49  52.805  1.3416  1.0719  1.7066 
   850.000 -54.636  16.203  15.018  14.089 -46.636  16.203  15.018  14.089  0.2917  849.99  52.500  1.3431  1.0739  1.7091 
   850.500 -54.417  16.189  15.715  14.053 -46.417  16.189  15.715  14.053  0.2921  850.49  52.195  1.3447  1.0759  1.7116 
   851.000 -53.910  16.024  16.864  14.047 -45.910  16.024  16.864  14.047  0.2925  850.99  51.890  1.3462  1.0779  1.7142 
   851.500 -53.114  15.759  17.906  13.968 -45.114  15.759  17.906  13.968  0.2929  851.49  51.585  1.3478  1.0799  1.7167 
   852.000 -52.535  14.820  19.084  13.811 -44.535  14.820  19.084  13.811  0.2933  851.99  51.280  1.3494  1.0819  1.7192 
   852.500 -51.343  14.246  19.431  13.632 -43.343  14.246  19.431  13.632  0.2937  852.49  50.975  1.3511  1.0839  1.7218 
   853.000 -50.079  13.672  19.778  13.475 -42.079  13.672  19.778  13.475  0.2941  852.99  50.670  1.3527  1.0859  1.7243 
   853.500 -48.275  13.063  22.228  13.346 -40.275  13.063  22.228  13.346  0.2946  853.49  50.365  1.3543  1.0879  1.7269 
   854.000 -46.183  11.915  23.311  13.160 -38.183  11.915  23.311  13.160  0.2950  853.99  50.060  1.3560  1.0899  1.7295 
   854.500 -43.623  11.363  23.821  12.845 -35.623  11.363  23.821  12.845  0.2954  854.49  49.755  1.3576  1.0918  1.7320 
