~Version Information
VERS.                     2.0: CWLS log ASCII Standard Version 2.00
WRAP.                      NO: One line per depth step
~Well Information Block
#MNEM.UNIT                               Data Type  Information
#---------                               ---------  -----------
STRT.FT                                   330.0000:
STOP.FT                                  8660.0000:
STEP.FT                                     0.5000:
NULL.                 -999.25                     :
COMP.                                             :COMPANY            
WELL.     SAN EMIDIO A #81-29                     :WELL               
FLD .                                             :FIELD              
CTRY.                                             :COUNTRY            
STAT.                                             :STATE              
LOC .                                             :LOCATION           
UWI .                                             :UNIQUE WELL ID     
SRVC.                                             :Service company    
DATE.                                             :LOG DATE           
~Curve Information
#MNEM.UNIT           API CODE  Curve Description
#---------           --------  -----------------
DEPT.FT                      :   1 DEPTH
SP  .MV                      :   2
AM10.OHMM                    :   3
AO10.OHMM                    :   4
AO19.OHMM                    :   5
SBL .MV                      :   6
RS  .OHMM                    :   7
RM  .OHMM                    :   8
RD  .OHMM                    :   9
DEVI.DEG                     :  10
TVD .FT                      :  11
AZIM.DEG                     :  12
NORT.FT                      :  13
EAST.FT                      :  14
OFFS.FT                      :  15
~A
# ...
  8065.000 -33.992  10.966  9.2770  10.894 -27.139  10.966  9.2770  10.894  20.000  8014.0  211.50 -300.21 -183.82 -342.26 
  8065.500 -31.818  12.332  9.2780  10.679 -24.967  12.332  9.2780  10.679  20.000  8014.5  211.48 -300.35 -183.91 -342.42 
  8066.000 -29.103  12.943  9.1350  10.536 -22.255  12.943  9.1350  10.536  20.000  8014.9  211.45 -300.50 -183.99 -342.59 
  8066.500 -28.194  13.554  9.0640  10.358 -21.348  13.554  9.0640  10.358  20.000  8015.4  211.42 -300.65 -184.08 -342.76 
  8067.000 -28.188  14.741  8.8860  10.035 -21.344  14.741  8.8860  10.035  20.000  8015.9  211.40 -300.79 -184.17 -342.92 
  8067.500 -28.364  14.455  8.7070  9.6410 -21.523  14.455  8.7070  9.6410  20.000  8016.3  211.37 -300.94 -184.26 -343.09 
  8068.000 -28.358  14.312  8.6720  9.2110 -21.519  14.312  8.6720  9.2110  20.000  8016.8  211.34 -301.08 -184.35 -343.25 
  8068.500 -28.172  14.097  8.6370  9.0320 -21.336  14.097  8.6370  9.0320  20.000  8017.3  211.31 -301.23 -184.44 -343.42 
  8069.000 -27.625  13.595  8.6020  8.8890 -20.791  13.595  8.6020  8.8890  20.000  8017.7  211.29 -301.38 -184.53 -343.59 
  8069.500 -26.716  13.273  8.4950  8.7460 -19.884  13.273  8.4950  8.7460  20.000  8018.2  211.26 -301.52 -184.62 -343.75 
  8070.000 -26.349  12.914  8.5320  8.6040 -19.520  12.914  8.5320  8.6040  20.000  8018.7  211.23 -301.67 -184.71 -343.92 
  8070.500 -26.344  12.556  8.8200  8.8560 -19.517  12.556  8.8200  8.8560  20.000  8019.2  211.21 -301.81 -184.79 -344.08 
  8071.000 -26.880  12.162  9.0370  9.0180 -20.056  12.162  9.0370  9.0180  20.000  8019.6  211.18 -301.96 -184.88 -344.25 
  8071.500 -27.778  11.804  9.4690  9.1810 -20.956  11.804  9.4690  9.1810  20.000  8020.1  211.15 -302.11 -184.97 -344.42 
  8072.000 -29.038  11.732  9.7210  9.3980 -22.218  11.732  9.7210  9.3980  20.000  8020.6  211.12 -302.25 -185.06 -344.58 
  8072.500 -30.116  11.661  10.009  9.6140 -23.299  11.661  10.009  9.6140  20.000  8021.0  211.10 -302.40 -185.15 -344.75 
  8073.000 -31.016  11.663  10.333  9.6870 -24.201  11.663  10.333  9.6870  20.000  8021.5  211.07 -302.55 -185.24 -344.91 
  8073.500 -31.915  11.663  10.766  9.6160 -25.103  11.663  10.766  9.6160  20.000  8022.0  211.04 -302.69 -185.32 -345.08 
  8074.000 -33.895  11.557  11.054  9.5810 -27.085  11.557  11.054  9.5810  20.000  8022.4  211.02 -302.84 -185.41 -345.25 
  8074.500 -35.154  11.270  11.198  9.5460 -28.346  11.270  11.198  9.5460  20.000  8022.9  210.99 -302.99 -185.50 -345.41 
  8075.000 -36.233  10.732  11.343  9.6550 -29.428  10.732  11.343  9.6550  20.000  8023.4  210.96 -303.13 -185.59 -345.58 
  8075.500 -37.492  10.230  11.416  9.7810 -30.689  10.230  11.416  9.7810  20.000  8023.9  210.93 -303.28 -185.68 -345.74 
  8076.000 -38.571  9.1170  11.470  9.9070 -31.771  9.1170  11.470  9.9070  20.000  8024.3  210.91 -303.43 -185.76 -345.91 
  8076.500 -38.929  8.8310  11.525  10.196 -32.131  8.8310  11.525  10.196  20.000  8024.8  210.88 -303.57 -185.85 -346.08 
  8077.000 -40.731  8.8320  11.275  10.341 -33.935  8.8320  11.275  10.341  20.000  8025.3  210.85 -303.72 -185.94 -346.24 
  8077.500 -40.906  9.3720  10.845  10.306 -34.113  9.3720  10.845  10.306  20.000  8025.7  210.83 -303.87 -186.03 -346.41 
  8078.000 -37.465  9.8750  10.594  10.163 -30.674  9.8750  10.594  10.163  20.000  8026.2  210.80 -304.01 -186.12 -346.57 
  8078.500 -38.724  10.559  10.469  10.235 -31.936  10.559  10.469  10.235  20.000  8026.7  210.77 -304.16 -186.20 -346.74 
  8079.000 -40.709  10.955  10.343  10.452 -33.923  10.955  10.343  10.452  20.000  8027.1  210.74 -304.31 -186.29 -346.90 
  8079.500 -44.137  11.279  10.542  10.848 -37.353  11.279  10.542  10.848  20.000  8027.6  210.72 -304.45 -186.38 -347.07 
  8080.000 -45.757  11.136  10.741  11.496 -38.976  11.136  10.741  11.496  20.000  8028.1  210.69 -304.60 -186.46 -347.24 
  8080.500 -46.294  8.7660  11.065  12.395 -39.515  8.7660  11.065  12.395  20.000  8028.5  210.66 -304.75 -186.55 -347.40 
  8081.000 -45.747  8.7310  10.905  12.395 -38.971  8.7310  10.905  12.395  20.000  8029.0  210.63 -304.90 -186.64 -347.57 
  8081.500 -45.019  8.8040  10.744  12.253 -38.245  8.8040  10.744  12.253  20.000  8029.5  210.61 -305.04 -186.73 -347.73 
  8082.000 -42.122  9.6670  9.6310  11.930 -35.350  9.6670  9.6310  11.930  20.000  8030.0  210.58 -305.19 -186.81 -347.90 
  8082.500 -37.958  11.428  8.6260  11.464 -31.189  11.428  8.6260  11.464  20.000  8030.4  210.55 -305.34 -186.90 -348.06 
  8083.000 -35.423  12.112  8.1240  10.495 -28.656  12.112  8.1240  10.495  20.000  8030.9  210.53 -305.48 -186.99 -348.23 
  8083.500 -32.527  12.723  7.6940  8.9510 -25.763  12.723  7.6940  8.9510  20.000  8031.4  210.50 -305.63 -187.07 -348.40 
  8084.000 -30.896  13.084  6.9400  8.3410 -24.134  13.084  6.9400  8.3410  20.000  8031.8  210.47 -305.78 -187.16 -348.56 
  8084.500 -28.180  13.300  5.8280  7.5160 -21.420  13.300  5.8280  7.5160  20.000  8032.3  210.44 -305.93 -187.25 -348.73 
  8085.000 -25.823  13.301  5.5420  7.0860 -19.066  13.301  5.5420  7.0860  20.000  8032.8  210.42 -306.07 -187.33 -348.89 
  8085.500 -23.649  12.942  5.5420  6.9790 -16.894  12.942  5.5420  6.9790  20.000  8033.2  210.39 -306.22 -187.42 -349.06 
  8086.000 -22.740  12.799  5.7590  6.8720 -15.988  12.799  5.7590  6.8720  20.000  8033.7  210.36 -306.37 -187.51 -349.22 
  8086.500 -22.193  12.657  5.9030  6.8190 -15.443  12.657  5.9030  6.8190  20.000  8034.2  210.34 -306.52 -187.59 -349.39 
  8087.000 -21.826  12.514  6.0840  6.7660 -15.078  12.514  6.0840  6.7660  20.000  8034.7  210.31 -306.66 -187.68 -349.55 
  8087.500 -22.002  12.371  6.3000  6.7670 -15.257  12.371  6.3000  6.7670  20.000  8035.1  210.28 -306.81 -187.77 -349.72 
  8088.000 -22.357  12.192  6.4450  6.8040 -15.614  12.192  6.4450  6.8040  20.000  8035.6  210.25 -306.96 -187.85 -349.88 
  8088.500 -22.895  11.906  6.6970  6.8050 -16.155  11.906  6.6970  6.8050  20.000  8036.1  210.23 -307.11 -187.94 -350.05 
  8089.000 -23.433  11.799  6.9850  6.8420 -16.695  11.799  6.9850  6.8420  20.000  8036.5  210.20 -307.26 -188.02 -350.22 
  8089.500 -24.509  11.656  7.5250  6.9140 -17.773  11.656  7.5250  6.9140  20.000  8037.0  210.17 -307.40 -188.11 -350.38 
  8090.000 -24.957  11.657  8.4240  6.9690 -18.224  11.657  8.4240  6.9690  20.000  8037.5  210.15 -307.55 -188.20 -350.55 
  8090.500 -25.405  11.766  9.8980  7.0240 -18.674  11.766  9.8980  7.0240  20.000  8037.9  210.12 -307.70 -188.28 -350.71 
  8091.000 -26.661  11.946  10.797  7.6350 -19.933  11.946  10.797  7.6350  20.000  8038.4  210.09 -307.85 -188.37 -350.88 
  8091.500 -27.740  12.270  11.804  8.5350 -21.014  12.270  11.804  8.5350  20.000  8038.9  210.06 -307.99 -188.45 -351.04 
  8092.000 -28.460  12.487  12.271  8.9670 -21.736  12.487  12.271  8.9670  20.000  8039.4  210.04 -308.14 -188.54 -351.21 
  8092.500 -30.804  12.703  12.847  9.2550 -24.083  12.703  12.847  9.2550  20.000  8039.8  210.01 -308.29 -188.62 -351.37 
  8093.000 -40.738  12.884  13.207  9.4350 -34.019  12.884  13.207  9.4350  20.000  8040.3  209.98 -308.44 -188.71 -351.54 
  8093.500 -42.901  13.208  13.388  9.5440 -36.184  13.208  13.388  9.5440  20.000  8040.8  209.96 -308.59 -188.79 -351.70 
  8094.000 -46.329  13.353  13.461  9.3650 -39.615  13.353  13.461  9.3650  20.000  8041.2  209.93 -308.74 -188.88 -351.87 
  8094.500 -50.298  12.922  10.947  9.0070 -43.586  12.922  10.947  9.0070  20.000  8041.7  209.90 -308.88 -188.97 -352.03 
  8095.000 -53.367  12.456  10.642  8.5770 -46.658  12.456  10.642  8.5770  20.000  8042.2  209.87 -309.03 -189.05 -352.20 
  8095.500 -59.324  11.128  10.337  7.9310 -52.617  11.128  10.337  7.9310  20.000  8042.6  209.85 -309.18 -189.14 -352.36 
  8096.000 -59.953  10.123  9.1170  7.6090 -53.248  10.123  9.1170  7.6090  20.000  8043.1  209.82 -309.33 -189.22 -352.53 
  8096.500 -60.581  9.8010  8.5440  7.4300 -53.879  9.8010  8.5440  7.4300  20.000  8043.6  209.79 -309.48 -189.31 -352.69 
  8097.000 -58.224  10.197  8.1140  7.1790 -51.524  10.197  8.1140  7.1790  20.000  8044.1  209.77 -309.63 -189.39 -352.86 
