~Version Information
VERS.                     2.0: CWLS log ASCII Standard Version 2.00
WRAP.                      NO: One line per depth step
~Well Information Block
#MNEM.UNIT                               Data Type  Information
#---------                               ---------  -----------
STRT.FT                                   400.0000:
STOP.FT                                  6820.0000:
STEP.FT                                     0.5000:
NULL.                 -999.25                     :
COMP.                                             :COMPANY            
WELL.     SAN EMIDIO A #86-19                     :WELL               
FLD .                                             :FIELD              
CTRY.                                             :COUNTRY            
STAT.                                             :STATE              
LOC .                                             :LOCATION           
UWI .                                             :UNIQUE WELL ID     
SRVC.                                             :Service company    
DATE.                                             :LOG DATE           
~Curve Information
#MNEM.UNIT           API CODE  Curve Description
#---------           --------  -----------------
DEPT.FT                      :   1 DEPTH
SP  .MV                      :   2
AM16.OHMM                    :   3
AO10.OHMM                    :   4
AO19.OHMM                    :   5
SBL .MV                      :   6
RS  .OHMM                    :   7
RM  .OHMM                    :   8
RD  .OHMM                    :   9
DEVI.DEG                     :  10
TVD .FT                      :  11
AZIM.DEG                     :  12
NORT.FT                      :  13
EAST.FT                      :  14
OFFS.FT                      :  15
~A
# ...
  2122.500 -19.888  4.6780  6.9840  9.7530 -12.204  4.6780  6.9840  9.7530  2.1667  2122.3  41.170  13.503  5.9734  13.772 
  2123.000 -20.323  4.5200  6.5740  9.2860 -12.639  4.5200  6.5740  9.2860  2.1667  2122.8  41.085  13.518  5.9858  13.791 
  2123.500 -20.468  4.4510  6.3580  8.7320 -12.785  4.4510  6.3580  8.7320  2.1667  2123.3  41.000  13.532  5.9982  13.810 
  2124.000 -20.650  4.3830  6.1490  8.1210 -12.967  4.3830  6.1490  8.1210  2.1667  2123.8  40.915  13.546  6.0106  13.829 
  2124.500 -20.653  4.2310  6.0060  7.8480 -12.970  4.2310  6.0060  7.8480  2.1667  2124.3  40.830  13.561  6.0230  13.848 
  2125.000 -20.510  4.1520  5.8330  7.6110 -12.827  4.1520  5.8330  7.6110  2.1667  2124.8  40.745  13.575  6.0353  13.866 
  2125.500 -19.648  4.0870  5.7390  7.2440 -11.966  4.0870  5.7390  7.2440  2.1667  2125.3  40.660  13.589  6.0476  13.885 
  2126.000 -19.038  4.0400  5.7390  6.9990 -11.356  4.0400  5.7390  6.9990  2.1667  2125.8  40.575  13.604  6.0599  13.904 
  2126.500 -18.823  3.9930  5.7600  6.8120 -11.141  3.9930  5.7600  6.8120  2.1667  2126.3  40.490  13.618  6.0722  13.923 
  2127.000 -18.591  3.9780  5.8170  6.5890 -10.909  3.9780  5.8170  6.5890  2.1667  2126.8  40.405  13.632  6.0844  13.942 
  2127.500 -18.358  4.0350  5.8530  6.4020 -10.677  4.0350  5.8530  6.4020  2.1667  2127.3  40.320  13.647  6.0967  13.961 
  2128.000 -17.965  4.0780  5.9310  6.2510 -10.284  4.0780  5.9310  6.2510  2.1667  2127.8  40.235  13.661  6.1089  13.980 
  2128.500 -17.751  4.1280  6.0240  6.1210 -10.070  4.1280  6.0240  6.1210  2.1667  2128.3  40.150  13.676  6.1211  13.998 
  2129.000 -17.645  4.2570  6.1030  6.2000 -9.9645  4.2570  6.1030  6.2000  2.1667  2128.8  40.065  13.690  6.1332  14.017 
  2129.500 -17.431  4.3000  6.2320  6.2930 -9.7507  4.3000  6.2320  6.2930  2.1667  2129.3  39.980  13.705  6.1454  14.036 
  2130.000 -17.613  4.3850  6.3680  6.5220 -9.9330  4.3850  6.3680  6.5220  2.1667  2129.8  39.895  13.719  6.1575  14.055 
  2130.500 -18.299  4.4350  6.4970  6.6080 -10.619  4.4350  6.4970  6.6080  2.1667  2130.3  39.810  13.734  6.1696  14.074 
  2131.000 -18.914  4.4850  6.5900  6.7080 -11.234  4.4850  6.5900  6.7080  2.1667  2130.8  39.725  13.748  6.1817  14.092 
  2131.500 -19.600  4.5640  6.6400  6.7870 -11.921  4.5640  6.6400  6.7870  2.1667  2131.3  39.640  13.763  6.1937  14.111 
  2132.000 -19.998  4.6030  6.6750  6.8660 -12.319  4.6030  6.6750  6.8660  2.1667  2131.8  39.555  13.777  6.2058  14.130 
  2132.500 -20.252  4.6420  6.7040  6.9230 -12.573  4.6420  6.7040  6.9230  2.1667  2132.3  39.470  13.792  6.2178  14.149 
  2133.000 -20.218  4.6490  6.6960  6.9220 -12.540  4.6490  6.6960  6.9220  2.1667  2132.8  39.385  13.806  6.2298  14.168 
  2133.500 -20.004  4.6020  6.6820  6.7930 -12.326  4.6020  6.6820  6.7930  2.1667  2133.3  39.300  13.821  6.2418  14.187 
  2134.000 -19.718  4.5550  6.5810  6.6490 -12.040  4.5550  6.5810  6.6490  2.1667  2133.8  39.215  13.836  6.2537  14.205 
  2134.500 -19.485  4.4110  6.3500  6.5050 -11.807  4.4110  6.3500  6.5050  2.1667  2134.3  39.130  13.850  6.2656  14.224 
  2135.000 -19.252  4.2670  6.2210  6.3680 -11.575  4.2670  6.2210  6.3680  2.1667  2134.8  39.045  13.865  6.2776  14.243 
  2135.500 -19.002  4.2230  5.9980  6.2850 -11.325  4.2230  5.9980  6.2850  2.1667  2135.3  38.960  13.880  6.2894  14.262 
  2136.000 -18.752  4.1800  5.7820  6.2020 -11.075  4.1800  5.7820  6.2020  2.1667  2135.8  38.875  13.894  6.3013  14.281 
  2136.500 -18.323  4.1580  5.6310  6.0220 -10.646  4.1580  5.6310  6.0220  2.1667  2136.3  38.790  13.909  6.3131  14.299 
  2137.000 -17.930  4.1360  5.4870  5.9000 -10.254  4.1360  5.4870  5.9000  2.1667  2136.8  38.705  13.924  6.3250  14.318 
  2137.500 -17.787  4.1640  5.3140  5.7630 -10.111  4.1640  5.3140  5.7630  2.1667  2137.3  38.620  13.939  6.3368  14.337 
  2138.000 -17.643  4.1860  5.1120  5.6910 -9.9671  4.1860  5.1120  5.6910  2.1667  2137.8  38.535  13.954  6.3485  14.356 
  2138.500 -17.215  4.2070  4.9610  5.7980 -9.5394  4.2070  4.9610  5.7980  2.1667  2138.3  38.450  13.968  6.3603  14.375 
  2139.000 -17.073  4.2280  5.0040  5.8840 -9.3976  4.2280  5.0040  5.8840  2.1667  2138.8  38.365  13.983  6.3720  14.393 
  2139.500 -16.930  4.2630  5.0390  5.9840 -9.2549  4.2630  5.0390  5.9840  2.1667  2139.3  38.280  13.998  6.3837  14.412 
  2140.000 -16.788  4.2700  5.0750  6.0700 -9.1131  4.2700  5.0750  6.0700  2.1667  2139.8  38.195  14.013  6.3954  14.431 
  2140.500 -16.735  4.2990  5.1110  6.1340 -9.0604  4.2990  5.1110  6.1340  2.1667  2140.3  38.110  14.028  6.4071  14.450 
  2141.000 -16.683  4.3130  5.1460  6.1700 -9.0087  4.3130  5.1460  6.1700  2.1667  2140.8  38.025  14.043  6.4187  14.468 
  2141.500 -16.615  4.3200  5.1670  6.1120 -8.9409  4.3200  5.1670  6.1120  2.1667  2141.3  37.940  14.058  6.4304  14.487 
  2142.000 -16.725  4.3260  5.1740  6.0400 -9.0512  4.3260  5.1740  6.0400  2.1667  2141.8  37.855  14.072  6.4420  14.506 
  2142.500 -16.798  4.3190  5.1880  5.9680 -9.1244  4.3190  5.1880  5.9680  2.1667  2142.3  37.770  14.087  6.4535  14.525 
  2143.000 -16.872  4.3120  5.2020  5.8380 -9.1987  4.3120  5.2020  5.8380  2.1667  2142.8  37.685  14.102  6.4651  14.543 
  2143.500 -16.945  4.2970  5.2450  5.7220 -9.2720  4.2970  5.2450  5.7220  2.1667  2143.3  37.600  14.117  6.4766  14.562 
  2144.000 -17.093  4.2960  5.2590  5.6500 -9.4202  4.2960  5.2590  5.6500  2.1667  2143.8  37.515  14.132  6.4881  14.581 
  2144.500 -17.311  4.3600  5.2940  5.5780 -9.6385  4.3600  5.2940  5.5780  2.1667  2144.3  37.430  14.147  6.4996  14.600 
  2145.000 -17.438  4.5180  5.3300  5.6350 -9.7657  4.5180  5.3300  5.6350  2.1667  2144.8  37.345  14.162  6.5111  14.618 
  2145.500 -17.566  4.6470  5.4300  5.6560 -9.8940  4.6470  5.4300  5.6560  2.1667  2145.3  37.260  14.177  6.5225  14.637 
  2146.000 -18.001  4.8190  5.5230  5.7060 -10.329  4.8190  5.5230  5.7060  2.1667  2145.8  37.175  14.192  6.5340  14.656 
  2146.500 -18.327  4.9480  5.6380  5.7420 -10.656  4.9480  5.6380  5.7420  2.1667  2146.3  37.090  14.208  6.5454  14.675 
  2147.000 -18.581  5.1060  5.7310  5.7990 -10.910  5.1060  5.7310  5.7990  2.1667  2146.8  37.005  14.223  6.5567  14.693 
  2147.500 -19.015  5.3420  5.8170  5.8920 -11.344  5.3420  5.8170  5.8920  2.1667  2147.3  36.920  14.238  6.5681  14.712 
  2148.000 -19.485  5.4710  5.9100  5.9420 -11.814  5.4710  5.9100  5.9420  2.1667  2147.8  36.835  14.253  6.5794  14.731 
  2148.500 -20.099  5.6290  5.9810  5.9920 -12.429  5.6290  5.9810  5.9920  2.1667  2148.3  36.750  14.268  6.5907  14.749 
  2149.000 -21.543  5.7730  6.0310  6.0630 -13.873  5.7730  6.0310  6.0630  2.1667  2148.8  36.665  14.283  6.6020  14.768 
  2149.500 -22.120  5.9160  6.0810  6.1060 -14.450  5.9160  6.0810  6.1060  2.1667  2149.3  36.580  14.298  6.6133  14.787 
  2150.000 -23.023  6.1310  6.1740  6.1490 -15.353  6.1310  6.1740  6.1490  2.1667  2149.8  36.495  14.314  6.6245  14.805 
  2150.500 -24.754  6.2310  6.2530  6.2200 -17.085  6.2310  6.2530  6.2200  2.1667  2150.3  36.410  14.329  6.6358  14.824 
  2151.000 -27.313  6.4390  6.3310  6.2700 -19.644  6.4390  6.3310  6.2700  2.1667  2150.8  36.325  14.344  6.6470  14.843 
  2151.500 -29.332  6.4820  6.3880  6.3200 -21.663  6.4820  6.3880  6.3200  2.1667  2151.3  36.240  14.359  6.6581  14.862 
  2152.000 -30.739  6.5820  6.4670  6.3630 -23.070  6.5820  6.4670  6.3630  2.1667  2151.8  36.155  14.375  6.6693  14.880 
  2152.500 -30.021  6.6460  6.5020  6.4120 -22.353  6.6460  6.5020  6.4120  2.1667  2152.3  36.070  14.390  6.6804  14.899 
  2153.000 -30.023  6.6530  6.5590  6.4520 -22.355  6.6530  6.5590  6.4520  2.1667  2152.8  35.985  14.405  6.6915  14.918 
  2153.500 -30.674  6.6590  6.6020  6.4910 -23.006  6.6590  6.6020  6.4910  2.1667  2153.3  35.900  14.420  6.7026  14.936 
  2154.000 -31.469  6.6370  6.6660  6.5400 -23.801  6.6370  6.6660  6.5400  2.1667  2153.8  35.815  14.436  6.7137  14.955 
  2154.500 -32.191  6.5870  6.6510  6.5620 -24.524  6.5870  6.6510  6.5620  2.1667  2154.3  35.730  14.451  6.7247  14.974 
