~Version Information
VERS.                     2.0: CWLS log ASCII Standard Version 2.00
WRAP.                      NO: One line per depth step
~Well Information Block
#MNEM.UNIT                               Data Type  Information
#---------                               ---------  -----------
STRT.FT                                   330.0000:
STOP.FT                                  8660.0000:
STEP.FT                                     0.5000:
NULL.                 -999.25                     :
COMP.                                             :COMPANY            
WELL.     SAN EMIDIO A #81-29                     :WELL               
FLD .                                             :FIELD              
CTRY.                                             :COUNTRY            
STAT.                                             :STATE              
LOC .                                             :LOCATION           
UWI .                                             :UNIQUE WELL ID     
SRVC.                                             :Service company    
DATE.                                             :LOG DATE           
~Curve Information
#MNEM.UNIT           API CODE  Curve Description
#---------           --------  -----------------
DEPT.FT                      :   1 DEPTH
SP  .MV                      :   2
AM10.OHMM                    :   3
AO10.OHMM                    :   4
AO19.OHMM                    :   5
SBL .MV                      :   6
RS  .OHMM                    :   7
RM  .OHMM                    :   8
RD  .OHMM                    :   9
DEVI.DEG                     :  10
TVD .FT                      :  11
AZIM.DEG                     :  12
NORT.FT                      :  13
EAST.FT                      :  14
OFFS.FT                      :  15
~A
# ...
  1435.000 -24.524  3.9500  4.5240  4.0390 -4.5240  3.9500  4.5240  4.0390  0.3292  1434.9  325.70  14.255  5.9214  14.267 
  1435.500 -24.345  4.0220  4.6320  4.0220 -4.3450  4.0220  4.6320  4.0220  0.3279  1435.4  324.81  14.257  5.9198  14.267 
  1436.000 -25.793  4.2010  4.6680  3.9980 -5.7930  4.2010  4.6680  3.9980  0.3267  1435.9  323.92  14.260  5.9181  14.268 
  1436.500 -26.698  4.2910  4.7040  3.9740 -6.6980  4.2910  4.7040  3.9740  0.3254  1436.4  323.03  14.262  5.9164  14.268 
  1437.000 -28.507  4.3810  4.8110  3.9500 -8.5070  4.3810  4.8110  3.9500  0.3242  1436.9  322.14  14.264  5.9146  14.269 
  1437.500 -29.955  4.5240  4.9190  4.1650 -9.9550  4.5240  4.9190  4.1650  0.3229  1437.4  321.25  14.266  5.9129  14.269 
  1438.000 -31.583  4.6140  5.2060  4.3810 -11.583  4.6140  5.2060  4.3810  0.3217  1437.9  320.36  14.269  5.9111  14.269 
  1438.500 -33.211  4.7040  5.6010  4.5780 -13.211  4.7040  5.6010  4.5780  0.3204  1438.4  319.47  14.271  5.9093  14.269 
  1439.000 -34.840  5.1350  6.0320  4.7760 -14.840  5.1350  6.0320  4.7760  0.3192  1438.9  318.58  14.273  5.9074  14.270 
  1439.500 -36.107  5.8890  6.3910  5.3860 -16.107  5.8890  6.3910  5.3860  0.3179  1439.4  317.69  14.275  5.9056  14.270 
  1440.000 -35.386  6.6070  6.5710  5.7450 -15.386  6.6070  6.5710  5.7450  0.3167  1439.9  316.80  14.277  5.9037  14.270 
  1440.500 -34.845  7.0020  6.6430  6.1040 -14.845  7.0020  6.6430  6.1040  0.3154  1440.4  315.91  14.279  5.9018  14.270 
  1441.000 -34.305  7.8640  6.6250  6.1040 -14.305  7.8640  6.6250  6.1040  0.3142  1440.9  315.02  14.281  5.8998  14.270 
  1441.500 -33.765  8.7250  6.6070  5.9250 -13.765  8.7250  6.6070  5.9250  0.3129  1441.4  314.13  14.283  5.8979  14.270 
  1442.000 -32.682  7.8280  6.2840  5.7450 -12.682  7.8280  6.2840  5.7450  0.3117  1441.9  313.24  14.285  5.8959  14.270 
  1442.500 -31.419  7.2530  6.0680  5.4940 -11.419  7.2530  6.0680  5.4940  0.3104  1442.4  312.35  14.286  5.8939  14.270 
  1443.000 -30.878  6.7500  5.7090  5.1350 -10.878  6.7500  5.7090  5.1350  0.3092  1442.9  311.46  14.288  5.8918  14.269 
  1443.500 -29.434  6.2120  5.4400  4.6680 -9.4340  6.2120  5.4400  4.6680  0.3079  1443.4  310.57  14.290  5.8898  14.269 
  1444.000 -28.713  5.1350  5.1710  4.3810 -8.7130  5.1350  5.1710  4.3810  0.3067  1443.9  309.68  14.292  5.8877  14.269 
  1444.500 -27.450  4.4880  5.0270  4.2370 -7.4500  4.4880  5.0270  4.2370  0.3054  1444.4  308.79  14.293  5.8857  14.269 
  1445.000 -26.548  4.0220  4.9910  4.0930 -6.5480  4.0220  4.9910  4.0930  0.3042  1444.9  307.90  14.295  5.8836  14.268 
  1445.500 -25.827  3.8420  4.9910  3.9140 -5.8270  3.8420  4.9910  3.9140  0.3029  1445.4  307.01  14.297  5.8815  14.268 
  1446.000 -25.106  3.7700  4.9910  3.9500 -5.1060  3.7700  4.9910  3.9500  0.3017  1445.9  306.12  14.298  5.8793  14.268 
  1446.500 -24.746  3.7340  5.0990  3.9860 -4.7460  3.7340  5.0990  3.9860  0.3004  1446.4  305.23  14.300  5.8772  14.267 
  1447.000 -25.833  3.7340  5.2060  4.1110 -5.8330  3.7340  5.2060  4.1110  0.2992  1446.9  304.34  14.301  5.8750  14.267 
  1447.500 -25.473  3.7340  5.3500  4.2370 -5.4730  3.7340  5.3500  4.2370  0.2979  1447.4  303.45  14.303  5.8729  14.266 
  1448.000 -25.113  3.8060  5.6010  4.4340 -5.1130  3.8060  5.6010  4.4340  0.2967  1447.9  302.56  14.304  5.8707  14.266 
  1448.500 -24.211  3.8780  5.8530  4.6320 -4.2110  3.8780  5.8530  4.6320  0.2954  1448.4  301.67  14.305  5.8685  14.265 
  1449.000 -24.575  4.1650  6.3550  4.8470 -4.5750  4.1650  6.3550  4.8470  0.2942  1448.9  300.78  14.307  5.8663  14.264 
  1449.500 -25.842  4.3450  6.4990  4.9910 -5.8420  4.3450  6.4990  4.9910  0.2929  1449.4  299.89  14.308  5.8641  14.264 
  1450.000 -28.916  4.4880  6.8580  4.9550 -8.9160  4.4880  6.8580  4.9550  0.2917  1449.9  299.00  14.309  5.8618  14.263 
  1450.500 -30.725  4.6320  7.3970  4.9190 -10.725  4.6320  7.3970  4.9190  0.2904  1450.4  298.11  14.310  5.8596  14.262 
  1451.000 -32.172  4.6320  7.4330  4.9010 -12.174  4.6320  7.4330  4.9010  0.2892  1450.9  297.22  14.311  5.8574  14.262 
  1451.500 -33.981  4.6320  7.3250  4.8830 -13.984  4.6320  7.3250  4.8830  0.2879  1451.4  296.33  14.313  5.8551  14.261 
  1452.000 -35.067  4.5240  7.1450  4.8470 -15.072  4.5240  7.1450  4.8470  0.2867  1451.9  295.44  14.314  5.8529  14.260 
  1452.500 -36.154  4.4520  6.8940  4.8110 -16.161  4.4520  6.8940  4.8110  0.2854  1452.4  294.55  14.315  5.8506  14.259 
  1453.000 -36.607  4.3810  6.6430  4.8110 -16.616  4.3810  6.6430  4.8110  0.2842  1452.9  293.66  14.316  5.8483  14.258 
  1453.500 -37.061  4.3090  6.4990  4.9370 -17.071  4.3090  6.4990  4.9370  0.2829  1453.4  292.77  14.317  5.8460  14.257 
  1454.000 -38.147  4.2910  6.3200  5.0630 -18.159  4.2910  6.3200  5.0630  0.2817  1453.9  291.88  14.318  5.8438  14.256 
  1454.500 -37.607  4.2730  6.2840  5.1350 -17.621  4.2730  6.2840  5.1350  0.2804  1454.4  290.99  14.318  5.8415  14.255 
  1455.000 -37.247  4.2910  6.3200  5.2060 -17.262  4.2910  6.3200  5.2060  0.2792  1454.9  290.10  14.319  5.8392  14.254 
  1455.500 -37.610  4.3090  6.3380  5.3680 -17.627  4.3090  6.3380  5.3680  0.2779  1455.4  289.21  14.320  5.8369  14.253 
  1456.000 -37.612  4.3810  6.3550  5.5300 -17.631  4.3810  6.3550  5.5300  0.2767  1455.9  288.32  14.321  5.8346  14.252 
  1456.500 -37.614  4.5240  6.4270  5.7630 -17.635  4.5240  6.4270  5.7630  0.2754  1456.4  287.43  14.322  5.8323  14.251 
  1457.000 -37.616  4.7760  6.4990  5.9960 -17.638  4.7760  6.4990  5.9960  0.2742  1456.9  286.54  14.322  5.8300  14.250 
  1457.500 -37.166  4.9190  6.5710  6.2480 -17.190  4.9190  6.5710  6.2480  0.2729  1457.4  285.65  14.323  5.8277  14.249 
  1458.000 -36.716  5.1710  6.6790  6.4630 -16.742  5.1710  6.6790  6.4630  0.2717  1457.9  284.76  14.323  5.8254  14.247 
  1458.500 -37.440  5.3140  6.7500  6.7500 -17.467  5.3140  6.7500  6.7500  0.2704  1458.4  283.87  14.324  5.8231  14.246 
  1459.000 -38.165  5.7810  7.5040  6.8940 -18.194  5.7810  7.5040  6.8940  0.2692  1458.9  282.98  14.325  5.8209  14.245 
  1459.500 -39.613  6.1040  8.1870  7.1450 -19.644  6.1040  8.1870  7.1450  0.2679  1459.4  282.09  14.325  5.8186  14.244 
  1460.000 -40.337  6.4990  8.6540  7.3970 -20.370  6.4990  8.6540  7.3970  0.2667  1459.9  281.20  14.325  5.8163  14.242 
  1460.500 -40.881  6.7860  8.7790  8.5100 -20.915  6.7860  8.7790  8.5100  0.2654  1460.4  280.31  14.326  5.8140  14.241 
  1461.000 -40.160  6.9300  8.9050  8.7610 -20.196  6.9300  8.9050  8.7610  0.2642  1460.9  279.42  14.326  5.8117  14.240 
  1461.500 -40.162  6.9480  9.0130  8.5460 -20.200  6.9480  9.0130  8.5460  0.2629  1461.4  278.53  14.327  5.8095  14.238 
  1462.000 -40.254  6.9660  8.9770  8.3300 -20.293  6.9660  8.9770  8.3300  0.2617  1461.9  277.64  14.327  5.8072  14.237 
  1462.500 -40.346  6.8580  8.7970  8.1150 -20.387  6.8580  8.7970  8.1150  0.2604  1462.4  276.75  14.327  5.8049  14.236 
  1463.000 -41.071  6.5710  8.6890  7.8640 -21.114  6.5710  8.6890  7.8640  0.2592  1462.9  275.86  14.327  5.8027  14.234 
  1463.500 -41.615  6.2120  8.4380  7.6120 -21.660  6.2120  8.4380  7.6120  0.2579  1463.4  274.97  14.328  5.8004  14.233 
  1464.000 -41.436  5.8170  8.1150  7.3970 -21.482  5.8170  8.1150  7.3970  0.2567  1463.9  274.08  14.328  5.7982  14.231 
  1464.500 -41.980  5.6010  7.7920  7.1810 -22.028  5.6010  7.7920  7.1810  0.2554  1464.4  273.19  14.328  5.7960  14.230 
  1465.000 -42.163  5.4040  7.5040  6.6070 -22.213  5.4040  7.5040  6.6070  0.2542  1464.9  272.30  14.328  5.7938  14.228 
  1465.500 -42.345  5.2060  7.3070  6.2480 -22.396  5.2060  7.3070  6.2480  0.2529  1465.4  271.41  14.328  5.7916  14.227 
  1466.000 -42.166  4.7040  7.1100  6.1400 -22.219  4.7040  7.1100  6.1400  0.2517  1465.9  270.52  14.328  5.7894  14.225 
  1466.500 -41.987  4.5060  6.7500  5.7450 -22.042  4.5060  6.7500  5.7450  0.2504  1466.4  269.63  14.328  5.7872  14.224 
  1467.000 -42.351  4.3090  6.2840  5.4940 -22.408  4.3090  6.2840  5.4940  0.2492  1466.9  268.74  14.328  5.7850  14.222 
