~Version Information
VERS.                     2.0: CWLS log ASCII Standard Version 2.00
WRAP.                      NO: One line per depth step
~Well Information Block
#MNEM.UNIT                               Data Type  Information
#---------                               ---------  -----------
STRT.FT                                   330.0000:
STOP.FT                                  8660.0000:
STEP.FT                                     0.5000:
NULL.                 -999.25                     :
COMP.                                             :COMPANY            
WELL.     SAN EMIDIO A #81-29                     :WELL               
FLD .                                             :FIELD              
CTRY.                                             :COUNTRY            
STAT.                                             :STATE              
LOC .                                             :LOCATION           
UWI .                                             :UNIQUE WELL ID     
SRVC.                                             :Service company    
DATE.                                             :LOG DATE           
~Curve Information
#MNEM.UNIT           API CODE  Curve Description
#---------           --------  -----------------
DEPT.FT                      :   1 DEPTH
SP  .MV                      :   2
AM10.OHMM                    :   3
AO10.OHMM                    :   4
AO19.OHMM                    :   5
SBL .MV                      :   6
RS  .OHMM                    :   7
RM  .OHMM                    :   8
RD  .OHMM                    :   9
DEVI.DEG                     :  10
TVD .FT                      :  11
AZIM.DEG                     :  12
NORT.FT                      :  13
EAST.FT                      :  14
OFFS.FT                      :  15
~A
# ...
  7512.500 -54.900  19.777  35.853  33.335 -45.399  19.777  35.853  33.335  17.141  7493.7  217.43 -154.87 -68.914 -158.24 
  7513.000 -55.620  19.866  36.579  41.265 -46.121  19.866  36.579  41.265  17.146  7494.1  217.44 -154.99 -69.004 -158.39 
  7513.500 -56.522  19.955  37.305  47.030 -47.026  19.955  37.305  47.030  17.151  7494.6  217.46 -155.11 -69.094 -158.53 
  7514.000 -57.242  20.044  42.722  53.515 -47.748  20.044  42.722  53.515  17.156  7495.1  217.47 -155.22 -69.183 -158.68 
  7514.500 -58.147  19.699  44.889  60.000 -48.656  19.699  44.889  60.000  17.161  7495.6  217.49 -155.34 -69.273 -158.83 
  7515.000 -59.051  20.427  47.777  68.650 -49.562  20.427  47.777  68.650  17.167  7496.1  217.51 -155.46 -69.363 -158.97 
  7515.500 -62.125  22.955  54.981  74.775 -52.638  22.955  54.981  74.775  17.172  7496.5  217.52 -155.57 -69.453 -159.12 
  7516.000 -63.570  25.482  64.350  78.742 -54.086  25.482  64.350  78.742  17.177  7497.0  217.54 -155.69 -69.543 -159.26 
  7516.500 -64.834  27.290  69.036  85.232 -55.352  27.290  69.036  85.232  17.182  7497.5  217.55 -155.81 -69.633 -159.41 
  7517.000 -65.736  33.056  73.363  89.919 -56.256  33.056  73.363  89.919  17.187  7498.0  217.57 -155.92 -69.723 -159.56 
  7517.500 -65.914  36.303  73.372  93.525 -56.437  36.303  73.372  93.525  17.193  7498.4  217.58 -156.04 -69.813 -159.70 
  7518.000 -66.092  38.476  72.478  91.016 -56.617  38.476  72.478  91.016  17.198  7498.9  217.60 -156.16 -69.903 -159.85 
  7518.500 -65.722  37.406  71.585  88.146 -56.250  37.406  71.585  88.146  17.203  7499.4  217.61 -156.28 -69.994 -160.00 
  7519.000 -65.447  36.335  68.721  82.759 -55.977  36.335  68.721  82.759  17.208  7499.9  217.63 -156.39 -70.084 -160.14 
  7519.500 -65.172  35.439  66.572  78.804 -55.704  35.439  66.572  78.804  17.213  7500.4  217.65 -156.51 -70.174 -160.29 
  7520.000 -65.165  34.543  62.983  70.898 -55.700  34.543  62.983  70.898  17.219  7500.8  217.66 -156.63 -70.265 -160.44 
  7520.500 -65.885  32.758  60.113  58.674 -56.422  32.758  60.113  58.674  17.224  7501.3  217.68 -156.75 -70.355 -160.58 
  7521.000 -66.787  30.609  57.604  56.159 -57.327  30.609  57.604  56.159  17.229  7501.8  217.69 -156.86 -70.446 -160.73 
  7521.500 -67.054  28.819  57.067  51.131 -57.596  28.819  57.067  51.131  17.234  7502.3  217.71 -156.98 -70.536 -160.88 
  7522.000 -67.322  27.748  56.531  47.182 -57.866  27.748  56.531  47.182  17.239  7502.7  217.72 -157.10 -70.627 -161.02 
  7522.500 -67.861  25.958  55.466  43.953 -58.408  25.958  55.466  43.953  17.245  7503.2  217.74 -157.21 -70.718 -161.17 
  7523.000 -68.309  25.248  55.472  41.803 -58.858  25.248  55.472  41.803  17.250  7503.7  217.76 -157.33 -70.809 -161.32 
  7523.500 -68.758  24.537  55.478  39.294 -59.310  24.537  55.478  39.294  17.255  7504.2  217.77 -157.45 -70.899 -161.47 
  7524.000 -68.935  24.186  63.054  38.221 -59.489  24.186  63.054  38.221  17.260  7504.7  217.79 -157.57 -70.990 -161.61 
  7524.500 -69.111  24.195  69.179  37.147 -59.667  24.195  69.179  37.147  17.266  7505.1  217.80 -157.68 -71.081 -161.76 
  7525.000 -69.288  24.204  72.426  37.162 -59.847  24.204  72.426  37.162  17.271  7505.6  217.82 -157.80 -71.172 -161.91 
  7525.500 -69.465  24.030  82.875  38.070 -60.026  24.030  82.875  38.070  17.276  7506.1  217.83 -157.92 -71.263 -162.06 
  7526.000 -69.460  23.856  92.598  38.979 -60.024  23.856  92.598  38.979  17.281  7506.6  217.85 -158.03 -71.355 -162.20 
  7526.500 -68.913  23.871  95.302  40.244 -59.479  23.871  95.302  40.244  17.286  7507.0  217.86 -158.15 -71.446 -162.35 
  7527.000 -68.367  23.880  98.007  41.509 -58.935  23.880  98.007  41.509  17.292  7507.5  217.88 -158.27 -71.537 -162.50 
  7527.500 -67.272  22.810  104.86  45.482 -57.843  22.810  104.86  45.482  17.297  7508.0  217.90 -158.39 -71.628 -162.65 
  7528.000 -66.543  22.099  107.03  47.467 -57.116  22.099  107.03  47.467  17.302  7508.5  217.91 -158.50 -71.720 -162.79 
  7528.500 -65.813  21.388  109.20  49.451 -56.389  21.388  109.20  49.451  17.307  7508.9  217.93 -158.62 -71.811 -162.94 
  7529.000 -65.265  21.397  114.60  56.308 -55.843  21.397  114.60  56.308  17.312  7509.4  217.94 -158.74 -71.903 -163.09 
  7529.500 -65.079  22.486  118.93  59.555 -55.659  22.486  118.93  59.555  17.318  7509.9  217.96 -158.86 -71.994 -163.24 
  7530.000 -64.712  24.653  122.18  61.722 -55.295  24.653  122.18  61.722  17.323  7510.4  217.97 -158.97 -72.086 -163.38 
  7530.500 -64.347  25.382  123.63  64.250 -54.932  25.382  123.63  64.250  17.328  7510.9  217.99 -159.09 -72.177 -163.53 
  7531.000 -63.981  24.848  124.54  64.975 -54.569  24.848  124.54  64.975  17.333  7511.3  218.01 -159.21 -72.269 -163.68 
  7531.500 -62.524  24.315  125.44  65.701 -53.114  24.315  125.44  65.701  17.335  7511.8  218.01 -159.33 -72.361 -163.83 
  7532.000 -60.342  23.250  124.38  64.277 -50.934  23.250  124.38  64.277  17.336  7512.3  218.01 -159.44 -72.453 -163.97 
  7532.500 -58.163  22.896  123.12  63.023 -48.758  22.896  123.12  63.023  17.338  7512.8  218.01 -159.56 -72.544 -164.12 
  7533.000 -56.890  22.542  121.87  61.770 -47.487  22.542  121.87  61.770  17.339  7513.2  218.01 -159.68 -72.636 -164.27 
  7533.500 -54.167  20.398  118.28  59.266 -44.767  20.398  118.28  59.266  17.340  7513.7  218.01 -159.79 -72.728 -164.42 
  7534.000 -51.444  20.047  114.69  56.397 -42.046  20.047  114.69  56.397  17.342  7514.2  218.01 -159.91 -72.820 -164.57 
  7534.500 -49.987  18.224  82.316  54.967 -40.591  18.224  82.316  54.967  17.343  7514.7  218.01 -160.03 -72.911 -164.71 
  7535.000 -49.076  16.401  76.928  53.174 -39.683  16.401  76.928  53.174  17.345  7515.2  218.01 -160.15 -73.003 -164.86 
  7535.500 -48.709  14.819  61.101  51.381 -39.318  14.819  61.101  51.381  17.346  7515.6  218.01 -160.26 -73.095 -165.01 
  7536.000 -48.342  12.805  54.811  49.231 -38.954  12.805  54.811  49.231  17.348  7516.1  218.01 -160.38 -73.187 -165.16 
  7536.500 -48.249  11.690  48.521  47.082 -38.863  11.690  48.521  47.082  17.349  7516.6  218.01 -160.50 -73.279 -165.31 
  7537.000 -48.155  11.511  46.011  46.371 -38.771  11.511  46.011  46.371  17.350  7517.1  218.01 -160.62 -73.370 -165.45 
  7537.500 -48.151  11.404  45.660  44.941 -38.770  11.404  45.660  44.941  17.352  7517.5  218.01 -160.73 -73.462 -165.60 
  7538.000 -48.146  11.422  43.511  44.590 -38.767  11.422  43.511  44.590  17.353  7518.0  218.01 -160.85 -73.554 -165.75 
  7538.500 -48.320  11.441  42.080  43.877 -38.944  11.441  42.080  43.877  17.355  7518.5  218.01 -160.97 -73.646 -165.90 
  7539.000 -48.859  11.658  41.010  43.163 -39.485  11.658  41.010  43.163  17.356  7519.0  218.01 -161.09 -73.738 -166.05 
  7539.500 -49.217  12.667  40.659  42.458 -39.845  12.667  40.659  42.458  17.358  7519.4  218.01 -161.20 -73.830 -166.19 
  7540.000 -50.844  13.100  41.388  46.784 -41.475  13.100  41.388  46.784  17.359  7519.9  218.01 -161.32 -73.921 -166.34 
  7540.500 -52.470  14.792  42.836  50.397 -43.103  14.792  42.836  50.397  17.361  7520.4  218.01 -161.44 -74.013 -166.49 
  7541.000 -53.012  16.988  43.202  51.485 -43.648  16.988  43.202  51.485  17.362  7520.9  218.01 -161.56 -74.105 -166.64 
  7541.500 -56.088  17.709  43.568  51.134 -46.726  17.709  43.568  51.134  17.363  7521.4  218.01 -161.68 -74.197 -166.79 
  7542.000 -58.621  18.321  43.222  50.244 -49.261  18.321  43.222  50.244  17.365  7521.8  218.01 -161.79 -74.289 -166.93 
  7542.500 -59.885  19.330  42.689  49.353 -50.528  19.330  42.689  49.353  17.366  7522.3  218.01 -161.91 -74.381 -167.08 
  7543.000 -60.424  19.979  42.155  49.000 -51.069  19.979  42.155  49.000  17.368  7522.8  218.01 -162.03 -74.473 -167.23 
  7543.500 -60.782  20.642  40.905  48.646 -51.429  20.642  40.905  48.646  17.369  7523.3  218.01 -162.15 -74.565 -167.38 
  7544.000 -60.779  21.306  39.655  47.941 -51.429  21.306  39.655  47.941  17.371  7523.7  218.01 -162.26 -74.657 -167.53 
  7544.500 -60.776  20.235  37.151  47.590 -51.428  20.235  37.151  47.590  17.372  7524.2  218.01 -162.38 -74.748 -167.68 
