~Version Information
VERS.                     2.0: CWLS log ASCII Standard Version 2.00
WRAP.                      NO: One line per depth step
~Well Information Block
#MNEM.UNIT                               Data Type  Information
#---------                               ---------  -----------
STRT.FT                                   400.0000:
STOP.FT                                  6820.0000:
STEP.FT                                     0.5000:
NULL.                 -999.25                     :
COMP.                                             :COMPANY            
WELL.     SAN EMIDIO A #86-19                     :WELL               
FLD .                                             :FIELD              
CTRY.                                             :COUNTRY            
STAT.                                             :STATE              
LOC .                                             :LOCATION           
UWI .                                             :UNIQUE WELL ID     
SRVC.                                             :Service company    
DATE.                                             :LOG DATE           
~Curve Information
#MNEM.UNIT           API CODE  Curve Description
#---------           --------  -----------------
DEPT.FT                      :   1 DEPTH
SP  .MV                      :   2
AM16.OHMM                    :   3
AO10.OHMM                    :   4
AO19.OHMM                    :   5
SBL .MV                      :   6
RS  .OHMM                    :   7
RM  .OHMM                    :   8
RD  .OHMM                    :   9
DEVI.DEG                     :  10
TVD .FT                      :  11
AZIM.DEG                     :  12
NORT.FT                      :  13
EAST.FT                      :  14
OFFS.FT                      :  15
~A
# ...
  2545.000 -45.255  12.696  23.811  12.858 -37.790  12.696  23.811  12.858  1.6375  2544.6  25.545  26.862  13.552  28.577 
  2545.500 -42.914  11.820  24.028  13.052 -35.449  11.820  24.028  13.052  1.6362  2545.1  25.540  26.875  13.558  28.591 
  2546.000 -39.638  10.391  23.740  13.167 -32.173  10.391  23.740  13.167  1.6350  2545.6  25.535  26.888  13.564  28.604 
  2546.500 -36.181  9.5570  23.166  13.246 -28.716  9.5570  23.166  13.246  1.6337  2546.1  25.530  26.901  13.570  28.617 
  2547.000 -33.120  8.7240  22.232  12.908 -25.656  8.7240  22.232  12.908  1.6325  2546.6  25.525  26.914  13.577  28.631 
  2547.500 -29.231  7.5820  20.005  12.046 -21.767  7.5820  20.005  12.046  1.6312  2547.1  25.520  26.926  13.583  28.644 
  2548.000 -25.846  7.1220  18.784  11.385 -18.382  7.1220  18.784  11.385  1.6300  2547.6  25.515  26.939  13.589  28.658 
  2548.500 -24.766  6.8560  19.463  10.351 -17.302  6.8560  19.463  10.351  1.6287  2548.1  25.510  26.952  13.595  28.671 
  2549.000 -24.875  6.8130  16.403  9.6690 -17.412  6.8130  16.403  9.6690  1.6275  2548.6  25.505  26.965  13.601  28.685 
  2549.500 -25.270  6.8710  12.919  9.1590 -17.807  6.8710  12.919  9.1590  1.6262  2549.1  25.500  26.978  13.607  28.698 
  2550.000 -26.315  7.0210  11.633  8.6920 -18.852  7.0210  11.633  8.6920  1.6250  2549.6  25.495  26.990  13.613  28.711 
  2550.500 -29.344  7.1790  10.950  8.5540 -21.882  7.1790  10.950  8.5540  1.6237  2550.1  25.490  27.003  13.619  28.725 
  2551.000 -31.616  7.4870  10.799  8.6900 -24.154  7.4870  10.799  8.6900  1.6225  2550.6  25.485  27.016  13.626  28.738 
  2551.500 -34.393  7.8170  10.812  8.8690 -26.931  7.8170  10.812  8.8690  1.6212  2551.1  25.480  27.029  13.632  28.751 
  2552.000 -36.377  8.1470  10.991  9.0990 -28.915  8.1470  10.991  9.0990  1.6200  2551.5  25.475  27.042  13.638  28.765 
  2552.500 -38.541  8.4620  11.206  9.3420 -31.080  8.4620  11.206  9.3420  1.6187  2552.0  25.470  27.054  13.644  28.778 
  2553.000 -40.453  8.8640  11.557  9.4780 -32.992  8.8640  11.557  9.4780  1.6175  2552.5  25.465  27.067  13.650  28.791 
  2553.500 -41.788  9.1580  11.830  9.7430 -34.327  9.1580  11.830  9.7430  1.6162  2553.0  25.460  27.080  13.656  28.804 
  2554.000 -42.980  9.4440  12.109  10.152 -35.519  9.4440  12.109  10.152  1.6150  2553.5  25.455  27.093  13.662  28.818 
  2554.500 -43.649  9.8460  12.245  10.259 -36.189  9.8460  12.245  10.259  1.6137  2554.0  25.450  27.105  13.668  28.831 
  2555.000 -44.318  10.075  12.568  10.761 -36.858  10.075  12.568  10.761  1.6125  2554.5  25.445  27.118  13.674  28.844 
  2555.500 -45.367  10.426  12.890  11.141 -37.907  10.426  12.890  11.141  1.6112  2555.0  25.440  27.131  13.680  28.858 
  2556.000 -45.911  10.742  13.156  11.507 -38.451  10.742  13.156  11.507  1.6100  2555.5  25.435  27.143  13.686  28.871 
  2556.500 -46.383  10.971  13.309  11.758 -38.924  10.971  13.309  11.758  1.6087  2556.0  25.430  27.156  13.692  28.884 
  2557.000 -46.818  11.243  13.463  12.195 -39.359  11.243  13.463  12.195  1.6075  2556.5  25.425  27.169  13.698  28.897 
  2557.500 -47.073  11.516  13.671  12.539 -39.614  11.516  13.671  12.539  1.6062  2557.0  25.420  27.181  13.704  28.910 
  2558.000 -47.473  11.853  13.756  12.840 -40.014  11.853  13.756  12.840  1.6050  2557.5  25.415  27.194  13.710  28.924 
  2558.500 -47.800  12.175  13.856  13.156 -40.342  12.175  13.856  13.156  1.6037  2558.0  25.410  27.207  13.716  28.937 
  2559.000 -48.164  12.476  13.913  13.457 -40.706  12.476  13.913  13.457  1.6025  2558.5  25.405  27.219  13.722  28.950 
  2559.500 -48.418  12.677  13.970  13.801 -40.960  12.677  13.970  13.801  1.6012  2559.0  25.400  27.232  13.728  28.963 
  2560.000 -48.854  12.841  13.976  14.095 -41.396  12.841  13.976  14.095  1.6000  2559.5  25.395  27.245  13.734  28.976 
  2560.500 -48.983  12.798  13.947  14.454 -41.526  12.798  13.947  14.454  1.5987  2560.0  25.390  27.257  13.740  28.989 
  2561.000 -49.111  12.697  13.903  14.690 -41.654  12.697  13.903  14.690  1.5975  2560.5  25.385  27.270  13.746  29.003 
  2561.500 -49.332  12.473  13.852  14.740 -41.875  12.473  13.852  14.740  1.5962  2561.0  25.380  27.282  13.752  29.016 
  2562.000 -49.120  12.192  13.701  14.653 -41.663  12.192  13.701  14.653  1.5950  2561.5  25.375  27.295  13.758  29.029 
  2562.500 -48.654  11.969  13.549  14.523 -41.198  11.969  13.549  14.523  1.5937  2562.0  25.370  27.307  13.764  29.042 
  2563.000 -47.974  11.789  13.477  14.342 -40.518  11.789  13.477  14.342  1.5925  2562.5  25.365  27.320  13.770  29.055 
  2563.500 -47.580  11.645  13.368  14.155 -40.124  11.645  13.368  14.155  1.5912  2563.0  25.360  27.333  13.776  29.068 
  2564.000 -47.188  11.551  13.231  13.767 -39.732  11.551  13.231  13.767  1.5900  2563.5  25.355  27.345  13.782  29.081 
  2564.500 -46.831  11.428  13.180  13.594 -39.376  11.428  13.180  13.594  1.5887  2564.0  25.350  27.358  13.788  29.094 
  2565.000 -46.690  11.377  13.079  13.269 -39.235  11.377  13.079  13.269  1.5875  2564.5  25.345  27.370  13.794  29.107 
  2565.500 -46.838  11.326  12.992  13.053 -39.383  11.326  12.992  13.053  1.5862  2565.0  25.340  27.383  13.800  29.120 
  2566.000 -47.274  11.462  12.963  12.801 -39.820  11.462  12.963  12.801  1.5850  2565.5  25.335  27.395  13.806  29.133 
  2566.500 -47.817  11.619  13.020  12.549 -40.363  11.619  13.020  12.549  1.5837  2566.0  25.330  27.408  13.811  29.146 
  2567.000 -48.289  11.791  13.034  12.362 -40.835  11.791  13.034  12.362  1.5825  2566.5  25.325  27.420  13.817  29.159 
  2567.500 -48.651  11.948  13.191  12.300 -41.197  11.948  13.191  12.300  1.5812  2567.0  25.320  27.433  13.823  29.172 
  2568.000 -49.159  12.048  13.844  12.239 -41.706  12.048  13.844  12.239  1.5800  2567.5  25.315  27.445  13.829  29.185 
  2568.500 -49.739  12.198  14.253  12.101 -42.286  12.198  14.253  12.101  1.5787  2568.0  25.310  27.457  13.835  29.198 
  2569.000 -49.994  12.334  14.525  12.065 -42.541  12.334  14.525  12.065  1.5775  2568.5  25.305  27.470  13.841  29.211 
  2569.500 -50.285  12.427  14.977  12.007 -42.832  12.427  14.977  12.007  1.5762  2569.0  25.300  27.482  13.847  29.224 
  2570.000 -50.325  12.498  15.486  11.981 -42.873  12.498  15.486  11.981  1.5750  2569.5  25.295  27.495  13.853  29.237 
  2570.500 -50.309  12.526  15.910  11.955 -42.857  12.526  15.910  11.955  1.5737  2570.0  25.290  27.507  13.859  29.250 
  2571.000 -50.294  12.518  16.225  11.919 -42.842  12.518  16.225  11.919  1.5725  2570.5  25.285  27.520  13.864  29.263 
  2571.500 -50.263  12.460  16.390  11.947 -42.811  12.460  16.390  11.947  1.5712  2571.0  25.280  27.532  13.870  29.276 
  2572.000 -50.195  12.244  16.554  12.046 -42.744  12.244  16.554  12.046  1.5700  2571.5  25.275  27.544  13.876  29.289 
  2572.500 -50.054  11.949  16.625  12.139 -42.603  11.949  16.625  12.139  1.5687  2572.0  25.270  27.557  13.882  29.302 
  2573.000 -49.732  11.683  16.689  12.167 -42.281  11.683  16.689  12.167  1.5675  2572.5  25.265  27.569  13.888  29.314 
  2573.500 -49.196  11.373  16.566  11.887 -41.745  11.373  16.566  11.887  1.5662  2573.0  25.260  27.581  13.894  29.327 
  2574.000 -48.371  10.963  16.358  11.541 -40.921  10.963  16.358  11.541  1.5650  2573.5  25.255  27.594  13.899  29.340 
  2574.500 -48.013  10.538  16.055  11.325 -40.563  10.538  16.055  11.325  1.5637  2574.0  25.250  27.606  13.905  29.353 
  2575.000 -47.405  10.071  15.724  11.109 -39.955  10.071  15.724  11.109  1.5625  2574.5  25.245  27.619  13.911  29.366 
  2575.500 -46.903  9.8480  15.386  10.936 -39.453  9.8480  15.386  10.936  1.5612  2575.0  25.240  27.631  13.917  29.379 
  2576.000 -46.474  9.6310  15.062  10.511 -39.025  9.6310  15.062  10.511  1.5600  2575.5  25.235  27.643  13.923  29.392 
  2576.500 -45.865  9.4370  14.559  10.058 -38.416  9.4370  14.559  10.058  1.5587  2576.0  25.230  27.655  13.929  29.404 
  2577.000 -45.616  9.5370  13.990  9.6770 -38.167  9.5370  13.990  9.6770  1.5575  2576.5  25.225  27.668  13.934  29.417 
