~Version Information
VERS.                     2.0: CWLS log ASCII Standard Version 2.00
WRAP.                      NO: One line per depth step
~Well Information Block
#MNEM.UNIT                               Data Type  Information
#---------                               ---------  -----------
STRT.FT                                   330.0000:
STOP.FT                                  8660.0000:
STEP.FT                                     0.5000:
NULL.                 -999.25                     :
COMP.                                             :COMPANY            
WELL.     SAN EMIDIO A #81-29                     :WELL               
FLD .                                             :FIELD              
CTRY.                                             :COUNTRY            
STAT.                                             :STATE              
LOC .                                             :LOCATION           
UWI .                                             :UNIQUE WELL ID     
SRVC.                                             :Service company    
DATE.                                             :LOG DATE           
~Curve Information
#MNEM.UNIT           API CODE  Curve Description
#---------           --------  -----------------
DEPT.FT                      :   1 DEPTH
SP  .MV                      :   2
AM10.OHMM                    :   3
AO10.OHMM                    :   4
AO19.OHMM                    :   5
SBL .MV                      :   6
RS  .OHMM                    :   7
RM  .OHMM                    :   8
RD  .OHMM                    :   9
DEVI.DEG                     :  10
TVD .FT                      :  11
AZIM.DEG                     :  12
NORT.FT                      :  13
EAST.FT                      :  14
OFFS.FT                      :  15
~A
# ...
  1987.500 -60.587  11.423  12.249  8.2630 -42.430  11.423  12.249  8.2630  0.4167  1987.4  106.87  13.053  5.4482  13.083 
  1988.000 -59.501  10.884  12.410  7.7960 -41.345  10.884  12.410  7.7960  0.4167  1987.9  106.76  13.052  5.4517  13.084 
  1988.500 -59.048  10.561  12.571  7.5090 -40.894  10.561  12.571  7.5090  0.4167  1988.4  106.64  13.051  5.4552  13.086 
  1989.000 -58.594  10.130  12.859  7.1850 -40.442  10.130  12.859  7.1850  0.4167  1988.9  106.53  13.050  5.4587  13.088 
  1989.500 -56.966  9.8780  13.074  6.9700 -38.816  9.8780  13.074  6.9700  0.4167  1989.4  106.41  13.049  5.4622  13.090 
  1990.000 -55.518  9.8600  13.289  6.7540 -37.369  9.8600  13.289  6.7540  0.4167  1989.9  106.30  13.048  5.4657  13.091 
  1990.500 -55.335  9.8420  14.187  6.4670 -37.188  9.8420  14.187  6.4670  0.4167  1990.4  106.18  13.047  5.4692  13.093 
  1991.000 -56.237  10.703  15.694  6.3590 -38.092  10.703  15.694  6.3590  0.4167  1990.9  106.07  13.046  5.4727  13.095 
  1991.500 -57.049  11.206  16.484  6.5380 -38.905  11.206  16.484  6.5380  0.4167  1991.4  105.95  13.045  5.4762  13.097 
  1992.000 -57.860  11.439  17.346  6.7530 -39.718  11.439  17.346  6.7530  0.4167  1991.9  105.84  13.044  5.4797  13.098 
  1992.500 -60.208  11.672  17.776  6.9330 -42.068  11.672  17.776  6.9330  0.4167  1992.4  105.72  13.043  5.4832  13.100 
  1993.000 -61.471  11.959  18.171  7.0580 -43.333  11.959  18.171  7.0580  0.4167  1992.9  105.61  13.042  5.4867  13.102 
  1993.500 -62.192  12.067  18.351  7.1840 -44.055  12.067  18.351  7.1840  0.4167  1993.4  105.49  13.041  5.4902  13.104 
  1994.000 -62.010  11.923  18.530  7.3990 -43.875  11.923  18.530  7.3990  0.4167  1993.9  105.38  13.040  5.4937  13.105 
  1994.500 -61.827  11.779  19.176  7.6140 -43.694  11.779  19.176  7.6140  0.4167  1994.4  105.26  13.039  5.4972  13.107 
  1995.000 -60.922  11.636  19.284  7.8110 -42.790  11.636  19.284  7.8110  0.4167  1994.9  105.15  13.038  5.5007  13.109 
  1995.500 -60.016  11.420  19.445  8.0090 -41.886  11.420  19.445  8.0090  0.4167  1995.4  105.03  13.037  5.5042  13.111 
  1996.000 -59.834  11.348  19.606  8.4750 -41.706  11.348  19.606  8.4750  0.4167  1995.9  104.92  13.036  5.5077  13.113 
  1996.500 -61.458  11.671  19.750  9.1570 -43.332  11.671  19.750  9.1570  0.4167  1996.4  104.80  13.036  5.5112  13.115 
  1997.000 -62.902  12.030  21.370  9.8390 -44.777  12.030  21.370  9.8390  0.4167  1996.9  104.69  13.035  5.5147  13.116 
  1997.500 -64.527  12.245  22.989  10.378 -46.404  12.245  22.989  10.378  0.4167  1997.4  104.57  13.034  5.5183  13.118 
  1998.000 -64.796  12.568  24.065  11.778 -46.675  12.568  24.065  11.778  0.4167  1997.9  104.46  13.033  5.5218  13.120 
  1998.500 -65.066  12.819  24.422  12.281 -46.946  12.819  24.422  12.281  0.4167  1998.4  104.34  13.032  5.5253  13.122 
  1999.000 -65.335  13.070  25.497  13.214 -47.217  13.070  25.497  13.214  0.4167  1998.9  104.23  13.031  5.5288  13.124 
  1999.500 -65.604  13.429  25.855  13.681 -47.488  13.429  25.855  13.681  0.4167  1999.4  104.11  13.030  5.5324  13.126 
  2000.000 -64.699  14.291  26.571  14.075 -46.585  14.291  26.571  14.075  0.4167  1999.9  104.00  13.029  5.5359  13.128 
  2000.500 -64.470  14.959  25.802  15.281 -46.357  14.959  25.802  15.281  0.4167  2000.4  103.94  13.028  5.5394  13.129 
  2001.000 -64.242  15.626  26.693  16.487 -46.131  15.626  26.693  16.487  0.4167  2000.9  103.88  13.028  5.5429  13.131 
  2001.500 -64.014  15.506  27.584  17.419 -45.905  15.506  27.584  17.419  0.4167  2001.4  103.82  13.027  5.5465  13.133 
  2002.000 -63.786  15.386  28.651  17.849 -45.678  15.386  28.651  17.849  0.4167  2001.9  103.76  13.026  5.5500  13.135 
  2002.500 -63.557  15.266  29.362  18.279 -45.451  15.266  29.362  18.279  0.4167  2002.4  103.70  13.025  5.5535  13.137 
  2003.000 -63.329  15.122  30.432  18.923 -45.225  15.122  30.432  18.923  0.4167  2002.9  103.64  13.024  5.5571  13.139 
  2003.500 -63.101  15.032  31.144  19.210 -44.999  15.032  31.144  19.210  0.4167  2003.4  103.58  13.023  5.5606  13.141 
  2004.000 -62.872  14.942  31.855  19.676 -44.771  14.942  31.855  19.676  0.4167  2003.9  103.52  13.022  5.5641  13.143 
  2004.500 -62.644  14.834  32.208  19.962 -44.545  14.834  32.208  19.962  0.4167  2004.4  103.46  13.021  5.5677  13.145 
  2005.000 -62.416  14.618  32.919  21.083 -44.319  14.618  32.919  21.083  0.4167  2004.9  103.40  13.021  5.5712  13.146 
  2005.500 -62.187  14.438  33.272  22.204 -44.091  14.438  33.272  22.204  0.4167  2005.4  103.34  13.020  5.5748  13.148 
  2006.000 -60.383  14.259  33.448  22.558 -42.289  14.259  33.448  22.558  0.4167  2005.9  103.28  13.019  5.5783  13.150 
  2006.500 -59.662  14.115  33.623  21.840 -41.570  14.115  33.623  21.840  0.4167  2006.4  103.22  13.018  5.5818  13.152 
  2007.000 -57.857  13.899  33.615  21.121 -39.767  13.899  33.615  21.121  0.4167  2006.9  103.16  13.017  5.5854  13.154 
  2007.500 -54.967  13.648  31.817  20.761 -36.878  13.648  31.817  20.761  0.4167  2007.4  103.10  13.017  5.5889  13.156 
  2008.000 -52.078  13.038  31.095  20.401 -33.991  13.038  31.095  20.401  0.4167  2007.9  103.04  13.016  5.5925  13.158 
  2008.500 -50.092  10.708  30.014  19.853 -32.007  10.708  30.014  19.853  0.4167  2008.4  102.98  13.015  5.5960  13.160 
  2009.000 -48.648  7.9470  28.575  18.133 -30.564  7.9470  28.575  18.133  0.4167  2008.9  102.92  13.014  5.5995  13.162 
  2009.500 -46.481  7.6240  26.420  17.165 -28.399  7.6240  26.420  17.165  0.4167  2009.4  102.86  13.013  5.6031  13.164 
  2010.000 -44.856  7.3010  25.339  15.946 -26.776  7.3010  25.339  15.946  0.4167  2009.9  102.80  13.012  5.6066  13.166 
  2010.500 -43.051  6.4760  22.466  14.225 -24.973  6.4760  22.466  14.225  0.4167  2010.4  102.74  13.012  5.6102  13.168 
  2011.000 -41.607  5.6870  21.066  13.795 -23.530  5.6870  21.066  13.795  0.4167  2010.9  102.68  13.011  5.6137  13.170 
  2011.500 -40.344  5.4900  19.665  13.401 -22.269  5.4900  19.665  13.401  0.4167  2011.4  102.62  13.010  5.6173  13.172 
  2012.000 -38.539  5.2920  17.908  12.863 -20.466  5.2920  17.908  12.863  0.4167  2011.9  102.56  13.009  5.6208  13.173 
  2012.500 -36.372  4.4670  16.044  12.146 -18.301  4.4670  16.044  12.146  0.4167  2012.4  102.50  13.008  5.6244  13.175 
  2013.000 -35.830  4.2870  13.964  11.357 -17.760  4.2870  13.964  11.357  0.4167  2012.9  102.44  13.008  5.6279  13.177 
  2013.500 -36.918  4.1430  13.534  10.282 -18.850  4.1430  13.534  10.282  0.4167  2013.4  102.38  13.007  5.6315  13.179 
  2014.000 -37.642  4.0710  13.103  10.228 -19.576  4.0710  13.103  10.228  0.4167  2013.9  102.32  13.006  5.6350  13.181 
  2014.500 -38.548  3.9630  12.672  10.174 -20.483  3.9630  12.672  10.174  0.4167  2014.4  102.26  13.005  5.6386  13.183 
  2015.000 -39.272  3.9620  12.349  10.281 -21.209  3.9620  12.349  10.281  0.4167  2014.9  102.20  13.005  5.6421  13.185 
  2015.500 -36.925  3.9620  11.919  10.388 -18.864  3.9620  11.919  10.388  0.4167  2015.4  102.14  13.004  5.6457  13.187 
  2016.000 -35.300  3.9610  11.811  10.532 -17.241  3.9610  11.811  10.532  0.4167  2015.9  102.08  13.003  5.6493  13.189 
  2016.500 -34.758  3.9790  11.380  10.657 -16.700  3.9790  11.380  10.657  0.4167  2016.4  102.02  13.002  5.6528  13.191 
  2017.000 -33.857  3.9960  11.236  10.782 -15.801  3.9960  11.236  10.782  0.4167  2016.9  101.96  13.002  5.6564  13.193 
  2017.500 -35.486  3.9950  11.343  11.212 -17.432  3.9950  11.343  11.212  0.4167  2017.4  101.90  13.001  5.6599  13.195 
  2018.000 -36.753  4.0310  11.450  11.535 -18.700  4.0310  11.450  11.535  0.4167  2017.9  101.84  13.000  5.6635  13.197 
  2018.500 -38.923  4.0660  11.951  11.857 -20.872  4.0660  11.951  11.857  0.4167  2018.4  101.78  12.999  5.6670  13.199 
  2019.000 -43.082  4.1910  12.237  12.395 -25.033  4.1910  12.237  12.395  0.4167  2018.9  101.72  12.999  5.6706  13.201 
  2019.500 -47.963  4.3160  12.488  13.577 -29.916  4.3160  12.488  13.577  0.4167  2019.4  101.66  12.998  5.6742  13.203 
