~Version Information
VERS.                     2.0: CWLS log ASCII Standard Version 2.00
WRAP.                      NO: One line per depth step
~Well Information Block
#MNEM.UNIT                               Data Type  Information
#---------                               ---------  -----------
STRT.FT                                    20.0000:
STOP.FT                                  4800.0000:
STEP.FT                                     0.5000:
NULL.                 -999.25                     :
COMP.                                             :COMPANY            
WELL.     SAN EMIDIO C-1                          :WELL               
FLD .                                             :FIELD              
CTRY.                                             :COUNTRY            
STAT.                                             :STATE              
LOC .                                             :LOCATION           
UWI .                                             :UNIQUE WELL ID     
SRVC.                                             :Service company    
DATE.                                             :LOG DATE           
~Curve Information
#MNEM.UNIT           API CODE  Curve Description
#---------           --------  -----------------
DEPT.FT                      :   1 DEPTH
SP  .MV                      :   2
RESI.OHMM                    :   3
SBL .MV                      :   4
RS  .OHMM                    :   5
~A
# ...
  3205.000 -1.3240  11.414 -4.5537  11.414 
  3205.500 -1.2250  11.238 -4.4541  11.238 
  3206.000 -1.2960  10.776 -4.5246  10.776 
  3206.500 -1.3660  10.172 -4.5940  10.172 
  3207.000 -1.8350  9.0680 -5.0624  9.0680 
  3207.500 -2.3050  8.0710 -5.5319  8.0710 
  3208.000 -3.3730  6.7000 -6.5993  6.7000 
  3208.500 -4.4100  4.6340 -7.6358  4.6340 
  3209.000 -5.6920  3.6010 -8.9172  3.6010 
  3209.500 -7.0060  3.1040 -10.231  3.1040 
  3210.000 -7.6130  2.3750 -10.837  2.3750 
  3210.500 -3.8320  2.2340 -7.0556  2.2340 
  3211.000 -2.9050  2.5750 -6.1280  2.5750 
  3211.500 -2.6840  2.7820 -5.9065  2.7820 
  3212.000 -2.5240  2.9890 -5.7459  2.9890 
  3212.500 -3.8520  3.4730 -7.0734  3.4730 
  3213.000 -5.1810  2.8680 -8.4018  2.8680 
  3213.500 -6.9090  2.6210 -10.129  2.6210 
  3214.000 -8.6360  2.5780 -11.856  2.5780 
  3214.500 -10.901  2.5360 -14.120  2.5360 
  3215.000 -12.798  2.6620 -16.017  2.6620 
  3215.500 -14.019  6.1590 -17.237  6.1590 
  3216.000 -17.419  6.6340 -20.636  6.6340 
  3216.500 -19.991  7.1080 -23.208  7.1080 
  3217.000 -20.813  8.3580 -24.029  8.3580 
  3217.500 -21.359  9.0200 -24.575  9.0200 
  3218.000 -21.230  9.6280 -24.445  9.6280 
  3218.500 -19.781  10.379 -22.996  10.379 
  3219.000 -14.128  10.952 -17.342  10.952 
  3219.500 -5.7430  11.444 -8.9566  11.444 
  3220.000 -6.9030  11.937 -10.116  11.937 
  3220.500 -7.9710  12.491 -11.184  12.491 
  3221.000 -9.0380  12.404 -12.250  12.404 
  3221.500 -11.027  11.657 -14.238  11.657 
  3222.000 -10.008  9.8580 -13.219  9.8580 
  3222.500 -6.8100  7.9160 -10.020  7.9160 
  3223.000 -6.0050  5.6890 -9.2147  5.6890 
  3223.500 -5.2010  4.9420 -8.4102  4.9420 
  3224.000 -5.1340  4.1060 -8.3426  4.1060 
  3224.500 -4.2370  3.5730 -7.4451  3.5730 
  3225.000 -1.0390  3.2630 -4.2465  3.2630 
  3225.500  0.3790  2.9530 -2.8280  2.9530 
  3226.000 -2.3460  2.1350 -5.5524  2.1350 
  3226.500 -4.9790  1.8160 -8.1849  1.8160 
  3227.000 -7.2740  1.2110 -10.479  1.2110 
  3227.500 -8.7720  0.8920 -11.977  0.8920 
  3228.000 -6.0960  1.4650 -9.3002  1.4650 
  3228.500 -3.8180  2.0380 -7.0217  2.0380 
  3229.000 -1.9400  3.1090 -5.1431  3.1090 
  3229.500 -1.1970  3.4860 -4.3995  3.4860 
  3230.000 -0.6070  3.6840 -3.8090  3.6840 
  3230.500 -1.2760  3.6860 -4.4774  3.6860 
  3231.000 -1.9440  3.5900 -5.1449  3.5900 
  3231.500 -7.5240  3.4940 -10.724  3.4940 
  3232.000 -9.6050  2.6040 -12.805  2.6040 
  3232.500 -11.992  2.0350 -15.191  2.0350 
  3233.000 -14.349  2.0730 -17.548  2.0730 
  3233.500 -13.054  5.0890 -16.252  5.0890 
  3234.000 -12.740  6.5530 -15.938  6.5530 
  3234.500 -12.305  7.4280 -15.502  7.4280 
  3235.000 -12.175  7.3590 -15.371  7.3590 
  3235.500 -13.519  7.3430 -16.715  7.3430 
  3236.000 -15.201  7.3280 -18.396  7.3280 
  3236.500 -16.545  8.4350 -19.740  8.4350 
  3237.000 -17.613  9.2750 -20.807  9.2750 
  3237.500 -18.312  10.008 -21.506  10.008 
  3238.000 -14.423  10.616 -17.616  10.616 
  3238.500 -10.534  10.806 -13.727  10.806 
  3239.000 -5.5870  10.995 -8.7790  10.995 
  3239.500 -3.0650  10.390 -6.2565  10.390 
  3240.000 -2.8440  8.4660 -6.0349  8.4660 
  3240.500 -2.8830  4.6350 -6.0734  4.6350 
  3241.000 -2.9230  3.2990 -6.1128  3.2990 
  3241.500 -2.5170  2.4450 -5.7063  2.4450 
  3242.000 -2.1120  2.2510 -5.3007  2.2510 
  3242.500 -1.3390  2.2440 -4.5272  2.2440 
  3243.000 -1.0250  2.2370 -4.2126  2.2370 
  3243.500 -0.7730  2.8630 -3.9601  2.8630 
  3244.000 -0.5520  3.4000 -3.7385  3.4000 
  3244.500 -0.6690  3.2770 -3.8549  3.2770 
  3245.000 -2.0130  3.1540 -5.1984  3.1540 
  3245.500 -4.4000  2.9870 -7.5848  2.9870 
  3246.000 -6.8490  2.8200 -10.033  2.8200 
  3246.500 -9.6350  2.8040 -12.819  2.8040 
  3247.000 -10.841  3.0020 -14.024  3.0020 
  3247.500 -12.047  3.3250 -15.230  3.3250 
  3248.000 -14.742  4.2000 -17.924  4.2000 
  3248.500 -15.901  5.2540 -19.083  5.2540 
  3249.000 -17.246  6.0230 -20.427  6.0230 
  3249.500 -17.730  6.5780 -20.910  6.5780 
  3250.000  0.1070  6.6330 -3.0729  6.6330 
  3250.500  0.2560  6.0080 -2.9233  6.0080 
  3251.000 -1.1290  5.4000 -4.3077  5.4000 
  3251.500 -2.8520  4.1860 -6.0302  4.1860 
  3252.000 -6.6610  3.5250 -9.8386  3.5250 
  3252.500 -9.7650  2.7210 -12.942  2.7210 
  3253.000 -12.225  2.3900 -15.402  2.3900 
  3253.500 -13.487  2.0590 -16.663  2.0590 
  3254.000 -15.793  1.9140 -18.968  1.9140 
  3254.500 -17.270  2.6170 -20.445  2.6170 
  3255.000 -2.9730  3.3200 -6.1473  3.3200 
  3255.500 -0.9820  4.4600 -4.1558  4.4600 
  3256.000 -0.9860  5.0290 -4.1592  5.0290 
  3256.500 -1.4510  4.7780 -4.6237  4.7780 
  3257.000 -2.3750  4.5270 -5.5471  4.5270 
  3257.500 -4.0210  4.1160 -7.1926  4.1160 
  3258.000 -5.6670  3.6330 -8.8380  3.6330 
  3258.500 -7.3590  3.3810 -10.529  3.3810 
  3259.000 -9.0510  4.2180 -12.221  4.2180 
  3259.500 -11.664  8.8890 -14.833  8.8890 
  3260.000 -13.940  10.421 -17.109  10.421 
  3260.500 -17.105  11.881 -20.273  11.881 
  3261.000 -23.001  12.397 -26.169  12.397 
  3261.500 -25.307  12.913 -28.474  12.913 
  3262.000 -22.304  15.140 -25.471  15.140 
  3262.500 -19.300  16.459 -22.466  16.459 
  3263.000 -17.616  17.474 -20.781  17.474 
  3263.500 -17.437  15.796 -20.602  15.796 
  3264.000 -17.870  14.332 -21.034  14.332 
  3264.500 -19.808  13.261 -22.972  13.261 
  3265.000 -25.091  12.404 -28.254  12.404 
  3265.500 -26.906  13.330 -30.069  13.330 
  3266.000 -27.600  16.377 -30.762  16.377 
  3266.500 -28.294  19.033 -31.456  19.033 
  3267.000 -29.435  20.173 -32.596  20.173 
  3267.500 -28.273  20.100 -31.433  20.100 
  3268.000 -24.502  19.840 -27.662  19.840 
  3268.500 -17.601  19.580 -20.760  19.580 
  3269.000 -7.8150  17.813 -10.974  17.813 
  3269.500 -3.9820  14.709 -7.1403  14.709 
  3270.000 -2.8510  11.783 -6.0087  11.783 
  3270.500 -1.7190  10.427 -4.8762  10.427 
  3271.000 -1.6930  8.3740 -4.8496  8.3740 
  3271.500 -1.8810  7.0890 -5.0371  7.0890 
  3272.000 -2.0700  6.1600 -5.2255  6.1600 
  3272.500 -2.5030  5.2320 -5.6580  5.2320 
  3273.000 -2.7840  3.8040 -5.9384  3.8040 
  3273.500 -2.7420  2.6610 -5.8958  2.6610 
  3274.000 -2.7000  1.9290 -5.8533  1.9290 
  3274.500 -2.4280  0.9640 -5.5807  0.9640 
  3275.000 -2.0640  1.0700 -5.2162  1.0700 
  3275.500 -1.7610  1.4790 -4.9126  1.4790 
  3276.000 -1.5200  1.9940 -4.6711  1.9940 
  3276.500 -1.4630  2.7950 -4.6135  2.7950 
  3277.000 -2.1730  3.4180 -5.3230  3.4180 
  3277.500 -3.4040  4.0410 -6.5534  4.0410 
  3278.000 -4.8510  4.2000 -7.9999  4.2000 
  3278.500 -8.1080  4.3590 -11.256  4.3590 
  3279.000 -11.611  4.4290 -14.759  4.4290 
  3279.500 -12.720  4.4990 -15.867  4.4990 
  3280.000 -13.828  4.6930 -16.975  4.6930 
  3280.500 -13.986  5.0930 -17.132  5.0930 
  3281.000 -14.143  5.4930 -17.289  5.4930 
  3281.500 -14.210  6.3560 -17.355  6.3560 
  3282.000 -14.214  7.2200 -17.358  7.2200 
  3282.500 -14.279  7.6820 -17.423  7.6820 
  3283.000 -15.388  8.1440 -18.531  8.1440 
  3283.500 -16.558  8.0890 -19.701  8.0890 
  3284.000 -17.452  8.0340 -20.594  8.0340 
  3284.500 -18.347  8.0510 -21.489  8.0510 
  3285.000 -16.939  8.5220 -20.080  8.5220 
  3285.500 -16.022  8.9930 -19.163  8.9930 
  3286.000 -16.563  9.4640 -19.703  9.4640 
  3286.500 -17.104  9.9350 -20.243  9.9350 
  3287.000 -18.521  10.201 -21.660  10.201 
  3287.500 -19.231  10.396 -22.369  10.396 
  3288.000 -19.419  10.591 -22.557  10.591 
  3288.500 -19.208  11.623 -22.345  11.623 
  3289.000 -17.340  12.852 -20.477  12.852 
  3289.500 -9.4880  13.172 -12.624  13.172 
  3290.000 -4.6740  13.135 -7.8096  13.135 
  3290.500 -4.8770  12.028 -8.0120  12.028 
  3291.000 -5.0810  9.6190 -8.2155  9.6190 
  3291.500 -8.5840  8.5300 -11.718  8.5300 
  3292.000 -10.491  7.6190 -13.624  7.6190 
  3292.500 -11.661  6.5120 -14.794  6.5120 
  3293.000 -11.819  5.8330 -14.951  5.8330 
  3293.500 -10.534  5.3060 -13.666  5.3060 
  3294.000 -6.5790  4.7780 -9.7102  4.7780 
  3294.500 -2.8700  3.7250 -6.0006  3.7250 
  3295.000 -2.2910  8.0030 -5.4210  8.0030 
  3295.500 -2.0030  9.2500 -5.1325  9.2500 
