~Version Information
VERS.                     2.0: CWLS log ASCII Standard Version 2.00
WRAP.                      NO: One line per depth step
~Well Information Block
#MNEM.UNIT                               Data Type  Information
#---------                               ---------  -----------
STRT.FT                                    20.0000:
STOP.FT                                  4800.0000:
STEP.FT                                     0.5000:
NULL.                 -999.25                     :
COMP.                                             :COMPANY            
WELL.     SAN EMIDIO C-1                          :WELL               
FLD .                                             :FIELD              
CTRY.                                             :COUNTRY            
STAT.                                             :STATE              
LOC .                                             :LOCATION           
UWI .                                             :UNIQUE WELL ID     
SRVC.                                             :Service company    
DATE.                                             :LOG DATE           
~Curve Information
#MNEM.UNIT           API CODE  Curve Description
#---------           --------  -----------------
DEPT.FT                      :   1 DEPTH
SP  .MV                      :   2
RESI.OHMM                    :   3
SBL .MV                      :   4
RS  .OHMM                    :   5
~A
# ...
   930.000 -16.628  20.224 -16.628  20.224 
   930.500 -16.449  19.651 -16.449  19.651 
   931.000 -16.146  18.557 -16.146  18.557 
   931.500 -15.228  17.483 -15.228  17.483 
   932.000 -10.373  16.408 -10.373  16.408 
   932.500 -7.7950  15.914 -7.7950  15.914 
   933.000 -6.7850  15.421 -6.7850  15.421 
   933.500 -7.3440  14.327 -7.3440  14.327 
   934.000 -8.2240  13.896 -8.2240  13.896 
   934.500 -9.1040  13.465 -9.1040  13.465 
   935.000 -12.342  12.918 -12.342  12.918 
   935.500 -13.176  12.370 -13.176  12.370 
   936.000 -14.104  11.884 -14.104  11.884 
   936.500 -14.018  11.792 -14.018  11.792 
   937.000 -13.684  12.201 -13.684  12.201 
   937.500 -13.413  12.681 -13.413  12.681 
   938.000 -13.141  12.813 -13.141  12.813 
   938.500 -13.422  12.945 -13.422  12.945 
   939.000 -13.858  12.978 -13.858  12.978 
   939.500 -12.755  13.011 -12.755  13.011 
   940.000 -12.606  12.901 -12.606  12.901 
   940.500 -13.751  12.792 -13.751  12.792 
   941.000 -14.616  12.502 -14.616  12.502 
   941.500 -15.604  12.446 -15.604  12.446 
   942.000 -16.592  13.087 -16.592  13.087 
   942.500 -17.889  13.871 -17.889  13.871 
   943.000 -19.187  14.512 -19.187  14.512 
   943.500 -20.947  15.081 -20.947  15.081 
   944.000 -21.350  15.543 -21.350  15.543 
   944.500 -21.325  15.711 -21.325  15.711 
   945.000 -15.394  15.879 -15.394  15.879 
   945.500 -14.015  16.073 -14.015  16.073 
   946.000 -14.359  15.748 -14.359  15.748 
   946.500 -14.425  15.237 -14.425  15.237 
   947.000 -14.184  14.726 -14.184  14.726 
   947.500 -14.097  13.792 -14.097  13.792 
   948.000 -14.424  13.396 -14.424  13.396 
   948.500 -14.751  13.233 -14.751  13.233 
   949.000 -16.234  14.052 -16.234  14.052 
   949.500 -16.793  14.408 -16.793  14.408 
   950.000 -16.982  15.102 -16.982  15.102 
   950.500 -17.020  15.421 -17.020  15.421 
   951.000 -16.380  15.900 -16.380  15.900 
   951.500 -15.063  16.290 -15.063  16.290 
   952.000 -12.917  16.467 -12.917  16.467 
   952.500 -8.0640  16.428 -8.0640  16.428 
   953.000 -6.8400  16.086 -6.8400  16.086 
   953.500 -6.9090  15.744 -6.9090  15.744 
   954.000 -7.5600  15.097 -7.5600  15.097 
   954.500 -9.0130  14.700 -9.0130  14.700 
   955.000 -10.864  14.447 -10.864  14.447 
   955.500 -12.100  14.194 -12.100  14.194 
   956.000 -13.335  13.958 -13.335  13.958 
   956.500 -10.883  13.723 -10.883  13.723 
   957.000 -8.3680  13.434 -8.3680  13.434 
   957.500 -6.5900  13.146 -6.5900  13.146 
   958.000 -5.9200  12.821 -5.9200  12.821 
   958.500 -6.4190  12.800 -6.4190  12.800 
   959.000 -7.5020  12.967 -7.5020  12.967 
   959.500 -9.5380  13.135 -9.5380  13.135 
   960.000 -11.604  14.150 -11.604  14.150 
   960.500 -14.349  14.791 -14.349  14.791 
   961.000 -16.294  15.573 -16.294  15.573 
   961.500 -17.068  15.821 -17.068  15.821 
   962.000 -16.951  14.352 -16.951  14.352 
   962.500 -14.344  14.099 -14.344  14.099 
   963.000 -14.473  14.186 -14.473  14.186 
   963.500 -14.602  14.523 -14.602  14.523 
   964.000 -11.902  14.860 -11.902  14.860 
   964.500 -10.987  15.517 -10.987  15.517 
   965.000 -10.777  15.184 -10.777  15.184 
   965.500 -15.182  14.851 -15.182  14.851 
   966.000 -17.157  14.221 -17.157  14.221 
   966.500 -18.793  14.130 -18.793  14.130 
   967.000 -20.338  14.287 -20.338  14.287 
   967.500 -21.205  14.660 -21.205  14.660 
   968.000 -20.628  15.033 -20.628  15.033 
   968.500 -19.834  15.387 -19.834  15.387 
   969.000 -18.334  15.134 -18.334  15.134 
   969.500 -16.802  14.506 -16.802  14.506 
   970.000 -13.948  13.878 -13.948  13.878 
   970.500 -11.740  12.908 -11.740  12.908 
   971.000 -10.762  12.441 -10.762  12.441 
   971.500 -10.769  13.027 -10.769  13.027 
   972.000 -11.712  14.490 -11.712  14.490 
   972.500 -12.656  16.007 -12.656  16.007 
   973.000 -13.754  17.344 -13.754  17.344 
   973.500 -14.852  25.116 -14.852  25.116 
   974.000 -15.968  27.472 -15.968  27.472 
   974.500 -16.251  29.685 -16.251  29.685 
   975.000 -16.841  31.023 -16.841  31.023 
   975.500 -18.479  32.468 -18.479  32.468 
   976.000 -19.624  32.965 -19.624  32.965 
   976.500 -20.613  32.587 -20.613  32.587 
   977.000 -21.911  31.976 -21.911  31.976 
   977.500 -17.335  31.286 -17.335  31.286 
   978.000 -17.650  30.595 -17.650  30.595 
   978.500 -18.455  28.965 -18.455  28.965 
   979.000 -20.122  27.121 -20.122  27.121 
   979.500 -21.606  23.043 -21.606  23.043 
   980.000 -22.320  19.072 -22.320  19.072 
   980.500 -22.665  16.746 -22.665  16.746 
   981.000 -22.670  15.706 -22.670  15.706 
   981.500 -22.155  14.916 -22.155  14.916 
   982.000 -13.917  14.288 -13.917  14.288 
   982.500 -13.279  13.624 -13.279  13.624 
   983.000 -13.623  13.085 -13.623  13.085 
   983.500 -12.091  13.993 -12.091  13.993 
   984.000 -10.990  15.617 -10.990  15.617 
   984.500 -11.551  16.436 -11.551  16.436 
   985.000 -12.125  15.736 -12.125  15.736 
   985.500 -12.699  15.412 -12.699  15.412 
   986.000 -14.400  14.908 -14.400  14.908 
   986.500 -14.960  14.655 -14.960  14.655 
   987.000 -15.150  15.135 -15.150  15.135 
   987.500 -15.249  15.650 -15.249  15.650 
   988.000 -15.148  16.111 -15.148  16.111 
   988.500 -15.046  15.733 -15.046  15.733 
   989.000 -14.685  14.855 -14.685  14.855 
   989.500 -14.013  13.976 -14.013  13.976 
   990.000 -12.790  13.365 -12.790  13.365 
   990.500 -9.3210  13.363 -9.3210  13.363 
   991.000 -6.9900  13.646 -6.9900  13.646 
   991.500 -6.0730  13.606 -6.0730  13.606 
   992.000 -5.6490  13.425 -5.6490  13.425 
   992.500 -5.9940  13.135 -5.9940  13.135 
   993.000 -7.8160  13.008 -7.8160  13.008 
   993.500 -10.436  13.505 -10.436  13.505 
   994.000 -10.934  14.217 -10.934  14.217 
   994.500 -11.217  15.054 -11.217  15.054 
   995.000 -11.499  15.945 -11.499  15.945 
   995.500 -12.184  15.353 -12.184  15.353 
   996.000 -12.990  14.259 -12.990  14.259 
   996.500 -13.981  13.559 -13.981  13.559 
   997.000 -14.540  12.913 -14.540  12.913 
   997.500 -10.580  12.499 -10.580  12.499 
   998.000 -8.8940  12.352 -8.8940  12.352 
   998.500 -6.6550  12.386 -6.6550  12.386 
   999.000 -5.8930  12.419 -5.8930  12.419 
   999.500 -6.4840  12.594 -6.4840  12.594 
  1000.000 -6.0370  12.574 -6.0370  12.574 
  1000.500 -7.5210  11.927 -7.5210  11.927 
  1001.000 -8.4790  11.101 -8.4790  11.101 
  1001.500 -9.3470  10.759 -9.3470  10.759 
  1002.000 -9.9050  12.098 -9.9050  12.098 
  1002.500 -7.7790  14.314 -7.7790  14.314 
  1003.000 -5.6530  15.975 -5.6530  15.975 
  1003.500 -5.0690  14.988 -5.0690  14.988 
  1004.000 -5.0730  14.610 -5.0730  14.610 
  1004.500 -6.1250  15.090 -6.1250  15.090 
  1005.000 -7.9490  15.713 -7.9490  15.713 
  1005.500 -9.5580  15.979 -9.5580  15.979 
  1006.000 -10.980  15.440 -10.980  15.440 
  1006.500 -12.620  14.866 -12.620  14.866 
  1007.000 -13.764  14.194 -13.764  14.194 
  1007.500 -14.600  13.521 -14.600  13.521 
  1008.000 -12.504  12.498 -12.504  12.498 
  1008.500 -6.2100  12.603 -6.2100  12.603 
  1009.000 -5.5350  15.032 -5.5350  15.032 
  1009.500 -5.7370  16.013 -5.7370  16.013 
  1010.000 -5.9380  14.633 -5.9380  14.633 
  1010.500 -7.3640  13.379 -7.3640  13.379 
  1011.000 -9.7130  13.001 -9.7130  13.001 
  1011.500 -12.340  13.715 -12.340  13.715 
  1012.000 -11.757  17.736 -11.757  17.736 
  1012.500 -11.915  18.449 -11.915  18.449 
  1013.000 -12.659  18.393 -12.659  18.393 
  1013.500 -13.618  16.727 -13.618  16.727 
  1014.000 -14.053  15.633 -14.053  15.633 
  1014.500 -12.481  15.380 -12.481  15.380 
  1015.000 -8.9360  15.825 -8.9360  15.825 
  1015.500 -5.8200  15.948 -5.8200  15.948 
  1016.000 -5.2070  16.071 -5.2070  16.071 
  1016.500 -5.9820  15.908 -5.9820  15.908 
  1017.000 -7.6820  15.745 -7.6820  15.745 
  1017.500 -11.172  15.161 -11.172  15.161 
  1018.000 -15.219  14.576 -15.219  14.576 
  1018.500 -16.086  13.947 -16.086  13.947 
  1019.000 -14.886  13.300 -14.886  13.300 
  1019.500 -13.407  13.424 -13.407  13.424 
  1020.000 -11.496  13.548 -11.496  13.548 
  1020.500 -10.233  13.382 -10.233  13.382 
