~Version Information
VERS.                     2.0: CWLS log ASCII Standard Version 2.00
WRAP.                      NO: One line per depth step
~Well Information Block
#MNEM.UNIT                               Data Type  Information
#---------                               ---------  -----------
STRT.FT                                    20.0000:
STOP.FT                                  4800.0000:
STEP.FT                                     0.5000:
NULL.                 -999.25                     :
COMP.                                             :COMPANY            
WELL.     SAN EMIDIO C-1                          :WELL               
FLD .                                             :FIELD              
CTRY.                                             :COUNTRY            
STAT.                                             :STATE              
LOC .                                             :LOCATION           
UWI .                                             :UNIQUE WELL ID     
SRVC.                                             :Service company    
DATE.                                             :LOG DATE           
~Curve Information
#MNEM.UNIT           API CODE  Curve Description
#---------           --------  -----------------
DEPT.FT                      :   1 DEPTH
SP  .MV                      :   2
RESI.OHMM                    :   3
SBL .MV                      :   4
RS  .OHMM                    :   5
~A
# ...
  2204.000 -0.7900  5.0110 -3.8421  5.0110 
  2204.500 -0.7170  5.4470 -3.7706  5.4470 
  2205.000 -0.6330  5.8100 -3.6882  5.8100 
  2205.500 -0.6380  6.1740 -3.6947  6.1740 
  2206.000 -0.7190  6.6270 -3.7773  6.6270 
  2206.500 -0.8000  7.0800 -3.8598  7.0800 
  2207.000 -1.6720  7.8450 -4.7334  7.8450 
  2207.500 -2.0310  7.5910 -5.0939  7.5910 
  2208.000 -2.3890  7.1240 -5.4535  7.1240 
  2208.500 -2.4870  6.6560 -5.5530  6.6560 
  2209.000 -2.4920  5.7400 -5.5596  5.7400 
  2209.500 -2.4980  4.9140 -5.5672  4.9140 
  2210.000 -2.5800  4.2130 -5.6507  4.2130 
  2210.500 -2.6620  5.7670 -5.7343  5.7670 
  2211.000 -3.2220  7.0520 -6.2958  7.0520 
  2211.500 -3.7820  8.4080 -6.8574  8.4080 
  2212.000 -4.5730  9.9430 -7.6499  9.9430 
  2212.500 -5.3630  10.852 -8.4415  10.852 
  2213.000 -6.9130  11.314 -9.9930  11.314 
  2213.500 -7.8440  10.631 -10.926  10.631 
  2214.000 -8.6490  9.8050 -11.732  9.8050 
  2214.500 -9.5480  9.1760 -12.633  9.1760 
  2215.000 -10.447  9.4950 -13.533  9.4950 
  2215.500 -11.471  9.8140 -14.559  9.8140 
  2216.000 -11.645  10.026 -14.734  10.026 
  2216.500 -11.820  10.185 -14.911  10.185 
  2217.000 -11.717  7.2280 -14.809  7.2280 
  2217.500 -11.614  5.6160 -14.708  5.6160 
  2218.000 -11.097  4.2900 -14.193  4.2900 
  2218.500 -9.3770  3.4100 -12.474  3.4100 
  2219.000 -6.8850  2.8180 -9.9837  2.8180 
  2219.500 -3.9930  2.6710 -7.0932  2.6710 
  2220.000 -1.8710  3.2140 -4.9728  3.2140 
  2220.500 -0.9820  3.7570 -4.0853  3.7570 
  2221.000 -0.3110  5.0410 -3.4159  5.0410 
  2221.500 -0.2240  5.5390 -3.3304  5.5390 
  2222.000 -0.3820  6.0370 -3.4900  6.0370 
  2222.500 -1.7440  6.6960 -4.8536  6.6960 
  2223.000 -3.3530  7.3530 -6.4641  7.3530 
  2223.500 -4.5900  7.9410 -7.7027  7.9410 
  2224.000 -5.2260  9.7450 -8.3402  9.7450 
  2224.500 -5.8620  9.3130 -8.9778  9.3130 
  2225.000 -5.4710  8.8820 -8.5883  8.8820 
  2225.500 -5.3210  7.8400 -8.4399  7.8400 
  2226.000 -5.2640  11.950 -8.3844  11.950 
  2226.500 -5.2690  13.860 -8.3910  13.860 
  2227.000 -6.4470  14.788 -9.5705  14.788 
  2227.500 -8.3950  15.500 -11.520  15.500 
  2228.000 -9.4470  15.049 -12.574  15.049 
  2228.500 -10.484  14.725 -13.612  14.725 
  2229.000 -11.521  13.255 -14.651  13.255 
  2229.500 -13.007  8.8530 -16.138  8.8530 
  2230.000 -14.308  6.3270 -17.441  6.3270 
  2230.500 -15.299  5.4670 -18.433  5.4670 
  2231.000 -15.213  4.6060 -18.349  4.6060 
  2231.500 -14.879  3.0990 -18.017  3.0990 
  2232.000 -8.5040  2.1290 -11.643  2.1290 
  2232.500 -6.5050  1.7340 -9.6456  1.7340 
  2233.000 -4.7850  2.1950 -7.9272  2.1950 
  2233.500 -3.8180  2.4790 -6.9617  2.4790 
  2234.000 -2.8510  2.5930 -5.9963  2.5930 
  2234.500 -1.7180  2.7060 -4.8649  2.7060 
  2235.000 -1.1080  2.8640 -4.2564  2.8640 
  2235.500 -0.8500  3.0220 -4.0000  3.0220 
  2236.000 -0.5910  3.5720 -3.7425  3.5720 
  2236.500 -0.2910  3.8920 -3.4441  3.8920 
  2237.000 -0.3870  3.7370 -3.5416  3.7370 
  2237.500 -0.4840  3.5830 -3.6402  3.5830 
  2238.000 -0.7710  3.3630 -3.9287  3.3630 
  2238.500 -0.8360  3.3250 -3.9953  3.3250 
  2239.000 -0.9020  3.5900 -4.0628  3.5900 
  2239.500 -0.9540  3.8550 -4.1164  3.8550 
  2240.000 -1.0050  4.2990 -4.1689  4.2990 
  2240.500 -0.9950  4.7430 -4.1605  4.7430 
  2241.000 -0.9850  5.2590 -4.1521  5.2590 
  2241.500 -0.9450  5.8280 -4.1136  5.8280 
  2242.000 -0.9050  6.4250 -4.0752  6.4250 
  2242.500 -0.8330  7.0220 -4.0047  7.0220 
  2243.000 -0.7620  8.0370 -3.9353  8.0370 
  2243.500 -0.7040  8.7680 -3.8788  8.7680 
  2244.000 -0.6460  9.4990 -3.8224  9.4990 
  2244.500 -0.5300  12.016 -3.7079  12.016 
  2245.000 -0.5680  13.427 -3.7475  13.427 
  2245.500 -0.6950  14.407 -3.8760  14.407 
  2246.000 -1.2540  12.115 -4.4366  12.115 
  2246.500 -1.8130  10.341 -4.9971  10.341 
  2247.000 -4.4110  10.499 -7.5967  10.499 
  2247.500 -5.2010  15.146 -8.3883  15.146 
  2248.000 -5.9900  16.002 -9.1788  16.002 
  2248.500 -7.7570  15.694 -10.947  15.694 
  2249.000 -8.6250  14.958 -11.817  14.958 
  2249.500 -9.4620  13.310 -12.655  13.310 
  2250.000 -10.083  4.5240 -13.278  4.5240 
  2250.500 -11.197  3.3590 -14.394  3.3590 
  2251.000 -11.816  2.8020 -15.014  2.8020 
  2251.500 -12.063  2.5510 -15.263  2.5510 
  2252.000 -11.543  2.4410 -14.744  2.4410 
  2252.500 -10.589  2.6190 -13.792  2.6190 
  2253.000 -8.5580  2.7960 -11.762  2.7960 
  2253.500 -6.3410  3.6150 -9.5469  3.6150 
  2254.000 -4.0320  4.1310 -7.2395  4.1310 
  2254.500 -2.3390  4.3890 -5.5480  4.3890 
  2255.000 -1.2330  4.6480 -4.4436  4.6480 
  2255.500 -0.6500  4.4480 -3.8621  4.4480 
  2256.000 -0.4970  3.8910 -3.7107  3.8910 
  2256.500 -0.3460  3.6480 -3.5612  3.6480 
  2257.000 -0.4110  3.4050 -3.6278  3.4050 
  2257.500 -0.7220  3.0800 -3.9403  3.0800 
  2258.000 -1.0620  2.9710 -4.2819  2.9710 
  2258.500 -1.6820  2.8620 -4.9034  2.8620 
  2259.000 -1.9000  2.7520 -5.1230  2.7520 
  2259.500 -2.1180  2.8210 -5.3426  2.8210 
  2260.000 -2.1500  3.3720 -5.3761  3.3720 
  2260.500 -2.1810  4.5510 -5.4087  4.5510 
  2261.000 -2.1070  5.8190 -5.3362  5.8190 
  2261.500 -2.0320  6.7470 -5.2628  6.7470 
  2262.000 -1.5450  7.8540 -4.7773  7.8540 
  2262.500 -1.2390  8.8890 -4.4729  8.8890 
  2263.000 -0.9640  10.121 -4.1994  10.121 
  2263.500 -0.6890  10.781 -3.9260  10.781 
  2264.000 -0.8780  10.331 -4.1165  10.331 
  2264.500 -1.7880  9.0770 -5.0281  9.0770 
  2265.000 -2.6980  7.6970 -5.9396  7.6970 
  2265.500 -4.5530  6.9440 -7.7962  6.9440 
  2266.000 -4.5230  7.0320 -7.7678  7.0320 
  2266.500 -4.4930  9.5160 -7.7393  9.5160 
  2267.000 -3.8840  11.213 -7.1319  11.213 
  2267.500 -3.6390  12.409 -6.8884  12.409 
  2268.000 -3.3640  12.407 -6.6150  12.407 
  2268.500 -3.2740  12.083 -6.5265  12.083 
  2269.000 -3.2450  11.760 -6.4991  11.760 
  2269.500 -3.8330  14.547 -7.0886  14.547 
  2270.000 -5.2520  17.227 -8.5092  17.227 
  2270.500 -6.6710  15.705 -9.9297  15.705 
  2271.000 -7.9530  13.592 -11.213  13.592 
  2271.500 -9.2350  11.676 -12.497  11.676 
  2272.000 -11.244  10.548 -14.507  10.548 
  2272.500 -12.325  8.6130 -15.590  8.6130 
  2273.000 -12.913  7.9320 -16.180  7.9320 
  2273.500 -13.040  6.6770 -16.308  6.6770 
  2274.000 -12.458  6.1210 -15.728  6.1210 
  2274.500 -8.0500  5.2960 -11.321  5.2960 
  2275.000 -4.6930  3.5590 -7.9657  3.5590 
  2275.500 -2.5690  2.8590 -5.8433  2.8590 
  2276.000 -1.5550  3.3030 -4.8308  3.3030 
  2276.500 -1.0030  3.5160 -4.2804  3.5160 
  2277.000 -0.7890  3.3890 -4.0679  3.3890 
  2277.500 -0.6990  3.2630 -3.9795  3.2630 
  2278.000 -0.7020  2.9920 -3.9841  2.9920 
  2278.500 -0.7040  2.6490 -3.9876  2.6490 
  2279.000 -0.7370  2.3250 -4.0222  2.3250 
  2279.500 -0.7690  1.9650 -4.0557  1.9650 
  2280.000 -0.8360  1.7300 -4.1243  1.7300 
  2280.500 -0.8540  1.5860 -4.1438  1.5860 
  2281.000 -0.8710  1.3510 -4.1624  1.3510 
  2281.500 -0.9070  1.5100 -4.1999  1.5100 
  2282.000 -0.9540  2.0620 -4.2485  2.0620 
  2282.500 -1.0020  2.5610 -4.2980  2.5610 
  2283.000 -1.0960  2.2010 -4.3936  2.2010 
  2283.500 -1.1900  1.9760 -4.4891  1.9760 
  2284.000 -1.2860  1.7510 -4.5867  1.7510 
  2284.500 -1.3810  1.5780 -4.6833  1.5780 
  2285.000 -1.3250  1.4050 -4.6288  1.4050 
  2285.500 -1.2480  1.2600 -4.5534  1.2600 
  2286.000 -1.1710  1.1700 -4.4779  1.1700 
  2286.500 -0.9300  1.0790 -4.2385  1.0790 
  2287.000 -0.6880  0.9500 -3.9980  0.9500 
  2287.500 -0.5360  1.6450 -3.8476  1.6450 
  2288.000 -0.4150  2.4120 -3.7281  2.4120 
  2288.500 -0.3700  2.4090 -3.6847  2.4090 
  2289.000 -0.3240  2.3990 -3.6402  2.3990 
  2289.500 -0.3280  2.3890 -3.6458  2.3890 
  2290.000 -0.3310  2.4040 -3.6503  2.4040 
  2290.500 -0.5180  2.9010 -3.8389  2.9010 
  2291.000 -0.7040  4.0260 -4.0265  4.0260 
  2291.500 -1.1400  4.6690 -4.4640  4.6690 
  2292.000 -0.9890  5.2390 -4.3146  5.2390 
  2292.500 -0.8370  4.8960 -4.1641  4.8960 
  2293.000 -0.4100  4.5110 -3.7387  4.5110 
  2293.500 -0.2900  4.1250 -3.6202  4.1250 
  2294.000 -0.2610  3.2270 -3.5928  3.2270 
  2294.500 -0.8180  2.7780 -4.1513  2.7780 
