~Version Information
VERS.                     2.0: CWLS log ASCII Standard Version 2.00
WRAP.                      NO: One line per depth step
~Well Information Block
#MNEM.UNIT                               Data Type  Information
#---------                               ---------  -----------
STRT.FT                                    20.0000:
STOP.FT                                  4800.0000:
STEP.FT                                     0.5000:
NULL.                 -999.25                     :
COMP.                                             :COMPANY            
WELL.     SAN EMIDIO C-1                          :WELL               
FLD .                                             :FIELD              
CTRY.                                             :COUNTRY            
STAT.                                             :STATE              
LOC .                                             :LOCATION           
UWI .                                             :UNIQUE WELL ID     
SRVC.                                             :Service company    
DATE.                                             :LOG DATE           
~Curve Information
#MNEM.UNIT           API CODE  Curve Description
#---------           --------  -----------------
DEPT.FT                      :   1 DEPTH
SP  .MV                      :   2
RESI.OHMM                    :   3
SBL .MV                      :   4
RS  .OHMM                    :   5
~A
# ...
  3842.000 -3.4980  1.1180 -6.0226  1.1180 
  3842.500 -4.4120  0.9530 -6.9361  0.9530 
  3843.000 -6.9690  0.7890 -9.4925  0.7890 
  3843.500 -7.8070  0.6860 -10.330  0.6860 
  3844.000 -8.1260  0.5820 -10.648  0.5820 
  3844.500 -8.5980  0.9840 -11.120  0.9840 
  3845.000 -10.295  2.6660 -12.816  2.6660 
  3845.500 -11.165  3.1220 -13.686  3.1220 
  3846.000 -11.176  3.4370 -13.696  3.4370 
  3846.500 -11.187  3.7520 -13.707  3.7520 
  3847.000 -11.172  4.2180 -13.691  4.2180 
  3847.500 -12.042  4.6830 -14.561  4.6830 
  3848.000 -13.524  5.1910 -16.042  5.1910 
  3848.500 -14.914  5.2930 -17.431  5.2930 
  3849.000 -15.753  5.3670 -18.270  5.3670 
  3849.500 -15.675  5.4410 -18.191  5.4410 
  3850.000 -14.891  5.4000 -17.407  5.4000 
  3850.500 -11.620  5.3530 -14.135  5.3530 
  3851.000 -9.7840  5.3070 -12.299  5.3070 
  3851.500 -7.9190  5.2340 -10.433  5.2340 
  3852.000 -6.1770  5.1250 -8.6906  5.1250 
  3852.500 -5.0470  4.8740 -7.5600  4.8740 
  3853.000 -4.6810  4.6050 -7.1935  4.6050 
  3853.500 -4.3780  4.2310 -6.8899  4.2310 
  3854.000 -4.7160  3.8570 -7.2273  3.8570 
  3854.500 -5.0530  2.9290 -7.5638  2.9290 
  3855.000 -6.0670  2.5010 -8.5772  2.5010 
  3855.500 -6.4670  2.0730 -8.9767  2.0730 
  3856.000 -6.2090  1.5190 -8.7181  1.5190 
  3856.500 -5.9500  1.3400 -8.4586  1.3400 
  3857.000 -5.3720  1.3380 -7.8800  1.3380 
  3857.500 -5.1430  1.3000 -7.6505  1.3000 
  3858.000 -4.9140  1.2440 -7.4209  1.2440 
  3858.500 -4.8240  1.1520 -7.3304  1.1520 
  3859.000 -4.7350  1.0260 -7.2408  1.0260 
  3859.500 -5.4260  0.9280 -7.9313  0.9280 
  3860.000 -6.1180  0.8290 -8.6227  0.8290 
  3860.500 -6.5220  0.6230 -9.0262  0.6230 
  3861.000 -6.5230  0.4160 -9.0266  0.4160 
  3861.500 -6.4940  1.7800 -8.9970  1.7800 
  3862.000 -6.4650  2.2580 -8.9675  2.2580 
  3862.500 -6.5890  2.6290 -9.0909  2.6290 
  3863.000 -6.7130  2.7680 -9.2144  2.7680 
  3863.500 -8.5360  2.7310 -11.037  2.7310 
  3864.000 -10.358  2.6150 -12.858  2.6150 
  3864.500 -12.905  2.4980 -15.405  2.4980 
  3865.000 -12.356  2.4050 -14.855  2.4050 
  3865.500 -10.552  2.9180 -13.051  2.9180 
  3866.000 -10.201  3.3060 -12.699  3.3060 
  3866.500 -9.8490  3.7660 -12.347  3.7660 
  3867.000 -12.122  3.9070 -14.619  3.9070 
  3867.500 -13.501  3.6550 -15.997  3.6550 
  3868.000 -14.603  3.5030 -17.099  3.5030 
  3868.500 -15.645  3.3510 -18.140  3.3510 
  3869.000 -16.687  2.9560 -19.182  2.9560 
  3869.500 -18.315  2.7940 -20.809  2.7940 
  3870.000 -19.358  3.4320 -21.852  3.4320 
  3870.500 -19.788  5.4010 -22.281  5.4010 
  3871.000 -17.710  5.9150 -20.203  5.9150 
  3871.500 -14.987  6.3920 -17.479  6.3920 
  3872.000 -12.907  6.6570 -15.398  6.6570 
  3872.500 -11.959  6.9030 -14.450  6.9030 
  3873.000 -11.011  7.0420 -13.501  7.0420 
  3873.500 -9.6390  7.0050 -12.129  7.0050 
  3874.000 -9.8550  6.7900 -12.344  6.7900 
  3874.500 -12.029  6.5760 -14.518  6.5760 
  3875.000 -14.203  6.2190 -16.691  6.2190 
  3875.500 -14.588  5.8620 -17.076  5.8620 
  3876.000 -14.974  4.4360 -17.461  4.4360 
  3876.500 -14.930  3.1910 -17.416  3.1910 
  3877.000 -14.887  2.2290 -17.373  2.2290 
  3877.500 -13.453  1.8460 -15.938  1.8460 
  3878.000 -11.772  1.4630 -14.257  1.4630 
  3878.500 -10.763  1.1230 -13.247  1.1230 
  3879.000 -10.536  0.7840 -13.020  0.7840 
  3879.500 -10.308  0.4420 -12.791  0.4420 
  3880.000 -9.3310  0.3950 -11.814  0.3950 
  3880.500 -8.5510  0.3490 -11.033  0.3490 
  3881.000 -7.7710  0.3650 -10.252  0.3650 
  3881.500 -8.6940  0.3810 -11.175  0.3810 
  3882.000 -9.6460  0.4310 -12.126  0.4310 
  3882.500 -9.9550  0.5000 -12.435  0.5000 
  3883.000 -9.7110  0.5870 -12.190  0.5870 
  3883.500 -9.4660  0.7090 -11.945  0.7090 
  3884.000 -8.6420  0.8660 -11.120  0.8660 
  3884.500 -7.8180  0.9360 -10.296  0.9360 
  3885.000 -7.7590  1.0570 -10.236  1.0570 
  3885.500 -7.6990  1.0380 -10.175  1.0380 
  3886.000 -8.3910  1.0010 -10.867  1.0010 
  3886.500 -9.0830  0.9650 -11.558  0.9650 
  3887.000 -8.9950  0.8200 -11.470  0.8200 
  3887.500 -7.7120  0.6740 -10.186  0.6740 
  3888.000 -7.1010  0.5480 -9.5747  0.5480 
  3888.500 -6.1560  0.4210 -8.6292  0.4210 
  3889.000 -5.7290  0.3220 -8.2016  0.3220 
  3889.500 -5.4860  0.2230 -7.9581  0.2230 
  3890.000 -6.4370  0.2910 -8.9085  0.2910 
  3890.500 -6.9910  0.4660 -9.4619  0.4660 
  3891.000 -6.9920  0.6770 -9.4624  0.6770 
  3891.500 -6.8430  0.8170 -9.3128  0.8170 
  3892.000 -6.7310  0.9040 -9.2003  0.9040 
  3892.500 -6.6200  0.9910 -9.0887  0.9910 
  3893.000 -6.5080  0.9710 -8.9762  0.9710 
  3893.500 -6.2070  0.9520 -8.6746  0.9520 
  3894.000 -5.9970  0.8230 -8.4641  0.8230 
  3894.500 -5.8760  0.7500 -8.3425  0.7500 
  3895.000 -5.8470  0.7300 -8.3130  0.7300 
  3895.500 -6.0730  0.7640 -8.5384  0.7640 
  3896.000 -6.2980  0.8170 -8.7629  0.8170 
  3896.500 -6.5240  0.8690 -8.9883  0.8690 
  3897.000 -7.1080  1.0070 -9.5718  1.0070 
  3897.500 -7.6920  1.1120 -10.155  1.1120 
  3898.000 -8.4600  1.2150 -10.923  1.2150 
  3898.500 -9.2280  1.0010 -11.690  1.0010 
  3899.000 -9.8570  1.1770 -12.319  1.1770 
  3899.500 -10.486  1.1750 -12.947  1.1750 
  3900.000 -10.921  1.0830 -13.381  1.0830 
  3900.500 -10.826  0.9900 -13.286  0.9900 
  3901.000 -10.730  0.8960 -13.189  0.8960 
  3901.500 -10.499  0.6760 -12.958  0.6760 
  3902.000 -10.325  0.5650 -12.783  0.5650 
  3902.500 -10.151  0.4540 -12.609  0.4540 
  3903.000 -9.8920  0.2880 -12.349  0.2880 
  3903.500 -10.088  0.2740 -12.545  0.2740 
  3904.000 -10.221  0.2610 -12.677  0.2610 
  3904.500 -10.354  0.4130 -12.809  0.4130 
  3905.000 -10.505  0.4790 -12.960  0.4790 
  3905.500 -10.656  0.5460 -13.110  0.5460 
  3906.000 -10.714  0.7170 -13.168  0.7170 
  3906.500 -10.772  0.8530 -13.225  0.8530 
  3907.000 -10.814  0.9380 -13.267  0.9380 
  3907.500 -10.857  1.0210 -13.309  1.0210 
  3908.000 -10.914  1.0340 -13.366  1.0340 
  3908.500 -10.972  0.8850 -13.423  0.8850 
  3909.000 -10.987  0.7020 -13.437  0.7020 
  3909.500 -10.983  0.6630 -13.433  0.6630 
  3910.000 -10.980  0.6230 -13.429  0.6230 
  3910.500 -10.821  0.6880 -13.270  0.6880 
  3911.000 -10.663  0.7520 -13.111  0.7520 
  3911.500 -9.4250  0.7910 -11.873  0.7910 
  3912.000 -8.5800  0.8300 -11.027  0.8300 
  3912.500 -8.3160  0.8250 -10.763  0.8250 
  3913.000 -8.5100  0.8210 -10.956  0.8210 
  3913.500 -8.7050  0.7610 -11.150  0.7610 
  3914.000 -8.9650  0.7290 -11.410  0.7290 
  3914.500 -9.0080  0.6980 -11.452  0.6980 
  3915.000 -8.9580  0.6750 -11.402  0.6750 
  3915.500 -8.9080  0.6520 -11.351  0.6520 
  3916.000 -8.7980  0.6300 -11.241  0.6300 
  3916.500 -8.4120  0.5970 -10.854  0.5970 
  3917.000 -8.0270  0.5640 -10.469  0.5640 
  3917.500 -7.4880  0.5650 -9.9291  0.5650 
  3918.000 -6.9210  0.5660 -9.3615  0.5660 
  3918.500 -6.7170  0.5670 -9.1570  0.5670 
  3919.000 -7.1430  0.5610 -9.5824  0.5610 
  3919.500 -7.5690  0.5550 -10.008  0.5550 
  3920.000 -8.1320  0.5670 -10.570  0.5670 
  3920.500 -8.4800  0.5920 -10.918  0.5920 
  3921.000 -8.8270  0.6180 -11.264  0.6180 
  3921.500 -9.3610  0.6430 -11.798  0.6430 
  3922.000 -9.2500  0.7340 -11.686  0.7340 
  3922.500 -9.1390  0.8260 -11.575  0.8260 
  3923.000 -9.0610  0.9080 -11.496  0.9080 
  3923.500 -9.3800  0.9390 -11.814  0.9390 
  3924.000 -9.5280  0.9700 -11.962  0.9700 
  3924.500 -9.6770  1.0350 -12.110  1.0350 
  3925.000 -9.6300  1.0660 -12.063  1.0660 
  3925.500 -9.1840  1.0970 -11.616  1.0970 
  3926.000 -8.8280  1.0290 -11.260  1.0290 
  3926.500 -8.1210  0.9610 -10.552  0.9610 
  3927.000 -7.4140  0.8140 -9.8445  0.8140 
  3927.500 -6.7540  0.6670 -9.1840  0.6670 
  3928.000 -6.3970  0.5110 -8.8264  0.5110 
  3928.500 -5.8900  0.3550 -8.3189  0.3550 
  3929.000 -5.9010  0.3300 -8.3293  0.3300 
  3929.500 -5.9120  0.3780 -8.3398  0.3780 
  3930.000 -5.9860  0.4530 -8.4132  0.4530 
  3930.500 -6.0590  0.5270 -8.4857  0.5270 
  3931.000 -6.1020  0.5760 -8.5281  0.5760 
  3931.500 -5.9750  0.6250 -8.4006  0.6250 
  3932.000 -5.8480  0.6990 -8.2730  0.6990 
  3932.500 -5.4960  0.7720 -7.9205  0.7720 
