~Version Information
VERS.                     2.0: CWLS log ASCII Standard Version 2.00
WRAP.                      NO: One line per depth step
~Well Information Block
#MNEM.UNIT                               Data Type  Information
#---------                               ---------  -----------
STRT.FT                                    20.0000:
STOP.FT                                  4800.0000:
STEP.FT                                     0.5000:
NULL.                 -999.25                     :
COMP.                                             :COMPANY            
WELL.     SAN EMIDIO C-1                          :WELL               
FLD .                                             :FIELD              
CTRY.                                             :COUNTRY            
STAT.                                             :STATE              
LOC .                                             :LOCATION           
UWI .                                             :UNIQUE WELL ID     
SRVC.                                             :Service company    
DATE.                                             :LOG DATE           
~Curve Information
#MNEM.UNIT           API CODE  Curve Description
#---------           --------  -----------------
DEPT.FT                      :   1 DEPTH
SP  .MV                      :   2
RESI.OHMM                    :   3
SBL .MV                      :   4
RS  .OHMM                    :   5
~A
# ...
  1567.000 -7.3260  8.4210 -8.3983  8.4210 
  1567.500 -8.2460  10.617 -9.3198  10.617 
  1568.000 -9.1670  12.794 -10.242  12.794 
  1568.500 -10.164  13.756 -11.241  13.756 
  1569.000 -10.665  14.539 -11.743  14.539 
  1569.500 -11.166  15.053 -12.246  15.053 
  1570.000 -11.671  14.279 -12.753  14.279 
  1570.500 -11.524  14.097 -12.607  14.097 
  1571.000 -11.377  13.915 -12.462  13.915 
  1571.500 -11.201  14.339 -12.287  14.339 
  1572.000 -11.025  14.532 -12.113  14.532 
  1572.500 -10.879  14.725 -11.968  14.725 
  1573.000 -10.734  13.128 -11.825  13.128 
  1573.500 -10.528  12.668 -11.620  12.668 
  1574.000 -10.441  12.209 -11.535  12.209 
  1574.500 -10.355  13.435 -11.451  13.435 
  1575.000 -10.368  14.308 -11.465  14.308 
  1575.500 -11.643  15.806 -12.742  15.806 
  1576.000 -12.639  16.732 -13.739  16.732 
  1576.500 -13.635  17.354 -14.737  17.354 
  1577.000 -14.414  18.011 -15.517  18.011 
  1577.500 -14.947  18.043 -16.052  18.043 
  1578.000 -15.325  16.732 -16.431  16.732 
  1578.500 -15.687  15.870 -16.795  15.870 
  1579.000 -16.050  13.362 -17.160  13.362 
  1579.500 -16.493  12.731 -17.604  12.731 
  1580.000 -14.773  13.014 -15.886  13.014 
  1580.500 -11.663  13.297 -12.777  13.297 
  1581.000 -7.8140  14.132 -8.9298  14.132 
  1581.500 -6.8650  15.271 -7.9823  15.271 
  1582.000 -6.6270  15.697 -7.7459  15.697 
  1582.500 -7.9920  16.050 -9.1124  16.050 
  1583.000 -9.3580  12.755 -10.480  12.755 
  1583.500 -11.037  11.802 -12.161  11.802 
  1584.000 -10.799  11.334 -11.924  11.334 
  1584.500 -10.636  11.616 -11.763  11.616 
  1585.000 -10.473  11.844 -11.601  11.844 
  1585.500 -10.558  12.018 -11.688  12.018 
  1586.000 -10.643  12.157 -11.774  12.157 
  1586.500 -9.8530  12.295 -10.986  12.295 
  1587.000 -8.3180  12.310 -9.4524  12.310 
  1587.500 -7.6300  12.325 -8.7660  12.325 
  1588.000 -6.9420  11.960 -8.0795  11.960 
  1588.500 -7.0580  11.598 -8.1971  11.598 
  1589.000 -7.1750  11.397 -8.3156  11.397 
  1589.500 -8.0630  11.296 -9.2052  11.296 
  1590.000 -8.9510  11.195 -10.095  11.195 
  1590.500 -10.383  11.253 -11.528  11.253 
  1591.000 -10.794  11.311 -11.941  11.311 
  1591.500 -10.710  11.143 -11.858  11.143 
  1592.000 -10.224  10.084 -11.374  10.084 
  1592.500 -8.9050  9.1670 -10.057  9.1670 
  1593.000 -8.2030  8.8590 -9.3561  8.8590 
  1593.500 -7.2870  8.5140 -8.4416  8.5140 
  1594.000 -6.9540  8.6000 -8.1102  8.6000 
  1594.500 -6.6200  8.6770 -7.7777  8.6770 
  1595.000 -6.2900  8.7540 -7.4493  8.7540 
  1595.500 -5.9600  8.8920 -7.1208  8.8920 
  1596.000 -5.9080  8.9400 -7.0704  8.9400 
  1596.500 -6.0230  8.9100 -7.1869  8.9100 
  1597.000 -6.1390  8.8800 -7.3045  8.8800 
  1597.500 -6.5020  8.7500 -7.6691  8.7500 
  1598.000 -6.8650  8.6210 -8.0336  8.6210 
  1598.500 -7.5860  8.3840 -8.7562  8.3840 
  1599.000 -7.9670  8.1470 -9.1387  8.1470 
  1599.500 -8.2850  7.6410 -9.4583  7.6410 
  1600.000 -8.4160  7.1530 -9.5908  7.1530 
  1600.500 -8.3880  6.9540 -9.5644  6.9540 
  1601.000 -7.2820  6.7560 -8.4599  6.7560 
  1601.500 -5.8670  6.1780 -7.0465  6.1780 
  1602.000 -5.1610  5.8170 -6.3420  5.8170 
  1602.500 -4.4550  5.5110 -5.6376  5.5110 
  1603.000 -3.4110  5.4910 -4.5951  5.4910 
  1603.500 -2.8740  5.5410 -4.0597  5.5410 
  1604.000 -2.3370  5.5920 -3.5243  5.5920 
  1604.500 -1.4190  5.7950 -2.6078  5.7950 
  1605.000 -0.7460  5.9970 -1.9364  5.9970 
  1605.500 -0.5650  6.2260 -1.7569  6.2260 
  1606.000 -0.7850  6.4560 -1.9785  6.4560 
  1606.500 -1.2830  6.6860 -2.4780  6.6860 
  1607.000 -1.9690  6.9240 -3.1656  6.9240 
  1607.500 -2.2950  7.1630 -3.4931  7.1630 
  1608.000 -2.6220  7.2660 -3.8217  7.2660 
  1608.500 -3.1980  6.7080 -4.3992  6.7080 
  1609.000 -3.7740  6.3470 -4.9768  6.3470 
  1609.500 -4.8310  6.3450 -6.0354  6.3450 
  1610.000 -5.7620  6.6370 -6.9679  6.6370 
  1610.500 -6.1350  6.9300 -7.3425  6.9300 
  1611.000 -6.5080  7.1870 -7.7170  7.1870 
  1611.500 -6.9160  7.4440 -8.1266  7.4440 
  1612.000 -6.8900  7.8500 -8.1021  7.8500 
  1612.500 -6.3110  7.9550 -7.5247  7.9550 
  1613.000 -5.8820  8.0600 -7.0972  8.0600 
  1613.500 -5.3760  6.9820 -6.5928  6.9820 
  1614.000 -4.8690  6.3890 -6.0873  6.3890 
  1614.500 -2.9940  6.2610 -4.2139  6.2610 
  1615.000 -1.8260  6.0970 -3.0474  6.0970 
  1615.500 -1.2730  5.8620 -2.4960  5.8620 
  1616.000 -0.7210  5.6270 -1.9456  5.6270 
  1616.500 -0.3880  5.8740 -1.6141  5.8740 
  1617.000 -0.5150  6.1220 -1.7427  6.1220 
  1617.500 -0.6420  6.9220 -1.8712  6.9220 
  1618.000 -3.3340  6.9910 -4.5648  6.9910 
  1618.500 -4.3100  6.2360 -5.5423  6.2360 
  1619.000 -5.2860  5.7680 -6.5199  5.7680 
  1619.500 -5.2950  5.4800 -6.5304  5.4800 
  1620.000 -4.7740  6.1020 -6.0110  6.1020 
  1620.500 -4.5020  6.8850 -5.7405  6.8850 
  1621.000 -4.5990  7.1520 -5.8391  7.1520 
  1621.500 -4.7420  7.5780 -5.9836  7.5780 
  1622.000 -4.8860  7.1280 -6.1292  7.1280 
  1622.500 -5.0140  6.3200 -6.2588  6.3200 
  1623.000 -4.2460  5.0650 -5.4923  5.0650 
  1623.500 -3.3700  4.5970 -4.6179  4.5970 
  1624.000 -2.4940  4.8440 -3.7434  4.8440 
  1624.500 -2.0660  5.3160 -3.3170  5.3160 
  1625.000 -1.6380  5.7880 -2.8905  5.7880 
  1625.500 -1.7090  6.9280 -2.9631  6.9280 
  1626.000 -2.0520  7.8710 -3.3076  7.8710 
  1626.500 -2.1180  8.1550 -3.3752  8.1550 
  1627.000 -1.8450  7.2040 -3.1037  7.2040 
  1627.500 -1.3570  7.0400 -2.6173  7.0400 
  1628.000 -1.1460  7.2170 -2.4078  7.2170 
  1628.500 -1.0270  7.3940 -2.2904  7.3940 
  1629.000 -1.0140  8.7490 -2.2790  8.7490 
  1629.500 -1.0010  9.8180 -2.2675  9.8180 
  1630.000 -1.2220  9.5470 -2.4901  9.5470 
  1630.500 -1.4430  8.8120 -2.7126  8.8120 
  1631.000 -2.1580  8.0760 -3.4292  8.0760 
  1631.500 -2.8720  7.8200 -4.1447  7.8200 
  1632.000 -4.1760  7.8350 -5.4503  7.8350 
  1632.500 -4.4110  7.9050 -5.6868  7.9050 
  1633.000 -4.6460  8.3120 -5.9234  8.3120 
  1633.500 -4.5920  9.1140 -5.8709  9.1140 
  1634.000 -4.9650  11.060 -6.2455  11.060 
  1634.500 -5.3380  12.113 -6.6201  12.113 
  1635.000 -6.1920  12.307 -7.4756  12.307 
  1635.500 -7.0450  11.320 -8.3302  11.320 
  1636.000 -6.7890  10.477 -8.0757  10.477 
  1636.500 -6.5320  9.0060 -7.8203  9.0060 
  1637.000 -5.7060  9.0220 -6.9958  9.0220 
  1637.500 -5.5540  9.0720 -6.8454  9.0720 
  1638.000 -5.6660  9.0700 -6.9589  9.0700 
  1638.500 -5.7770  9.0680 -7.0715  9.0680 
  1639.000 -6.1870  8.6890 -7.4830  8.6890 
  1639.500 -6.4540  8.3110 -7.7516  8.3110 
  1640.000 -6.7200  7.2860 -8.0191  7.2860 
  1640.500 -7.0640  6.6390 -8.3647  6.6390 
  1641.000 -7.4080  6.0990 -8.7103  6.0990 
  1641.500 -7.6270  5.8290 -8.9308  5.8290 
  1642.000 -7.8460  5.5590 -9.1514  5.5590 
  1642.500 -8.1290  5.1360 -9.4359  5.1360 
  1643.000 -8.4120  4.7120 -9.7205  4.7120 
  1643.500 -6.9070  4.0810 -8.2170  4.0810 
  1644.000 -5.0900  4.5530 -6.4016  4.5530 
  1644.500 -2.7500  5.0240 -4.0631  5.0240 
  1645.000 -1.5500  5.9330 -2.8647  5.9330 
  1645.500 -0.5990  6.5200 -1.9152  6.5200 
  1646.000 -0.3270  5.8370 -1.6448  5.8370 
  1646.500 -0.1770  5.2260 -1.4963  5.2260 
  1647.000 -0.6730  5.0080 -1.9939  5.0080 
  1647.500 -1.1680  5.3460 -2.4905  5.3460 
  1648.000 -2.8750  5.6830 -4.1990  5.6830 
  1648.500 -3.6510  6.6430 -4.9766  6.6430 
  1649.000 -4.5190  7.0530 -5.8461  7.0530 
  1649.500 -5.2020  7.6040 -6.5307  7.6040 
  1650.000 -5.8850  7.7890 -7.2152  7.7890 
  1650.500 -5.5340  7.9750 -6.8658  7.9750 
  1651.000 -5.1840  7.9530 -6.5173  7.9530 
  1651.500 -4.7580  6.9490 -6.0929  6.9490 
  1652.000 -4.6990  5.8010 -6.0354  5.8010 
  1652.500 -4.8590  5.5760 -6.1970  5.5760 
  1653.000 -5.0460  5.3500 -6.3855  5.3500 
  1653.500 -5.2330  5.6500 -6.5741  5.6500 
  1654.000 -5.6080  6.2550 -6.9507  6.2550 
  1654.500 -6.0440  7.0560 -7.3882  7.0560 
  1655.000 -6.3250  7.4660 -7.6708  7.4660 
  1655.500 -6.6060  7.8570 -7.9533  7.8570 
  1656.000 -6.5800  7.1200 -7.9289  7.1200 
  1656.500 -6.2590  6.7340 -7.6094  6.7340 
  1657.000 -5.9380  6.3480 -7.2900  6.3480 
  1657.500 -5.0310  5.7170 -6.3845  5.7170 
