~Version Information
VERS.                     2.0: CWLS log ASCII Standard Version 2.00
WRAP.                      NO: One line per depth step
~Well Information Block
#MNEM.UNIT                               Data Type  Information
#---------                               ---------  -----------
STRT.FT                                    20.0000:
STOP.FT                                  4800.0000:
STEP.FT                                     0.5000:
NULL.                 -999.25                     :
COMP.                                             :COMPANY            
WELL.     SAN EMIDIO C-1                          :WELL               
FLD .                                             :FIELD              
CTRY.                                             :COUNTRY            
STAT.                                             :STATE              
LOC .                                             :LOCATION           
UWI .                                             :UNIQUE WELL ID     
SRVC.                                             :Service company    
DATE.                                             :LOG DATE           
~Curve Information
#MNEM.UNIT           API CODE  Curve Description
#---------           --------  -----------------
DEPT.FT                      :   1 DEPTH
SP  .MV                      :   2
RESI.OHMM                    :   3
SBL .MV                      :   4
RS  .OHMM                    :   5
~A
# ...
  4479.000 -13.618  13.421 -15.618  13.421 
  4479.500 -13.748  13.825 -15.748  13.825 
  4480.000 -12.444  11.849 -14.444  11.849 
  4480.500 -11.932  10.210 -13.932  10.210 
  4481.000 -12.036  9.7970 -14.036  9.7970 
  4481.500 -12.441  9.6500 -14.441  9.6500 
  4482.000 -12.847  9.6450 -14.847  9.6450 
  4482.500 -13.655  9.6760 -15.655  9.6760 
  4483.000 -14.061  9.7960 -16.061  9.7960 
  4483.500 -14.103  9.9870 -16.103  9.9870 
  4484.000 -13.820  12.435 -15.820  12.435 
  4484.500 -13.538  13.480 -15.538  13.480 
  4485.000 -13.059  14.524 -15.059  14.524 
  4485.500 -13.436  16.081 -15.436  16.081 
  4486.000 -13.811  16.858 -15.811  16.858 
  4486.500 -14.220  17.201 -16.220  17.201 
  4487.000 -14.412  17.544 -16.412  17.544 
  4487.500 -14.513  18.073 -16.513  18.073 
  4488.000 -14.246  18.601 -16.246  18.601 
  4488.500 -13.979  18.996 -15.979  18.996 
  4489.000 -13.957  19.391 -15.957  19.391 
  4489.500 -13.936  18.976 -15.936  18.976 
  4490.000 -14.513  18.031 -16.513  18.031 
  4490.500 -15.090  16.125 -17.090  16.125 
  4491.000 -15.682  15.304 -17.682  15.304 
  4491.500 -16.273  13.540 -18.273  13.540 
  4492.000 -16.772  12.221 -18.772  12.221 
  4492.500 -17.209  11.382 -19.209  11.382 
  4493.000 -17.678  11.147 -19.678  11.147 
  4493.500 -16.033  12.280 -18.033  12.280 
  4494.000 -15.065  13.376 -17.065  13.376 
  4494.500 -14.921  13.798 -16.921  13.798 
  4495.000 -15.450  14.113 -17.450  14.113 
  4495.500 -15.980  14.181 -17.980  14.181 
  4496.000 -16.356  14.249 -18.356  14.249 
  4496.500 -16.318  12.359 -18.318  12.359 
  4497.000 -16.280  11.591 -18.280  11.591 
  4497.500 -15.986  11.409 -17.986  11.409 
  4498.000 -15.734  11.352 -17.734  11.352 
  4498.500 -15.481  11.295 -17.481  11.295 
  4499.000 -14.761  11.273 -16.761  11.273 
  4499.500 -14.615  11.251 -16.615  11.251 
  4500.000 -14.870  11.386 -16.870  11.386 
  4500.500 -15.516  11.642 -17.516  11.642 
  4501.000 -16.225  11.899 -18.225  11.899 
  4501.500 -16.412  14.007 -18.412  14.007 
  4502.000 -14.701  14.397 -16.701  14.397 
  4502.500 -12.931  14.606 -14.931  14.606 
  4503.000 -11.833  13.343 -13.833  13.343 
  4503.500 -11.407  12.631 -13.407  12.631 
  4504.000 -12.973  11.918 -14.973  11.918 
  4504.500 -14.231  12.091 -16.231  12.091 
  4505.000 -14.849  12.320 -16.849  12.320 
  4505.500 -13.566  12.424 -15.566  12.424 
  4506.000 -12.559  12.047 -14.559  12.047 
  4506.500 -12.320  11.770 -14.320  11.770 
  4507.000 -12.814  11.493 -14.814  11.493 
  4507.500 -13.398  11.116 -15.398  11.116 
  4508.000 -14.258  12.464 -16.258  12.464 
  4508.500 -15.119  13.812 -17.119  13.812 
  4509.000 -15.676  15.709 -17.676  15.709 
  4509.500 -15.710  17.572 -17.710  17.572 
  4510.000 -15.422  20.696 -17.422  20.696 
  4510.500 -15.135  22.878 -17.135  22.878 
  4511.000 -14.771  25.486 -16.771  25.486 
  4511.500 -14.407  26.222 -16.407  26.222 
  4512.000 -14.012  26.958 -16.012  26.958 
  4512.500 -13.618  28.642 -15.618  28.642 
  4513.000 -12.860  30.113 -14.860  30.113 
  4513.500 -12.510  30.413 -14.510  30.413 
  4514.000 -12.160  29.876 -14.160  29.876 
  4514.500 -11.583  28.062 -13.583  28.062 
  4515.000 -11.006  25.803 -13.006  25.803 
  4515.500 -10.126  20.010 -12.126  20.010 
  4516.000 -9.9760  17.572 -11.976  17.572 
  4516.500 -12.366  16.718 -14.366  16.718 
  4517.000 -13.626  15.472 -15.626  15.472 
  4517.500 -14.028  13.426 -16.028  13.426 
  4518.000 -13.877  12.926 -15.877  12.926 
  4518.500 -13.726  13.260 -15.726  13.260 
  4519.000 -12.859  13.915 -14.859  13.915 
  4519.500 -11.991  15.849 -13.991  15.849 
  4520.000 -11.261  18.901 -13.261  18.901 
  4520.500 -10.745  19.520 -12.745  19.520 
  4521.000 -10.566  19.749 -12.566  19.749 
  4521.500 -11.089  19.836 -13.089  19.836 
  4522.000 -11.613  19.122 -13.613  19.122 
  4522.500 -12.720  17.893 -14.720  17.893 
  4523.000 -13.275  17.216 -15.275  17.216 
  4523.500 -13.569  15.970 -15.569  15.970 
  4524.000 -13.863  15.284 -15.863  15.284 
  4524.500 -13.868  14.598 -15.868  14.598 
  4525.000 -13.611  12.906 -15.611  12.906 
  4525.500 -13.354  12.229 -15.354  12.229 
  4526.000 -12.868  11.552 -14.868  11.552 
  4526.500 -12.383  10.607 -14.383  10.607 
  4527.000 -12.097  10.479 -14.097  10.479 
  4527.500 -11.811  10.530 -13.811  10.530 
  4528.000 -11.601  10.687 -13.601  10.687 
  4528.500 -11.849  10.801 -13.849  10.801 
  4529.000 -12.526  10.915 -14.526  10.915 
  4529.500 -13.173  10.678 -15.173  10.678 
  4530.000 -13.482  10.410 -15.482  10.410 
  4530.500 -13.702  10.239 -15.702  10.239 
  4531.000 -13.706  10.068 -15.706  10.068 
  4531.500 -13.649  9.9390 -15.649  9.9390 
  4532.000 -13.316  9.9380 -15.316  9.9380 
  4532.500 -12.966  10.733 -14.966  10.733 
  4533.000 -12.617  11.274 -14.617  11.274 
  4533.500 -12.348  11.814 -14.348  11.814 
  4534.000 -12.350  12.893 -14.350  12.893 
  4534.500 -12.352  13.068 -14.352  13.068 
  4535.000 -12.493  13.155 -14.493  13.155 
  4535.500 -12.635  13.243 -14.635  13.243 
  4536.000 -12.884  12.704 -14.884  12.704 
  4536.500 -13.133  12.152 -15.133  12.152 
  4537.000 -13.397  11.563 -15.397  11.563 
  4537.500 -13.661  11.028 -15.661  11.028 
  4538.000 -13.972  10.492 -15.972  10.492 
  4538.500 -14.282  9.9200 -16.282  9.9200 
  4539.000 -14.656  9.6790 -16.656  9.6790 
  4539.500 -15.028  9.4370 -17.028  9.4370 
  4540.000 -15.214  10.391 -17.214  10.391 
  4540.500 -15.400  10.958 -17.400  10.958 
  4541.000 -15.836  12.145 -17.836  12.145 
  4541.500 -15.991  13.245 -17.991  13.245 
  4542.000 -16.146  15.391 -18.146  15.391 
  4542.500 -16.736  16.171 -18.736  16.171 
  4543.000 -16.891  16.061 -18.891  16.061 
  4543.500 -16.526  15.633 -18.526  15.633 
  4544.000 -16.161  15.204 -18.161  15.204 
  4544.500 -15.374  14.027 -17.374  14.027 
  4545.000 -15.146  13.510 -17.146  13.510 
  4545.500 -14.919  12.994 -16.919  12.994 
  4546.000 -15.507  12.029 -17.507  12.029 
  4546.500 -16.275  11.895 -18.275  11.895 
  4547.000 -16.401  11.760 -18.401  11.760 
  4547.500 -16.526  11.827 -18.526  11.827 
  4548.000 -16.652  14.222 -18.652  14.222 
  4548.500 -16.544  15.331 -18.544  15.331 
  4549.000 -16.435  16.440 -18.435  16.440 
  4549.500 -16.327  17.359 -18.327  17.359 
  4550.000 -16.181  17.978 -18.181  17.978 
  4550.500 -15.879  19.662 -17.879  19.662 
  4551.000 -14.626  21.294 -16.626  21.294 
  4551.500 -13.284  22.340 -15.284  22.340 
  4552.000 -13.010  23.387 -15.010  23.387 
  4552.500 -13.750  25.071 -15.750  25.071 
  4553.000 -15.619  26.597 -17.619  26.597 
  4553.500 -17.000  26.843 -19.000  26.843 
  4554.000 -18.321  26.094 -20.321  26.094 
  4554.500 -18.966  23.747 -20.966  23.747 
  4555.000 -18.999  20.635 -20.999  20.635 
  4555.500 -19.032  18.733 -21.032  18.733 
  4556.000 -17.844  21.146 -19.844  21.146 
  4556.500 -13.929  23.453 -15.929  23.453 
  4557.000 -10.963  22.455 -12.963  22.455 
  4557.500 -10.754  21.422 -12.754  21.422 
  4558.000 -11.369  20.727 -13.369  20.727 
  4558.500 -12.105  19.854 -14.105  19.854 
  4559.000 -12.841  19.656 -14.841  19.656 
  4559.500 -14.346  21.448 -16.346  21.448 
  4560.000 -14.808  22.068 -16.808  22.068 
  4560.500 -15.269  22.402 -17.269  22.402 
  4561.000 -15.703  21.956 -17.703  21.956 
  4561.500 -16.136  20.265 -18.136  20.265 
  4562.000 -16.353  19.038 -18.353  19.038 
  4562.500 -16.569  17.436 -18.569  17.436 
  4563.000 -17.004  15.497 -19.004  15.497 
  4563.500 -17.221  14.321 -19.221  14.321 
  4564.000 -16.765  13.716 -18.765  13.716 
  4564.500 -15.911  12.843 -17.911  12.843 
  4565.000 -14.506  11.668 -16.506  11.668 
  4565.500 -14.371  11.132 -16.371  11.132 
  4566.000 -14.235  11.503 -16.235  11.503 
  4566.500 -14.423  13.845 -16.423  13.845 
  4567.000 -14.611  14.233 -16.611  14.233 
  4567.500 -14.659  14.187 -16.659  14.187 
  4568.000 -14.707  14.141 -16.707  14.141 
  4568.500 -13.918  13.846 -15.918  13.846 
  4569.000 -12.943  13.550 -14.943  13.550 
  4569.500 -12.547  13.227 -14.547  13.227 
