~Version Information
VERS.                     2.0: CWLS log ASCII Standard Version 2.00
WRAP.                      NO: One line per depth step
~Well Information Block
#MNEM.UNIT                               Data Type  Information
#---------                               ---------  -----------
STRT.FT                                    20.0000:
STOP.FT                                  4800.0000:
STEP.FT                                     0.5000:
NULL.                 -999.25                     :
COMP.                                             :COMPANY            
WELL.     SAN EMIDIO C-1                          :WELL               
FLD .                                             :FIELD              
CTRY.                                             :COUNTRY            
STAT.                                             :STATE              
LOC .                                             :LOCATION           
UWI .                                             :UNIQUE WELL ID     
SRVC.                                             :Service company    
DATE.                                             :LOG DATE           
~Curve Information
#MNEM.UNIT           API CODE  Curve Description
#---------           --------  -----------------
DEPT.FT                      :   1 DEPTH
SP  .MV                      :   2
RESI.OHMM                    :   3
SBL .MV                      :   4
RS  .OHMM                    :   5
~A
# ...
  3478.000 -1.6240  5.3200 -4.5515  5.3200 
  3478.500 -1.3800  6.8880 -4.3070  6.8880 
  3479.000 -3.2840  8.3140 -6.2104  8.3140 
  3479.500 -6.5700  9.3120 -9.4958  9.3120 
  3480.000 -7.6760  9.6860 -10.601  9.6860 
  3480.500 -8.7820  9.7570 -11.707  9.7570 
  3481.000 -10.164  9.9350 -13.088  9.9350 
  3481.500 -11.087  10.451 -14.011  10.451 
  3482.000 -11.456  11.003 -14.379  11.003 
  3482.500 -11.641  9.5760 -14.564  9.5760 
  3483.000 -10.784  8.9160 -13.706  8.9160 
  3483.500 -9.9260  9.2010 -12.847  9.2010 
  3484.000 -9.4200  9.6110 -12.341  9.6110 
  3484.500 -8.9150  9.9310 -11.835  9.9310 
  3485.000 -7.8730  10.269 -10.793  10.269 
  3485.500 -8.7030  9.7160 -11.622  9.7160 
  3486.000 -9.5330  7.9500 -12.452  7.9500 
  3486.500 -10.210  6.5050 -13.128  6.5050 
  3487.000 -9.7200  5.1850 -12.638  5.1850 
  3487.500 -9.2300  5.1490 -12.147  5.1490 
  3488.000 -6.8690  5.2730 -9.7854  5.2730 
  3488.500 -5.4890  5.4240 -8.4049  5.4240 
  3489.000 -4.2020  5.5750 -7.1173  5.5750 
  3489.500 -3.3130  6.0560 -6.2278  6.0560 
  3490.000 -2.4240  7.8210 -5.3382  7.8210 
  3490.500 -1.9040  9.1580 -4.8177  9.1580 
  3491.000 -1.3830  10.602 -4.2961  10.602 
  3491.500 -2.7050  13.561 -5.6176  13.561 
  3492.000 -6.8190  14.613 -9.7310  14.613 
  3492.500 -10.135  15.165 -13.046  15.165 
  3493.000 -11.640  14.380 -14.551  14.380 
  3493.500 -13.483  13.399 -16.393  13.399 
  3494.000 -14.389  11.864 -17.299  11.864 
  3494.500 -15.295  10.384 -18.204  10.384 
  3495.000 -17.169  8.8680 -20.078  8.8680 
  3495.500 -17.907  7.5300 -20.815  7.5300 
  3496.000 -18.400  5.6210 -21.308  5.6210 
  3496.500 -18.171  5.2020 -21.078  5.2020 
  3497.000 -17.942  4.7820 -20.848  4.7820 
  3497.500 -3.1510  6.6000 -6.0569  6.6000 
  3498.000 -2.1700  7.9190 -5.0754  7.9190 
  3498.500 -3.7360  8.3820 -6.6408  8.3820 
  3499.000 -5.3030  8.5960 -8.2073  8.5960 
  3499.500 -7.9750  8.5770 -10.879  8.5770 
  3500.000 -9.6340  7.6320 -12.537  7.6320 
  3500.500 -8.5960  7.0860 -11.499  7.0860 
  3501.000 -5.6860  6.5400 -8.5880  6.5400 
  3501.500 -3.6050  5.6110 -6.5065  5.6110 
  3502.000 -2.1990  5.1450 -5.0999  5.1450 
  3502.500 -2.7420  5.6430 -5.6424  5.6430 
  3503.000 -3.2840  7.1210 -6.1838  7.1210 
  3503.500 -4.7170  7.5650 -7.6163  7.5650 
  3504.000 -6.1500  8.0080 -9.0487  8.0080 
  3504.500 -7.7210  7.2930 -10.619  7.2930 
  3505.000 -8.6170  5.9720 -11.515  5.9720 
  3505.500 -2.5160  5.5240 -5.4131  5.5240 
  3506.000 -1.3250  5.4510 -4.2215  5.4510 
  3506.500 -1.2380  5.9480 -4.1340  5.9480 
  3507.000 -4.8350  6.4460 -7.7304  6.4460 
  3507.500 -11.838  7.8340 -14.733  7.8340 
  3508.000 -14.943  8.5100 -17.837  8.5100 
  3508.500 -16.514  9.1860 -19.408  9.1860 
  3509.000 -18.085  10.450 -20.978  10.450 
  3509.500 -20.424  9.4670 -23.317  9.4670 
  3510.000 -21.688  8.7700 -24.580  8.7700 
  3510.500 -21.908  8.5360 -24.800  8.5360 
  3511.000 -7.1520  8.8310 -10.043  8.8310 
  3511.500 -4.6560  9.1260 -7.5464  9.1260 
  3512.000 -2.1610  9.4220 -5.0509  9.4220 
  3512.500 -6.0960  9.8650 -8.9853  9.8650 
  3513.000 -7.6050  8.6690 -10.494  8.6690 
  3513.500 -8.6080  7.3830 -11.496  7.3830 
  3514.000 -9.6110  6.4540 -12.499  6.4540 
  3514.500 -10.415  5.5600 -13.302  5.5600 
  3515.000 -8.4260  5.1480 -11.313  5.1480 
  3515.500 -6.4370  5.0030 -9.3230  5.0030 
  3516.000 -2.7910  5.8220 -5.6764  5.8220 
  3516.500 -2.6280  6.8540 -5.5129  6.8540 
  3517.000 -2.4640  7.8860 -5.3483  7.8860 
  3517.500 -4.1890  9.5600 -7.0728  9.5600 
  3518.000 -8.2150  9.7550 -11.098  9.7550 
  3518.500 -11.167  9.8030 -14.050  9.8030 
  3519.000 -15.163  9.8510 -18.045  9.8510 
  3519.500 -17.992  9.8990 -20.874  9.8990 
  3520.000 -15.144  9.9470 -18.025  9.9470 
  3520.500 -12.295  9.9940 -15.175  9.9940 
  3521.000 -10.935  14.076 -13.815  14.076 
  3521.500 -9.5750  16.802 -12.454  16.802 
  3522.000 -8.5380  18.566 -11.417  18.566 
  3522.500 -9.9550  19.277 -12.833  19.277 
  3523.000 -14.288  18.348 -17.166  18.348 
  3523.500 -18.621  16.152 -21.498  16.152 
  3524.000 -22.648  13.814 -25.525  13.814 
  3524.500 -27.134  11.334 -30.010  11.334 
  3525.000 -27.600  10.387 -30.475  10.387 
  3525.500 -8.1790  8.1380 -11.054  8.1380 
  3526.000 -4.6250  5.7110 -7.4994  5.7110 
  3526.500 -3.0960  3.6580 -5.9698  3.6580 
  3527.000 -3.7160  2.1590 -6.5893  2.1590 
  3527.500 -4.7960  1.5330 -7.6687  1.5330 
  3528.000 -6.1520  1.1380 -9.0242  1.1380 
  3528.500 -7.7230  1.0470 -10.595  1.0470 
  3529.000 -7.9740  1.0270 -10.845  1.0270 
  3529.500 -5.3720  1.4890 -8.2425  1.4890 
  3530.000 -4.3030  2.0400 -7.1730  2.0400 
  3530.500 -3.2340  2.3230 -6.1034  2.3230 
  3531.000 -2.3810  2.4460 -5.2498  2.4460 
  3531.500 -2.2950  1.5170 -5.1633  1.5170 
  3532.000 -2.8230  1.1400 -5.6907  1.1400 
  3532.500 -3.1350  0.5680 -6.0022  0.5680 
  3533.000 -3.4470  0.5840 -6.3136  0.5840 
  3533.500 -3.3920  0.8140 -6.2581  0.8140 
  3534.000 -3.3360  1.1770 -6.2015  1.1770 
  3534.500 -2.9890  1.5410 -5.8540  1.5410 
  3535.000 -2.6420  1.8960 -5.5064  1.8960 
  3535.500 -2.5560  2.2500 -5.4199  2.2500 
  3536.000 -2.4700  3.2290 -5.3333  3.2290 
  3536.500 -2.7520  3.6730 -5.6148  3.6730 
  3537.000 -3.3410  4.0100 -6.2032  4.0100 
  3537.500 -3.5920  3.1520 -6.4536  3.1520 
  3538.000 -2.9840  2.9890 -5.8451  2.9890 
  3538.500 -2.6830  3.0050 -5.5435  3.0050 
  3539.000 -2.3810  3.0210 -5.2410  3.0210 
  3539.500 -1.9580  3.6070 -4.8174  3.6070 
  3540.000 -2.2700  4.1230 -5.1289  4.1230 
  3540.500 -2.5830  5.2620 -5.4413  5.2620 
  3541.000 -4.6760  5.4470 -7.5338  5.4470 
  3541.500 -5.3880  5.6320 -8.2452  5.6320 
  3542.000 -6.5910  5.8270 -9.4477  5.8270 
  3542.500 -6.9640  6.4840 -9.8201  6.4840 
  3543.000 -7.1540  7.6420 -10.010  7.6420 
  3543.500 -3.5390  8.6020 -6.3940  8.6020 
  3544.000 -2.1630  9.2070 -5.0175  9.2070 
  3544.500 -1.7400  8.2950 -4.5939  8.2950 
  3545.000 -1.8070  7.2860 -4.6603  7.2860 
  3545.500 -2.9480  6.2770 -5.8008  6.2770 
  3546.000 -4.5190  4.7410 -7.3712  4.7410 
  3546.500 -9.4970  3.9370 -12.349  3.9370 
  3547.000 -12.142  4.3450 -14.993  4.3450 
  3547.500 -13.345  4.9850 -16.196  4.9850 
  3548.000 -15.161  5.4550 -18.011  5.4550 
  3548.500 -16.855  5.9260 -19.704  5.9260 
  3549.000 -17.904  5.4780 -20.753  5.4780 
  3549.500 -18.217  4.6200 -21.065  4.6200 
  3550.000 -1.8030  4.2440 -4.6508  4.2440 
  3550.500 -1.8580  4.4780 -4.7053  4.4780 
  3551.000 -2.1420  5.1930 -4.9887  5.1930 
  3551.500 -2.4270  5.7480 -5.2732  5.7480 
  3552.000 -7.3000  6.1430 -10.146  6.1430 
  3552.500 -9.9020  6.5370 -12.747  6.5370 
  3553.000 -13.209  7.8230 -16.053  7.8230 
  3553.500 -15.228  10.250 -18.072  10.250 
  3554.000 -17.891  11.376 -20.734  11.376 
  3554.500 -20.524  12.109 -23.367  12.109 
  3555.000 -21.652  12.058 -24.494  12.058 
  3555.500 -22.750  10.972 -25.592  10.972 
  3556.000 -20.656  10.100 -23.497  10.100 
  3556.500 -15.647  9.8710 -18.488  9.8710 
  3557.000 -14.167  11.103 -17.007  11.103 
  3557.500 -16.508  12.372 -19.348  12.372 
  3558.000 -18.848  13.854 -21.687  13.854 
  3558.500 -23.936  14.106 -26.774  14.106 
  3559.000 -26.231  12.806 -29.069  12.806 
  3559.500 -27.329  6.7270 -30.166  6.7270 
  3560.000 -28.151  5.0360 -30.988  5.0360 
  3560.500 -27.868  4.1640 -30.704  4.1640 
  3561.000 -25.590  3.5240 -28.426  3.5240 
  3561.500 -9.2860  3.1700 -12.121  3.1700 
  3562.000 -10.016  3.2610 -12.851  3.2610 
  3562.500 -10.592  3.4240 -13.426  3.4240 
  3563.000 -10.923  3.5240 -13.756  3.5240 
  3563.500 -11.223  3.6240 -14.056  3.6240 
  3564.000 -10.050  3.7070 -12.882  3.7070 
  3564.500 -8.5700  3.7890 -11.402  3.7890 
  3565.000 -7.8880  3.8710 -10.719  3.8710 
  3565.500 -7.0830  3.9540 -9.9137  3.9540 
  3566.000 -5.1120  6.6130 -7.9421  6.6130 
  3566.500 -1.8210  6.8820 -4.6506  6.8820 
  3567.000 -0.9550  7.2140 -3.7840  7.2140 
  3567.500 -1.8530  7.5460 -4.6814  7.5460 
  3568.000 -2.7520  8.4580 -5.5799  8.4580 
  3568.500 -7.6240  8.8350 -10.451  8.8350 
