~Version Information
VERS.                     2.0: CWLS log ASCII Standard Version 2.00
WRAP.                      NO: One line per depth step
~Well Information Block
#MNEM.UNIT                               Data Type  Information
#---------                               ---------  -----------
STRT.FT                                    20.0000:
STOP.FT                                  4800.0000:
STEP.FT                                     0.5000:
NULL.                 -999.25                     :
COMP.                                             :COMPANY            
WELL.     SAN EMIDIO C-1                          :WELL               
FLD .                                             :FIELD              
CTRY.                                             :COUNTRY            
STAT.                                             :STATE              
LOC .                                             :LOCATION           
UWI .                                             :UNIQUE WELL ID     
SRVC.                                             :Service company    
DATE.                                             :LOG DATE           
~Curve Information
#MNEM.UNIT           API CODE  Curve Description
#---------           --------  -----------------
DEPT.FT                      :   1 DEPTH
SP  .MV                      :   2
RESI.OHMM                    :   3
SBL .MV                      :   4
RS  .OHMM                    :   5
~A
# ...
   293.000 -14.797  37.285 -14.797  37.285 
   293.500 -14.874  39.339 -14.874  39.339 
   294.000 -15.001  41.786 -15.001  41.786 
   294.500 -15.032  44.663 -15.032  44.663 
   295.000 -15.063  44.304 -15.063  44.304 
   295.500 -15.065  45.768 -15.065  45.768 
   296.000 -15.067  48.395 -15.067  48.395 
   296.500 -15.024  49.993 -15.024  49.993 
   297.000 -14.981  51.591 -14.981  51.591 
   297.500 -14.936  51.035 -14.936  51.035 
   298.000 -14.891  49.674 -14.891  49.674 
   298.500 -14.861  48.530 -14.861  48.530 
   299.000 -14.831  44.167 -14.831  44.167 
   299.500 -14.773  42.414 -14.773  42.414 
   300.000 -14.773  39.821 -14.773  39.821 
   300.500 -14.773  41.732 -14.773  41.732 
   301.000 -14.805  42.035 -14.805  42.035 
   301.500 -14.837  41.998 -14.837  41.998 
   302.000 -14.898  40.926 -14.898  40.926 
   302.500 -14.960  38.262 -14.960  38.262 
   303.000 -15.022  35.490 -15.022  35.490 
   303.500 -15.084  34.310 -15.084  34.310 
   304.000 -15.125  33.879 -15.125  33.879 
   304.500 -15.166  33.790 -15.166  33.790 
   305.000 -15.206  33.771 -15.206  33.771 
   305.500 -15.258  34.502 -15.258  34.502 
   306.000 -15.309  35.789 -15.309  35.789 
   306.500 -15.360  41.043 -15.360  41.043 
   307.000 -15.400  43.937 -15.400  43.937 
   307.500 -15.441  43.847 -15.441  43.847 
   308.000 -15.481  44.167 -15.481  44.167 
   308.500 -15.559  50.735 -15.559  50.735 
   309.000 -15.636  51.431 -15.636  51.431 
   309.500 -15.697  51.314 -15.697  51.314 
   310.000 -15.758  51.197 -15.758  51.197 
   310.500 -15.778  51.178 -15.778  51.178 
   311.000 -15.799  51.231 -15.799  51.231 
   311.500 -15.819  51.463 -15.819  51.463 
   312.000 -15.761  54.625 -15.761  54.625 
   312.500 -15.638  54.714 -15.638  54.714 
   313.000 -15.544  54.803 -15.544  54.803 
   313.500 -15.451  54.640 -15.451  54.640 
   314.000 -15.343  54.068 -15.343  54.068 
   314.500 -15.235  52.941 -15.235  52.941 
   315.000 -15.021  51.814 -15.021  51.814 
   315.500 -15.251  50.544 -15.251  50.544 
   316.000 -15.481  44.153 -15.481  44.153 
   316.500 -16.561  46.137 -16.561  46.137 
   317.000 -16.898  47.203 -16.898  47.203 
   317.500 -17.235  48.269 -17.235  48.269 
   318.000 -17.911  49.335 -17.911  49.335 
   318.500 -18.588  50.401 -18.588  50.401 
   319.000 -19.359  51.467 -19.359  51.467 
   319.500 -19.574  52.932 -19.574  52.932 
   320.000 -19.728  54.397 -19.728  54.397 
   320.500 -19.727  54.468 -19.727  54.468 
   321.000 -18.713  54.539 -18.713  54.539 
   321.500 -17.943  55.305 -17.943  55.305 
   322.000 -17.113  56.484 -17.113  56.484 
   322.500 -16.499  57.663 -16.499  57.663 
   323.000 -16.297  58.144 -16.297  58.144 
   323.500 -16.096  58.322 -16.096  58.322 
   324.000 -16.006  58.464 -16.006  58.464 
   324.500 -16.560  58.535 -16.560  58.535 
   325.000 -17.051  58.588 -17.051  58.588 
   325.500 -17.604  58.426 -17.604  58.426 
   326.000 -18.158  58.086 -18.158  58.086 
   326.500 -18.897  57.746 -18.897  57.746 
   327.000 -19.127  55.796 -19.127  55.796 
   327.500 -19.356  55.420 -19.356  55.420 
   328.000 -19.280  55.045 -19.280  55.045 
   328.500 -19.203  54.239 -19.203  54.239 
   329.000 -18.559  53.094 -18.559  53.094 
   329.500 -17.790  51.788 -17.790  51.788 
   330.000 -17.083  51.018 -17.083  51.018 
   330.500 -16.621  50.410 -16.621  50.410 
   331.000 -16.159  49.846 -16.159  49.846 
   331.500 -15.485  49.283 -15.485  49.283 
   332.000 -15.268  48.719 -15.268  48.719 
   332.500 -14.869  43.713 -14.869  43.713 
   333.000 -14.745  42.157 -14.745  42.157 
   333.500 -14.914  40.315 -14.914  40.315 
   334.000 -15.083  39.295 -15.083  39.295 
   334.500 -15.392  38.883 -15.392  38.883 
   335.000 -15.421  39.222 -15.421  39.222 
   335.500 -15.451  41.670 -15.451  41.670 
   336.000 -15.435  42.599 -15.435  42.599 
   336.500 -15.420  43.045 -15.420  43.045 
   337.000 -15.329  43.151 -15.329  43.151 
   337.500 -15.191  41.917 -15.191  41.917 
   338.000 -15.052  40.039 -15.052  40.039 
   338.500 -14.838  37.965 -14.838  37.965 
   339.000 -14.684  36.980 -14.684  36.980 
   339.500 -14.530  36.408 -14.530  36.408 
   340.000 -14.376  36.300 -14.376  36.300 
   340.500 -14.468  38.462 -14.468  38.462 
   341.000 -14.560  40.516 -14.560  40.516 
   341.500 -14.791  41.874 -14.791  41.874 
   342.000 -15.022  42.802 -15.022  42.802 
   342.500 -15.270  43.176 -15.270  43.176 
   343.000 -15.330  43.193 -15.330  43.193 
   343.500 -15.391  43.014 -15.391  43.014 
   344.000 -15.406  42.836 -15.406  42.836 
   344.500 -15.422  42.030 -15.422  42.030 
   345.000 -15.376  41.225 -15.376  41.225 
   345.500 -15.329  39.507 -15.329  39.507 
   346.000 -15.298  38.040 -15.298  38.040 
   346.500 -15.267  37.093 -15.267  37.093 
   347.000 -15.236  36.109 -15.236  36.109 
   347.500 -15.176  35.178 -15.176  35.178 
   348.000 -15.116  35.714 -15.116  35.714 
   348.500 -15.095  36.964 -15.095  36.964 
   349.000 -15.074  40.091 -15.074  40.091 
   349.500 -15.053  40.572 -15.053  40.572 
   350.000 -15.024  39.553 -15.024  39.553 
   350.500 -14.995  37.442 -14.995  37.442 
   351.000 -14.966  35.742 -14.966  35.742 
   351.500 -14.909  34.418 -14.909  34.418 
   352.000 -14.852  34.559 -14.852  34.559 
   352.500 -14.855  34.701 -14.855  34.701 
   353.000 -14.858  35.145 -14.858  35.145 
   353.500 -14.860  35.590 -14.860  35.590 
   354.000 -14.863  35.891 -14.863  35.891 
   354.500 -14.866  36.086 -14.866  36.086 
   355.000 -14.869  36.244 -14.869  36.244 
   355.500 -14.889  36.349 -14.889  36.349 
   356.000 -14.908  36.276 -14.908  36.276 
   356.500 -14.943  35.667 -14.943  35.667 
   357.000 -14.992  34.127 -14.992  34.127 
   357.500 -15.040  32.428 -15.040  32.428 
   358.000 -15.138  30.192 -15.138  30.192 
   358.500 -15.233  28.420 -15.233  28.420 
   359.000 -15.329  27.220 -15.329  27.220 
   359.500 -15.410  26.664 -15.410  26.664 
   360.000 -15.490  26.698 -15.490  26.698 
   360.500 -15.523  27.554 -15.523  27.554 
   361.000 -15.556  31.020 -15.556  31.020 
   361.500 -15.605  37.095 -15.605  37.095 
   362.000 -15.654  38.701 -15.654  38.701 
   362.500 -15.689  39.485 -15.689  39.485 
   363.000 -15.724  39.662 -15.724  39.662 
   363.500 -15.729  39.750 -15.729  39.750 
   364.000 -15.748  39.855 -15.748  39.855 
   364.500 -15.766  40.336 -15.766  40.336 
   365.000 -15.769  41.603 -15.769  41.603 
   365.500 -15.771  42.834 -15.771  42.834 
   366.000 -15.774  43.618 -15.774  43.618 
   366.500 -15.777  44.134 -15.777  44.134 
   367.000 -15.722  44.418 -15.722  44.418 
   367.500 -15.678  44.507 -15.678  44.507 
   368.000 -15.634  44.468 -15.634  44.468 
   368.500 -15.515  44.378 -15.515  44.378 
   369.000 -15.396  44.287 -15.396  44.287 
   369.500 -15.307  43.927 -15.307  43.927 
   370.000 -15.263  43.710 -15.263  43.710 
   370.500 -15.219  43.592 -15.219  43.592 
   371.000 -15.284  43.475 -15.284  43.475 
   371.500 -15.349  43.357 -15.349  43.357 
   372.000 -15.477  43.238 -15.477  43.238 
   372.500 -15.527  43.235 -15.527  43.235 
   373.000 -15.577  43.215 -15.577  43.215 
   373.500 -15.611  43.285 -15.611  43.285 
   374.000 -15.644  43.623 -15.644  43.623 
   374.500 -15.664  44.407 -15.664  44.407 
   375.000 -15.683  45.942 -15.683  45.942 
   375.500 -15.696  47.335 -15.696  47.335 
   376.000 -15.708  47.904 -15.708  47.904 
   376.500 -15.721  47.724 -15.721  47.724 
   377.000 -15.735  47.561 -15.735  47.561 
   377.500 -15.748  47.702 -15.748  47.702 
   378.000 -15.761  48.004 -15.761  48.004 
   378.500 -15.811  49.057 -15.811  49.057 
   379.000 -15.861  49.292 -15.861  49.292 
   379.500 -15.910  49.528 -15.910  49.528 
   380.000 -15.959  49.764 -15.959  49.764 
   380.500 -16.027  50.000 -16.027  50.000 
   381.000 -16.076  50.236 -16.076  50.236 
   381.500 -16.125  50.413 -16.125  50.413 
   382.000 -16.191  50.589 -16.191  50.589 
   382.500 -16.208  53.822 -16.208  53.822 
   383.000 -16.226  54.302 -16.226  54.302 
   383.500 -16.183  54.336 -16.183  54.336 
