~Version Information
VERS.                     2.0: CWLS log ASCII Standard Version 2.00
WRAP.                      NO: One line per depth step
~Well Information Block
#MNEM.UNIT                               Data Type  Information
#---------                               ---------  -----------
STRT.FT                                    20.0000:
STOP.FT                                  4800.0000:
STEP.FT                                     0.5000:
NULL.                 -999.25                     :
COMP.                                             :COMPANY            
WELL.     SAN EMIDIO C-1                          :WELL               
FLD .                                             :FIELD              
CTRY.                                             :COUNTRY            
STAT.                                             :STATE              
LOC .                                             :LOCATION           
UWI .                                             :UNIQUE WELL ID     
SRVC.                                             :Service company    
DATE.                                             :LOG DATE           
~Curve Information
#MNEM.UNIT           API CODE  Curve Description
#---------           --------  -----------------
DEPT.FT                      :   1 DEPTH
SP  .MV                      :   2
RESI.OHMM                    :   3
SBL .MV                      :   4
RS  .OHMM                    :   5
~A
    20.000 -1.6780 -999.25 -1.6780 -999.25 
    20.500 -0.4200  9.4870 -0.4200  9.4870 
    21.000 -0.4540  9.6650 -0.4540  9.6650 
    21.500 -0.4880  8.6080 -0.4880  8.6080 
    22.000 -0.5850  7.9980 -0.5850  7.9980 
    22.500 -0.6950  7.8000 -0.6950  7.8000 
    23.000 -0.8060  7.6380 -0.8060  7.6380 
    23.500 -0.7800  7.5300 -0.7800  7.5300 
    24.000 -0.4450  7.4400 -0.4450  7.4400 
    24.500  0.0430  7.3320  0.0430  7.3320 
    25.000  0.2870  7.2950  0.2870  7.2950 
    25.500  0.2990  7.3570  0.2990  7.3570 
    26.000  0.3120  7.4190  0.3120  7.4190 
    26.500  0.0600  7.9180  0.0600  7.9180 
    27.000 -0.6210  8.2220 -0.6210  8.2220 
    27.500 -1.9790  9.8860 -1.9790  9.8860 
    28.000 -2.9670  10.512 -2.9670  10.512 
    28.500 -3.6180  10.314 -3.6180  10.314 
    29.000 -3.6510  10.117 -3.6510  10.117 
    29.500 -3.6840  9.8460 -3.6840  9.8460 
    30.000 -3.3820  9.8820 -3.3820  9.8820 
    30.500 -3.2320  10.346 -3.2320  10.346 
    31.000 -3.3600  11.258 -3.3600  11.258 
    31.500 -3.7640  12.510 -3.7640  12.510 
    32.000 -4.5670  13.172 -4.5670  13.172 
    32.500 -5.4010  14.550 -5.4010  14.550 
    33.000 -7.1600  15.847 -7.1600  15.847 
    33.500 -9.0420  17.144 -9.0420  17.144 
    34.000 -10.091  19.273 -10.091  19.273 
    34.500 -11.326  19.935 -11.326  19.935 
    35.000 -12.992  21.240 -12.992  21.240 
    35.500 -13.487  22.063 -13.487  22.063 
    36.000 -12.753  23.011 -12.753  23.011 
    36.500 -12.203  26.662 -12.203  26.662 
    37.000 -11.960  28.290 -11.960  28.290 
    37.500 -12.240  27.448 -12.240  27.448 
    38.000 -13.413  26.677 -13.413  26.677 
    38.500 -14.124  25.155 -14.124  25.155 
    39.000 -14.835  24.205 -14.835  24.205 
    39.500 -15.795  24.472 -15.795  24.472 
    40.000 -16.445  25.976 -16.445  25.976 
    40.500 -16.942  29.340 -16.942  29.340 
    41.000 -16.976  31.111 -16.976  31.111 
    41.500 -16.486  33.187 -16.486  33.187 
    42.000 -13.012  36.534 -13.012  36.534 
    42.500 -11.137  39.469 -11.137  39.469 
    43.000 -6.6170  42.476 -6.6170  42.476 
    43.500 -5.4200  44.910 -5.4200  44.910 
    44.000 -2.9300  47.343 -2.9300  47.343 
    44.500 -1.3640  52.337 -1.3640  52.337 
    45.000 -0.6900  52.372 -0.6900  52.372 
    45.500 -0.3250  52.121 -0.3250  52.121 
    46.000 -0.2200  49.900 -0.2200  49.900 
    46.500 -0.1140  48.306 -0.1140  48.306 
    47.000  0.0960  46.479  0.0960  46.479 
    47.500  0.1840  45.117  0.1840  45.117 
    48.000  0.2110  50.039  0.2110  50.039 
    48.500  0.1760  51.453  0.1760  51.453 
    49.000  0.1120  52.222  0.1120  52.222 
    49.500 -0.0290  52.220 -0.0290  52.220 
    50.000 -0.1700  52.077 -0.1700  52.077 
    50.500 -0.8220  51.592 -0.8220  51.592 
    51.000 -1.3490  50.786 -1.3490  50.786 
    51.500 -1.1830  50.140 -1.1830  50.140 
    52.000 -1.0170  50.086 -1.0170  50.086 
    52.500 -0.7150  50.031 -0.7150  50.031 
    53.000 -0.5790  51.892 -0.5790  51.892 
    53.500 -0.4420  52.052 -0.4420  52.052 
    54.000 -0.3540  52.087 -0.3540  52.087 
    54.500 -0.2650  51.907 -0.2650  51.907 
    55.000 -0.2080  51.495 -0.2080  51.495 
    55.500 -0.2120  49.830 -0.2120  49.830 
    56.000 -0.3280  45.282 -0.3280  45.282 
    56.500 -0.4440  40.733 -0.4440  40.733 
    57.000 -0.5590  40.750 -0.5590  40.750 
    57.500 -0.7680  40.355 -0.7680  40.355 
    58.000 -0.9770  35.163 -0.9770  35.163 
    58.500 -1.1860  34.249 -1.1860  34.249 
    59.000 -1.4690  33.729 -1.4690  33.729 
    59.500 -1.5180  33.639 -1.5180  33.639 
    60.000 -1.5660  34.533 -1.5660  34.533 
    60.500 -1.5120  35.266 -1.5120  35.266 
    61.000 -1.4230  35.820 -1.4230  35.820 
    61.500 -1.3340  35.872 -1.3340  35.872 
    62.000 -1.2440  35.299 -1.2440  35.299 
    62.500 -1.1260  34.349 -1.1260  34.349 
    63.000 -1.0380  33.435 -1.0380  33.435 
    63.500 -0.9780  32.360 -0.9780  32.360 
    64.000 -1.2590  31.124 -1.2590  31.124 
    64.500 -1.5700  29.709 -1.5700  29.709 
    65.000 -1.8500  26.736 -1.8500  26.736 
    65.500 -2.1310  24.927 -2.1310  24.927 
    66.000 -2.3210  23.423 -2.3210  23.423 
    66.500 -2.3550  23.135 -2.3550  23.135 
    67.000 -2.3580  23.582 -2.3580  23.582 
    67.500 -2.3630  31.583 -2.3630  31.583 
    68.000 -2.3650  32.102 -2.3650  32.102 
    68.500 -2.3670  31.420 -2.3670  31.420 
    69.000 -2.3730  31.169 -2.3730  31.169 
    69.500 -2.3910  31.275 -2.3910  31.275 
    70.000 -2.4090  31.418 -2.4090  31.418 
    70.500 -2.4180  31.559 -2.4180  31.559 
    71.000 -2.4380  31.665 -2.4380  31.665 
    71.500 -2.4590  31.709 -2.4590  31.709 
    72.000 -2.4630  31.752 -2.4630  31.752 
    72.500 -2.4680  31.813 -2.4680  31.813 
    73.000 -2.4750  31.875 -2.4750  31.875 
    73.500 -2.4940  31.775 -2.4940  31.775 
    74.000 -2.5140  31.675 -2.5140  31.675 
    74.500 -2.5360  30.688 -2.5360  30.688 
    75.000 -2.5570  30.597 -2.5570  30.597 
    75.500 -2.5620  30.631 -2.5620  30.631 
    76.000 -2.5670  30.666 -2.5670  30.666 
    76.500 -2.5440  30.736 -2.5440  30.736 
    77.000 -2.3650  30.627 -2.3650  30.627 
    77.500 -2.1230  27.725 -2.1230  27.725 
    78.000 -1.7290  26.292 -1.7290  26.292 
    78.500 -1.6570  25.664 -1.6570  25.664 
    79.000 -1.5840  25.143 -1.5840  25.143 
    79.500 -1.6240  25.160 -1.6240  25.160 
    80.000 -1.6890  30.296 -1.6890  30.296 
    80.500 -1.8020  30.688 -1.8020  30.688 
    81.000 -1.9150  30.866 -1.9150  30.866 
    81.500 -2.0120  31.044 -2.0120  31.044 
    82.000 -2.1100  32.277 -2.1100  32.277 
    82.500 -2.2090  32.956 -2.2090  32.956 
    83.000 -2.3070  34.637 -2.3070  34.637 
    83.500 -2.4060  37.804 -2.4060  37.804 
    84.000 -2.3950  39.897 -2.3950  39.897 
    84.500 -2.3840  40.182 -2.3840  40.182 
    85.000 -2.3600  37.639 -2.3600  37.639 
    85.500 -2.3670  35.937 -2.3670  35.937 
    86.000 -2.4640  35.595 -2.4640  35.595 
    86.500 -2.5610  36.291 -2.5610  36.291 
    87.000 -2.6880  36.469 -2.6880  36.469 
    87.500 -2.8160  36.468 -2.8160  36.468 
    88.000 -3.1620  36.072 -3.1620  36.072 
    88.500 -3.1990  35.507 -3.1990  35.507 
    89.000 -3.0350  34.942 -3.0350  34.942 
    89.500 -2.8710  33.776 -2.8710  33.776 
    90.000 -2.7060  34.294 -2.7060  34.294 
    90.500 -2.5420  40.791 -2.5420  40.791 
    91.000 -2.2420  42.078 -2.2420  42.078 
    91.500 -2.1540  45.371 -2.1540  45.371 
    92.000 -2.2220  54.016 -2.2220  54.016 
    92.500 -2.3190  54.909 -2.3190  54.909 
    93.000 -2.6950  55.051 -2.6950  55.051 
    93.500 -2.9460  55.157 -2.9460  55.157 
    94.000 -3.2590  55.227 -3.2590  55.227 
    94.500 -3.5110  55.297 -3.5110  55.297 
    95.000 -3.7620  55.242 -3.7620  55.242 
    95.500 -3.9830  55.188 -3.9830  55.188 
    96.000 -4.1120  54.702 -4.1120  54.702 
    96.500 -4.2100  54.181 -4.2100  54.181 
    97.000 -4.2610  53.267 -4.2610  53.267 
    97.500 -4.3110  52.460 -4.3110  52.460 
    98.000 -4.4110  51.438 -4.4110  51.438 
    98.500 -4.5240  50.792 -4.5240  50.792 
    99.000 -4.6380  50.522 -4.6380  50.522 
    99.500 -4.7340  51.147 -4.7340  51.147 
   100.000 -5.2770  52.752 -5.2770  52.752 
   100.500 -5.2790  52.983 -5.2790  52.983 
   101.000 -5.2800  53.071 -5.2800  53.071 
   101.500 -5.2520  53.159 -5.2520  53.159 
   102.000 -5.1460  53.192 -5.1460  53.192 
   102.500 -5.0400  52.994 -5.0400  52.994 
   103.000 -4.8890  52.277 -4.8890  52.277 
   103.500 -4.7070  51.561 -4.7070  51.561 
   104.000 -4.5550  50.666 -4.5550  50.666 
   104.500 -4.4030  50.164 -4.4030  50.164 
   105.000 -4.2210  43.076 -4.2210  43.076 
   105.500 -4.1930  41.322 -4.1930  41.322 
   106.000 -4.1650  40.124 -4.1650  40.124 
   106.500 -4.2120  38.424 -4.2120  38.424 
   107.000 -4.2590  37.403 -4.2590  37.403 
   107.500 -4.3860  37.080 -4.3860  37.080 
   108.000 -4.5270  37.954 -4.5270  37.954 
   108.500 -4.6670  38.274 -4.6670  38.274 
   109.000 -4.7920  37.558 -4.7920  37.558 
   109.500 -4.9170  36.949 -4.9170  36.949 
   110.000 -5.1990  36.340 -5.1990  36.340 
   110.500 -5.2920  35.283 -5.2920  35.283 
