~Version Information
VERS.                     2.0: CWLS log ASCII Standard Version 2.00
WRAP.                      NO: One line per depth step
~Well Information Block
#MNEM.UNIT                               Data Type  Information
#---------                               ---------  -----------
STRT.FT                                    20.0000:
STOP.FT                                  4800.0000:
STEP.FT                                     0.5000:
NULL.                 -999.25                     :
COMP.                                             :COMPANY            
WELL.     SAN EMIDIO C-1                          :WELL               
FLD .                                             :FIELD              
CTRY.                                             :COUNTRY            
STAT.                                             :STATE              
LOC .                                             :LOCATION           
UWI .                                             :UNIQUE WELL ID     
SRVC.                                             :Service company    
DATE.                                             :LOG DATE           
~Curve Information
#MNEM.UNIT           API CODE  Curve Description
#---------           --------  -----------------
DEPT.FT                      :   1 DEPTH
SP  .MV                      :   2
RESI.OHMM                    :   3
SBL .MV                      :   4
RS  .OHMM                    :   5
~A
# ...
  2841.000 -18.911  22.091 -22.544  22.091 
  2841.500 -20.417  23.695 -24.049  23.695 
  2842.000 -18.333  25.353 -21.964  25.353 
  2842.500 -15.235  25.762 -18.866  25.762 
  2843.000 -14.010  21.910 -17.640  21.910 
  2843.500 -15.241  20.678 -18.871  20.678 
  2844.000 -16.639  17.504 -20.268  17.504 
  2844.500 -18.038  7.4990 -21.667  7.4990 
  2845.000 -20.373  4.3060 -24.001  4.3060 
  2845.500 -21.112  3.3420 -24.740  3.3420 
  2846.000 -20.531  3.7160 -24.158  3.7160 
  2846.500 -17.035  3.8760 -20.661  3.8760 
  2847.000 -13.386  3.7860 -17.012  3.7860 
  2847.500 -7.6800  3.6060 -11.305  3.6060 
  2848.000 -2.2200  3.3910 -5.8448  3.3910 
  2848.500 -0.9030  3.3730 -4.5272  3.3730 
  2849.000 -0.8130  4.1390 -4.4367  4.1390 
  2849.500 -1.0000  4.4940 -4.6231  4.4940 
  2850.000 -1.2470  4.8500 -4.8696  4.8500 
  2850.500 -1.7660  4.7980 -5.3880  4.7980 
  2851.000 -1.6110  4.7450 -5.2325  4.7450 
  2851.500 -1.2400  4.2110 -4.8609  4.2110 
  2852.000 -1.0530  3.6760 -4.6734  3.6760 
  2852.500 -1.2500  3.2490 -4.8698  3.2490 
  2853.000 -1.4470  3.1250 -5.0663  3.1250 
  2853.500 -2.7650  3.1080 -6.3837  3.1080 
  2854.000 -3.5900  3.0910 -7.2082  3.0910 
  2854.500 -5.0920  3.7330 -8.7096  3.7330 
  2855.000 -5.9180  4.6080 -9.5350  4.6080 
  2855.500 -5.7310  5.4110 -9.3475  5.4110 
  2856.000 -4.6240  5.9110 -8.2399  5.9110 
  2856.500 -1.3990  6.4110 -5.0144  6.4110 
  2857.000 -0.6300  6.9110 -4.2448  6.9110 
  2857.500 -0.6880  7.3400 -4.3023  7.3400 
  2858.000 -0.9310  7.7680 -4.5447  7.7680 
  2858.500 -1.1740  8.3750 -4.7872  8.3750 
  2859.000 -2.8290  8.9820 -6.4416  8.9820 
  2859.500 -5.0360  9.8740 -8.6481  9.8740 
  2860.000 -7.5190  10.446 -11.131  10.446 
  2860.500 -11.077  9.1090 -14.688  9.1090 
  2861.000 -12.947  8.4140 -16.557  8.4140 
  2861.500 -14.540  9.1640 -18.150  9.1640 
  2862.000 -16.348  10.145 -19.957  10.145 
  2862.500 -11.098  10.645 -14.707  10.645 
  2863.000 -7.9650  10.914 -11.573  10.914 
  2863.500 -6.7960  8.6320 -10.404  8.6320 
  2864.000 -9.4030  7.2590 -13.010  7.2590 
  2864.500 -11.518  6.6540 -15.125  6.6540 
  2865.000 -13.111  5.8880 -16.717  5.8880 
  2865.500 -13.507  5.3540 -17.112  5.3540 
  2866.000 -5.3110  4.9620 -8.9159  4.9620 
  2866.500 -5.1550  7.2990 -8.7593  7.2990 
  2867.000 -7.2700  8.7440 -10.874  8.7440 
  2867.500 -8.5560  9.1100 -12.159  9.1100 
  2868.000 -9.5200  9.4770 -13.123  9.4770 
  2868.500 -10.484  12.027 -14.086  12.027 
  2869.000 -13.920  12.670 -17.522  12.670 
  2869.500 -14.868  9.9420 -18.469  9.9420 
  2870.000 -15.357  7.5530 -18.957  7.5530 
  2870.500 -9.1550  5.2900 -12.755  5.2900 
  2871.000 -9.5830  3.5430 -13.182  3.5430 
  2871.500 -9.4880  3.0620 -13.087  3.0620 
  2872.000 -9.3930  3.7400 -12.991  3.7400 
  2872.500 -8.5620  4.1510 -12.160  4.1510 
  2873.000 -5.9510  4.5620 -9.5481  4.5620 
  2873.500 -4.1070  3.3500 -7.7036  3.3500 
  2874.000 -2.0790  3.0480 -5.6750  3.0480 
  2874.500 -1.6770  2.9240 -5.2725  2.9240 
  2875.000 -1.2760  2.9070 -4.8709  2.9070 
  2875.500 -1.3960  2.8900 -4.9904  2.8900 
  2876.000 -1.9470  3.1130 -5.5408  3.1130 
  2876.500 -2.1280  3.3370 -5.7212  3.3370 
  2877.000 -1.8490  4.3000 -5.4417  4.3000 
  2877.500 -1.5700  5.6740 -5.1621  5.6740 
  2878.000 -0.8620  7.9390 -4.4536  7.9390 
  2878.500 -0.4920  9.1700 -4.0830  9.1700 
  2879.000 -0.4890  8.7790 -4.0795  8.7790 
  2879.500 -0.4860  8.4590 -4.0759  8.4590 
  2880.000 -1.6200  8.2630 -5.2094  8.2630 
  2880.500 -2.8450  10.386 -6.4338  10.386 
  2881.000 -4.2540  12.544 -7.8423  12.544 
  2881.500 -5.5400  13.365 -9.1277  13.365 
  2882.000 -7.6560  11.137 -11.243  11.137 
  2882.500 -9.3100  9.7650 -12.897  9.7650 
  2883.000 -11.886  8.7670 -15.472  8.7670 
  2883.500 -13.633  8.8030 -17.219  8.8030 
  2884.000 -12.863  11.033 -16.448  11.033 
  2884.500 -10.896  14.065 -14.480  14.065 
  2885.000 -9.7890  14.155 -13.373  14.155 
  2885.500 -9.9400  12.604 -13.523  12.604 
  2886.000 -12.178  12.284 -15.761  12.284 
  2886.500 -13.955  12.490 -17.537  12.490 
  2887.000 -14.996  12.696 -18.578  12.696 
  2887.500 -14.441  14.069 -18.022  14.069 
  2888.000 -13.334  15.746 -16.915  15.746 
  2888.500 -13.516  17.191 -17.096  17.191 
  2889.000 -14.618  17.976 -18.197  17.976 
  2889.500 -15.260  18.013 -18.839  18.013 
  2890.000 -16.086  13.003 -19.664  13.003 
  2890.500 -16.237  8.7950 -19.815  8.7950 
  2891.000 -6.3830  7.9760 -9.9602  7.9760 
  2891.500 -3.8640  7.8160 -7.4406  7.8160 
  2892.000 -3.2480  9.7430 -6.8241  9.7430 
  2892.500 -5.4240  11.669 -8.9995  11.669 
  2893.000 -8.1530  13.596 -11.728  13.596 
  2893.500 -10.729  13.365 -14.303  13.365 
  2894.000 -13.212  13.134 -16.786  13.134 
  2894.500 -14.591  13.402 -18.164  13.402 
  2895.000 -15.447  15.524 -19.020  15.524 
  2895.500 -10.473  15.329 -14.045  15.329 
  2896.000 -7.9540  15.526 -11.526  15.526 
  2896.500 -6.8160  17.702 -10.387  17.702 
  2897.000 -8.2560  19.504 -11.827  19.504 
  2897.500 -11.875  20.681 -15.445  20.681 
  2898.000 -13.929  19.969 -17.498  19.969 
  2898.500 -15.399  17.223 -18.968  17.223 
  2899.000 -16.195  15.762 -19.763  15.762 
  2899.500 -14.228  15.548 -17.796  15.548 
  2900.000 -12.814  15.567 -16.381  15.567 
  2900.500 -13.369  15.611 -16.936  15.611 
  2901.000 -13.893  15.655 -17.459  15.655 
  2901.500 -14.141  15.743 -17.707  15.743 
  2902.000 -13.683  15.795 -17.248  15.795 
  2902.500 -13.164  15.785 -16.728  15.785 
  2903.000 -12.644  15.776 -16.208  15.776 
  2903.500 -3.2260  15.686 -6.7894  15.686 
  2904.000 -3.4880  15.364 -7.0508  15.364 
  2904.500 -3.7510  9.3710 -7.3133  9.3710 
  2905.000 -6.9150  11.029 -10.477  11.029 
  2905.500 -11.890  12.365 -15.451  12.365 
  2906.000 -14.470  13.327 -18.031  13.327 
  2906.500 -15.608  13.968 -19.168  13.968 
  2907.000 -13.063  14.039 -16.622  14.039 
  2907.500 -12.237  13.325 -15.796  13.325 
  2908.000 -14.235  13.306 -17.793  13.306 
  2908.500 -15.496  14.072 -19.054  14.072 
  2909.000 -16.081  15.907 -19.638  15.907 
  2909.500 -17.373  16.459 -20.930  16.459 
  2910.000 -17.958  15.531 -21.514  15.531 
  2910.500 -18.544  12.499 -22.100  12.499 
  2911.000 -16.305  14.674 -19.860  14.674 
  2911.500 -14.067  14.940 -17.622  14.940 
  2912.000 -13.947  14.654 -17.501  14.654 
  2912.500 -13.275  13.922 -16.828  13.922 
  2913.000 -12.602  12.138 -16.155  12.138 
  2913.500 -6.2820  11.424 -9.8343  11.424 
  2914.000 -0.8530  10.710 -4.4047  10.710 
  2914.500 -0.3640  6.5000 -3.9152  6.5000 
  2915.000 -0.5810  5.3410 -4.1316  5.3410 
  2915.500 -0.7980  3.3600 -4.3481  3.3600 
  2916.000 -1.6610  3.1810 -5.2105  3.1810 
  2916.500 -1.0490  3.0020 -4.5980  3.0020 
  2917.000 -0.5610  2.7690 -4.1094  2.7690 
  2917.500 -0.4400  2.5370 -3.9879  2.5370 
  2918.000 -0.3200  2.1610 -3.8673  2.1610 
  2918.500 -3.0240  1.8040 -6.5708  1.8040 
  2919.000 -5.9110  1.4460 -9.4572  1.4460 
  2919.500 -8.3990  1.2670 -11.945  1.2670 
  2920.000 -3.0620  2.6930 -6.6071  2.6930 
  2920.500 -2.2050  2.7810 -5.7495  2.7810 
  2921.000 -1.7780  2.8100 -5.3220  2.8100 
  2921.500 -1.2890  2.8390 -4.8324  2.8390 
  2922.000 -0.8930  2.8670 -4.4359  2.8670 
  2922.500 -0.8030  2.9560 -4.3453  2.9560 
  2923.000 -0.7130  3.0440 -4.2548  3.0440 
  2923.500 -0.7610  3.8990 -4.3022  3.8990 
  2924.000 -0.8100  5.5210 -4.3507  5.5210 
  2924.500 -2.9300  5.4840 -6.4701  5.4840 
  2925.000 -5.7870  5.0020 -9.3266  5.0020 
  2925.500 -9.1350  4.5200 -12.674  4.5200 
  2926.000 -11.286  3.5730 -14.824  3.5730 
  2926.500 -12.424  3.1270 -15.962  3.1270 
  2927.000 -13.071  3.5180 -16.608  3.5180 
  2927.500 -2.7000  4.4270 -6.2368  4.4270 
  2928.000 -1.6590  9.6680 -5.1952  9.6680 
  2928.500 -1.1400  10.042 -4.6757  10.042 
  2929.000 -0.6510  8.7750 -4.1861  8.7750 
  2929.500 -0.7450  7.3650 -4.2796  7.3650 
  2930.000 -3.1110  6.2680 -6.6450  6.2680 
  2930.500 -4.1260  5.1700 -7.6595  5.1700 
  2931.000 -5.8480  3.9210 -9.3809  3.9210 
  2931.500 -6.9550  3.7150 -10.487  3.7150 
