~Version Information
VERS.                     2.0: CWLS log ASCII Standard Version 2.00
WRAP.                      NO: One line per depth step
~Well Information Block
#MNEM.UNIT                               Data Type  Information
#---------                               ---------  -----------
STRT.FT                                    20.0000:
STOP.FT                                  4800.0000:
STEP.FT                                     0.5000:
NULL.                 -999.25                     :
COMP.                                             :COMPANY            
WELL.     SAN EMIDIO C-1                          :WELL               
FLD .                                             :FIELD              
CTRY.                                             :COUNTRY            
STAT.                                             :STATE              
LOC .                                             :LOCATION           
UWI .                                             :UNIQUE WELL ID     
SRVC.                                             :Service company    
DATE.                                             :LOG DATE           
~Curve Information
#MNEM.UNIT           API CODE  Curve Description
#---------           --------  -----------------
DEPT.FT                      :   1 DEPTH
SP  .MV                      :   2
RESI.OHMM                    :   3
SBL .MV                      :   4
RS  .OHMM                    :   5
~A
# ...
  4115.000 -1.5380  0.7270 -3.7605  0.7270 
  4115.500 -1.8570  0.5970 -4.0789  0.5970 
  4116.000 -1.3300  0.6370 -3.5514  0.6370 
  4116.500 -0.8030  0.6780 -3.0238  0.6780 
  4117.000 -0.2050  0.9020 -2.4253  0.9020 
  4117.500 -0.4910  1.1280 -2.7107  1.1280 
  4118.000 -1.0510  1.3550 -3.2701  1.3550 
  4118.500 -1.6730  1.6690 -3.8916  1.6690 
  4119.000 -1.3460  1.8430 -3.5640  1.8430 
  4119.500 -1.0190  1.7850 -3.2365  1.7850 
  4120.000 -0.5120  1.7280 -2.7289  1.7280 
  4120.500 -0.6730  1.3120 -2.8894  1.3120 
  4121.000 -0.8350  1.1300 -3.0508  1.1300 
  4121.500 -4.1850  1.1080 -6.4003  1.1080 
  4122.000 -10.133  1.1570 -12.348  1.1570 
  4122.500 -10.511  1.2060 -12.725  1.2060 
  4123.000 -10.216  1.4150 -12.430  1.4150 
  4123.500 -10.503  1.6240 -12.716  1.6240 
  4124.000 -11.247  2.3260 -13.460  2.3260 
  4124.500 -11.931  2.4300 -14.143  2.4300 
  4125.000 -11.789  2.5330 -14.000  2.5330 
  4125.500 -11.891  2.5970 -14.102  2.5970 
  4126.000 -11.962  2.5740 -14.172  2.5740 
  4126.500 -11.299  2.4280 -13.509  2.4280 
  4127.000 -10.483  2.0850 -12.692  2.0850 
  4127.500 -10.127  2.0090 -12.336  2.0090 
  4128.000 -10.534  2.0040 -12.742  2.0040 
  4128.500 -10.941  2.0270 -13.149  2.0270 
  4129.000 -12.486  2.0500 -14.693  2.0500 
  4129.500 -12.862  2.0790 -15.068  2.0790 
  4130.000 -11.036  2.0030 -13.242  2.0030 
  4130.500 -9.3640  1.9280 -11.569  1.9280 
  4131.000 -8.1200  1.4800 -10.325  1.4800 
  4131.500 -7.6700  1.0310 -9.8742  1.0310 
  4132.000 -7.5420  0.6690 -9.7457  0.6690 
  4132.500 -7.4130  0.6820 -9.6161  0.6820 
  4133.000 -7.4390  0.6950 -9.6415  0.6950 
  4133.500 -7.4660  0.7140 -9.6680  0.7140 
  4134.000 -7.7540  0.7340 -9.9554  0.7340 
  4134.500 -8.2830  0.7540 -10.484  0.7540 
  4135.000 -8.9370  0.7740 -11.137  0.7740 
  4135.500 -9.3780  0.7950 -11.578  0.7950 
  4136.000 -9.4180  0.7910 -11.617  0.7910 
  4136.500 -8.5720  0.7860 -10.771  0.7860 
  4137.000 -7.7550  0.7820 -9.9531  0.7820 
  4137.500 -6.3280  0.7860 -8.5256  0.7860 
  4138.000 -5.5420  0.7900 -7.7390  0.7900 
  4138.500 -5.8280  0.8030 -8.0245  0.8030 
  4139.000 -5.9910  0.8160 -8.1869  0.8160 
  4139.500 -5.9700  0.9300 -8.1654  0.9300 
  4140.000 -5.6760  1.0440 -7.8708  1.0440 
  4140.500 -4.5230  1.1580 -6.7172  1.1580 
  4141.000 -3.6440  1.3030 -5.8377  1.3030 
  4141.500 -2.2490  1.4490 -4.4421  1.4490 
  4142.000 -1.4940  1.5680 -3.6866  1.5680 
  4142.500 -1.8390  1.6880 -4.0310  1.6880 
  4143.000 -3.3510  1.8610 -5.5425  1.8610 
  4143.500 -4.0660  2.0620 -6.2569  2.0620 
  4144.000 -4.1970  2.2620 -6.3874  2.2620 
  4144.500 -2.4640  2.7520 -4.6538  2.7520 
  4145.000 -1.4340  3.1200 -3.6233  3.1200 
  4145.500 -1.0450  3.7560 -3.2337  3.7560 
  4146.000 -2.3550  4.9940 -4.5432  4.9940 
  4146.500 -3.6650  5.3270 -5.8526  5.3270 
  4147.000 -5.6080  5.3760 -7.7951  5.3760 
  4147.500 -6.0600  5.4260 -8.2465  5.4260 
  4148.000 -6.5130  5.3120 -8.6989  5.3120 
  4148.500 -7.1370  5.2010 -9.3224  5.2010 
  4149.000 -7.7610  5.1780 -9.9458  5.1780 
  4149.500 -8.5380  5.3160 -10.722  5.3160 
  4150.000 -8.9760  7.7280 -11.160  7.7280 
  4150.500 -8.2480  7.7780 -10.431  7.7780 
  4151.000 -6.6030  7.8280 -8.7856  7.8280 
  4151.500 -6.2420  9.3510 -8.4241  9.3510 
  4152.000 -6.3090  9.6240 -8.4905  9.6240 
  4152.500 -9.1940  9.8960 -11.375  9.8960 
  4153.000 -12.292  9.5530 -14.472  9.5530 
  4153.500 -15.298  8.4670 -17.478  8.4670 
  4154.000 -16.652  6.2950 -18.831  6.2950 
  4154.500 -15.098  4.6740 -17.277  4.6740 
  4155.000 -12.350  3.8540 -14.528  3.8540 
  4155.500 -9.2330  3.2110 -11.411  3.2110 
  4156.000 -7.6620  3.0310 -9.8391  3.0310 
  4156.500 -6.0910  2.8500 -8.2675  2.8500 
  4157.000 -3.7140  2.8470 -5.8900  2.8470 
  4157.500 -3.8120  2.8430 -5.9874  2.8430 
  4158.000 -3.9100  2.8400 -6.0849  2.8400 
  4158.500 -4.7440  2.8000 -6.9183  2.8000 
  4159.000 -5.3630  2.8320 -7.5368  2.8320 
  4159.500 -3.8080  2.8640 -5.9812  2.8640 
  4160.000 -2.7730  2.9840 -4.9457  2.9840 
  4160.500 -2.1370  5.6100 -4.3091  5.6100 
  4161.000 -2.7880  5.7840 -4.9596  5.7840 
  4161.500 -4.3850  5.9580 -6.5560  5.9580 
  4162.000 -8.9240  6.1500 -11.094  6.1500 
  4162.500 -9.7090  6.2710 -11.879  6.2710 
  4163.000 -10.494  6.4620 -12.663  6.4620 
  4163.500 -10.902  6.4770 -13.071  6.4770 
  4164.000 -10.173  6.4920 -12.341  6.4920 
  4164.500 -8.2200  6.2220 -10.388  6.2220 
  4165.000 -6.1460  5.9530 -8.3131  5.9530 
  4165.500 -6.2280  4.5620 -8.3946  4.5620 
  4166.000 -6.3090  4.2380 -8.4750  4.2380 
  4166.500 -5.8310  4.2790 -7.9965  4.2790 
  4167.000 -5.3770  4.3190 -7.5419  4.3190 
  4167.500 -4.0380  4.3350 -6.2024  4.3350 
  4168.000 -3.2790  4.3500 -5.4428  4.3500 
  4168.500 -2.7180  4.1310 -4.8813  4.1310 
  4169.000 -2.1570  3.5780 -4.3197  3.5780 
  4169.500 -0.9110  2.9700 -3.0731  2.9700 
  4170.000 -0.5200  2.8250 -2.6816  2.8250 
  4170.500 -1.4130  2.8910 -3.5740  2.8910 
  4171.000 -2.3050  2.9850 -4.4655  2.9850 
  4171.500 -3.4480  3.0800 -5.6079  3.0800 
  4172.000 -2.6270  3.1750 -4.7864  3.1750 
  4172.500 -1.4100  3.2700 -3.5688  3.2700 
  4173.000 -1.0170  2.7500 -3.1753  2.7500 
  4173.500 -0.6240  2.1240 -2.7817  2.1240 
  4174.000 -2.4410  1.8360 -4.5982  1.8360 
  4174.500 -2.9060  1.9560 -5.0626  1.9560 
  4175.000 -2.8040  2.3270 -4.9601  2.3270 
  4175.500 -2.7020  3.2110 -4.8575  3.2110 
  4176.000 -2.4030  3.2970 -4.5580  3.2970 
  4176.500 -2.1030  3.1610 -4.2574  3.1610 
  4177.000 -2.4160  3.0250 -4.5698  3.0250 
  4177.500 -3.2810  3.0390 -5.4343  3.0390 
  4178.000 -6.3200  3.0540 -8.4727  3.0540 
  4178.500 -7.9180  4.2380 -10.070  4.2380 
  4179.000 -9.9760  4.5180 -12.128  4.5180 
  4179.500 -8.0550  4.6220 -10.206  4.6220 
  4180.000 -6.5000  4.7780 -8.6505  4.7780 
  4180.500 -4.8840  4.8980 -7.0340  4.8980 
  4181.000 -6.1760  5.0200 -8.3254  5.0200 
  4181.500 -9.8560  5.4250 -12.005  5.4250 
  4182.000 -9.5250  5.9710 -11.673  5.9710 
  4182.500 -9.1930  6.0580 -11.341  6.0580 
  4183.000 -7.5490  6.1060 -9.6962  6.1060 
  4183.500 -6.2720  5.8900 -8.4187  5.8900 
  4184.000 -5.7270  5.1760 -7.8731  5.1760 
  4184.500 -5.5490  4.6570 -7.6945  4.6570 
  4185.000 -5.7230  4.4590 -7.8680  4.4590 
  4185.500 -5.8970  4.3840 -8.0414  4.3840 
  4186.000 -9.4580  4.4340 -11.602  4.4340 
  4186.500 -13.229  5.3900 -15.372  5.3900 
  4187.000 -17.705  11.551 -19.848  11.551 
  4187.500 -20.251  16.592 -22.393  16.592 
  4188.000 -22.646  15.754 -24.788  15.754 
  4188.500 -25.163  14.987 -27.304  14.987 
  4189.000 -27.036  13.952 -29.177  13.952 
  4189.500 -28.909  13.611 -31.049  13.611 
  4190.000 -30.721  14.514 -32.860  14.514 
  4190.500 -32.533  18.204 -34.672  18.204 
  4191.000 -26.298  18.095 -28.436  18.095 
  4191.500 -25.922  17.505 -28.060  17.505 
  4192.000 -25.545  16.258 -27.682  16.258 
  4192.500 -25.338  14.602 -27.475  14.602 
  4193.000 -23.631  13.355 -25.767  13.355 
  4193.500 -19.138  12.676 -21.274  12.676 
  4194.000 -17.246  12.025 -19.381  12.025 
  4194.500 -15.354  11.374 -17.488  11.374 
  4195.000 -12.973  10.089 -15.107  10.089 
  4195.500 -10.592  9.0730 -12.725  9.0730 
  4196.000 -9.4970  8.1110 -11.630  8.1110 
  4196.500 -8.4010  7.2010 -10.533  7.2010 
  4197.000 -7.6880  6.6120 -9.8197  6.6120 
  4197.500 -6.9750  6.0230 -9.1062  6.0230 
  4198.000 -6.0370  4.9340 -8.1676  4.9340 
  4198.500 -5.7980  4.3620 -7.9280  4.3620 
  4199.000 -6.2950  3.8620 -8.4245  3.8620 
  4199.500 -7.0360  3.2000 -9.1649  3.2000 
  4200.000 -7.8990  2.7350 -10.027  2.7350 
  4200.500 -8.0880  3.6200 -10.216  3.6200 
  4201.000 -8.2760  4.8430 -10.403  4.8430 
  4201.500 -8.2840  4.5020 -10.411  4.5020 
  4202.000 -7.5240  4.0540 -9.6502  4.0540 
  4202.500 -5.9090  3.6700 -8.0346  3.6700 
  4203.000 -5.4550  3.2860 -7.5801  3.2860 
  4203.500 -5.8890  2.5520 -8.0135  2.5520 
  4204.000 -6.3230  2.0690 -8.4470  2.0690 
  4204.500 -5.6280  2.3670 -7.7514  2.3670 
  4205.000 -4.7750  2.6660 -6.8979  2.6660 
  4205.500 -3.9220  2.9650 -6.0443  2.9650 
