~Version Information
VERS.                     2.0: CWLS log ASCII Standard Version 2.00
WRAP.                      NO: One line per depth step
~Well Information Block
#MNEM.UNIT                               Data Type  Information
#---------                               ---------  -----------
STRT.FT                                    20.0000:
STOP.FT                                  4800.0000:
STEP.FT                                     0.5000:
NULL.                 -999.25                     :
COMP.                                             :COMPANY            
WELL.     SAN EMIDIO C-1                          :WELL               
FLD .                                             :FIELD              
CTRY.                                             :COUNTRY            
STAT.                                             :STATE              
LOC .                                             :LOCATION           
UWI .                                             :UNIQUE WELL ID     
SRVC.                                             :Service company    
DATE.                                             :LOG DATE           
~Curve Information
#MNEM.UNIT           API CODE  Curve Description
#---------           --------  -----------------
DEPT.FT                      :   1 DEPTH
SP  .MV                      :   2
RESI.OHMM                    :   3
SBL .MV                      :   4
RS  .OHMM                    :   5
~A
# ...
  2568.000 -3.4410  5.2140 -7.3757  5.2140 
  2568.500 -4.3080  7.5890 -8.2421  7.5890 
  2569.000 -6.1640  8.9450 -10.098  8.9450 
  2569.500 -7.4330  9.9610 -11.366  9.9610 
  2570.000 -8.7010  10.799 -12.633  10.799 
  2570.500 -9.7240  11.315 -13.656  11.315 
  2571.000 -10.747  11.508 -14.678  11.508 
  2571.500 -12.142  11.461 -16.073  11.461 
  2572.000 -12.702  11.414 -16.632  11.414 
  2572.500 -12.617  10.497 -16.547  10.497 
  2573.000 -12.406  7.7750 -16.335  7.7750 
  2573.500 -4.9520  7.2980 -8.8806  7.2980 
  2574.000 -0.6750  6.8210 -4.6031  6.8210 
  2574.500 -0.4020  6.4330 -4.3295  6.4330 
  2575.000 -0.3310  6.0450 -4.2580  6.0450 
  2575.500 -0.2600  5.6310 -4.1864  5.6310 
  2576.000 -0.2970  5.2160 -4.2228  5.2160 
  2576.500 -0.3340  4.8290 -4.2593  4.8290 
  2577.000 -0.5560  4.4420 -4.4807  4.4420 
  2577.500 -0.7140  3.6490 -4.6382  3.6490 
  2578.000 -0.8720  3.3430 -4.7956  3.3430 
  2578.500 -1.0480  4.0010 -4.9711  4.0010 
  2579.000 -1.2230  4.5710 -5.1455  4.5710 
  2579.500 -1.0900  4.9970 -5.0120  4.9970 
  2580.000 -0.9570  4.5470 -4.8784  4.5470 
  2580.500 -0.2890  4.0070 -4.2099  4.0070 
  2581.000 -0.2020  3.3940 -4.1223  3.3940 
  2581.500 -0.3320  2.9440 -4.2518  2.9440 
  2582.000 -0.6160  2.5920 -4.5352  2.5920 
  2582.500 -0.8200  2.2410 -4.7386  2.2410 
  2583.000 -1.0240  1.9690 -4.9421  1.9690 
  2583.500 -1.4340  2.5030 -5.3515  2.5030 
  2584.000 -1.4080  3.7160 -5.3250  3.7160 
  2584.500 -1.3820  4.9460 -5.2984  4.9460 
  2585.000 -1.2350  5.3720 -5.1509  5.3720 
  2585.500 -1.0870  5.0470 -5.0023  5.0470 
  2586.000 -0.9700  4.7230 -4.8848  4.7230 
  2586.500 -0.8840  4.0940 -4.7982  4.0940 
  2587.000 -0.9500  3.4650 -4.8637  3.4650 
  2587.500 -1.0160  2.6190 -4.9291  2.6190 
  2588.000 -1.6400  2.3310 -5.5526  2.3310 
  2588.500 -2.6940  1.8980 -6.6060  1.8980 
  2589.000 -3.8710  3.4510 -7.7825  3.4510 
  2589.500 -5.5720  5.1280 -9.4829  5.1280 
  2590.000 -7.9530  5.8230 -11.863  5.8230 
  2590.500 -9.0980  6.2130 -13.008  6.2130 
  2591.000 -10.320  5.3150 -14.229  5.3150 
  2591.500 -11.542  4.9370 -15.451  4.9370 
  2592.000 -13.771  4.5230 -17.679  4.5230 
  2592.500 -14.824  4.8950 -18.732  4.8950 
  2593.000 -16.124  6.8770 -20.031  6.8770 
  2593.500 -16.007  10.057 -19.913  10.057 
  2594.000 -15.519  10.770 -19.425  10.770 
  2594.500 -13.769  11.732 -17.674  11.732 
  2595.000 -13.744  12.480 -17.649  12.480 
  2595.500 -13.627  13.264 -17.531  13.264 
  2596.000 -13.294  12.778 -17.198  12.778 
  2596.500 -11.913  12.418 -15.816  12.418 
  2597.000 -10.901  12.057 -14.804  12.057 
  2597.500 -10.829  11.821 -14.731  11.821 
  2598.000 -10.758  12.175 -14.659  12.175 
  2598.500 -10.671  12.618 -14.572  12.618 
  2599.000 -9.1680  12.938 -13.068  12.938 
  2599.500 -7.7240  13.114 -11.624  13.114 
  2600.000 -6.3130  12.977 -10.212  12.977 
  2600.500 -5.9170  12.840 -9.8157  12.840 
  2601.000 -5.9530  12.567 -9.8512  12.567 
  2601.500 -6.3900  12.439 -10.288  12.439 
  2602.000 -8.5220  13.331 -12.419  13.331 
  2602.500 -10.408  15.026 -14.305  15.026 
  2603.000 -11.277  16.079 -15.173  16.079 
  2603.500 -11.867  15.467 -15.762  15.467 
  2604.000 -12.133  14.211 -16.028  14.211 
  2604.500 -12.400  13.351 -16.294  13.351 
  2605.000 -12.284  12.865 -16.178  12.865 
  2605.500 -11.426  14.257 -15.319  14.257 
  2606.000 -9.0890  15.721 -12.982  15.721 
  2606.500 -5.8580  16.522 -9.7501  16.522 
  2607.000 -4.3530  16.788 -8.2445  16.788 
  2607.500 -4.2680  16.874 -8.1590  16.874 
  2608.000 -4.4880  16.567 -8.3784  16.567 
  2608.500 -7.1130  15.204 -11.003  15.204 
  2609.000 -9.4910  14.200 -13.380  14.200 
  2609.500 -10.884  13.070 -14.773  13.070 
  2610.000 -11.600  11.618 -15.488  11.618 
  2610.500 -11.574  10.739 -15.462  10.739 
  2611.000 -11.239  11.201 -15.126  11.201 
  2611.500 -9.1170  14.739 -13.004  14.739 
  2612.000 -1.3550  16.006 -5.2410  16.006 
  2612.500 -1.0840  15.798 -4.9694  15.798 
  2613.000 -1.4420  15.590 -5.3269  15.590 
  2613.500 -1.8000  13.976 -5.6843  13.976 
  2614.000 -2.3340  11.129 -6.2178  11.129 
  2614.500 -2.2150  9.6950 -6.0982  9.6950 
  2615.000 -1.5560  7.6890 -5.4387  7.6890 
  2615.500 -0.8970  6.1300 -4.7791  6.1300 
  2616.000 -0.6410  4.6420 -4.5226  4.6420 
  2616.500 -0.3840  3.9780 -4.2650  3.9780 
  2617.000 -0.5470  4.4040 -4.4275  4.4040 
  2617.500 -0.9520  5.0620 -4.8319  5.0620 
  2618.000 -2.3140  4.5050 -6.1934  4.5050 
  2618.500 -5.0010  3.8930 -8.8798  3.8930 
  2619.000 -7.8430  3.2290 -11.721  3.2290 
  2619.500 -9.7910  2.7070 -13.669  2.7070 
  2620.000 -10.442  3.1870 -14.319  3.1870 
  2620.500 -10.877  5.4910 -14.754  5.4910 
  2621.000 -11.313  5.8280 -15.189  5.8280 
  2621.500 -11.969  6.1030 -15.844  6.1030 
  2622.000 -12.190  6.3780 -16.065  6.3780 
  2622.500 -12.288  7.2500 -16.162  7.2500 
  2623.000 -11.769  8.2470 -15.643  8.2470 
  2623.500 -11.187  9.3360 -15.060  9.3360 
  2624.000 -10.606  11.140 -14.479  11.140 
  2624.500 -10.460  12.943 -14.332  12.943 
  2625.000 -10.772  14.299 -14.644  14.299 
  2625.500 -11.084  15.441 -14.955  15.441 
  2626.000 -12.973  16.458 -16.844  16.458 
  2626.500 -13.903  16.490 -17.773  16.490 
  2627.000 -14.279  15.575 -18.148  15.575 
  2627.500 -14.375  14.499 -18.244  14.499 
  2628.000 -14.471  13.601 -18.339  13.601 
  2628.500 -14.450  12.775 -18.318  12.775 
  2629.000 -13.745  12.272 -17.612  12.272 
  2629.500 -11.439  11.804 -15.306  11.804 
  2630.000 -10.704  13.625 -14.570  13.625 
  2630.500 -8.5830  15.285 -12.449  15.285 
  2631.000 -1.4980  16.803 -5.3630  16.803 
  2631.500 -0.9490  18.266 -4.8134  18.266 
  2632.000 -0.9250  19.372 -4.7889  19.372 
  2632.500 -1.1450  19.190 -5.0083  19.190 
  2633.000 -1.6420  12.784 -5.5048  12.784 
  2633.500 -2.1390  11.904 -6.0012  11.904 
  2634.000 -3.5660  10.828 -7.4276  10.828 
  2634.500 -4.1890  7.0870 -8.0501  7.0870 
  2635.000 -4.4700  4.9740 -8.3305  4.9740 
  2635.500 -3.2440  1.9480 -7.1040  1.9480 
  2636.000 -2.1390  2.8750 -5.9984  2.8750 
  2636.500 -1.4340  3.7120 -5.2929  3.7120 
  2637.000 -1.1000  3.7270 -4.9583  3.7270 
  2637.500 -1.0130  3.4020 -4.8708  3.4020 
  2638.000 -1.9740  3.1670 -5.8312  3.1670 
  2638.500 -3.5820  3.5130 -7.4387  3.5130 
  2639.000 -5.8090  3.8590 -9.6651  3.8590 
  2639.500 -7.6620  7.5220 -11.518  7.5220 
  2640.000 -10.010  7.5370 -13.865  7.5370 
  2640.500 -10.695  7.5520 -14.549  7.5520 
  2641.000 -10.176  7.0220 -14.030  7.0220 
  2641.500 -7.1910  6.4920 -11.044  6.4920 
  2642.000 -4.0520  5.6750 -7.9048  5.6750 
  2642.500 -2.1470  4.8580 -5.9992  4.8580 
  2643.000 -1.7520  3.7810 -5.6037  3.7810 
  2643.500 -1.6020  3.0440 -5.4531  3.0440 
  2644.000 -1.8680  2.5400 -5.7186  2.5400 
  2644.500 -2.1340  4.0580 -5.9840  4.0580 
  2645.000 -5.9640  5.8070 -9.8135  5.8070 
  2645.500 -9.5770  7.0910 -13.426  7.0910 
  2646.000 -9.0580  7.8210 -12.906  7.8210 
  2646.500 -8.0770  7.8720 -11.925  7.8720 
  2647.000 -7.5280  7.4400 -11.375  7.4400 
  2647.500 -7.8720  7.1330 -11.719  7.1330 
  2648.000 -9.4180  7.9340 -13.264  7.9340 
  2648.500 -12.231  8.3800 -16.077  8.3800 
  2649.000 -13.282  8.8250 -17.127  8.8250 
  2649.500 -15.200  9.8210 -19.044  9.8210 
  2650.000 -16.407  9.9270 -20.251  9.9270 
  2650.500 -18.107  9.6910 -21.950  9.6910 
  2651.000 -19.189  8.8650 -23.032  8.8650 
  2651.500 -1.7780  7.6820 -5.6203  7.6820 
  2652.000 -1.2600  6.6240 -5.1017  6.6240 
  2652.500 -1.0490  5.3870 -4.8902  5.3870 
  2653.000 -0.8670  4.5530 -4.7076  4.5530 
  2653.500 -0.7480  3.7200 -4.5881  3.7200 
  2654.000 -0.7230  2.0690 -4.5625  2.0690 
  2654.500 -0.7870  1.7630 -4.6260  1.7630 
  2655.000 -0.8520  2.2780 -4.6904  2.2780 
  2655.500 -1.1810  2.7950 -5.0189  2.7950 
  2656.000 -1.5090  3.2580 -5.3463  3.2580 
  2656.500 -2.0400  3.7210 -5.8767  3.7210 
  2657.000 -2.1060  3.2870 -5.9422  3.2870 
  2657.500 -1.4340  3.0170 -5.2696  3.0170 
  2658.000 -1.0980  2.7470 -4.9331  2.7470 
  2658.500 -0.9630  2.8850 -4.7975  2.8850 
