~Version Information
VERS.                     2.0: CWLS log ASCII Standard Version 2.00
WRAP.                      NO: One line per depth step
~Well Information Block
#MNEM.UNIT                               Data Type  Information
#---------                               ---------  -----------
STRT.FT                                    20.0000:
STOP.FT                                  4800.0000:
STEP.FT                                     0.5000:
NULL.                 -999.25                     :
COMP.                                             :COMPANY            
WELL.     SAN EMIDIO C-1                          :WELL               
FLD .                                             :FIELD              
CTRY.                                             :COUNTRY            
STAT.                                             :STATE              
LOC .                                             :LOCATION           
UWI .                                             :UNIQUE WELL ID     
SRVC.                                             :Service company    
DATE.                                             :LOG DATE           
~Curve Information
#MNEM.UNIT           API CODE  Curve Description
#---------           --------  -----------------
DEPT.FT                      :   1 DEPTH
SP  .MV                      :   2
RESI.OHMM                    :   3
SBL .MV                      :   4
RS  .OHMM                    :   5
~A
# ...
  1294.000 -6.6460  10.554 -6.8698  10.554 
  1294.500 -5.5400  8.1550 -5.7653  8.1550 
  1295.000 -4.6490  6.6130 -4.8759  6.6130 
  1295.500 -3.7900  6.0380 -4.0184  6.0380 
  1296.000 -2.8380  5.4640 -3.0680  5.4640 
  1296.500 -2.4090  4.5470 -2.6405  4.5470 
  1297.000 -1.9800  5.0090 -2.2131  5.0090 
  1297.500 -1.4340  5.4000 -1.6687  5.4000 
  1298.000 -1.1610  6.1110 -1.3972  6.1110 
  1298.500 -0.9810  6.4760 -1.2188  6.4760 
  1299.000 -1.2660  6.8400 -1.5053  6.8400 
  1299.500 -1.7950  7.4430 -2.0359  7.4430 
  1300.000 -2.3710  7.5830 -2.6134  7.5830 
  1300.500 -2.9480  7.7230 -3.1920  7.7230 
  1301.000 -3.9180  7.7710 -4.1635  7.7710 
  1301.500 -3.9280  7.6400 -4.1751  7.6400 
  1302.000 -3.7500  7.3320 -3.9986  7.3320 
  1302.500 -3.5730  5.8790 -3.8232  5.8790 
  1303.000 -3.3510  5.4450 -3.6027  5.4450 
  1303.500 -3.1290  5.6200 -3.3823  5.6200 
  1304.000 -2.9870  5.7950 -3.2419  5.7950 
  1304.500 -3.3990  6.1300 -3.6554  6.1300 
  1305.000 -3.8090  6.4650 -4.0670  6.4650 
  1305.500 -4.0800  6.9240 -4.3395  6.9240 
  1306.000 -4.3500  6.8660 -4.6111  6.8660 
  1306.500 -4.5480  5.5360 -4.8106  5.5360 
  1307.000 -3.5070  5.3720 -3.7712  5.3720 
  1307.500 -1.3570  5.4310 -1.6227  5.4310 
  1308.000 -0.8130  5.4890 -1.0803  5.4890 
  1308.500 -0.6660  6.1020 -0.9348  6.1020 
  1309.000 -0.4610  6.7140 -0.7314  6.7140 
  1309.500 -0.3470  7.0670 -0.6190  7.0670 
  1310.000 -0.6020  7.4200 -0.8755  7.4200 
  1310.500 -1.4460  7.0920 -1.7211  7.0920 
  1311.000 -2.1020  6.4600 -2.3786  6.4600 
  1311.500 -2.7580  6.2250 -3.0362  6.2250 
  1312.000 -3.3080  5.9890 -3.5877  5.9890 
  1312.500 -3.8570  5.2480 -4.1383  5.2480 
  1313.000 -4.0680  5.3160 -4.3508  5.3160 
  1313.500 -4.2780  5.3830 -4.5624  5.3830 
  1314.000 -2.7800  5.5390 -3.0659  5.5390 
  1314.500 -2.1720  5.6770 -2.4595  5.6770 
  1315.000 -1.6560  5.8150 -1.9450  5.8150 
  1315.500 -1.1400  5.9000 -1.4306  5.9000 
  1316.000 -0.6570  5.6630 -0.9492  5.6630 
  1316.500 -0.5130  5.4800 -0.8067  5.4800 
  1317.000 -0.8000  5.4400 -1.0953  5.4400 
  1317.500 -1.9810  5.6050 -2.2778  5.6050 
  1318.000 -4.3390  5.7710 -4.6374  5.7710 
  1318.500 -5.7360  6.0710 -6.0359  6.0710 
  1319.000 -6.8560  6.3700 -7.1575  6.3700 
  1319.500 -7.8250  6.9000 -8.1280  6.9000 
  1320.000 -8.2660  6.9770 -8.5706  6.9770 
  1320.500 -8.1820  7.0550 -8.4881  7.0550 
  1321.000 -6.5570  6.3860 -6.8647  6.3860 
  1321.500 -5.5160  5.8090 -5.8252  5.8090 
  1322.000 -3.6750  5.4290 -3.9858  5.4290 
  1322.500 -2.7570  4.8870 -3.0694  4.8870 
  1323.000 -1.4090  4.7400 -1.7229  4.7400 
  1323.500 -0.8940  4.7530 -1.2095  4.7530 
  1324.000 -0.6250  4.7670 -0.9420  4.7670 
  1324.500 -0.6350  5.1010 -0.9536  5.1010 
  1325.000 -0.9840  5.6690 -1.3041  5.6690 
  1325.500 -1.4260  5.8980 -1.7477  5.8980 
  1326.000 -2.7020  6.1790 -3.0252  6.1790 
  1326.500 -3.7290  5.8170 -4.0538  5.8170 
  1327.000 -4.7900  4.8990 -5.1163  4.8990 
  1327.500 -4.8310  4.9660 -5.1589  4.9660 
  1328.000 -4.3160  5.0330 -4.6454  5.0330 
  1328.500 -3.5230  5.1280 -3.8540  5.1280 
  1329.000 -2.9140  5.2220 -3.2466  5.2220 
  1329.500 -2.2430  5.2880 -2.5771  5.2880 
  1330.000 -1.5730  4.6560 -1.9087  4.6560 
  1330.500 -0.8750  4.1330 -1.2122  4.1330 
  1331.000 -0.7290  3.8610 -1.0678  3.8610 
  1331.500 -1.3250  3.7320 -1.6653  3.7320 
  1332.000 -2.1080  3.6030 -2.4499  3.6030 
  1332.500 -2.5170  3.3830 -2.8604  3.3830 
  1333.000 -3.0540  3.1630 -3.3990  3.1630 
  1333.500 -3.0630  3.0860 -3.4095  3.0860 
  1334.000 -2.8250  3.2780 -3.1731  3.2780 
  1334.500 -2.5710  3.4180 -2.9207  3.4180 
  1335.000 -2.3180  3.5570 -2.6692  3.5570 
  1335.500 -2.2180  3.7850 -2.5708  3.7850 
  1336.000 -2.1190  4.0120 -2.4733  4.0120 
  1336.500 -2.6580  3.6770 -3.0139  3.6770 
  1337.000 -3.0080  3.3410 -3.3654  3.3410 
  1337.500 -3.0780  3.1740 -3.4370  3.1740 
  1338.000 -2.6260  3.0970 -2.9865  3.0970 
  1338.500 -2.2790  3.0760 -2.6411  3.0760 
  1339.000 -1.9310  3.0550 -2.2946  3.0550 
  1339.500 -1.2020  3.1540 -1.5672  3.1540 
  1340.000 -0.5960  3.2410 -0.9627  3.2410 
  1340.500 -0.3580  3.3270 -0.7263  3.3270 
  1341.000 -0.6450  3.7140 -1.0149  3.7140 
  1341.500 -1.4270  4.3180 -1.7984  4.3180 
  1342.000 -2.2390  5.4040 -2.6120  5.4040 
  1342.500 -2.9590  5.6660 -3.3335  5.6660 
  1343.000 -3.4600  5.6810 -3.8361  5.6810 
  1343.500 -3.9610  5.5690 -4.3386  5.5690 
  1344.000 -4.7580  5.4390 -5.1372  5.4390 
  1344.500 -5.5550  5.4520 -5.9357  5.4520 
  1345.000 -5.9360  5.7690 -6.3183  5.7690 
  1345.500 -6.3180  6.4440 -6.7018  6.4440 
  1346.000 -5.8350  6.9940 -6.2204  6.9940 
  1346.500 -5.5040  7.2210 -5.8909  7.2210 
  1347.000 -5.8060  7.2950 -6.1945  7.2950 
  1347.500 -6.1070  7.3690 -6.4971  7.3690 
  1348.000 -5.7930  7.4430 -6.1846  7.4430 
  1348.500 -5.4790  7.5720 -5.8722  7.5720 
  1349.000 -4.9960  7.7010 -5.3907  7.7010 
  1349.500 -4.7290  8.0520 -5.1253  8.0520 
  1350.000 -5.2930  8.2630 -5.6908  8.2630 
  1350.500 -6.4430  8.1690 -6.8424  8.1690 
  1351.000 -7.7470  7.6830 -8.1479  7.6830 
  1351.500 -8.9560  7.1790 -9.3585  7.1790 
  1352.000 -11.186  7.2650 -11.590  7.2650 
  1352.500 -10.176  7.3520 -10.582  7.3520 
  1353.000 -8.2360  7.5960 -8.6431  7.5960 
  1353.500 -7.5930  7.6280 -8.0017  7.6280 
  1354.000 -6.9500  7.4910 -7.3603  7.4910 
  1354.500 -8.6270  7.3540 -9.0388  7.3540 
  1355.000 -10.239  6.6150 -10.652  6.6150 
  1355.500 -10.278  6.8000 -10.693  6.8000 
  1356.000 -7.6910  6.9850 -8.1075  6.9850 
  1356.500 -4.9520  7.3200 -5.3700  7.3200 
  1357.000 -3.6930  6.9220 -4.1126  6.9220 
  1357.500 -3.0500  6.6690 -3.4711  6.6690 
  1358.000 -3.3360  6.4150 -3.7587  6.4150 
  1358.500 -4.3900  5.9990 -4.8142  5.9990 
  1359.000 -5.4450  6.4070 -5.8708  6.4070 
  1359.500 -7.6460  7.7260 -8.0733  7.7260 
  1360.000 -8.7050  7.9730 -9.1339  7.9730 
  1360.500 -9.0020  7.3250 -9.4325  7.3250 
  1361.000 -9.2990  6.7480 -9.7310  6.7480 
  1361.500 -5.6360  6.5050 -6.0696  6.5050 
  1362.000 -3.0810  6.2610 -3.5161  6.2610 
  1362.500 -1.7600  5.8190 -2.1967  5.8190 
  1363.000 -1.0550  5.3760 -1.4932  5.3760 
  1363.500 -0.3510  4.7980 -0.7908  4.7980 
  1364.000  0.0390  4.5800 -0.4023  4.5800 
  1364.500  0.0640  4.7370 -0.3789  4.7370 
  1365.000 -1.3630  5.0560 -1.8074  5.0560 
  1365.500 -3.9940  5.3760 -4.4400  5.3760 
  1366.000 -5.3600  5.4890 -5.8076  5.4890 
  1366.500 -5.3950  5.6010 -5.8441  5.6010 
  1367.000 -5.4310  6.0960 -5.8817  6.0960 
  1367.500 -5.1910  6.5740 -5.6432  6.5740 
  1368.000 -4.9510  6.6790 -5.4048  6.6790 
  1368.500 -4.5290  6.7210 -4.9843  6.7210 
  1369.000 -4.4730  6.7630 -4.9299  6.7630 
  1369.500 -4.7100  6.3280 -5.1684  6.3280 
  1370.000 -4.9470  5.8950 -5.4070  5.8950 
  1370.500 -5.2630  5.7130 -5.7245  5.7130 
  1371.000 -5.5780  6.3880 -6.0411  6.3880 
  1371.500 -5.8050  6.9920 -6.2696  6.9920 
  1372.000 -5.7490  7.2040 -6.2152  7.2040 
  1372.500 -5.4470  7.3600 -5.9148  7.3600 
  1373.000 -5.0830  6.9630 -5.5523  6.9630 
  1373.500 -4.7190  6.5670 -5.1899  6.5670 
  1374.000 -4.5560  6.0980 -5.0284  6.0980 
  1374.500 -4.3930  5.6300 -4.8670  5.6300 
  1375.000 -5.2040  5.2050 -5.6795  5.2050 
  1375.500 -5.5490  4.7800 -6.0261  4.7800 
  1376.000 -5.8940  4.3830 -6.3726  4.3830 
  1376.500 -5.9470  4.2180 -6.4272  4.2180 
  1377.000 -5.9990  4.8040 -6.4807  4.8040 
  1377.500 -5.7960  4.9970 -6.2793  4.9970 
  1378.000 -5.2460  4.8690 -5.7308  4.8690 
  1378.500 -3.3390  4.3810 -3.8254  4.3810 
  1379.000 -2.6800  4.1910 -3.1680  4.1910 
  1379.500 -2.0210  4.0000 -2.5105  4.0000 
  1380.000 -1.1350  3.6730 -1.6261  3.6730 
  1380.500 -0.7430  3.5630 -1.2356  3.5630 
  1381.000 -0.6550  3.4520 -1.1492  3.4520 
  1381.500 -0.6710  3.5720 -1.1667  3.5720 
  1382.000 -0.6880  3.8200 -1.1853  3.8200 
  1382.500 -0.7040  4.1290 -1.2028  4.1290 
  1383.000 -0.8350  4.4380 -1.3354  4.4380 
  1383.500 -0.9660  4.3810 -1.4679  4.3810 
  1384.000 -1.0810  4.1090 -1.5845  4.1090 
  1384.500 -1.1960  4.0140 -1.7011  4.0140 
