~Version Information
VERS.                     2.0: CWLS log ASCII Standard Version 2.00
WRAP.                      NO: One line per depth step
~Well Information Block
#MNEM.UNIT                               Data Type  Information
#---------                               ---------  -----------
STRT.FT                                    20.0000:
STOP.FT                                  4800.0000:
STEP.FT                                     0.5000:
NULL.                 -999.25                     :
COMP.                                             :COMPANY            
WELL.     SAN EMIDIO C-1                          :WELL               
FLD .                                             :FIELD              
CTRY.                                             :COUNTRY            
STAT.                                             :STATE              
LOC .                                             :LOCATION           
UWI .                                             :UNIQUE WELL ID     
SRVC.                                             :Service company    
DATE.                                             :LOG DATE           
~Curve Information
#MNEM.UNIT           API CODE  Curve Description
#---------           --------  -----------------
DEPT.FT                      :   1 DEPTH
SP  .MV                      :   2
RESI.OHMM                    :   3
SBL .MV                      :   4
RS  .OHMM                    :   5
~A
# ...
  1931.000 -2.1170  4.5250 -4.3206  4.5250 
  1931.500 -2.0310  4.6470 -4.2361  4.6470 
  1932.000 -2.0020  4.7330 -4.2087  4.7330 
  1932.500 -1.9740  4.7410 -4.1822  4.7410 
  1933.000 -1.9160  4.7490 -4.1258  4.7490 
  1933.500 -1.8570  4.5930 -4.0683  4.5930 
  1934.000 -1.8140  4.4380 -4.0269  4.4380 
  1934.500 -1.7720  4.3110 -3.9865  4.3110 
  1935.000 -1.7440  4.1830 -3.9600  4.1830 
  1935.500 -1.7160  4.0730 -3.9336  4.0730 
  1936.000 -1.6880  3.9640 -3.9071  3.9640 
  1936.500 -1.6610  3.9080 -3.8817  3.9080 
  1937.000 -1.6180  3.8530 -3.8402  3.8530 
  1937.500 -1.5750  3.7970 -3.7988  3.7970 
  1938.000 -1.5480  3.7320 -3.7733  3.7320 
  1938.500 -1.5200  3.6660 -3.7469  3.6660 
  1939.000 -1.4910  3.6190 -3.7194  3.6190 
  1939.500 -1.4620  3.5710 -3.6920  3.5710 
  1940.000 -1.4360  3.5460 -3.6675  3.5460 
  1940.500 -1.4220  3.5200 -3.6551  3.5200 
  1941.000 -1.4080  3.4950 -3.6427  3.4950 
  1941.500 -1.3960  3.4660 -3.6322  3.4660 
  1942.000 -1.3840  3.4370 -3.6218  3.4370 
  1942.500 -1.4030  3.4150 -3.6423  3.4150 
  1943.000 -1.4220  3.4660 -3.6629  3.4660 
  1943.500 -1.3970  3.6780 -3.6394  3.6780 
  1944.000 -1.3840  3.9620 -3.6280  3.9620 
  1944.500 -1.3710  4.1920 -3.6165  4.1920 
  1945.000 -1.3440  4.4220 -3.5911  4.4220 
  1945.500 -1.2700  4.6170 -3.5186  4.6170 
  1946.000 -1.1950  4.4620 -3.4452  4.4620 
  1946.500 -1.0910  4.3080 -3.3427  4.3080 
  1947.000 -0.9870  4.1090 -3.2403  4.1090 
  1947.500 -0.8970  4.0000 -3.1519  4.0000 
  1948.000 -0.8080  3.8920 -3.0644  3.8920 
  1948.500 -0.7500  3.8000 -3.0080  3.8000 
  1949.000 -0.8600  3.7080 -3.1195  3.7080 
  1949.500 -0.9700  3.9730 -3.2311  3.9730 
  1950.000 -1.3460  4.2390 -3.6086  4.2390 
  1950.500 -1.3510  4.4150 -3.6152  4.4150 
  1951.000 -1.2610  4.2960 -3.5267  4.2960 
  1951.500 -1.0510  4.1780 -3.3183  4.1780 
  1952.000 -0.9920  4.0410 -3.2608  4.0410 
  1952.500 -0.9040  3.9040 -3.1744  3.9040 
  1953.000 -0.9090  3.9540 -3.1810  3.9540 
  1953.500 -1.4680  4.0770 -3.7415  4.0770 
  1954.000 -2.2430  4.2000 -4.5181  4.2000 
  1954.500 -3.0790  4.4650 -5.3556  4.4650 
  1955.000 -4.2240  4.7480 -6.5022  4.7480 
  1955.500 -5.3070  5.0680 -7.5867  5.0680 
  1956.000 -6.0500  5.3880 -8.3313  5.3880 
  1956.500 -6.9480  6.7970 -9.2308  6.7970 
  1957.000 -7.1370  9.5660 -9.4214  9.5660 
  1957.500 -1.2540  13.607 -3.5399  13.607 
  1958.000 -1.0720  15.482 -3.3595  15.482 
  1958.500 -0.8910  15.425 -3.1800  15.425 
  1959.000 -0.7120  15.120 -3.0026  15.120 
  1959.500 -1.8880  14.814 -4.1802  14.814 
  1960.000 -2.6460  13.073 -4.9397  13.073 
  1960.500 -3.4030  12.544 -5.6983  12.544 
  1961.000 -5.2300  12.015 -7.5268  12.015 
  1961.500 -5.4820  11.975 -7.7804  11.975 
  1962.000 -5.3620  12.705 -7.6619  12.705 
  1962.500 -5.2130  12.220 -7.5145  12.220 
  1963.000 -5.1530  11.018 -7.4560  11.018 
  1963.500 -5.0940  10.516 -7.3986  10.516 
  1964.000 -5.8400  9.6370 -8.1461  9.6370 
  1964.500 -6.4140  8.8290 -8.7217  8.8290 
  1965.000 -6.9870  11.509 -9.2962  11.509 
  1965.500 -7.9190  14.440 -10.230  14.440 
  1966.000 -8.2920  14.758 -10.604  14.758 
  1966.500 -8.0500  14.273 -10.364  14.273 
  1967.000 -6.7290  13.716 -9.0445  13.716 
  1967.500 -6.0850  13.034 -8.4020  13.034 
  1968.000 -4.9190  11.528 -7.2376  11.528 
  1968.500 -3.8140  10.990 -6.1341  10.990 
  1969.000 -3.4160  10.452 -5.7377  10.452 
  1969.500 -3.0170  8.4450 -5.3402  8.4450 
  1970.000 -1.9470  6.6880 -4.2718  6.6880 
  1970.500 -1.7790  5.0050 -4.1053  5.0050 
  1971.000 -1.6110  4.0540 -3.9389  4.0540 
  1971.500 -1.3080  3.6930 -3.6374  3.6930 
  1972.000 -1.0050  3.6190 -3.3360  3.6190 
  1972.500 -0.7940  3.5450 -3.1266  3.5450 
  1973.000 -0.5830  3.4700 -2.9171  3.4700 
  1973.500 -0.4650  3.4500 -2.8007  3.4500 
  1974.000 -0.4220  3.4300 -2.7592  3.4300 
  1974.500 -0.3780  3.4730 -2.7168  3.4730 
  1975.000 -0.4620  3.5160 -2.8023  3.5160 
  1975.500 -0.5450  3.6470 -2.8869  3.6470 
  1976.000 -0.6300  3.7780 -2.9734  3.7780 
  1976.500 -0.7150  3.8650 -3.0600  3.8650 
  1977.000 -0.8000  3.9520 -3.1465  3.9520 
  1977.500 -0.8980  3.2850 -3.2461  3.2850 
  1978.000 -0.9950  3.2830 -3.3447  3.2830 
  1978.500 -1.0150  3.4050 -3.3662  3.4050 
  1979.000 -1.0350  3.4560 -3.3878  3.4560 
  1979.500 -1.0180  3.4540 -3.3723  3.4540 
  1980.000 -1.0010  3.0760 -3.3569  3.0760 
  1980.500 -0.9840  2.8760 -3.3414  2.8760 
  1981.000 -0.9370  2.8920 -3.2960  2.8920 
  1981.500 -0.8910  3.0320 -3.2515  3.0320 
  1982.000 -0.8440  3.1730 -3.2061  3.1730 
  1982.500 -0.8030  3.5450 -3.1666  3.5450 
  1983.000 -0.7620  3.6140 -3.1272  3.6140 
  1983.500 -0.7340  3.6120 -3.1007  3.6120 
  1984.000 -0.7070  3.6190 -3.0753  3.6190 
  1984.500 -0.6800  3.6260 -3.0499  3.6260 
  1985.000 -0.6550  3.9090 -3.0264  3.9090 
  1985.500 -0.6270  4.1930 -3.0000  4.1930 
  1986.000 -0.6150  4.9040 -2.9895  4.9040 
  1986.500 -0.6030  4.9010 -2.9791  4.9010 
  1987.000 -0.9920  4.4860 -3.3696  4.4860 
  1987.500 -1.3820  4.1800 -3.7612  4.1800 
  1988.000 -1.1720  4.0520 -3.5527  4.0520 
  1988.500 -1.0060  4.2990 -3.3883  4.2990 
  1989.000 -0.8400  4.7090 -3.2238  4.7090 
  1989.500 -0.6130  5.5820 -2.9984  5.5820 
  1990.000 -0.3870  6.6530 -2.7739  6.6530 
  1990.500  0.0390  8.5110 -2.3495  8.5110 
  1991.000 -0.5030  9.1160 -2.8931  9.1160 
  1991.500 -1.0450  8.0750 -3.4366  8.0750 
  1992.000 -2.5630  7.3220 -4.9562  7.3220 
  1992.500 -3.1980  6.5490 -5.5927  6.5490 
  1993.000 -3.8320  6.5650 -6.2283  6.5650 
  1993.500 -5.9360  7.1340 -8.3338  7.1340 
  1994.000 -7.0490  6.6850 -9.4484  6.6850 
  1994.500 -8.4100  5.6630 -10.811  5.6630 
  1995.000 -9.7400  5.0510 -12.142  5.0510 
  1995.500 -10.082  4.9070 -12.486  4.9070 
  1996.000 -8.4830  4.8870 -10.889  4.8870 
  1996.500 -6.9290  4.8660 -9.3361  4.8660 
  1997.000 -5.3760  4.6580 -7.7847  4.6580 
  1997.500 -2.2080  4.4500 -4.6183  4.4500 
  1998.000 -1.3800  3.6950 -3.7918  3.6950 
  1998.500 -1.0140  4.3360 -3.4274  4.3360 
  1999.000 -1.6030  7.3380 -4.0179  7.3380 
  1999.500 -2.1920  6.8000 -4.6085  6.8000 
  2000.000 -4.3870  6.2610 -6.8050  6.2610 
  2000.500 -5.5330  5.0040 -7.9526  5.0040 
  2001.000 -5.4160  4.8230 -7.8371  4.8230 
  2001.500 -5.3110  5.7140 -7.7337  5.7140 
  2002.000 -5.2070  6.9810 -7.6312  6.9810 
  2002.500 -4.8760  7.2280 -7.3018  7.2280 
  2003.000 -4.6350  6.8130 -7.0624  6.8130 
  2003.500 -5.0110  6.8830 -7.4399  6.8830 
  2004.000 -5.6020  6.9520 -8.0325  6.9520 
  2004.500 -5.5760  7.5560 -8.0080  7.5560 
  2005.000 -5.4560  8.4640 -7.8896  8.4640 
  2005.500 -5.3360  8.7830 -7.7711  8.7830 
  2006.000 -4.9750  8.7630 -7.4117  8.7630 
  2006.500 -4.8860  7.8290 -7.3242  7.8290 
  2007.000 -4.7970  7.2720 -7.2368  7.2720 
  2007.500 -6.1020  6.5890 -8.5433  6.5890 
  2008.000 -6.4440  6.0320 -8.8869  6.0320 
  2008.500 -6.7900  5.5820 -9.2344  5.5820 
  2009.000 -6.5930  5.0880 -9.0390  5.0880 
  2009.500 -6.3960  4.5930 -8.8436  4.5930 
  2010.000 -2.8900  3.7660 -5.3391  3.7660 
  2010.500 -1.2940  3.9870 -3.7447  3.9870 
  2011.000 -0.8350  4.2090 -3.2872  4.2090 
  2011.500 -0.3470  5.2770 -2.8008  5.2770 
  2012.000 -0.5070  5.9360 -2.9623  5.9360 
  2012.500 -0.9440  5.8350 -3.4009  5.8350 
  2013.000 -1.3180  5.7350 -3.7764  5.7350 
  2013.500 -1.6930  5.3560 -4.1530  5.3560 
  2014.000 -1.9150  4.9770 -4.3765  4.9770 
  2014.500 -1.8610  4.6330 -4.3241  4.6330 
  2015.000 -1.7410  4.7740 -4.2056  4.7740 
  2015.500 -1.0700  4.9150 -3.5362  4.9150 
  2016.000 -0.7650  5.4290 -3.2328  5.4290 
  2016.500 -0.4620  5.2930 -2.9313  5.2930 
  2017.000 -0.4060  5.1560 -2.8769  5.1560 
  2017.500 -1.0590  4.9190 -3.5314  4.9190 
  2018.000 -2.2670  5.0870 -4.7410  5.0870 
  2018.500 -2.9490  5.2550 -5.4245  5.2550 
  2019.000 -3.6300  6.1970 -6.1071  6.1970 
  2019.500 -4.6370  6.0970 -7.1156  6.0970 
  2020.000 -5.6450  5.9960 -8.1252  5.9960 
  2020.500 -6.5780  5.6800 -9.0597  5.6800 
  2021.000 -6.3360  5.3640 -8.8193  5.3640 
  2021.500 -5.9090  5.0930 -8.3938  5.0930 
