~Version Information
VERS.                     2.0: CWLS log ASCII Standard Version 2.00
WRAP.                      NO: One line per depth step
~Well Information Block
#MNEM.UNIT                               Data Type  Information
#---------                               ---------  -----------
STRT.FT                                    20.0000:
STOP.FT                                  4800.0000:
STEP.FT                                     0.5000:
NULL.                 -999.25                     :
COMP.                                             :COMPANY            
WELL.     SAN EMIDIO C-1                          :WELL               
FLD .                                             :FIELD              
CTRY.                                             :COUNTRY            
STAT.                                             :STATE              
LOC .                                             :LOCATION           
UWI .                                             :UNIQUE WELL ID     
SRVC.                                             :Service company    
DATE.                                             :LOG DATE           
~Curve Information
#MNEM.UNIT           API CODE  Curve Description
#---------           --------  -----------------
DEPT.FT                      :   1 DEPTH
SP  .MV                      :   2
RESI.OHMM                    :   3
SBL .MV                      :   4
RS  .OHMM                    :   5
~A
# ...
   657.000 -14.799  26.894 -14.799  26.894 
   657.500 -14.631  26.660 -14.631  26.660 
   658.000 -14.463  26.105 -14.463  26.105 
   658.500 -14.190  24.870 -14.190  24.870 
   659.000 -13.916  24.457 -13.916  24.457 
   659.500 -13.704  26.349 -13.704  26.349 
   660.000 -13.612  27.117 -13.612  27.117 
   660.500 -13.521  27.097 -13.521  27.097 
   661.000 -13.248  26.774 -13.248  26.774 
   661.500 -13.128  26.452 -13.128  26.452 
   662.000 -13.192  25.233 -13.192  25.233 
   662.500 -13.316  24.517 -13.316  24.517 
   663.000 -13.440  24.123 -13.440  24.123 
   663.500 -13.845  24.478 -13.845  24.478 
   664.000 -13.999  26.872 -13.999  26.872 
   664.500 -14.154  30.570 -14.154  30.570 
   665.000 -14.387  33.017 -14.387  33.017 
   665.500 -14.620  35.678 -14.620  35.678 
   666.000 -14.902  41.575 -14.902  41.575 
   666.500 -14.934  41.519 -14.934  41.519 
   667.000 -14.965  40.928 -14.965  40.928 
   667.500 -14.860  40.015 -14.860  40.015 
   668.000 -14.755  36.564 -14.755  36.564 
   668.500 -14.573  33.291 -14.573  33.291 
   669.000 -14.392  29.518 -14.392  29.518 
   669.500 -14.210  27.408 -14.210  27.408 
   670.000 -14.058  24.940 -14.058  24.940 
   670.500 -13.907  21.882 -13.907  21.882 
   671.000 -13.770  20.969 -13.770  20.969 
   671.500 -13.633  21.932 -13.633  21.932 
   672.000 -13.527  22.413 -13.527  22.413 
   672.500 -13.421  21.196 -13.421  21.196 
   673.000 -13.272  18.013 -13.272  18.013 
   673.500 -13.196  17.100 -13.196  17.100 
   674.000 -13.121  18.528 -13.121  18.528 
   674.500 -13.001  19.170 -13.001  19.170 
   675.000 -12.942  18.740 -12.942  18.740 
   675.500 -12.882  18.292 -12.882  18.292 
   676.000 -12.808  17.844 -12.808  17.844 
   676.500 -12.735  17.108 -12.735  17.108 
   677.000 -12.716  19.859 -12.716  19.859 
   677.500 -12.697  24.898 -12.697  24.898 
   678.000 -12.678  28.310 -12.678  28.310 
   678.500 -12.649  29.487 -12.649  29.487 
   679.000 -12.621  29.701 -12.621  29.701 
   679.500 -12.593  30.878 -12.593  30.878 
   680.000 -12.566  32.075 -12.566  32.075 
   680.500 -12.537  34.182 -12.537  34.182 
   681.000 -12.478  36.146 -12.478  36.146 
   681.500 -12.418  36.198 -12.418  36.198 
   682.000 -12.544  26.010 -12.544  26.010 
   682.500 -12.669  23.077 -12.669  23.077 
   683.000 -12.887  20.733 -12.887  20.733 
   683.500 -13.043  20.107 -13.043  20.107 
   684.000 -12.769  21.392 -12.769  21.392 
   684.500 -11.971  23.910 -11.971  23.910 
   685.000 -11.357  25.088 -11.357  25.088 
   685.500 -11.513  26.141 -11.513  26.141 
   686.000 -11.791  26.193 -11.791  26.193 
   686.500 -12.069  23.332 -12.069  23.332 
   687.000 -13.090  21.436 -13.090  21.436 
   687.500 -13.490  22.148 -13.490  22.148 
   688.000 -13.955  23.112 -13.955  23.112 
   688.500 -13.817  24.094 -13.817  24.094 
   689.000 -13.680  24.754 -13.680  24.754 
   689.500 -13.006  24.930 -13.006  24.930 
   690.000 -12.331  19.264 -12.331  19.264 
   690.500 -10.859  17.278 -10.859  17.278 
   691.000 -10.215  16.865 -10.215  16.865 
   691.500 -10.309  16.453 -10.309  16.453 
   692.000 -10.403  16.041 -10.403  16.041 
   692.500 -12.069  14.965 -12.069  14.965 
   693.000 -12.654  14.517 -12.654  14.517 
   693.500 -13.672  14.150 -13.672  14.150 
   694.000 -14.043  13.782 -14.043  13.782 
   694.500 -14.599  13.235 -14.599  13.235 
   695.000 -14.202  12.688 -14.202  12.688 
   695.500 -13.957  12.294 -13.957  12.294 
   696.000 -13.376  11.899 -13.376  11.899 
   696.500 -13.469  11.343 -13.469  11.343 
   697.000 -13.562  11.144 -13.562  11.144 
   697.500 -14.212  11.098 -14.212  11.098 
   698.000 -14.430  11.052 -14.430  11.052 
   698.500 -14.556  11.068 -14.556  11.068 
   699.000 -14.603  11.745 -14.603  11.745 
   699.500 -14.650  12.459 -14.650  12.459 
   700.000 -14.544  13.493 -14.544  13.493 
   700.500 -14.439  14.207 -14.439  14.207 
   701.000 -14.086  14.688 -14.086  14.688 
   701.500 -13.733  14.991 -13.733  14.991 
   702.000 -12.630  15.008 -12.630  15.008 
   702.500 -12.015  13.273 -12.015  13.273 
   703.000 -11.446  10.949 -11.446  10.949 
   703.500 -10.878  10.715 -10.878  10.715 
   704.000 -9.9890  11.411 -9.9890  11.411 
   704.500 -9.6200  12.036 -9.6200  12.036 
   705.000 -9.5300  12.660 -9.5300  12.660 
   705.500 -9.7150  12.443 -9.7150  12.443 
   706.000 -10.223  12.157 -10.223  12.157 
   706.500 -10.732  11.600 -10.732  11.600 
   707.000 -11.363  11.420 -11.363  11.420 
   707.500 -11.994  11.705 -11.994  11.705 
   708.000 -13.197  12.294 -13.197  12.294 
   708.500 -13.489  12.615 -13.489  12.615 
   709.000 -13.781  12.953 -13.781  12.953 
   709.500 -14.554  12.540 -14.554  12.540 
   710.000 -15.232  12.271 -15.232  12.271 
   710.500 -15.416  12.217 -15.416  12.217 
   711.000 -15.234  12.752 -15.234  12.752 
   711.500 -14.805  14.609 -14.805  14.609 
   712.000 -14.313  15.769 -14.313  15.769 
   712.500 -13.975  16.483 -13.975  16.483 
   713.000 -13.670  16.956 -13.670  16.956 
   713.500 -13.764  17.429 -13.764  17.429 
   714.000 -13.901  18.017 -13.901  18.017 
   714.500 -14.039  18.221 -14.039  18.221 
   715.000 -14.505  18.426 -14.505  18.426 
   715.500 -14.690  18.970 -14.690  18.970 
   716.000 -14.723  19.514 -14.723  19.514 
   716.500 -14.600  20.744 -14.600  20.744 
   717.000 -14.295  21.172 -14.295  21.172 
   717.500 -14.064  21.529 -14.064  21.529 
   718.000 -13.834  21.939 -13.834  21.939 
   718.500 -13.405  22.295 -13.405  22.295 
   719.000 -13.038  19.363 -13.038  19.363 
   719.500 -12.762  17.860 -12.762  17.860 
   720.000 -12.546  17.591 -12.546  17.591 
   720.500 -12.331  17.438 -12.331  17.438 
   721.000 -12.334  17.285 -12.334  17.285 
   721.500 -12.706  16.710 -12.706  16.710 
   722.000 -13.353  16.388 -13.353  16.388 
   722.500 -13.875  16.709 -13.875  16.709 
   723.000 -14.830  19.049 -14.830  19.049 
   723.500 -15.599  21.460 -15.599  21.460 
   724.000 -16.368  23.049 -16.368  23.049 
   724.500 -18.156  24.532 -18.156  24.532 
   725.000 -19.079  26.640 -19.079  26.640 
   725.500 -20.372  28.730 -20.372  28.730 
   726.000 -18.435  31.910 -18.435  31.910 
   726.500 -16.592  31.837 -16.592  31.837 
   727.000 -16.115  30.406 -16.115  30.406 
   727.500 -15.638  27.259 -15.638  27.259 
   728.000 -14.380  26.025 -14.380  26.025 
   728.500 -14.690  25.112 -14.690  25.112 
   729.000 -15.120  25.092 -15.120  25.092 
   729.500 -16.137  24.913 -16.137  24.913 
   730.000 -17.338  28.522 -17.338  28.522 
   730.500 -18.477  31.863 -18.477  31.863 
   731.000 -19.246  43.032 -19.246  43.032 
   731.500 -19.709  43.764 -19.709  43.764 
   732.000 -19.510  40.581 -19.510  40.581 
   732.500 -19.310  39.061 -19.310  39.061 
   733.000 -19.034  36.843 -19.034  36.843 
   733.500 -18.758  37.020 -18.758  37.020 
   734.000 -18.730  38.610 -18.730  38.610 
   734.500 -19.023  39.610 -19.023  39.610 
   735.000 -19.315  38.983 -19.315  38.983 
   735.500 -19.564  38.087 -19.564  38.087 
   736.000 -19.013  37.783 -19.013  37.783 
   736.500 -18.521  44.573 -18.521  44.573 
   737.000 -17.661  43.821 -17.661  43.821 
   737.500 -16.985  49.790 -16.985  49.790 
   738.000 -16.310  52.970 -16.310  52.970 
   738.500 -16.065  53.165 -16.065  53.165 
   739.000 -17.297  52.878 -17.297  52.878 
   739.500 -19.051  52.126 -19.051  52.126 
   740.000 -19.913  50.820 -19.913  50.820 
   740.500 -17.269  48.496 -17.269  48.496 
   741.000 -17.148  43.472 -17.148  43.472 
   741.500 -17.703  41.362 -17.703  41.362 
   742.000 -18.195  40.109 -18.195  40.109 
   742.500 -18.611  44.648 -18.611  44.648 
   743.000 -19.026  47.309 -19.026  47.309 
   743.500 -18.045  48.506 -18.045  48.506 
   744.000 -16.692  48.754 -16.692  48.754 
   744.500 -15.339  47.359 -15.339  47.359 
   745.000 -15.017  44.552 -15.017  44.552 
   745.500 -14.695  42.817 -14.695  42.817 
   746.000 -13.344  40.564 -13.344  40.564 
   746.500 -11.378  30.947 -11.378  30.947 
   747.000 -10.363  27.854 -10.363  27.854 
   747.500 -9.5340  22.848 -9.5340  22.848 
