~Version Information
VERS.                     2.0: CWLS log ASCII Standard Version 2.00
WRAP.                      NO: One line per depth step
~Well Information Block
#MNEM.UNIT                               Data Type  Information
#---------                               ---------  -----------
STRT.FT                                    20.0000:
STOP.FT                                  4800.0000:
STEP.FT                                     0.5000:
NULL.                 -999.25                     :
COMP.                                             :COMPANY            
WELL.     SAN EMIDIO C-1                          :WELL               
FLD .                                             :FIELD              
CTRY.                                             :COUNTRY            
STAT.                                             :STATE              
LOC .                                             :LOCATION           
UWI .                                             :UNIQUE WELL ID     
SRVC.                                             :Service company    
DATE.                                             :LOG DATE           
~Curve Information
#MNEM.UNIT           API CODE  Curve Description
#---------           --------  -----------------
DEPT.FT                      :   1 DEPTH
SP  .MV                      :   2
RESI.OHMM                    :   3
SBL .MV                      :   4
RS  .OHMM                    :   5
~A
# ...
  4752.000 -22.998  6.3760 -24.998  6.3760 
  4752.500 -23.361  6.3700 -25.361  6.3700 
  4753.000 -23.723  6.2050 -25.723  6.2050 
  4753.500 -24.165  6.0770 -26.165  6.0770 
  4754.000 -24.496  5.7510 -26.496  5.7510 
  4754.500 -24.827  5.6850 -26.827  5.6850 
  4755.000 -25.788  5.6190 -27.788  5.6190 
  4755.500 -27.238  6.0750 -29.238  6.0750 
  4756.000 -27.769  8.2730 -29.769  8.2730 
  4756.500 -27.292  8.8550 -29.292  8.8550 
  4757.000 -27.224  9.4370 -29.224  9.4370 
  4757.500 -27.156  10.443 -29.156  10.443 
  4758.000 -28.059  10.794 -30.059  10.794 
  4758.500 -28.527  10.114 -30.527  10.114 
  4759.000 -29.028  9.2380 -31.028  9.2380 
  4759.500 -29.130  10.263 -31.130  10.263 
  4760.000 -27.242  13.029 -29.242  13.029 
  4760.500 -20.672  13.408 -22.672  13.408 
  4761.000 -21.126  13.786 -23.126  13.786 
  4761.500 -21.581  14.330 -23.581  14.330 
  4762.000 -22.295  14.699 -24.295  14.699 
  4762.500 -23.009  13.947 -25.009  13.947 
  4763.000 -24.769  13.481 -26.769  13.481 
  4763.500 -25.850  13.015 -27.850  13.015 
  4764.000 -26.610  12.291 -28.610  12.291 
  4764.500 -27.369  11.567 -29.369  11.567 
  4765.000 -28.636  10.814 -30.636  10.814 
  4765.500 -29.994  9.9740 -31.994  9.9740 
  4766.000 -30.922  9.7390 -32.922  9.7390 
  4766.500 -32.220  10.177 -34.220  10.177 
  4767.000 -31.404  11.594 -33.404  11.594 
  4767.500 -29.364  13.579 -31.364  13.579 
  4768.000 -28.087  14.729 -30.087  14.729 
  4768.500 -28.527  15.328 -30.527  15.328 
  4769.000 -29.030  15.376 -31.030  15.376 
  4769.500 -28.764  15.195 -30.764  15.195 
  4770.000 -28.285  15.013 -30.285  15.013 
  4770.500 -27.958  13.744 -29.958  13.744 
  4771.000 -27.630  13.082 -29.630  13.082 
  4771.500 -27.212  12.625 -29.212  12.625 
  4772.000 -26.795  12.168 -28.795  12.168 
  4772.500 -26.654  11.309 -28.654  11.309 
  4773.000 -27.124  10.576 -29.124  10.576 
  4773.500 -28.545  9.9850 -30.545  9.9850 
  4774.000 -29.211  9.6080 -31.211  9.6080 
  4774.500 -29.877  9.2300 -31.877  9.2300 
  4775.000 -32.034  8.8530 -34.034  8.8530 
  4775.500 -32.963  8.4750 -34.963  8.4750 
  4776.000 -32.453  7.8110 -34.453  7.8110 
  4776.500 -31.791  8.8010 -33.791  8.8010 
  4777.000 -31.281  10.661 -33.281  10.661 
  4777.500 -31.659  11.615 -33.659  11.615 
  4778.000 -32.191  12.144 -34.191  12.144 
  4778.500 -33.121  12.673 -35.121  12.673 
  4779.000 -33.589  14.265 -35.589  14.265 
  4779.500 -34.058  15.770 -36.058  15.770 
  4780.000 -34.406  17.471 -36.406  17.471 
  4780.500 -33.866  20.255 -35.866  20.255 
  4781.000 -29.928  21.850 -31.928  21.850 
  4781.500 -27.492  23.213 -29.492  23.213 
  4782.000 -27.164  24.470 -29.164  24.470 
  4782.500 -27.175  25.352 -29.175  25.352 
  4783.000 -28.350  25.490 -30.350  25.490 
  4783.500 -29.125  25.378 -31.125  25.378 
  4784.000 -29.900  24.431 -31.900  24.431 
  4784.500 -31.903  22.935 -33.903  22.935 
  4785.000 -32.923  20.780 -34.923  20.780 
  4785.500 -33.729  18.448 -35.729  18.448 
  4786.000 -32.303  14.357 -34.303  14.357 
  4786.500 -32.680  11.545 -34.680  11.545 
  4787.000 -34.128  10.154 -36.128  10.154 
  4787.500 -34.337  9.4400 -36.337  9.4400 
  4788.000 -34.545  9.8880 -36.545  9.8880 
  4788.500 -33.091  10.336 -35.091  10.336 
  4789.000 -31.295  10.714 -33.295  10.714 
  4789.500 -28.518  11.092 -30.518  11.092 
  4790.000 -24.336  11.433 -26.336  11.433 
  4790.500 -21.806  11.775 -23.806  11.775 
  4791.000 -19.673  11.946 -21.673  11.946 
  4791.500 -17.419  11.524 -19.419  11.524 
  4792.000 -19.267  11.103 -21.267  11.103 
  4792.500 -21.022  10.048 -23.022  10.048 
  4793.000 -25.748  10.309 -27.748  10.309 
  4793.500 -27.533  15.723 -29.533  15.723 
  4794.000 -29.994  18.205 -31.994  18.205 
  4794.500 -30.280  19.035 -32.280  19.035 
  4795.000 -30.597  19.244 -32.597  19.244 
  4795.500 -30.759  19.345 -32.759  19.345 
  4796.000 -30.921  19.145 -32.921  19.145 
  4796.500 -999.25  17.470 -999.25  17.470 
  4797.000 -999.25  15.458 -999.25  15.458 
  4797.500 -999.25  12.770 -999.25  12.770 
  4798.000 -999.25  11.238 -999.25  11.238 
  4798.500 -999.25  10.362 -999.25  10.362 
  4799.000 -999.25  10.234 -999.25  10.234 
  4799.500 -999.25  10.069 -999.25  10.069 
  4800.000 -999.25 -999.25 -999.25 -999.25 
