~Version Information
VERS.                     2.0: CWLS log ASCII Standard Version 2.00
WRAP.                      NO: One line per depth step
~Well Information Block
#MNEM.UNIT                               Data Type  Information
#---------                               ---------  -----------
STRT.FT                                    47.0000:
STOP.FT                                  1830.0000:
STEP.FT                                     0.5000:
NULL.                 -999.25                     :
COMP.                                             :COMPANY            
WELL.     SAN EMIDIO C-2                          :WELL               
FLD .                                             :FIELD              
CTRY.                                             :COUNTRY            
STAT.                                             :STATE              
LOC .                                             :LOCATION           
UWI .                                             :UNIQUE WELL ID     
SRVC.                                             :Service company    
DATE.                                             :LOG DATE           
~Curve Information
#MNEM.UNIT           API CODE  Curve Description
#---------           --------  -----------------
DEPT.FT                      :   1 DEPTH
RESI.OHMM                    :   2
SP  .MV                      :   3
SBL .MV                      :   4
RD  .OHMM                    :   5
~A
# ...
   502.000  6.9320 -5.8070 -3.8070  6.9320 
   502.500  6.4050 -5.5460 -3.5460  6.4050 
   503.000  6.0530 -5.5110 -3.5110  6.0530 
   503.500  6.1880 -5.8020 -3.8020  6.1880 
   504.000  6.6610 -6.1570 -4.1570  6.6610 
   504.500  6.9800 -6.6420 -4.6420  6.9800 
   505.000  6.5970 -7.3550 -5.3550  6.5970 
   505.500  6.2340 -8.1000 -6.1000  6.2340 
   506.000  6.0520 -8.9430 -6.9430  6.0520 
   506.500  6.7380 -9.6560 -7.6560  6.7380 
   507.000  7.1400 -9.9790 -7.9790  7.1400 
   507.500  7.5670 -10.301 -8.3010  7.5670 
   508.000  8.4440 -11.145 -9.1450  8.4440 
   508.500  8.6320 -11.435 -9.4350  8.6320 
   509.000  8.7850 -11.530 -9.5300  8.7850 
   509.500  8.9400 -11.626 -9.6260  8.9400 
   510.000  9.8210 -11.494 -9.4940  9.8210 
   510.500  9.4700 -11.362 -9.3620  9.4700 
   511.000  9.1740 -11.100 -9.1000  9.1740 
   511.500  9.2730 -10.936 -8.9360  9.2730 
   512.000  9.4380 -10.902 -8.9020  9.4380 
   512.500  9.7460 -10.916 -8.9160  9.7460 
   513.000  10.064 -10.930 -8.9300  10.064 
   513.500  10.714 -11.058 -9.0580  10.714 
   514.000  10.952 -11.121 -9.1210  10.952 
   514.500  11.197 -11.184 -9.1840  11.197 
   515.000  11.446 -11.231 -9.2310  11.446 
   515.500  11.781 -11.278 -9.2780  11.781 
   516.000  11.183 -11.341 -9.3410  11.183 
   516.500  10.808 -11.404 -9.4040  10.808 
   517.000  10.707 -11.499 -9.4990  10.707 
   517.500  10.848 -11.530 -9.5300  10.848 
   518.000  11.028 -11.560 -9.5600  11.028 
   518.500  11.210 -11.526 -9.5260  11.210 
   519.000  11.499 -11.491 -9.4910  11.499 
   519.500  11.795 -11.229 -9.2290  11.795 
   520.000  12.031 -10.968 -8.9680  12.031 
   520.500  12.217 -10.738 -8.7380  12.217 
   521.000  12.130 -10.509 -8.5090  12.130 
   521.500  12.043 -10.442 -8.4420  12.043 
   522.000  11.484 -10.375 -8.3750  11.484 
   522.500  11.428 -10.406 -8.4060  11.428 
   523.000  11.552 -10.436 -8.4360  11.552 
   523.500  11.652 -10.499 -8.4990  11.652 
   524.000  11.647 -10.497 -8.4970  11.647 
   524.500  11.307 -10.495 -8.4950  11.307 
   525.000  10.830 -10.429 -8.4290  10.830 
   525.500  11.096 -10.166 -8.1660  11.096 
   526.000  11.367 -9.5950 -7.5950  11.367 
   526.500  12.099 -9.0230 -7.0230  12.099 
   527.000  10.104 -7.1690 -5.1690  10.104 
   527.500  10.167 -5.5750 -3.5750  10.167 
   528.000  10.230 -5.1820 -3.1820  10.230 
   528.500  8.5430 -5.4560 -3.4560  8.5430 
   529.000  6.9920 -5.7290 -3.7290  6.9920 
   529.500  6.1900 -7.1240 -5.1240  6.1900 
   530.000  6.0630 -7.7380 -5.7380  6.0630 
   530.500  7.3350 -8.3530 -6.3530  7.3350 
   531.000  7.7710 -9.8780 -7.8780  7.7710 
   531.500  8.2340 -10.102 -8.1020  8.2340 
   532.000  9.3130 -10.360 -8.3600  9.3130 
   532.500  9.7790 -10.552 -8.5520  9.7790 
   533.000  10.269 -10.647 -8.6470  10.269 
   533.500  11.029 -10.741 -8.7410  11.029 
   534.000  11.426 -10.836 -8.8360  11.426 
   534.500  11.892 -10.931 -8.9310  11.892 
   535.000  12.074 -10.377 -8.3770  12.074 
   535.500  12.122 -9.6590 -7.6590  12.122 
   536.000  12.021 -8.9420 -6.9420  12.021 
   536.500  11.920 -8.4200 -6.4200  11.920 
   537.000  10.577 -8.4170 -6.4170  10.577 
   537.500  9.6630 -8.4140 -6.4140  9.6630 
   538.000  9.7890 -8.4930 -6.4930  9.7890 
   538.500  10.097 -8.5710 -6.5710  10.097 
   539.000  10.275 -7.4000 -5.4000  10.275 
   539.500  10.339 -6.8120 -4.8120  10.339 
   540.000  9.0710 -6.2240 -4.2240  9.0710 
   540.500  7.1300 -5.0850 -3.0850  7.1300 
   541.000  6.2420 -4.9850 -2.9850  6.2420 
   541.500  5.4640 -5.1610 -3.1610  5.4640 
   542.000  4.7510 -5.3370 -3.3370  4.7510 
   542.500  4.5100 -5.4640 -3.4640  4.5100 
   543.000  4.1760 -5.5920 -3.5920  4.1760 
   543.500  4.7870 -5.6540 -3.6540  4.7870 
   544.000  5.2930 -5.7490 -3.7490  5.2930 
   544.500  5.4900 -5.9410 -3.9410  5.4900 
   545.000  5.6940 -6.1340 -4.1340  5.6940 
   545.500  5.1910 -6.4880 -4.4880  5.1910 
   546.000  4.8830 -6.9410 -4.9410  4.8830 
   546.500  4.6450 -7.3930 -5.3930  4.6450 
   547.000  5.0790 -7.9100 -5.9100  5.0790 
   547.500  5.3700 -8.3950 -6.3950  5.3700 
   548.000  5.4640 -8.8800 -6.8800  5.4640 
   548.500  5.5600 -9.3640 -7.3640  5.5600 
   549.000  5.7480 -9.7190 -7.7190  5.7480 
   549.500  5.8360 -10.074 -8.0740  5.8360 
   550.000  5.8800 -9.9090 -7.9090  5.8800 
   550.500  5.9250 -9.2270 -7.2270  5.9250 
   551.000  6.0250 -9.0320 -7.0320  6.0250 
   551.500  6.1270 -9.0970 -7.0970  6.1270 
   552.000  6.6430 -9.2590 -7.2590  6.6430 
   552.500  7.0410 -9.3890 -7.3890  7.0410 
   553.000  7.6340 -9.5180 -7.5180  7.6340 
   553.500  8.2390 -9.7950 -7.7950  8.2390 
   554.000  8.4830 -10.071 -8.0710  8.4830 
   554.500  8.9120 -10.266 -8.2660  8.9120 
   555.000  9.2370 -10.429 -8.4290  9.2370 
   555.500  8.4240 -10.396 -8.3960  8.4240 
   556.000  8.6340 -9.4540 -7.4540  8.6340 
   556.500  8.9690 -8.0250 -6.0250  8.9690 
   557.000  9.2550 -7.2120 -5.2120  9.2550 
   557.500  7.9260 -6.6270 -4.6270  7.9260 
   558.000  6.6070 -6.1720 -4.1720  6.6070 
   558.500  5.9180 -5.7170 -3.7170  5.9180 
   559.000  4.9110 -5.6530 -3.6530  4.9110 
   559.500  4.3400 -5.5880 -3.5880  4.3400 
   560.000  4.1220 -5.7670 -3.7670  4.1220 
   560.500  4.3110 -5.9450 -3.9450  4.3110 
   561.000  4.8660 -6.0910 -4.0910  4.8660 
   561.500  5.2750 -6.2370 -4.2370  5.2750 
   562.000  5.4870 -6.4000 -4.4000  5.4870 
   562.500  5.7060 -6.4650 -4.4650  5.7060 
   563.000  6.0350 -6.3030 -4.3030  6.0350 
   563.500  6.1440 -5.9780 -3.9780  6.1440 
   564.000  6.2270 -5.6530 -3.6530  6.2270 
   564.500  6.3110 -5.5390 -3.5390  6.3110 
   565.000  6.1290 -5.4250 -3.4250  6.1290 
   565.500  5.9520 -5.3280 -3.3280  5.9520 
   566.000  5.7160 -5.4260 -3.4260  5.7160 
   566.500  5.5510 -5.7180 -3.7180  5.5510 
   567.000  5.3430 -6.0750 -4.0750  5.3430 
   567.500  5.5880 -6.4980 -4.4980  5.5880 
   568.000  5.9770 -6.7250 -4.7250  5.9770 
   568.500  6.2510 -6.9520 -4.9520  6.2510 
   569.000  6.5090 -7.2930 -5.2930  6.5090 
   569.500  6.6260 -7.6340 -5.6340  6.6260 
   570.000  6.4500 -7.9270 -5.9270  6.4500 
   570.500  6.3130 -7.8130 -5.8130  6.3130 
   571.000  6.1790 -7.6990 -5.6990  6.1790 
   571.500  6.5650 -7.6350 -5.6350  6.5650 
   572.000  6.8660 -7.6340 -5.6340  6.8660 
   572.500  7.5620 -7.6340 -5.6340  7.5620 
   573.000  7.8030 -8.3500 -6.3500  7.8030 
   573.500  8.3090 -8.8040 -6.8040  8.3090 
   574.000  8.6130 -9.2590 -7.2590  8.6130 
   574.500  8.7090 -10.039 -8.0390  8.7090 
   575.000  8.8070 -10.136 -8.1360  8.8070 
   575.500  9.0340 -9.8480 -7.8480  9.0340 
   576.000  9.1630 -9.6580 -7.6580  9.1630 
   576.500  9.2940 -9.4670 -7.4670  9.2940 
   577.000  9.1970 -9.6990 -7.6990  9.1970 
   577.500  9.0700 -10.289 -8.2890  9.0700 
   578.000  8.9440 -10.651 -8.6510  8.9440 
   578.500  8.8210 -10.882 -8.8820  8.8210 
   579.000  8.7000 -11.114 -9.1140  8.7000 
   579.500  8.7850 -11.379 -9.3790  8.7850 
   580.000  9.0310 -11.643 -9.6430  9.0310 
   580.500  9.3050 -11.810 -9.8100  9.3050 
   581.000  9.2910 -11.978 -9.9780  9.2910 
   581.500  9.2980 -12.080 -10.080  9.2980 
   582.000  9.3250 -12.165 -10.165  9.3250 
   582.500  9.4160 -12.251 -10.251  9.4160 
   583.000  10.378 -12.483 -10.483  10.378 
   583.500  10.538 -12.715 -10.715  10.538 
   584.000  10.701 -12.914 -10.914  10.701 
   584.500  11.455 -12.724 -10.724  11.455 
   585.000  11.697 -11.494 -9.4940  11.697 
   585.500  11.865 -9.1920 -7.1920  11.865 
   586.000  10.191 -8.7090 -6.7090  10.191 
   586.500  9.8830 -8.6160 -6.6160  9.8830 
   587.000  10.532 -8.5880 -6.5880  10.532 
   587.500  10.563 -8.5610 -6.5610  10.563 
   588.000  10.290 -8.5490 -6.5490  10.290 
   588.500  9.2240 -8.5370 -6.5370  9.2240 
   589.000  8.8250 -8.4600 -6.4600  8.8250 
   589.500  9.4470 -8.3830 -6.3830  9.4470 
   590.000  10.250 -8.1440 -6.1440  10.250 
   590.500  10.681 -7.9050 -5.9050  10.681 
   591.000  10.404 -7.3250 -5.3250  10.404 
   591.500  8.7580 -7.0370 -5.0370  8.7580 
   592.000  7.4550 -6.4570 -4.4570  7.4550 
   592.500  5.8800 -5.8450 -3.8450  5.8800 
