~Version Information
VERS.                     2.0: CWLS log ASCII Standard Version 2.00
WRAP.                      NO: One line per depth step
~Well Information Block
#MNEM.UNIT                               Data Type  Information
#---------                               ---------  -----------
STRT.FT                                    47.0000:
STOP.FT                                  1830.0000:
STEP.FT                                     0.5000:
NULL.                 -999.25                     :
COMP.                                             :COMPANY            
WELL.     SAN EMIDIO C-2                          :WELL               
FLD .                                             :FIELD              
CTRY.                                             :COUNTRY            
STAT.                                             :STATE              
LOC .                                             :LOCATION           
UWI .                                             :UNIQUE WELL ID     
SRVC.                                             :Service company    
DATE.                                             :LOG DATE           
~Curve Information
#MNEM.UNIT           API CODE  Curve Description
#---------           --------  -----------------
DEPT.FT                      :   1 DEPTH
RESI.OHMM                    :   2
SP  .MV                      :   3
SBL .MV                      :   4
RD  .OHMM                    :   5
~A
# ...
   866.000  9.9920 -4.3330 -2.3330  9.9920 
   866.500  9.5620 -4.1370 -2.1370  9.5620 
   867.000  8.2620 -3.4870 -1.4870  8.2620 
   867.500  7.9070 -3.3240 -1.3240  7.9070 
   868.000  7.5660 -3.1600 -1.1600  7.5660 
   868.500  6.6930 -3.9720 -1.9720  6.6930 
   869.000  5.9210 -5.2060 -3.2060  5.9210 
   869.500  5.6100 -5.8220 -3.8220  5.6100 
   870.000  6.0670 -6.0980 -4.0980  6.0670 
   870.500  6.3950 -6.3730 -4.3730  6.3950 
   871.000  6.7400 -6.8600 -4.8600  6.7400 
   871.500  7.2740 -6.9890 -4.9890  7.2740 
   872.000  7.6070 -7.1840 -5.1840  7.6070 
   872.500  7.9370 -7.0200 -5.0200  7.9370 
   873.000  8.1430 -6.8570 -4.8570  8.1430 
   873.500  8.3540 -6.3370 -4.3370  8.3540 
   874.000  8.6010 -6.0760 -4.0760  8.6010 
   874.500  8.6570 -5.8160 -3.8160  8.6570 
   875.000  8.6360 -5.3120 -3.3120  8.6360 
   875.500  8.5400 -4.8090 -2.8090  8.5400 
   876.000  8.4360 -4.5490 -2.5490  8.4360 
   876.500  8.3320 -4.2900 -2.2900  8.3320 
   877.000  7.8420 -3.7870 -1.7870  7.8420 
   877.500  7.3650 -3.2840 -1.2840  7.3650 
   878.000  7.0180 -2.7330 -0.7330  7.0180 
   878.500  6.6870 -2.4090 -0.4090  6.6870 
   879.000  5.9100 -2.1170 -0.1170  5.9100 
   879.500  5.6000 -1.8410  0.1590  5.6000 
   880.000  5.4400 -1.5660  0.4340  5.4400 
   880.500  5.3490 -1.9560  0.0440  5.3490 
   881.000  5.2600 -2.3470 -0.3470  5.2600 
   881.500  5.0630 -2.9160 -0.9160  5.0630 
   882.000  4.9950 -3.4850 -1.4850  4.9950 
   882.500  4.9730 -3.8760 -1.8760  4.9730 
   883.000  5.0470 -4.2660 -2.2660  5.0470 
   883.500  5.1210 -4.5920 -2.5920  5.1210 
   884.000  5.4050 -4.8520 -2.8520  5.4050 
   884.500  5.7040 -4.9670 -2.9670  5.7040 
   885.000  6.0340 -5.0810 -3.0810  6.0340 
   885.500  6.2270 -5.3090 -3.3090  6.2270 
   886.000  6.4260 -5.5370 -3.5370  6.4260 
   886.500  6.8280 -5.7330 -3.7330  6.8280 
   887.000  7.2560 -5.8310 -3.8310  7.2560 
   887.500  7.5900 -5.8970 -3.8970  7.5900 
   888.000  7.8850 -5.7830 -3.7830  7.8850 
   888.500  7.9480 -5.6700 -3.6700  7.9480 
   889.000  8.0110 -5.3140 -3.3140  8.0110 
   889.500  8.1570 -4.9890 -2.9890  8.1570 
   890.000  8.2860 -4.6650 -2.6650  8.2860 
   890.500  8.4180 -4.6010 -2.6010  8.4180 
   891.000  8.5320 -4.5360 -2.5360  8.5320 
   891.500  8.6480 -4.6990 -2.6990  8.6480 
   892.000  8.9050 -4.8620 -2.8620  8.9050 
   892.500  9.1690 -5.0260 -3.0260  9.1690 
   893.000  9.4840 -5.4490 -3.4490  9.4840 
   893.500  9.6350 -5.6450 -3.6450  9.6350 
   894.000  8.8870 -5.8400 -3.8400  8.8870 
   894.500  8.8080 -5.9060 -3.9060  8.8080 
   895.000  8.9880 -5.9390 -3.9390  8.9880 
   895.500  9.2960 -5.6800 -3.6800  9.2960 
   896.000  9.7020 -5.4360 -3.4360  9.7020 
   896.500  10.035 -5.1930 -3.1930  10.035 
   897.000  10.194 -4.6420 -2.6420  10.194 
   897.500  10.356 -4.2200 -2.2200  10.356 
   898.000  10.712 -3.8640 -1.8640  10.712 
   898.500  10.955 -3.8640 -1.8640  10.955 
   899.000  11.104 -3.8640 -1.8640  11.104 
   899.500  10.810 -4.1090 -2.1090  10.810 
   900.000  9.7930 -4.3530 -2.3530  9.7930 
   900.500  8.4310 -4.6180 -2.6180  8.4310 
   901.000  8.0480 -4.7200 -2.7200  8.0480 
   901.500  7.5460 -4.8220 -2.8220  7.5460 
   902.000  7.3840 -4.9070 -2.9070  7.3840 
   902.500  7.7630 -4.9930 -2.9930  7.7630 
   903.000  8.3670 -4.7220 -2.7220  8.3670 
   903.500  8.6590 -4.4500 -2.4500  8.6590 
   904.000  8.9520 -4.0970 -2.0970  8.9520 
   904.500  9.2550 -3.9720 -1.9720  9.2550 
   905.000  9.4190 -3.9110 -1.9110  9.4190 
   905.500  9.5860 -3.9810 -1.9810  9.5860 
   906.000  9.8990 -4.0500 -2.0500  9.8990 
   906.500  9.5140 -4.1850 -2.1850  9.5140 
   907.000  8.9610 -4.3190 -2.3190  8.9610 
   907.500  8.6020 -4.4380 -2.4380  8.6020 
   908.000  8.2580 -4.5560 -2.5560  8.2580 
   908.500  7.7950 -4.6420 -2.6420  7.7950 
   909.000  7.6960 -4.7270 -2.7270  7.6960 
   909.500  7.6500 -4.8130 -2.8130  7.6500 
   910.000  8.2630 -4.8990 -2.8990  8.2630 
   910.500  8.9650 -4.9470 -2.9470  8.9650 
   911.000  9.6400 -4.9950 -2.9950  9.6400 
   911.500  10.366 -5.0430 -3.0430  10.366 
   912.000  11.072 -5.0800 -3.0800  11.072 
   912.500  11.825 -5.1170 -3.1170  11.825 
   913.000  12.517 -5.1540 -3.1540  12.517 
   913.500  13.250 -5.1750 -3.1750  13.250 
   914.000  13.515 -5.1950 -3.1950  13.515 
   914.500  13.785 -5.2160 -3.2160  13.785 
   915.000  14.109 -5.2370 -3.2370  14.109 
   915.500  14.119 -5.2090 -3.2090  14.119 
   916.000  14.066 -5.2460 -3.2460  14.066 
   916.500  13.996 -5.2830 -3.2830  13.996 
   917.000  13.928 -5.2390 -3.2390  13.928 
   917.500  12.769 -5.1950 -3.1950  12.769 
   918.000  12.355 -5.1510 -3.1510  12.355 
   918.500  12.035 -5.1060 -3.1060  12.035 
   919.000  12.152 -4.9490 -2.9490  12.152 
   919.500  12.270 -4.8560 -2.8560  12.270 
   920.000  12.643 -4.7630 -2.7630  12.643 
   920.500  12.766 -4.5720 -2.5720  12.766 
   921.000  12.891 -4.4800 -2.4800  12.891 
   921.500  12.529 -4.5980 -2.5980  12.529 
   922.000  12.177 -4.7160 -2.7160  12.177 
   922.500  10.891 -4.6230 -2.6230  10.891 
   923.000  9.7410 -4.8390 -2.8390  9.7410 
   923.500  8.9810 -5.0540 -3.0540  8.9810 
   924.000  8.2800 -6.1310 -4.1310  8.2800 
   924.500  7.1600 -6.3300 -4.3300  7.1600 
   925.000  6.2620 -6.5300 -4.5300  6.2620 
   925.500  5.9060 -6.6270 -4.6270  5.9060 
   926.000  6.5330 -6.7240 -4.7240  6.5330 
   926.500  7.2430 -6.7390 -4.7390  7.2430 
   927.000  7.6770 -6.7550 -4.7550  7.6770 
   927.500  8.0280 -6.7870 -4.7870  8.0280 
   928.000  8.3200 -6.7530 -4.7530  8.3200 
   928.500  8.6430 -6.4280 -4.4280  8.6430 
   929.000  8.7780 -6.2320 -4.2320  8.7780 
   929.500  9.0770 -5.6800 -3.6800  9.0770 
   930.000  9.1780 -5.4520 -3.4520  9.1780 
   930.500  9.2800 -5.8730 -3.8730  9.2800 
   931.000  8.7520 -6.6520 -4.6520  8.7520 
   931.500  8.2540 -7.0090 -5.0090  8.2540 
   932.000  6.8950 -7.1710 -5.1710  6.8950 
   932.500  6.1610 -7.3320 -5.3320  6.1610 
   933.000  6.2580 -7.4290 -5.4290  6.2580 
   933.500  6.9380 -7.3960 -5.3960  6.9380 
   934.000  7.7090 -7.2980 -5.2980  7.7090 
   934.500  8.1900 -7.1680 -5.1680  8.1900 
   935.000  8.2800 -7.1020 -5.1020  8.2800 
   935.500  8.3720 -7.0360 -5.0360  8.3720 
   936.000  8.5030 -6.9050 -4.9050  8.5030 
   936.500  8.5600 -6.7750 -4.7750  8.5600 
   937.000  8.5970 -6.6440 -4.6440  8.5970 
   937.500  8.5950 -6.5300 -4.5300  8.5950 
   938.000  8.6320 -6.4150 -4.4150  8.6320 
   938.500  8.7470 -6.1550 -4.1550  8.7470 
   939.000  8.8940 -5.9920 -3.9920  8.8940 
   939.500  9.0440 -5.8290 -3.8290  9.0440 
   940.000  9.3520 -5.4710 -3.4710  9.3520 
   940.500  9.6270 -5.2920 -3.2920  9.6270 
   941.000  9.8220 -5.1120 -3.1120  9.8220 
   941.500  10.021 -4.7870 -2.7870  10.021 
   942.000  10.247 -4.4610 -2.4610  10.247 
   942.500  10.407 -4.2010 -2.2010  10.407 
   943.000  10.570 -3.9400 -1.9400  10.570 
   943.500  10.736 -3.7280 -1.7280  10.736 
   944.000  10.758 -3.5160 -1.5160  10.758 
   944.500  10.447 -3.3860 -1.3860  10.447 
   945.000  8.1400 -3.2550 -1.2550  8.1400 
   945.500  5.6940 -3.0920 -1.0920  5.6940 
   946.000  5.5050 -3.2540 -1.2540  5.5050 
   946.500  5.3210 -3.4160 -1.4160  5.3210 
   947.000  5.2370 -3.5770 -1.5770  5.2370 
   947.500  5.3250 -3.7390 -1.7390  5.3250 
   948.000  5.4150 -4.2260 -2.2260  5.4150 
   948.500  5.5620 -4.4530 -2.4530  5.5620 
   949.000  5.3890 -4.6800 -2.6800  5.3890 
   949.500  5.2500 -5.0040 -3.0040  5.2500 
   950.000  5.1150 -5.1180 -3.1180  5.1150 
   950.500  4.9040 -5.2330 -3.2330  4.9040 
   951.000  4.8180 -5.3820 -3.3820  4.8180 
   951.500  5.2850 -5.5300 -3.5300  5.2850 
   952.000  5.9020 -5.6960 -3.6960  5.9020 
   952.500  6.7710 -5.6010 -3.6010  6.7710 
   953.000  7.3940 -5.4740 -3.4740  7.3940 
   953.500  7.8410 -5.3140 -3.3140  7.8410 
   954.000  7.9510 -5.1540 -3.1540  7.9510 
   954.500  7.7860 -4.8970 -2.8970  7.7860 
   955.000  7.6240 -4.8020 -2.8020  7.6240 
   955.500  8.4570 -4.7070 -2.7070  8.4570 
   956.000  9.3610 -4.6120 -2.6120  9.3610 
   956.500  9.7070 -4.5170 -2.5170  9.7070 
