~Version Information
VERS.                     2.0: CWLS log ASCII Standard Version 2.00
WRAP.                      NO: One line per depth step
~Well Information Block
#MNEM.UNIT                               Data Type  Information
#---------                               ---------  -----------
STRT.FT                                    47.0000:
STOP.FT                                  1830.0000:
STEP.FT                                     0.5000:
NULL.                 -999.25                     :
COMP.                                             :COMPANY            
WELL.     SAN EMIDIO C-2                          :WELL               
FLD .                                             :FIELD              
CTRY.                                             :COUNTRY            
STAT.                                             :STATE              
LOC .                                             :LOCATION           
UWI .                                             :UNIQUE WELL ID     
SRVC.                                             :Service company    
DATE.                                             :LOG DATE           
~Curve Information
#MNEM.UNIT           API CODE  Curve Description
#---------           --------  -----------------
DEPT.FT                      :   1 DEPTH
RESI.OHMM                    :   2
SP  .MV                      :   3
SBL .MV                      :   4
RD  .OHMM                    :   5
~A
# ...
  1685.000  3.1470 -27.433 -4.3711  3.1470 
  1685.500  3.0550 -27.838 -4.7452  3.0550 
  1686.000  2.9270 -28.244 -5.1203  2.9270 
  1686.500  2.7940 -28.340 -5.1854  2.7940 
  1687.000  2.6680 -28.436 -5.2504  2.6680 
  1687.500  2.5500 -28.531 -5.3145  2.5500 
  1688.000  2.4370 -28.562 -5.3146  2.4370 
  1688.500  2.3080 -28.560 -5.2816  2.3080 
  1689.000  2.2870 -28.510 -5.2007  2.2870 
  1689.500  2.3310 -28.459 -5.1188  2.3310 
  1690.000  2.3750 -28.000 -4.6289  2.3750 
  1690.500  2.4840 -27.688 -4.2859  2.4840 
  1691.000  2.5660 -27.377 -3.9440  2.5660 
  1691.500  2.6500 -26.950 -3.4861  2.6500 
  1692.000  2.7660 -26.524 -3.0292  2.7660 
  1692.500  2.8860 -26.734 -3.2082  2.8860 
  1693.000  2.9840 -26.944 -3.3873  2.9840 
  1693.500  3.0860 -27.383 -3.7954  3.0860 
  1694.000  3.1200 -27.821 -4.2024  3.1200 
  1694.500  3.0020 -28.406 -4.7565  3.0020 
  1695.000  2.8760 -28.796 -5.1156  2.8760 
  1695.500  2.7550 -29.251 -5.5397  2.7550 
  1696.000  2.6390 -29.706 -5.9637  2.6390 
  1696.500  2.3360 -30.225 -6.4518  2.3360 
  1697.000  2.2130 -30.322 -6.5179  2.2130 
  1697.500  2.0820 -30.352 -6.5169  2.0820 
  1698.000  2.0580 -30.252 -6.3860  2.0580 
  1698.500  2.0530 -29.924 -6.0271  2.0530 
  1699.000  2.0480 -29.596 -5.6682  2.0480 
  1699.500  2.0660 -29.192 -5.2332  2.0660 
  1700.000  2.0840 -28.788 -4.7983  2.0840 
  1700.500  2.1150 -28.383 -4.3624  2.1150 
  1701.000  2.1450 -27.826 -3.7745  2.1450 
  1701.500  2.1790 -27.906 -3.8235  2.1790 
  1702.000  2.1880 -27.986 -3.8726  2.1880 
  1702.500  2.1980 -28.440 -4.2957  2.1980 
  1703.000  2.2100 -28.732 -4.5567  2.2100 
  1703.500  2.2220 -29.024 -4.8178  2.2220 
  1704.000  2.2460 -29.120 -4.8829  2.2460 
  1704.500  2.2710 -29.216 -4.9480  2.2710 
  1705.000  2.4180 -28.839 -4.5400  2.4180 
  1705.500  2.5290 -28.462 -4.1321  2.5290 
  1706.000  2.6450 -27.545 -3.1842  2.6450 
  1706.500  2.7350 -26.956 -2.5642  2.7350 
  1707.000  2.8220 -26.465 -2.0423  2.8220 
  1707.500  2.9120 -25.909 -1.4554  2.9120 
  1708.000  2.9310 -25.450 -0.9655  2.9310 
  1708.500  2.9500 -24.991 -0.4755  2.9500 
  1709.000  2.8840 -25.674 -1.1276  2.8840 
  1709.500  2.7010 -27.173 -2.5957  2.7010 
  1710.000  2.5380 -27.628 -3.0198  2.5380 
  1710.500  2.3850 -27.920 -3.2808  2.3850 
  1711.000  2.1500 -28.212 -3.5419  2.1500 
  1711.500  2.0460 -29.286 -4.5850  2.0460 
  1712.000  2.0070 -30.589 -5.8570  2.0070 
  1712.500  1.9680 -30.913 -6.1501  1.9680 
  1713.000  1.9090 -31.238 -6.4442  1.9090 
  1713.500  1.8510 -30.485 -5.6603  1.8510 
  1714.000  2.0300 -29.243 -4.3873  2.0300 
  1714.500  2.1020 -28.262 -3.3754  2.1020 
  1715.000  2.1760 -27.543 -2.6255  2.1760 
  1715.500  2.2500 -26.725 -1.7765  2.2500 
  1716.000  2.3270 -26.169 -1.1896  2.3270 
  1716.500  2.4550 -26.069 -1.0587  2.4550 
  1717.000  2.5450 -26.850 -1.8088  2.5450 
  1717.500  2.4380 -27.924 -2.8518  2.4380 
  1718.000  2.3350 -28.706 -3.6029  2.3350 
  1718.500  2.1100 -29.373 -4.2390  2.1100 
  1719.000  2.0250 -30.040 -4.8751  2.0250 
  1719.500  1.9400 -30.408 -5.2121  1.9400 
  1720.000  1.8590 -30.776 -5.5492  1.8590 
  1720.500  1.7990 -31.144 -5.8863  1.7990 
  1721.000  1.7400 -31.435 -6.1463  1.7400 
  1721.500  1.7930 -31.628 -6.3084  1.7930 
  1722.000  1.8470 -31.757 -6.4065  1.8470 
  1722.500  1.9030 -31.755 -6.3736  1.9030 
  1723.000  2.0400 -31.329 -5.9166  2.0400 
  1723.500  2.0860 -30.479 -5.0357  2.0860 
  1724.000  2.0530 -30.020 -4.5458  2.0530 
  1724.500  2.0020 -29.562 -4.0568  2.0020 
  1725.000  1.9930 -28.907 -3.3709  1.9930 
  1725.500  1.9840 -28.253 -2.6860  1.9840 
  1726.000  2.0240 -27.500 -1.9021  2.0240 
  1726.500  2.2140 -27.776 -2.1471  2.2140 
  1727.000  2.4220 -28.051 -2.3912  2.4220 
  1727.500  2.5410 -28.800 -3.1093  2.5410 
  1728.000  2.6670 -29.548 -3.8264  2.6670 
  1728.500  2.7550 -30.165 -4.4124  2.7550 
  1729.000  2.8450 -30.506 -4.7225  2.8450 
  1729.500  2.9030 -30.847 -5.0326  2.9030 
  1730.000  2.5700 -31.302 -5.4566  2.5700 
  1730.500  2.4070 -31.626 -5.7497  2.4070 
  1731.000  2.2950 -31.754 -5.8468  2.2950 
  1731.500  2.2920 -31.230 -5.2919  2.2920 
  1732.000  2.2890 -30.510 -4.5409  2.2890 
  1732.500  2.2990 -30.085 -4.0850  2.2990 
  1733.000  2.3090 -29.659 -3.6281  2.3090 
  1733.500  2.2980 -29.102 -3.0401  2.2980 
  1734.000  2.2590 -28.546 -2.4532  2.2590 
  1734.500  2.2210 -28.397 -2.2733  2.2210 
  1735.000  2.2250 -28.248 -2.0934  2.2250 
  1735.500  2.3430 -28.589 -2.4034  2.3430 
  1736.000  2.5920 -28.929 -2.7125  2.5920 
  1736.500  2.7360 -29.613 -3.3656  2.7360 
  1737.000  3.0400 -30.296 -4.0176  3.0400 
  1737.500  3.1580 -30.734 -4.4247  3.1580 
  1738.000  3.0520 -31.173 -4.8328  3.0520 
  1738.500  2.9840 -30.844 -4.4729  2.9840 
  1739.000  2.9230 -30.728 -4.3259  2.9230 
  1739.500  2.8840 -30.613 -4.1800  2.8840 
  1740.000  2.8440 -30.920 -4.4561  2.8440 
  1740.500  2.7250 -31.228 -4.7332  2.7250 
  1741.000  2.4450 -31.846 -5.3202  2.4450 
  1741.500  2.2390 -31.974 -5.4173  2.2390 
  1742.000  2.0230 -32.005 -5.4174  2.0230 
  1742.500  1.9030 -31.905 -5.2864  1.9030 
  1743.000  1.8650 -31.773 -5.1235  1.8650 
  1743.500  1.7940 -31.641 -4.9606  1.7940 
  1744.000  1.7740 -31.344 -4.6327  1.7740 
  1744.500  1.8060 -31.081 -4.3387  1.8060 
  1745.000  1.8380 -30.982 -4.2088  1.8380 
  1745.500  1.9140 -30.883 -4.0789  1.9140 
  1746.000  1.9920 -30.913 -4.0779  1.9920 
  1746.500  2.0690 -30.715 -3.8490  2.0690 
  1747.000  2.0600 -30.093 -3.1961  2.0600 
  1747.500  2.0220 -29.471 -2.5432  2.0220 
  1748.000  1.9860 -28.850 -1.8912  1.9860 
  1748.500  1.9770 -28.228 -1.2383  1.9770 
  1749.000  2.0760 -27.279 -0.2584  2.0760 
  1749.500  2.2260 -26.951  0.1005  2.2260 
  1750.000  2.3230 -28.548 -1.4655  2.3230 
  1750.500  2.3440 -29.381 -2.2676  2.3440 
  1751.000  2.3060 -30.214 -3.0697  2.3060 
  1751.500  2.2680 -31.388 -4.2127  2.2680 
  1752.000  2.1660 -31.748 -4.5418  2.1660 
  1752.500  2.0690 -31.944 -4.7069  2.0690 
  1753.000  2.0090 -32.108 -4.8400  2.0090 
  1753.500  2.0370 -32.272 -4.9730  2.0370 
  1754.000  2.0650 -32.349 -5.0191  2.0650 
  1754.500  2.1900 -32.426 -5.0652  2.1900 
  1755.000  2.2050 -32.503 -5.1112  2.2050 
  1755.500  2.1280 -32.634 -5.2113  2.1280 
  1756.000  2.0530 -32.765 -5.3114  2.0530 
  1756.500  2.0080 -32.896 -5.4115  2.0080 
  1757.000  2.0540 -33.027 -5.5115  2.0540 
  1757.500  2.0590 -33.142 -5.5956  2.0590 
  1758.000  2.0280 -33.257 -5.6797  2.0280 
  1758.500  1.9560 -33.355 -5.7468  1.9560 
  1759.000  1.8500 -33.339 -5.6998  1.8500 
  1759.500  1.7970 -33.324 -5.6539  1.7970 
  1760.000  1.9270 -33.226 -5.5250  1.9270 
  1760.500  2.0210 -33.081 -5.3490  2.0210 
  1761.000  2.2120 -32.935 -5.1721  2.2120 
  1761.500  2.3240 -32.543 -4.7492  2.3240 
  1762.000  2.5040 -32.120 -4.2953  2.5040 
  1762.500  2.5970 -32.316 -4.4603  2.5970 
  1763.000  2.7020 -32.921 -5.0344  2.7020 
  1763.500  2.8110 -33.525 -5.6075  2.8110 
  1764.000  2.9080 -34.342 -6.3935  2.9080 
  1764.500  3.0080 -35.158 -7.1786  3.0080 
  1765.000  3.1050 -34.767 -6.7567  3.1050 
  1765.500  2.9930 -34.376 -6.3348  2.9930 
  1766.000  2.8840 -32.778 -4.7058  2.8840 
  1766.500  2.6720 -32.550 -4.4469  2.6720 
  1767.000  2.6140 -32.616 -4.4820  2.6140 
  1767.500  2.6140 -32.992 -4.8271  2.6140 
  1768.000  2.6150 -33.368 -5.1721  2.6150 
  1768.500  2.6870 -33.923 -5.6962  2.6870 
  1769.000  2.7610 -34.413 -6.1553  2.7610 
  1769.500  3.0080 -34.805 -6.5163  3.0080 
  1770.000  3.0980 -35.034 -6.7144  3.0980 
  1770.500  3.0580 -35.231 -6.8805  3.0580 
  1771.000  2.7890 -34.220 -5.8386  2.7890 
  1771.500  2.4700 -33.846 -5.4336  2.4700 
  1772.000  2.1880 -33.471 -5.0277  2.1880 
  1772.500  1.8820 -33.814 -5.3398  1.8820 
  1773.000  1.6260 -34.157 -5.6518  1.6260 
  1773.500  1.5000 -34.745 -6.2089  1.5000 
  1774.000  1.4700 -35.137 -6.5700  1.4700 
  1774.500  1.7220 -35.301 -6.7031  1.7220 
  1775.000  1.7220 -35.302 -6.6731  1.7220 
  1775.500  1.6840 -35.335 -6.6752  1.6840 
