~Version Information
VERS.                     2.0: CWLS log ASCII Standard Version 2.00
WRAP.                      NO: One line per depth step
~Well Information Block
#MNEM.UNIT                               Data Type  Information
#---------                               ---------  -----------
STRT.FT                                    47.0000:
STOP.FT                                  1830.0000:
STEP.FT                                     0.5000:
NULL.                 -999.25                     :
COMP.                                             :COMPANY            
WELL.     SAN EMIDIO C-2                          :WELL               
FLD .                                             :FIELD              
CTRY.                                             :COUNTRY            
STAT.                                             :STATE              
LOC .                                             :LOCATION           
UWI .                                             :UNIQUE WELL ID     
SRVC.                                             :Service company    
DATE.                                             :LOG DATE           
~Curve Information
#MNEM.UNIT           API CODE  Curve Description
#---------           --------  -----------------
DEPT.FT                      :   1 DEPTH
RESI.OHMM                    :   2
SP  .MV                      :   3
SBL .MV                      :   4
RD  .OHMM                    :   5
~A
# ...
   138.000  24.751 -8.5690 -6.5690  24.751 
   138.500  25.478 -8.5870 -6.5870  25.478 
   139.000  25.017 -8.6050 -6.6050  25.017 
   139.500  24.563 -8.6450 -6.6450  24.563 
   140.000  23.957 -8.6840 -6.6840  23.957 
   140.500  23.365 -8.7230 -6.7230  23.365 
   141.000  23.150 -8.7630 -6.7630  23.150 
   141.500  23.404 -8.8050 -6.8050  23.404 
   142.000  23.661 -8.8470 -6.8470  23.661 
   142.500  24.410 -8.8890 -6.8890  24.410 
   143.000  24.817 -8.9440 -6.9440  24.817 
   143.500  25.231 -9.0000 -7.0000  25.231 
   144.000  25.913 -9.0550 -7.0550  25.913 
   144.500  26.613 -9.1110 -7.1110  26.613 
   145.000  27.393 -9.1500 -7.1500  27.393 
   145.500  28.197 -9.1890 -7.1890  28.197 
   146.000  29.024 -9.2290 -7.2290  29.024 
   146.500  28.885 -9.2680 -7.2680  28.885 
   147.000  26.515 -9.3310 -7.3310  26.515 
   147.500  25.456 -9.3950 -7.3950  25.456 
   148.000  24.440 -9.4590 -7.4590  24.440 
   148.500  22.434 -9.5550 -7.5550  22.434 
   149.000  21.491 -9.6510 -7.6510  21.491 
   149.500  21.340 -9.7310 -7.7310  21.340 
   150.000  21.190 -9.8110 -7.8110  21.190 
   150.500  21.435 -9.8890 -7.8890  21.435 
   151.000  21.683 -9.9670 -7.9670  21.683 
   151.500  22.082 -10.044 -8.0440  22.082 
   152.000  22.488 -10.100 -8.1000  22.488 
   152.500  23.161 -10.157 -8.1570  23.161 
   153.000  22.755 -10.213 -8.2130  22.755 
   153.500  22.355 -10.258 -8.2580  22.355 
   154.000  22.462 -10.303 -8.3030  22.462 
   154.500  22.569 -10.348 -8.3480  22.569 
   155.000  23.402 -10.399 -8.3990  23.402 
   155.500  22.380 -10.450 -8.4500  22.380 
   156.000  21.790 -10.468 -8.4680  21.790 
   156.500  21.894 -10.486 -8.4860  21.894 
   157.000  22.499 -10.391 -8.3910  22.499 
   157.500  26.100 -9.8400 -7.8400  26.100 
   158.000  30.759 -9.2900 -7.2900  30.759 
   158.500  33.209 -8.9510 -6.9510  33.209 
   159.000  36.916 -8.6110 -6.6110  36.916 
   159.500  40.216 -11.375 -9.3750  40.216 
   160.000  44.008 -12.449 -10.449  44.008 
   160.500  47.514 -12.743 -10.743  47.514 
   161.000  49.154 -13.038 -11.038  49.154 
   161.500  50.284 -12.423 -10.423  50.284 
   162.000  45.770 -10.345 -8.3450  45.770 
   162.500  44.967 -8.3660 -6.3660  44.967 
   163.000  47.152 -6.7110 -4.7110  47.152 
   163.500  49.776 -5.9000 -3.9000  49.776 
   164.000  47.816 -7.2020 -5.2020  47.816 
   164.500  45.422 -7.5290 -5.5290  45.422 
   165.000  46.050 -7.8550 -5.8550  46.050 
   165.500  47.055 -8.0530 -6.0530  47.055 
   166.000  48.083 -8.0540 -6.0540  48.083 
   166.500  48.859 -8.0560 -6.0560  48.859 
   167.000  48.981 -7.9280 -5.9280  48.981 
   167.500  45.087 -7.8000 -5.8000  45.087 
   168.000  39.769 -7.5100 -5.5100  39.769 
   168.500  38.375 -7.3980 -5.3980  38.375 
   169.000  36.290 -7.2860 -5.2860  36.290 
   169.500  35.018 -7.1910 -5.1910  35.018 
   170.000  33.639 -7.0950 -5.0950  33.639 
   170.500  32.243 -7.0320 -5.0320  32.243 
   171.000  30.835 -7.0670 -5.0670  30.835 
   171.500  29.688 -7.1010 -5.1010  29.688 
   172.000  29.232 -7.3140 -5.3140  29.232 
   172.500  30.039 -7.5270 -5.5270  30.039 
   173.000  36.450 -7.7570 -5.7570  36.450 
   173.500  38.306 -7.9530 -5.9530  38.306 
   174.000  39.186 -8.1500 -6.1500  39.186 
   174.500  40.086 -8.4780 -6.4780  40.086 
   175.000  41.940 -8.5560 -6.5560  41.940 
   175.500  42.459 -8.6350 -6.6350  42.459 
   176.000  42.598 -8.6290 -6.6290  42.598 
   176.500  42.644 -8.5250 -6.5250  42.644 
   177.000  42.212 -8.4640 -6.4640  42.212 
   177.500  41.133 -8.4030 -6.4030  41.133 
   178.000  40.716 -8.3430 -6.3430  40.716 
   178.500  40.667 -8.3040 -6.3040  40.667 
   179.000  40.618 -8.2650 -6.2650  40.618 
   179.500  40.569 -8.2420 -6.2420  40.569 
   180.000  40.658 -8.2200 -6.2200  40.658 
   180.500  40.747 -8.2460 -6.2460  40.747 
   181.000  40.881 -8.2720 -6.2720  40.881 
   181.500  41.016 -8.2980 -6.2980  41.016 
   182.000  41.339 -8.3130 -6.3130  41.339 
   182.500  41.382 -8.3280 -6.3280  41.382 
   183.000  35.638 -8.3430 -6.3430  35.638 
   183.500  30.898 -8.4010 -6.4010  30.898 
   184.000  27.398 -8.4600 -6.4600  27.398 
   184.500  26.638 -8.5180 -6.5180  26.638 
   185.000  26.397 -8.5360 -6.5360  26.397 
   185.500  26.159 -8.5540 -6.5540  26.159 
   186.000  27.329 -8.5720 -6.5720  27.329 
   186.500  29.199 -8.5890 -6.5890  29.199 
   187.000  29.893 -8.6160 -6.6160  29.893 
   187.500  31.300 -8.6420 -6.6420  31.300 
   188.000  31.973 -8.6570 -6.6570  31.973 
   188.500  29.455 -8.6720 -6.6720  29.455 
   189.000  27.813 -8.6870 -6.6870  27.813 
   189.500  27.842 -8.7780 -6.7780  27.842 
   190.000  28.536 -8.8530 -6.8530  28.536 
   190.500  29.247 -8.9280 -6.9280  29.247 
   191.000  30.180 -9.0670 -7.0670  30.180 
   191.500  31.142 -9.2070 -7.2070  31.142 
   192.000  31.883 -9.3960 -7.3960  31.883 
   192.500  32.277 -9.5840 -7.5840  32.277 
   193.000  32.676 -9.6860 -7.6860  32.676 
   193.500  32.784 -9.7870 -7.7870  32.784 
   194.000  32.162 -9.8890 -7.8890  32.162 
   194.500  29.829 -10.078 -8.0780  29.829 
   195.000  28.742 -10.136 -8.1360  28.742 
   195.500  28.387 -9.7720 -7.7720  28.387 
   196.000  28.226 -9.7980 -7.7980  28.226 
   196.500  28.256 -9.8240 -7.8240  28.256 
   197.000  28.285 -9.7200 -7.7200  28.285 
   197.500  27.315 -9.6490 -7.6490  27.315 
   198.000  25.051 -9.5770 -7.5770  25.051 
   198.500  23.549 -9.3760 -7.3760  23.549 
   199.000  22.690 -9.1750 -7.1750  22.690 
   199.500  22.011 -9.0060 -7.0060  22.011 
   200.000  22.133 -8.8370 -6.8370  22.133 
   200.500  22.895 -8.7630 -6.7630  22.895 
   201.000  23.684 -8.6890 -6.6890  23.684 
   201.500  24.307 -8.5680 -6.5680  24.307 
   202.000  25.060 -8.5430 -6.5430  25.060 
   202.500  25.546 -8.5180 -6.5180  25.546 
   203.000  26.043 -8.4930 -6.4930  26.043 
   203.500  25.383 -8.4530 -6.4530  25.383 
   204.000  23.759 -8.4120 -6.4120  23.759 
   204.500  22.769 -8.3870 -6.3870  22.769 
   205.000  21.821 -8.3620 -6.3620  21.821 
   205.500  23.320 -8.4030 -6.4030  23.320 
   206.000  25.260 -8.4430 -6.4430  25.260 
   206.500  25.066 -8.4830 -6.4830  25.066 
   207.000  24.873 -8.5240 -6.5240  24.873 
   207.500  23.335 -8.5800 -6.5800  23.335 
   208.000  22.389 -8.6360 -6.6360  22.389 
   208.500  22.267 -8.8070 -6.8070  22.267 
   209.000  22.776 -8.9120 -6.9120  22.776 
   209.500  23.296 -9.0170 -7.0170  23.296 
   210.000  24.841 -8.9600 -6.9600  24.841 
   210.500  25.041 -8.9030 -6.9030  25.041 
   211.000  23.918 -8.8460 -6.8460  23.918 
   211.500  23.103 -8.7880 -6.7880  23.103 
   212.000  22.926 -8.6660 -6.6660  22.926 
   212.500  23.214 -8.6420 -6.6420  23.214 
   213.000  23.665 -8.6170 -6.6170  23.665 
   213.500  24.179 -8.6570 -6.6570  24.179 
   214.000  24.538 -8.7140 -6.7140  24.538 
   214.500  24.625 -8.7700 -6.7700  24.625 
   215.000  23.759 -9.0050 -7.0050  23.759 
   215.500  22.924 -9.2410 -7.2410  22.924 
   216.000  20.887 -9.7040 -7.7040  20.887 
   216.500  20.358 -9.9390 -7.9390  20.358 
   217.000  20.384 -9.9790 -7.9790  20.384 
   217.500  20.409 -10.019 -8.0190  20.409 
   218.000  20.853 -10.059 -8.0590  20.853 
   218.500  21.644 -10.100 -8.1000  21.644 
   219.000  22.214 -10.091 -8.0910  22.214 
   219.500  22.544 -10.083 -8.0830  22.544 
   220.000  22.421 -10.026 -8.0260  22.421 
   220.500  22.298 -9.9690 -7.9690  22.298 
   221.000  21.588 -9.9270 -7.9270  21.588 
   221.500  21.183 -9.8860 -7.8860  21.183 
   222.000  20.646 -9.8290 -7.8290  20.646 
   222.500  22.113 -9.7720 -7.7720  22.113 
   223.000  23.845 -9.6500 -7.6500  23.845 
   223.500  24.418 -9.6150 -7.6150  24.418 
   224.000  24.670 -9.5790 -7.5790  24.670 
   224.500  24.757 -9.5430 -7.5430  24.757 
   225.000  24.512 -9.4630 -7.4630  24.512 
   225.500  23.355 -9.3820 -7.3820  23.355 
   226.000  22.352 -9.2790 -7.2790  22.352 
   226.500  22.275 -9.2610 -7.2610  22.275 
   227.000  23.011 -9.2440 -7.2440  23.011 
   227.500  24.421 -9.2260 -7.2260  24.421 
   228.000  25.627 -9.2410 -7.2410  25.627 
   228.500  26.178 -9.2560 -7.2560  26.178 
