~Version Information
VERS.                     2.0: CWLS log ASCII Standard Version 2.00
WRAP.                      NO: One line per depth step
~Well Information Block
#MNEM.UNIT                               Data Type  Information
#---------                               ---------  -----------
STRT.FT                                    47.0000:
STOP.FT                                  1830.0000:
STEP.FT                                     0.5000:
NULL.                 -999.25                     :
COMP.                                             :COMPANY            
WELL.     SAN EMIDIO C-2                          :WELL               
FLD .                                             :FIELD              
CTRY.                                             :COUNTRY            
STAT.                                             :STATE              
LOC .                                             :LOCATION           
UWI .                                             :UNIQUE WELL ID     
SRVC.                                             :Service company    
DATE.                                             :LOG DATE           
~Curve Information
#MNEM.UNIT           API CODE  Curve Description
#---------           --------  -----------------
DEPT.FT                      :   1 DEPTH
RESI.OHMM                    :   2
SP  .MV                      :   3
SBL .MV                      :   4
RD  .OHMM                    :   5
~A
# ...
  1048.000  10.226 -7.0730 -5.0730  10.226 
  1048.500  10.822 -6.8140 -4.8140  10.822 
  1049.000  11.275 -6.5550 -4.5550  11.275 
  1049.500  11.825 -5.9690 -3.9690  11.825 
  1050.000  12.627 -5.7090 -3.7090  12.627 
  1050.500  13.080 -5.7690 -3.7690  13.080 
  1051.000  13.749 -5.8290 -3.8290  13.749 
  1051.500  14.452 -5.9380 -3.9380  14.452 
  1052.000  15.694 -6.0470 -4.0470  15.694 
  1052.500  16.257 -6.1730 -4.1730  16.257 
  1053.000  16.689 -6.2980 -4.2980  16.689 
  1053.500  16.827 -6.4240 -4.4240  16.827 
  1054.000  15.929 -6.5490 -4.5490  15.929 
  1054.500  15.302 -6.6740 -4.6740  15.302 
  1055.000  14.700 -6.7560 -4.7560  14.700 
  1055.500  14.232 -6.8380 -4.8380  14.232 
  1056.000  13.780 -6.9200 -4.9200  13.780 
  1056.500  13.222 -7.0120 -5.0120  13.222 
  1057.000  13.094 -7.1050 -5.1050  13.094 
  1057.500  13.517 -7.1810 -5.1810  13.517 
  1058.000  13.955 -7.2570 -5.2570  13.955 
  1058.500  14.718 -7.3170 -5.3170  14.718 
  1059.000  14.973 -7.3780 -5.3780  14.973 
  1059.500  14.048 -7.4040 -5.4040  14.048 
  1060.000  13.617 -7.4000 -5.4000  13.617 
  1060.500  13.199 -7.3950 -5.3950  13.199 
  1061.000  12.607 -6.7690 -4.7690  12.607 
  1061.500  12.221 -6.4220 -4.4220  12.221 
  1062.000  11.846 -6.0740 -4.0740  11.846 
  1062.500  10.202 -6.0690 -4.0690  10.202 
  1063.000  9.2950 -6.0640 -4.0640  9.2950 
  1063.500  8.4120 -6.4500 -4.4500  8.4120 
  1064.000  7.5620 -6.8360 -4.8360  7.5620 
  1064.500  8.8850 -7.0910 -5.0910  8.8850 
  1065.000  9.2560 -7.0860 -5.0860  9.2560 
  1065.500  9.6420 -7.0320 -5.0320  9.6420 
  1066.000  10.192 -6.9790 -4.9790  10.192 
  1066.500  10.462 -6.9070 -4.9070  10.462 
  1067.000  10.621 -6.8860 -4.8860  10.621 
  1067.500  10.829 -6.8650 -4.8650  10.829 
  1068.000  11.042 -6.8430 -4.8430  11.042 
  1068.500  11.133 -6.8220 -4.8220  11.133 
  1069.000  10.975 -6.7350 -4.7350  10.975 
  1069.500  10.436 -6.6480 -4.6480  10.436 
  1070.000  10.048 -4.5220 -2.5220  10.048 
  1070.500  9.6750 -4.3860 -2.3860  9.6750 
  1071.000  8.9550 -4.7400 -2.7400  8.9550 
  1071.500  8.1960 -4.9960 -2.9960  8.1960 
  1072.000  7.7060 -5.2520 -3.2520  7.7060 
  1072.500  7.2300 -5.5890 -3.5890  7.2300 
  1073.000  7.3220 -5.9260 -3.9260  7.3220 
  1073.500  7.5340 -6.0520 -4.0520  7.5340 
  1074.000  7.9280 -5.7530 -3.7530  7.9280 
  1074.500  8.2310 -5.1930 -3.1930  8.2310 
  1075.000  8.5640 -4.6650 -2.6650  8.5640 
  1075.500  8.7720 -4.3340 -2.3340  8.7720 
  1076.000  7.7100 -4.1330 -2.1330  7.7100 
  1076.500  6.8990 -4.2370 -2.2370  6.8990 
  1077.000  6.5460 -4.3400 -2.3400  6.5460 
  1077.500  5.7660 -4.4440 -2.4440  5.7660 
  1078.000  5.2300 -4.5800 -2.5800  5.2300 
  1078.500  5.2140 -4.7160 -2.7160  5.2140 
  1079.000  5.8180 -4.8530 -2.8530  5.8180 
  1079.500  6.7140 -5.0920 -3.0920  6.7140 
  1080.000  7.0100 -5.3310 -3.3310  7.0100 
  1080.500  7.3180 -5.4780 -3.4780  7.3180 
  1081.000  7.5460 -5.6250 -3.6250  7.5460 
  1081.500  7.6950 -5.7720 -3.7720  7.6950 
  1082.000  7.8470 -5.8760 -3.8760  7.8470 
  1082.500  8.1830 -5.9800 -3.9800  8.1830 
  1083.000  8.5330 -6.0830 -4.0830  8.5330 
  1083.500  8.8590 -6.1600 -4.1600  8.8590 
  1084.000  9.1460 -6.2360 -4.2360  9.1460 
  1084.500  9.4420 -5.9530 -3.9530  9.4420 
  1085.000  9.8680 -5.6710 -3.6710  9.8680 
  1085.500  10.108 -4.7840 -2.7840  10.108 
  1086.000  10.353 -4.5020 -2.5020  10.353 
  1086.500  10.392 -4.2200 -2.2200  10.392 
  1087.000  10.349 -3.8560 -1.8560  10.349 
  1087.500  10.306 -3.4920 -1.4920  10.306 
  1088.000  10.001 -2.8660 -0.8660  10.001 
  1088.500  9.7050 -3.0570 -1.0570  9.7050 
  1089.000  9.1660 -3.2470 -1.2470  9.1660 
  1089.500  8.8750 -3.6980 -1.6980  8.8750 
  1090.000  8.4200 -3.8400 -1.8400  8.4200 
  1090.500  8.2270 -3.9820 -1.9820  8.2270 
  1091.000  7.8940 -4.1070 -2.1070  7.8940 
  1091.500  7.4560 -4.2330 -2.2330  7.4560 
  1092.000  8.1520 -4.1290 -2.1290  8.1520 
  1092.500  8.3690 -3.9610 -1.9610  8.3690 
  1093.000  8.4190 -3.7930 -1.7930  8.4190 
  1093.500  8.1150 -3.5920 -1.5920  8.1150 
  1094.000  7.3110 -3.3910 -1.3910  7.3110 
  1094.500  6.7970 -3.0920 -1.0920  6.7970 
  1095.000  6.3480 -2.7930 -0.7930  6.3480 
  1095.500  6.4010 -2.6460 -0.6460  6.4010 
  1096.000  6.6150 -2.5000 -0.5000  6.6150 
  1096.500  6.9610 -2.3540 -0.3540  6.9610 
  1097.000  7.2110 -2.2340 -0.2340  7.2110 
  1097.500  7.2870 -2.1140 -0.1140  7.2870 
  1098.000  6.9760 -2.0600 -0.0600  6.9760 
  1098.500  6.5890 -2.0060 -0.0060  6.5890 
  1099.000  6.2380 -1.9850  0.0150  6.2380 
  1099.500  5.9580 -1.9630  0.0370  5.9580 
  1100.000  5.8740 -2.0880 -0.0880  5.8740 
  1100.500  5.8210 -2.2170 -0.2170  5.8210 
  1101.000  5.7810 -2.5750 -0.5750  5.7810 
  1101.500  5.7670 -2.9330 -0.9330  5.7670 
  1102.000  5.8910 -3.4050 -1.4050  5.8910 
  1102.500  6.0180 -3.8760 -1.8760  6.0180 
  1103.000  6.3800 -4.4940 -2.4940  6.3800 
  1103.500  6.8560 -4.2810 -2.2810  6.8560 
  1104.000  7.1380 -4.0680 -2.0680  7.1380 
  1104.500  6.6710 -3.4790 -1.4790  6.6710 
  1105.000  6.1650 -3.5600 -1.5600  6.1650 
  1105.500  5.5710 -3.6400 -1.6400  5.5710 
  1106.000  5.3250 -4.3230 -2.3230  5.3250 
  1106.500  5.1020 -4.6810 -2.6810  5.1020 
  1107.000  5.0670 -5.0390 -3.0390  5.0670 
  1107.500  5.4690 -5.6410 -3.6410  5.4690 
  1108.000  6.3300 -6.2440 -4.2440  6.3300 
  1108.500  7.1470 -6.5030 -4.5030  7.1470 
  1109.000  7.8200 -6.5010 -4.5010  7.8200 
  1109.500  8.5360 -6.4190 -4.4190  8.5360 
  1110.000  8.8680 -6.3370 -4.3370  8.8680 
  1110.500  9.1300 -6.1060 -4.1060  9.1300 
  1111.000  9.3790 -5.7790 -3.7790  9.3790 
  1111.500  9.6790 -5.3200 -3.3200  9.6790 
  1112.000  9.9200 -4.7320 -2.7320  9.9200 
  1112.500  10.077 -4.1760 -2.1760  10.077 
  1113.000  9.9400 -3.5220 -1.5220  9.9400 
  1113.500  9.4800 -2.8680 -0.8680  9.4800 
  1114.000  8.8600 -2.3940 -0.3940  8.8600 
  1114.500  8.5270 -1.9200  0.0800  8.5270 
  1115.000  8.2060 -1.1350  0.8650  8.2060 
  1115.500  7.7210 -0.5470  1.4530  7.7210 
  1116.000  7.4640 -1.1980  0.8020  7.4640 
  1116.500  7.2160 -1.8000  0.2000  7.2160 
  1117.000  6.9130 -2.4030 -0.4030  6.9130 
  1117.500  6.7890 -3.2820 -1.2820  6.7890 
  1118.000  6.6670 -3.5740 -1.5740  6.6670 
  1118.500  6.6360 -3.2630 -1.2630  6.6360 
  1119.000  6.9250 -2.9520 -0.9520  6.9250 
  1119.500  7.1380 -2.3150 -0.3150  7.1380 
  1120.000  7.3580 -1.6770  0.3230  7.3580 
  1120.500  7.6610 -1.7080  0.2920  7.6610 
  1121.000  7.7990 -1.9350  0.0650  7.7990 
  1121.500  7.6760 -2.1630 -0.1630  7.6760 
  1122.000  7.2070 -2.3900 -0.3900  7.2070 
  1122.500  6.6900 -2.9430 -0.9430  6.6900 
  1123.000  6.3590 -3.4960 -1.4960  6.3590 
  1123.500  6.0440 -3.9840 -1.9840  6.0440 
  1124.000  5.4860 -4.7000 -2.7000  5.4860 
  1124.500  5.2320 -5.2210 -3.2210  5.2320 
  1125.000  5.4360 -5.7420 -3.7420  5.4360 
  1125.500  5.9470 -6.2950 -4.2950  5.9470 
  1126.000  6.5950 -6.5390 -4.5390  6.5950 
  1126.500  7.4130 -6.7830 -4.7830  7.4130 
  1127.000  8.3890 -7.4660 -5.4660  8.3890 
  1127.500  8.9340 -7.9870 -5.9870  8.9340 
  1128.000  10.271 -8.0510 -6.0510  10.271 
  1128.500  10.913 -8.1150 -6.1150  10.913 
  1129.000  11.833 -7.2000 -5.2000  11.833 
  1129.500  12.074 -6.3500 -4.3500  12.074 
  1130.000  12.127 -5.5330 -3.5330  12.127 
  1130.500  11.829 -4.7170 -2.7170  11.829 
  1131.000  10.592 -3.9000 -1.9000  10.592 
  1131.500  9.4640 -2.6580 -0.6580  9.4640 
  1132.000  8.0470 -2.3630 -0.3630  8.0470 
  1132.500  6.9040 -2.8840 -0.8840  6.9040 
  1133.000  5.9640 -3.2410 -1.2410  5.9640 
  1133.500  5.7010 -3.6640 -1.6640  5.7010 
  1134.000  5.6240 -3.9890 -1.9890  5.6240 
  1134.500  6.0570 -4.2490 -2.2490  6.0570 
  1135.000  6.4500 -4.2800 -2.2800  6.4500 
  1135.500  6.6110 -3.7740 -1.7740  6.6110 
  1136.000  6.8990 -3.2670 -1.2670  6.8990 
  1136.500  7.0710 -2.5150 -0.5150  7.0710 
  1137.000  6.8980 -2.4160 -0.4160  6.8980 
  1137.500  6.3310 -2.9360 -0.9360  6.3310 
  1138.000  5.9570 -3.4570 -1.4570  5.9570 
  1138.500  5.5680 -4.1740 -2.1740  5.5680 
