~Version Information
VERS.                     2.0: CWLS log ASCII Standard Version 2.00
WRAP.                      NO: One line per depth step
~Well Information Block
#MNEM.UNIT                               Data Type  Information
#---------                               ---------  -----------
STRT.FT                                    47.0000:
STOP.FT                                  1830.0000:
STEP.FT                                     0.5000:
NULL.                 -999.25                     :
COMP.                                             :COMPANY            
WELL.     SAN EMIDIO C-2                          :WELL               
FLD .                                             :FIELD              
CTRY.                                             :COUNTRY            
STAT.                                             :STATE              
LOC .                                             :LOCATION           
UWI .                                             :UNIQUE WELL ID     
SRVC.                                             :Service company    
DATE.                                             :LOG DATE           
~Curve Information
#MNEM.UNIT           API CODE  Curve Description
#---------           --------  -----------------
DEPT.FT                      :   1 DEPTH
RESI.OHMM                    :   2
SP  .MV                      :   3
SBL .MV                      :   4
RD  .OHMM                    :   5
~A
# ...
   775.000  4.5860 -4.7100 -2.7100  4.5860 
   775.500  4.3590 -5.6190 -3.6190  4.3590 
   776.000  4.1430 -6.5270 -4.5270  4.1430 
   776.500  4.9680 -7.0620 -5.0620  4.9680 
   777.000  5.2300 -7.5970 -5.5970  5.2300 
   777.500  5.5050 -8.0340 -6.0340  5.5050 
   778.000  6.0410 -8.4710 -6.4710  6.0410 
   778.500  6.6290 -8.6980 -6.6980  6.6290 
   779.000  7.7910 -8.8100 -6.8100  7.7910 
   779.500  8.4450 -8.9220 -6.9220  8.4450 
   780.000  9.3400 -8.8560 -6.8560  9.3400 
   780.500  9.9210 -8.7900 -6.7900  9.9210 
   781.000  9.7740 -8.4630 -6.4630  9.7740 
   781.500  9.6300 -8.1370 -6.1370  9.6300 
   782.000  9.8240 -6.7720 -4.7720  9.8240 
   782.500  10.157 -5.6330 -3.6330  10.157 
   783.000  10.597 -4.6250 -2.6250  10.597 
   783.500  10.883 -4.0710 -2.0710  10.883 
   784.000  11.102 -3.2900 -1.2900  11.102 
   784.500  11.300 -5.0110 -3.0110  11.300 
   785.000  10.490 -5.5300 -3.5300  10.490 
   785.500  7.1420 -5.5610 -3.5610  7.1420 
   786.000  6.2540 -4.7150 -2.7150  6.2540 
   786.500  6.9170 -3.6410 -1.6410  6.9170 
   787.000  7.0330 -3.8680 -1.8680  7.0330 
   787.500  7.1500 -4.1910 -2.1910  7.1500 
   788.000  7.0840 -4.5140 -2.5140  7.0840 
   788.500  6.9630 -4.5130 -2.5130  6.9630 
   789.000  6.8450 -4.2850 -2.2850  6.8450 
   789.500  6.2830 -4.0230 -2.0230  6.2830 
   790.000  6.0260 -4.2490 -2.2490  6.0260 
   790.500  5.7790 -4.4750 -2.4750  5.7790 
   791.000  5.2930 -5.0430 -3.0430  5.2930 
   791.500  5.0810 -5.6100 -3.6100  5.0810 
   792.000  5.7480 -6.1940 -4.1940  5.7480 
   792.500  6.5160 -6.5820 -4.5820  6.5160 
   793.000  7.0470 -7.0030 -5.0030  7.0470 
   793.500  7.2380 -7.1970 -5.1970  7.2380 
   794.000  7.4330 -7.4550 -5.4550  7.4330 
   794.500  7.6340 -7.4220 -5.4220  7.6340 
   795.000  7.9110 -7.2900 -5.2900  7.9110 
   795.500  8.0700 -7.1750 -5.1750  8.0700 
   796.000  8.2320 -7.0600 -5.0600  8.2320 
   796.500  8.5120 -6.9130 -4.9130  8.5120 
   797.000  8.6640 -6.7650 -4.7650  8.6640 
   797.500  8.8180 -6.7320 -4.7320  8.8180 
   798.000  8.9550 -6.6980 -4.6980  8.9550 
   798.500  9.0950 -6.6150 -4.6150  9.0950 
   799.000  9.3620 -6.5320 -4.5320  9.3620 
   799.500  9.5180 -6.2720 -4.2720  9.5180 
   800.000  9.6760 -5.7190 -3.7190  9.6760 
   800.500  9.8100 -5.1670 -3.1670  9.8100 
   801.000  9.9460 -3.6100 -1.6100  9.9460 
   801.500  10.039 -2.8970 -0.8970  10.039 
   802.000  10.132 -1.7300  0.2700  10.132 
   802.500  10.135 -2.0240 -0.0240  10.135 
   803.000  8.2080 -2.5950 -0.5950  8.2080 
   803.500  5.8620 -3.1650 -1.1650  5.8620 
   804.000  5.0550 -3.1830 -1.1830  5.0550 
   804.500  4.4790 -3.2010 -1.2010  4.4790 
   805.000  4.4010 -2.6840 -0.6840  4.4010 
   805.500  4.3230 -2.6210 -0.6210  4.3230 
   806.000  4.3730 -2.6550 -0.6550  4.3730 
   806.500  4.4240 -2.7710 -0.7710  4.4240 
   807.000  4.5670 -2.8860 -0.8860  4.5670 
   807.500  4.6820 -3.2940 -1.2940  4.6820 
   808.000  4.3980 -3.7020 -1.7020  4.3980 
   808.500  4.2630 -4.4520 -2.4520  4.2630 
   809.000  4.6860 -4.8760 -2.8760  4.6860 
   809.500  5.1740 -5.0730 -3.0730  5.1740 
   810.000  5.5240 -4.6200 -2.6200  5.5240 
   810.500  5.3300 -4.1670 -2.1670  5.3300 
   811.000  5.0630 -4.0220 -2.0220  5.0630 
   811.500  4.5980 -3.8780 -1.8780  4.5980 
   812.000  4.4070 -4.0260 -2.0260  4.4070 
   812.500  4.2240 -4.1750 -2.1750  4.2240 
   813.000  4.1780 -4.6640 -2.6640  4.1780 
   813.500  4.1320 -5.2830 -3.2830  4.1320 
   814.000  4.3480 -5.8700 -3.8700  4.3480 
   814.500  4.5740 -6.5220 -4.5220  4.5740 
   815.000  4.9780 -7.3030 -5.3030  4.9780 
   815.500  5.4170 -8.1500 -6.1500  5.4170 
   816.000  5.8090 -8.7370 -6.7370  5.8090 
   816.500  6.2290 -9.1610 -7.1610  6.2290 
   817.000  6.5980 -9.7480 -7.7480  6.5980 
   817.500  6.9890 -10.074 -8.0740  6.9890 
   818.000  7.3450 -9.1670 -7.1670  7.3450 
   818.500  7.6160 -7.5120 -5.5120  7.6160 
   819.000  7.8970 -5.9220 -3.9220  7.8970 
   819.500  8.0780 -4.9650 -2.9650  8.0780 
   820.000  8.1900 -4.0090 -2.0090  8.1900 
   820.500  8.2470 -3.1010 -1.1010  8.2470 
   821.000  8.3050 -2.7130 -0.7130  8.3050 
   821.500  7.8890 -3.6580 -1.6580  7.8890 
   822.000  5.4840 -5.1860 -3.1860  5.4840 
   822.500  4.7090 -5.8060 -3.8060  4.7090 
   823.000  4.1820 -6.1320 -4.1320  4.1820 
   823.500  4.3850 -6.2800 -4.2800  4.3850 
   824.000  4.6810 -6.4280 -4.4280  4.6810 
   824.500  5.0200 -6.6740 -4.6740  5.0200 
   825.000  5.2640 -6.9200 -4.9200  5.2640 
   825.500  5.6910 -7.1450 -5.1450  5.6910 
   826.000  6.2230 -7.3370 -5.3370  6.2230 
   826.500  6.5350 -7.4970 -5.4970  6.5350 
   827.000  6.8850 -7.2180 -5.2180  6.8850 
   827.500  7.2550 -6.9390 -4.9390  7.2550 
   828.000  7.5930 -6.4500 -4.4500  7.5930 
   828.500  7.9460 -6.1710 -4.1710  7.9460 
   829.000  8.2240 -5.8920 -3.8920  8.2240 
   829.500  8.5110 -5.3370 -3.3370  8.5110 
   830.000  8.6510 -4.7820 -2.7820  8.6510 
   830.500  8.7930 -4.2600 -2.2600  8.7930 
   831.000  8.9880 -3.9000 -1.9000  8.9880 
   831.500  9.0650 -3.8000 -1.8000  9.0650 
   832.000  8.4700 -4.0410 -2.0410  8.4700 
   832.500  7.7210 -4.2820 -2.2820  7.7210 
   833.000  7.1650 -5.7410 -3.7410  7.1650 
   833.500  6.9870 -6.1930 -4.1930  6.9870 
   834.000  6.8130 -6.6460 -4.6460  6.8130 
   834.500  6.7410 -6.9680 -4.9680  6.7410 
   835.000  6.6700 -7.0630 -5.0630  6.6700 
   835.500  6.6810 -7.1570 -5.1570  6.6810 
   836.000  6.7680 -7.2200 -5.2200  6.7680 
   836.500  6.9650 -7.1360 -5.1360  6.9650 
   837.000  7.5650 -7.0520 -5.0520  7.5650 
   837.500  7.8380 -6.8220 -4.8220  7.8380 
   838.000  7.9930 -6.6570 -4.6570  7.9930 
   838.500  8.1520 -6.4920 -4.4920  8.1520 
   839.000  8.3240 -6.1970 -4.1970  8.3240 
   839.500  8.4990 -6.0650 -4.0650  8.4990 
   840.000  9.0260 -6.2090 -4.2090  9.0260 
   840.500  8.9510 -6.3520 -4.3520  8.9510 
   841.000  8.8760 -6.4960 -4.4960  8.8760 
   841.500  8.1270 -6.6390 -4.6390  8.1270 
   842.000  7.9690 -6.9610 -4.9610  7.9690 
   842.500  7.8150 -7.1860 -5.1860  7.8150 
   843.000  7.8190 -7.3140 -5.3140  7.8190 
   843.500  7.8240 -7.3440 -5.3440  7.8240 
   844.000  7.8910 -7.2430 -5.2430  7.8910 
   844.500  7.9580 -7.0460 -5.0460  7.9580 
   845.000  8.2080 -6.7840 -4.7840  8.2080 
   845.500  8.3340 -6.5370 -4.5370  8.3340 
   846.000  8.4610 -6.2910 -4.2910  8.4610 
   846.500  8.4950 -5.9310 -3.9310  8.4950 
   847.000  8.5280 -5.5710 -3.5710  8.5280 
   847.500  7.9510 -5.4060 -3.4060  7.9510 
   848.000  7.8230 -5.3710 -3.3710  7.8230 
   848.500  7.6970 -5.4820 -3.4820  7.6970 
   849.000  7.6330 -5.5930 -3.5930  7.6330 
   849.500  7.5690 -5.7370 -3.7370  7.5690 
   850.000  7.7890 -5.8800 -3.8800  7.7890 
   850.500  8.1360 -6.1400 -4.1400  8.1360 
   851.000  8.4990 -6.2690 -4.2690  8.4990 
   851.500  8.8480 -6.3980 -4.3980  8.8480 
   852.000  9.0880 -6.1380 -4.1380  9.0880 
   852.500  9.3980 -5.8280 -3.8280  9.3980 
   853.000  9.5340 -5.5190 -3.5190  9.5340 
   853.500  9.6730 -4.8040 -2.8040  9.6730 
   854.000  9.8690 -4.7060 -2.7060  9.8690 
   854.500  9.8890 -4.7380 -2.7380  9.8890 
   855.000  9.7990 -4.9640 -2.9640  9.7990 
   855.500  9.4940 -5.2560 -3.2560  9.4940 
   856.000  9.1980 -5.5470 -3.5470  9.1980 
   856.500  8.4820 -6.1320 -4.1320  8.4820 
   857.000  8.4050 -6.5210 -4.5210  8.4050 
   857.500  8.6330 -6.4880 -4.4880  8.6330 
   858.000  8.9270 -6.1950 -4.1950  8.9270 
   858.500  9.2730 -5.9830 -3.9830  9.2730 
   859.000  9.6320 -5.7710 -3.7710  9.6320 
   859.500  9.9150 -5.6400 -3.6400  9.9150 
   860.000  10.207 -5.6070 -3.6070  10.207 
   860.500  10.438 -5.7690 -3.7690  10.438 
   861.000  10.506 -5.9800 -3.9800  10.506 
   861.500  10.552 -6.1900 -4.1900  10.552 
   862.000  10.597 -6.3680 -4.3680  10.597 
   862.500  10.655 -6.5460 -4.5460  10.655 
   863.000  10.713 -6.2690 -4.2690  10.713 
   863.500  10.783 -5.9920 -3.9920  10.783 
   864.000  10.769 -5.5370 -3.5370  10.769 
   864.500  10.755 -5.2770 -3.2770  10.755 
   865.000  10.597 -5.0160 -3.0160  10.597 
   865.500  10.442 -4.5280 -2.5280  10.442 
