~Version Information
VERS.                     2.0: CWLS log ASCII Standard Version 2.00
WRAP.                      NO: One line per depth step
~Well Information Block
#MNEM.UNIT                               Data Type  Information
#---------                               ---------  -----------
STRT.FT                                    47.0000:
STOP.FT                                  1830.0000:
STEP.FT                                     0.5000:
NULL.                 -999.25                     :
COMP.                                             :COMPANY            
WELL.     SAN EMIDIO C-2                          :WELL               
FLD .                                             :FIELD              
CTRY.                                             :COUNTRY            
STAT.                                             :STATE              
LOC .                                             :LOCATION           
UWI .                                             :UNIQUE WELL ID     
SRVC.                                             :Service company    
DATE.                                             :LOG DATE           
~Curve Information
#MNEM.UNIT           API CODE  Curve Description
#---------           --------  -----------------
DEPT.FT                      :   1 DEPTH
RESI.OHMM                    :   2
SP  .MV                      :   3
SBL .MV                      :   4
RD  .OHMM                    :   5
~A
# ...
  1321.000  6.2580 -13.432 -11.432  6.2580 
  1321.500  6.9280 -14.151 -12.151  6.9280 
  1322.000  7.3640 -14.544 -12.544  7.3640 
  1322.500  7.5340 -14.937 -12.937  7.5340 
  1323.000  7.5540 -15.574 -13.574  7.5540 
  1323.500  7.1270 -16.212 -14.212  7.1270 
  1324.000  6.8460 -16.441 -14.441  6.8460 
  1324.500  6.7720 -15.529 -13.529  6.7720 
  1325.000  7.0700 -14.617 -12.617  7.0700 
  1325.500  7.1770 -13.345 -11.345  7.1770 
  1326.000  7.2850 -12.710 -10.710  7.2850 
  1326.500  7.3200 -12.076 -10.076  7.3200 
  1327.000  5.9000 -11.539 -9.5390  5.9000 
  1327.500  3.7290 -11.002 -9.0020  3.7290 
  1328.000  3.2150 -10.432 -8.4320  3.2150 
  1328.500  2.9260 -9.8630 -7.8630  2.9260 
  1329.000  2.8240 -9.3740 -7.3740  2.8240 
  1329.500  2.8120 -9.8320 -7.8320  2.8120 
  1330.000  3.0030 -10.714 -8.7140  3.0030 
  1330.500  3.2060 -11.695 -9.6950  3.2060 
  1331.000  3.4010 -12.675 -10.675  3.4010 
  1331.500  3.8410 -13.850 -11.850  3.8410 
  1332.000  3.9930 -14.243 -12.243  3.9930 
  1332.500  4.1500 -14.637 -12.637  4.1500 
  1333.000  4.9920 -16.334 -14.334  4.9920 
  1333.500  5.4890 -17.020 -15.020  5.4890 
  1334.000  5.7310 -17.919 -15.919  5.7310 
  1334.500  6.1610 -18.818 -16.818  6.1610 
  1335.000  6.2750 -20.580 -18.580  6.2750 
  1335.500  6.2070 -21.039 -19.039  6.2070 
  1336.000  6.1400 -21.497 -19.497  6.1400 
  1336.500  5.9510 -21.726 -19.726  5.9510 
  1337.000  6.0480 -21.565 -19.565  6.0480 
  1337.500  6.2020 -20.196 -18.196  6.2020 
  1338.000  6.3020 -17.750 -15.750  6.3020 
  1338.500  6.3470 -16.218 -14.218  6.3470 
  1339.000  5.8550 -14.898 -12.898  5.8550 
  1339.500  5.1630 -13.578 -11.578  5.1630 
  1340.000  4.6990 -12.111 -10.111  4.6990 
  1340.500  4.2770 -11.509 -9.5090  4.2770 
  1341.000  3.3930 -10.906 -8.9060  3.3930 
  1341.500  2.7720 -10.320 -8.3200  2.7720 
  1342.000  2.4610 -10.175 -8.1750  2.4610 
  1342.500  2.1220 -10.030 -8.0300  2.1220 
  1343.000  2.0380 -9.9650 -7.9650  2.0380 
  1343.500  2.0160 -9.9990 -7.9990  2.0160 
  1344.000  2.0170 -10.033 -8.0330  2.0170 
  1344.500  2.0220 -10.111 -8.1110  2.0220 
  1345.000  2.0550 -10.188 -8.1571  2.0550 
  1345.500  2.0790 -10.265 -8.2031  2.0790 
  1346.000  2.1030 -10.343 -8.2502  2.1030 
  1346.500  2.1620 -10.420 -8.2963  2.1620 
  1347.000  2.2220 -10.498 -8.3434  2.2220 
  1347.500  2.2730 -10.564 -8.3784  2.2730 
  1348.000  2.2790 -10.631 -8.4145  2.2790 
  1348.500  2.2140 -10.664 -8.4166  2.2140 
  1349.000  2.1070 -10.568 -8.2896  2.1070 
  1349.500  2.0750 -10.472 -8.1627  2.0750 
  1350.000  2.2310 -10.309 -7.9688  2.2310 
  1350.500  2.2700 -10.147 -7.7759  2.2700 
  1351.000  2.3090 -10.018 -7.6159  2.3090 
  1351.500  2.3280 -9.8890 -7.4560  2.3280 
  1352.000  2.3470 -9.7590 -7.2951  2.3470 
  1352.500  2.3420 -9.6300 -7.1352  2.3420 
  1353.000  2.3270 -9.6630 -7.1372  2.3270 
  1353.500  2.3120 -9.7780 -7.2213  2.3120 
  1354.000  2.2900 -9.8930 -7.3054  2.2900 
  1354.500  2.2670 -10.025 -7.4064  2.2670 
  1355.000  2.2120 -10.157 -7.5075  2.2120 
  1355.500  2.2810 -10.190 -7.5096  2.2810 
  1356.000  2.3520 -10.158 -7.4467  2.3520 
  1356.500  2.4720 -10.127 -7.3847  2.4720 
  1357.000  2.5690 -10.052 -7.2788  2.5690 
  1357.500  2.5470 -9.9770 -7.1729  2.5470 
  1358.000  2.4360 -9.9020 -7.0669  2.4360 
  1358.500  2.3290 -9.7940 -6.9280  2.3290 
  1359.000  2.1680 -9.6860 -6.7891  2.1680 
  1359.500  2.1420 -9.5780 -6.6502  2.1420 
  1360.000  2.1160 -9.4270 -6.4682  2.1160 
  1360.500  2.0880 -9.2760 -6.2863  2.0880 
  1361.000  2.0610 -9.1240 -6.1034  2.0610 
  1361.500  2.0610 -8.9190 -5.8675  2.0610 
  1362.000  2.0620 -8.7130 -5.6305  2.0620 
  1362.500  2.0630 -8.5070 -5.3936  2.0630 
  1363.000  2.0630 -8.2800 -5.1357  2.0630 
  1363.500  2.0660 -8.0520 -4.8767  2.0660 
  1364.000  2.0690 -7.8580 -4.6518  2.0690 
  1364.500  2.0760 -7.5980 -4.3609  2.0760 
  1365.000  2.0830 -7.3380 -4.0700  2.0830 
  1365.500  2.0900 -7.0780 -3.7790  2.0900 
  1366.000  2.1090 -6.8670 -3.5371  2.1090 
  1366.500  2.1190 -6.6560 -3.2952  2.1190 
  1367.000  2.1290 -7.4720 -4.0802  2.1290 
  1367.500  2.1400 -7.8650 -4.4423  2.1400 
  1368.000  2.1500 -8.0940 -4.6404  2.1500 
  1368.500  2.1650 -8.3240 -4.8395  2.1650 
  1369.000  2.1780 -8.4550 -4.9395  2.1780 
  1369.500  2.1910 -8.5860 -5.0396  2.1910 
  1370.000  2.1380 -8.5550 -4.9777  2.1380 
  1370.500  2.0910 -8.5240 -4.9158  2.0910 
  1371.000  2.0540 -8.4590 -4.8198  2.0540 
  1371.500  2.0270 -8.2800 -4.6099  2.0270 
  1372.000  2.0320 -8.1020 -4.4010  2.0320 
  1372.500  2.0370 -7.8590 -4.1270  2.0370 
  1373.000  2.0890 -7.6150 -3.8521  2.0890 
  1373.500  2.1370 -7.6800 -3.8862  2.1370 
  1374.000  2.1760 -7.9750 -4.1503  2.1760 
  1374.500  2.2220 -8.2040 -4.3483  2.2220 
  1375.000  2.2630 -8.4340 -4.5474  2.2630 
  1375.500  2.2790 -8.9410 -5.0235  2.2790 
  1376.000  2.2950 -9.4470 -5.4985  2.2950 
  1376.500  2.3110 -9.5950 -5.6156  2.3110 
  1377.000  2.3010 -9.7430 -5.7327  2.3010 
  1377.500  2.2920 -9.7110 -5.6698  2.2920 
  1378.000  2.2820 -9.6800 -5.6078  2.2820 
  1378.500  2.2720 -9.6650 -5.5619  2.2720 
  1379.000  2.3190 -9.6490 -5.5150  2.3190 
  1379.500  2.3730 -9.9760 -5.8111  2.3730 
  1380.000  2.4360 -10.369 -6.1731  2.4360 
  1380.500  2.5000 -10.826 -6.5992  2.5000 
  1381.000  2.5350 -11.284 -7.0263  2.5350 
  1381.500  2.5470 -11.644 -7.3553  2.5470 
  1382.000  2.5600 -12.004 -7.6844  2.5600 
  1382.500  2.5720 -12.168 -7.8175  2.5720 
  1383.000  2.5960 -12.333 -7.9516  2.5960 
  1383.500  2.6050 -12.497 -8.0846  2.6050 
  1384.000  2.6150 -12.661 -8.2177  2.6150 
  1384.500  2.6330 -12.954 -8.4798  2.6330 
  1385.000  2.6520 -13.054 -8.5488  2.6520 
  1385.500  2.6710 -13.153 -8.6169  2.6710 
  1386.000  2.6770 -13.235 -8.6680  2.6770 
  1386.500  2.6720 -13.318 -8.7201  2.6720 
  1387.000  2.6670 -13.481 -8.8521  2.6670 
  1387.500  2.6500 -13.483 -8.8232  2.6500 
  1388.000  2.6090 -13.451 -8.7603  2.6090 
  1388.500  2.5810 -13.223 -8.5014  2.5810 
  1389.000  2.5070 -13.029 -8.2764  2.5070 
  1389.500  2.3760 -12.785 -8.0015  2.3760 
  1390.000  2.3180 -12.542 -7.7276  2.3180 
  1390.500  2.3290 -12.184 -7.3386  2.3290 
  1391.000  2.3940 -11.826 -6.9497  2.3940 
  1391.500  2.4770 -11.468 -6.5608  2.4770 
  1392.000  2.5510 -11.110 -6.1719  2.5510 
  1392.500  2.6040 -10.736 -5.7669  2.6040 
  1393.000  2.6520 -10.362 -5.3620  2.6520 
  1393.500  2.6830 -10.493 -5.4621  2.6830 
  1394.000  2.7140 -10.624 -5.5621  2.7140 
  1394.500  2.7330 -10.821 -5.7282  2.7330 
  1395.000  2.7490 -11.018 -5.8943  2.7490 
  1395.500  2.7660 -11.199 -6.0444  2.7660 
  1396.000  2.7660 -11.379 -6.1934  2.7660 
  1396.500  2.7580 -11.560 -6.3435  2.7580 
  1397.000  2.7490 -11.740 -6.4926  2.7490 
  1397.500  2.7290 -11.921 -6.6426  2.7290 
  1398.000  2.7080 -12.101 -6.7917  2.7080 
  1398.500  2.6960 -12.232 -6.8918  2.6960 
  1399.000  2.6850 -12.364 -6.9929  2.6850 
  1399.500  2.7220 -12.511 -7.1089  2.7220 
  1400.000  2.7600 -12.659 -7.2260  2.7600 
  1400.500  2.7970 -12.788 -7.3241  2.7970 
  1401.000  2.8670 -12.917 -7.4222  2.8670 
  1401.500  2.9390 -12.970 -7.4442  2.9390 
  1402.000  3.0190 -13.024 -7.4673  3.0190 
  1402.500  3.1010 -13.077 -7.4894  3.1010 
  1403.000  3.2360 -13.010 -7.3914  3.2360 
  1403.500  3.2950 -12.862 -7.2125  3.2950 
  1404.000  3.3920 -12.714 -7.0336  3.3920 
  1404.500  3.4690 -12.354 -6.6427  3.4690 
  1405.000  3.4760 -11.993 -6.2507  3.4760 
  1405.500  3.1410 -11.633 -5.8598  3.1410 
  1406.000  3.0640 -11.257 -5.4529  3.0640 
  1406.500  3.0230 -10.880 -5.0449  3.0230 
  1407.000  3.0050 -10.194 -4.3280  3.0050 
  1407.500  2.9880 -10.388 -4.4911  2.9880 
  1408.000  2.9540 -10.583 -4.6552  2.9540 
  1408.500  2.9240 -10.646 -4.6872  2.9240 
  1409.000  2.8950 -10.613 -4.6233  2.8950 
  1409.500  2.9070 -10.579 -4.5584  2.9070 
  1410.000  2.9200 -10.512 -4.4605  2.9200 
  1410.500  3.0400 -10.347 -4.2645  3.0400 
  1411.000  3.1300 -10.265 -4.1516  3.1300 
  1411.500  3.2080 -10.182 -4.0377  3.2080 
