~Version Information
VERS.                     2.0: CWLS log ASCII Standard Version 2.00
WRAP.                      NO: One line per depth step
~Well Information Block
#MNEM.UNIT                               Data Type  Information
#---------                               ---------  -----------
STRT.FT                                    47.0000:
STOP.FT                                  1830.0000:
STEP.FT                                     0.5000:
NULL.                 -999.25                     :
COMP.                                             :COMPANY            
WELL.     SAN EMIDIO C-2                          :WELL               
FLD .                                             :FIELD              
CTRY.                                             :COUNTRY            
STAT.                                             :STATE              
LOC .                                             :LOCATION           
UWI .                                             :UNIQUE WELL ID     
SRVC.                                             :Service company    
DATE.                                             :LOG DATE           
~Curve Information
#MNEM.UNIT           API CODE  Curve Description
#---------           --------  -----------------
DEPT.FT                      :   1 DEPTH
RESI.OHMM                    :   2
SP  .MV                      :   3
SBL .MV                      :   4
RD  .OHMM                    :   5
~A
# ...
   593.000  5.6890 -5.4590 -3.4590  5.6890 
   593.500  5.6430 -6.3090 -4.3090  5.6430 
   594.000  5.6980 -6.8490 -4.8490  5.6980 
   594.500  5.7530 -7.3890 -5.3890  5.7530 
   595.000  6.2560 -8.4990 -6.4990  6.2560 
   595.500  6.9420 -9.1210 -7.1210  6.9420 
   596.000  7.2580 -9.7750 -7.7750  7.2580 
   596.500  7.5880 -10.364 -8.3640  7.5880 
   597.000  7.9780 -10.791 -8.7910  7.9780 
   597.500  8.1380 -11.121 -9.1210  8.1380 
   598.000  8.3010 -11.417 -9.4170  8.3010 
   598.500  8.6110 -11.649 -9.6490  8.6110 
   599.000  8.7340 -11.881 -9.8810  8.7340 
   599.500  8.8580 -11.999 -9.9990  8.8580 
   600.000  9.1690 -12.118 -10.118  9.1690 
   600.500  9.3930 -12.213 -10.213  9.3930 
   601.000  9.5050 -11.723 -9.7230  9.5050 
   601.500  9.6180 -11.395 -9.3950  9.6180 
   602.000  9.7870 -10.971 -8.9710  9.7870 
   602.500  8.9220 -10.773 -8.7730  8.9220 
   603.000  8.7580 -10.705 -8.7050  8.7580 
   603.500  9.1770 -10.637 -8.6370  9.1770 
   604.000  9.4860 -10.635 -8.6350  9.4860 
   604.500  9.6530 -10.649 -8.6490  9.6530 
   605.000  9.8230 -10.662 -8.6620  9.8230 
   605.500  9.6100 -10.692 -8.6920  9.6100 
   606.000  9.4030 -10.722 -8.7220  9.4030 
   606.500  9.3350 -10.768 -8.7680  9.3350 
   607.000  9.7590 -10.814 -8.8140  9.7590 
   607.500  10.043 -10.833 -8.8330  10.043 
   608.000  9.5750 -10.852 -8.8520  9.5750 
   608.500  9.7000 -10.871 -8.8710  9.7000 
   609.000  9.8370 -10.836 -8.8360  9.8370 
   609.500  9.9770 -10.769 -8.7690  9.9770 
   610.000  10.619 -10.701 -8.7010  10.619 
   610.500  10.830 -10.683 -8.6830  10.830 
   611.000  10.922 -10.664 -8.6640  10.922 
   611.500  11.015 -10.677 -8.6770  11.015 
   612.000  11.084 -10.691 -8.6910  11.084 
   612.500  10.954 -10.689 -8.6890  10.954 
   613.000  10.729 -10.751 -8.7510  10.729 
   613.500  10.509 -10.781 -8.7810  10.509 
   614.000  10.767 -10.485 -8.4850  10.767 
   614.500  10.919 -10.190 -8.1900  10.919 
   615.000  11.074 -9.8470 -7.8470  11.074 
   615.500  11.243 -9.5030 -7.5030  11.243 
   616.000  11.416 -9.2080 -7.2080  11.416 
   616.500  10.835 -8.9130 -6.9130  10.835 
   617.000  8.9080 -8.3260 -6.3260  8.9080 
   617.500  8.4360 -8.2910 -6.2910  8.4360 
   618.000  7.8290 -8.9060 -6.9060  7.8290 
   618.500  7.6340 -9.4550 -7.4550  7.6340 
   619.000  7.8300 -10.005 -8.0050  7.8300 
   619.500  8.0300 -10.750 -8.7500  8.0300 
   620.000  8.5850 -10.942 -8.9420  8.5850 
   620.500  9.1790 -11.069 -9.0690  9.1790 
   621.000  9.7260 -11.148 -9.1480  9.7260 
   621.500  9.8980 -11.226 -9.2260  9.8980 
   622.000  9.9930 -11.207 -9.2070  9.9930 
   622.500  10.089 -11.188 -9.1880  10.089 
   623.000  10.290 -10.926 -8.9260  10.290 
   623.500  10.342 -10.664 -8.6640  10.342 
   624.000  10.395 -10.434 -8.4340  10.395 
   624.500  10.472 -10.301 -8.3010  10.472 
   625.000  10.549 -10.443 -8.4430  10.549 
   625.500  10.454 -10.584 -8.5840  10.454 
   626.000  10.360 -10.838 -8.8380  10.360 
   626.500  10.429 -10.961 -8.9610  10.429 
   627.000  10.499 -11.085 -9.0850  10.499 
   627.500  10.605 -10.754 -8.7540  10.605 
   628.000  10.712 -10.357 -8.3570  10.712 
   628.500  10.820 -10.009 -8.0090  10.820 
   629.000  10.904 -9.6610 -7.6610  10.904 
   629.500  10.855 -8.7780 -6.7780  10.855 
   630.000  10.805 -8.5440 -6.5440  10.805 
   630.500  8.1320 -8.2780 -6.2780  8.1320 
   631.000  8.2510 -8.4340 -6.4340  8.2510 
   631.500  8.8160 -8.6550 -6.6550  8.8160 
   632.000  9.0660 -9.0380 -7.0380  9.0660 
   632.500  9.3240 -9.5190 -7.5190  9.3240 
   633.000  9.3760 -10.065 -8.0650  9.3760 
   633.500  8.8530 -10.513 -8.5130  8.8530 
   634.000  8.5980 -10.994 -8.9940  8.5980 
   634.500  8.3500 -11.263 -9.2630  8.3500 
   635.000  8.9410 -11.533 -9.5330  8.9410 
   635.500  9.3720 -11.624 -9.6240  9.3720 
   636.000  9.8240 -11.520 -9.5200  9.8240 
   636.500  10.615 -11.416 -9.4160  10.615 
   637.000  11.291 -10.987 -8.9870  11.291 
   637.500  11.076 -10.591 -8.5910  11.076 
   638.000  10.866 -10.194 -8.1940  10.866 
   638.500  9.8980 -9.8960 -7.8960  9.8980 
   639.000  9.6020 -9.8730 -7.8730  9.6020 
   639.500  9.6990 -9.8500 -7.8500  9.6990 
   640.000  9.7970 -9.8270 -7.8270  9.7970 
   640.500  10.143 -9.8040 -7.8040  10.143 
   641.000  10.292 -9.7330 -7.7330  10.292 
   641.500  10.303 -9.6620 -7.6620  10.303 
   642.000  10.118 -9.5260 -7.5260  10.118 
   642.500  9.9370 -9.4210 -7.4210  9.9370 
   643.000  9.6830 -9.3170 -7.3170  9.6830 
   643.500  9.4360 -8.5640 -6.5640  9.4360 
   644.000  9.3510 -8.0050 -6.0050  9.3510 
   644.500  9.2660 -7.2190 -5.2190  9.2660 
   645.000  9.1320 -6.4000 -4.4000  9.1320 
   645.500  8.1340 -5.5810 -3.5810  8.1340 
   646.000  7.2450 -4.8930 -2.8930  7.2450 
   646.500  6.4240 -3.9770 -1.9770  6.4240 
   647.000  5.7220 -3.4180 -1.4180  5.7220 
   647.500  5.3550 -3.1840 -1.1840  5.3550 
   648.000  4.7370 -3.1130 -1.1130  4.7370 
   648.500  3.8740 -3.0730 -1.0730  3.8740 
   649.000  3.6580 -3.4890 -1.4890  3.6580 
   649.500  3.5730 -3.7910 -1.7910  3.5730 
   650.000  4.1580 -4.0930 -2.0930  4.1580 
   650.500  4.7360 -4.4510 -2.4510  4.7360 
   651.000  5.3950 -4.8090 -2.8090  5.3950 
   651.500  6.2440 -5.4930 -3.4930  6.2440 
   652.000  6.7930 -5.8290 -3.8290  6.7930 
   652.500  7.3900 -6.1650 -4.1650  7.3900 
   653.000  7.9590 -6.5010 -4.5010  7.9590 
   653.500  8.4000 -6.8750 -4.8750  8.4000 
   654.000  8.7470 -7.2500 -5.2500  8.7470 
   654.500  8.7670 -7.3640 -5.3640  8.7670 
   655.000  8.7870 -7.4780 -5.4780  8.7870 
   655.500  8.7190 -7.6420 -5.6420  8.7190 
   656.000  8.6510 -7.6640 -5.6640  8.6510 
   656.500  8.7980 -7.6860 -5.6860  8.7980 
   657.000  8.9480 -7.7080 -5.7080  8.9480 
   657.500  9.6150 -7.6120 -5.6120  9.6150 
   658.000  10.217 -7.5910 -5.5910  10.217 
   658.500  10.568 -7.5700 -5.5700  10.568 
   659.000  10.663 -7.5490 -5.5490  10.663 
   659.500  10.474 -7.4840 -5.4840  10.474 
   660.000  10.288 -7.4200 -5.4200  10.288 
   660.500  10.219 -7.3400 -5.3400  10.219 
   661.000  10.381 -7.2590 -5.2590  10.381 
   661.500  10.546 -7.1840 -5.1840  10.546 
   662.000  10.654 -7.1090 -5.1090  10.654 
   662.500  10.763 -7.0330 -5.0330  10.763 
   663.000  10.763 -6.9690 -4.9690  10.763 
   663.500  10.764 -6.9050 -4.9050  10.764 
   664.000  10.752 -6.8080 -4.8080  10.752 
   664.500  10.740 -6.8090 -4.8090  10.740 
   665.000  10.621 -6.8420 -4.8420  10.621 
   665.500  10.766 -7.1350 -5.1350  10.766 
   666.000  10.863 -7.4280 -5.4280  10.863 
   666.500  10.551 -7.8840 -5.8840  10.551 
   667.000  10.248 -8.0300 -6.0300  10.248 
   667.500  10.623 -8.1770 -6.1770  10.623 
   668.000  11.390 -8.1770 -6.1770  11.390 
   668.500  11.675 -8.1780 -6.1780  11.675 
   669.000  11.887 -8.0820 -6.0820  11.887 
   669.500  12.103 -8.2610 -6.2610  12.103 
   670.000  12.323 -8.4400 -6.4400  12.323 
   670.500  12.547 -9.6110 -7.6110  12.547 
   671.000  12.380 -10.424 -8.4240  12.380 
   671.500  11.810 -10.847 -8.8470  11.810 
   672.000  11.266 -11.009 -9.0090  11.266 
   672.500  11.575 -8.8330 -6.8330  11.575 
   673.000  12.721 -7.6650 -5.6650  12.721 
   673.500  13.098 -7.6160 -5.6160  13.098 
   674.000  12.481 -7.5680 -5.5680  12.481 
   674.500  11.893 -7.5690 -5.5690  11.893 
   675.000  10.896 -7.5370 -5.5370  10.896 
   675.500  11.116 -7.4450 -5.4450  11.116 
   676.000  11.341 -5.5020 -3.5020  11.341 
   676.500  10.636 -4.6310 -2.6310  10.636 
   677.000  10.248 -4.3930 -2.3930  10.248 
   677.500  9.8510 -4.1550 -2.1550  9.8510 
   678.000  9.1350 -3.7390 -1.7390  9.1350 
   678.500  8.7910 -4.2000 -2.2000  8.7910 
   679.000  8.4600 -4.5950 -2.5950  8.4600 
   679.500  7.4170 -5.2510 -3.2510  7.4170 
   680.000  7.0030 -5.8090 -3.8090  7.0030 
   680.500  6.3220 -6.5290 -4.5290  6.3220 
   681.000  6.0490 -6.9580 -4.9580  6.0490 
   681.500  6.8820 -7.0930 -5.0930  6.8820 
   682.000  7.7590 -7.0340 -5.0340  7.7590 
   682.500  8.2520 -6.9750 -4.9750  8.2520 
   683.000  8.7960 -6.7050 -4.7050  8.7960 
   683.500  9.3130 -6.4340 -4.4340  9.3130 
