~Version Information
VERS.                     2.0: CWLS log ASCII Standard Version 2.00
WRAP.                      NO: One line per depth step
~Well Information Block
#MNEM.UNIT                               Data Type  Information
#---------                               ---------  -----------
STRT.FT                                    47.0000:
STOP.FT                                  1830.0000:
STEP.FT                                     0.5000:
NULL.                 -999.25                     :
COMP.                                             :COMPANY            
WELL.     SAN EMIDIO C-2                          :WELL               
FLD .                                             :FIELD              
CTRY.                                             :COUNTRY            
STAT.                                             :STATE              
LOC .                                             :LOCATION           
UWI .                                             :UNIQUE WELL ID     
SRVC.                                             :Service company    
DATE.                                             :LOG DATE           
~Curve Information
#MNEM.UNIT           API CODE  Curve Description
#---------           --------  -----------------
DEPT.FT                      :   1 DEPTH
RESI.OHMM                    :   2
SP  .MV                      :   3
SBL .MV                      :   4
RD  .OHMM                    :   5
~A
# ...
  1412.000  3.2890 -10.768 -4.5927  3.2890 
  1412.500  3.4160 -11.354 -5.1478  3.4160 
  1413.000  3.5170 -11.843 -5.6059  3.5170 
  1413.500  3.6210 -12.331 -6.0630  3.6210 
  1414.000  3.5810 -12.851 -6.5520  3.5810 
  1414.500  3.4070 -13.372 -7.0421  3.4070 
  1415.000  3.2420 -14.022 -7.6612  3.2420 
  1415.500  3.0920 -14.315 -7.9232  3.0920 
  1416.000  3.3450 -14.608 -8.1853  3.3450 
  1416.500  3.4990 -15.096 -8.6424  3.4990 
  1417.000  3.6640 -15.584 -9.0995  3.6640 
  1417.500  3.8360 -16.267 -9.7515  3.8360 
  1418.000  4.1220 -16.658 -10.112  4.1220 
  1418.500  4.1870 -17.081 -10.504  4.1870 
  1419.000  4.2250 -17.209 -10.601  4.2250 
  1419.500  4.2530 -17.160 -10.521  4.2530 
  1420.000  4.1580 -17.110 -10.440  4.1580 
  1420.500  3.8600 -16.390 -9.6890  3.8600 
  1421.000  3.4490 -14.431 -7.6990  3.4490 
  1421.500  2.9920 -12.440 -5.6771  2.9920 
  1422.000  2.8150 -10.905 -4.1112  2.8150 
  1422.500  2.6790 -10.283 -3.4583  2.6790 
  1423.000  2.6070 -9.8580 -3.0023  2.6070 
  1423.500  2.5580 -9.5630 -2.6764  2.5580 
  1424.000  2.5090 -9.3330 -2.4155  2.5090 
  1424.500  2.4560 -9.1690 -2.2205  2.4560 
  1425.000  2.4040 -9.0870 -2.1076  2.4040 
  1425.500  2.3920 -9.0040 -1.9937  2.3920 
  1426.000  2.3820 -8.9040 -1.8628  2.3820 
  1426.500  2.3760 -9.0990 -2.0268  2.3760 
  1427.000  2.3700 -9.2930 -2.1899  2.3700 
  1427.500  2.3650 -9.6180 -2.4840  2.3650 
  1428.000  2.3540 -9.9100 -2.7451  2.3540 
  1428.500  2.3480 -10.056 -2.8601  2.3480 
  1429.000  2.3110 -10.202 -2.9752  2.3110 
  1429.500  2.2340 -10.429 -3.1713  2.2340 
  1430.000  2.1550 -10.656 -3.3673  2.1550 
  1430.500  2.0690 -10.034 -2.7144  2.0690 
  1431.000  2.0810 -9.8860 -2.5355  2.0810 
  1431.500  2.0920 -9.7380 -2.3566  2.0920 
  1432.000  2.2380 -9.5740 -2.1616  2.2380 
  1432.500  2.3410 -9.5400 -2.0967  2.3410 
  1433.000  2.4260 -9.7020 -2.2278  2.4260 
  1433.500  2.4980 -10.157 -2.6518  2.4980 
  1434.000  2.4980 -10.678 -3.1419  2.4980 
  1434.500  2.3610 -11.313 -3.7460  2.3610 
  1435.000  2.2770 -11.948 -4.3501  2.2770 
  1435.500  2.2260 -12.828 -5.1991  2.2260 
  1436.000  2.2260 -13.708 -6.0482  2.2260 
  1436.500  2.2430 -15.173 -7.4823  2.2430 
  1437.000  2.2610 -15.858 -8.1364  2.2610 
  1437.500  2.3050 -16.639 -8.8864  2.3050 
  1438.000  2.3500 -17.290 -9.5065  2.3500 
  1438.500  2.3960 -17.876 -10.062  2.3960 
  1439.000  2.4480 -18.234 -10.389  2.4480 
  1439.500  2.5000 -18.266 -10.390  2.5000 
  1440.000  2.5540 -18.297 -10.390  2.5540 
  1440.500  2.6090 -18.198 -10.260  2.6090 
  1441.000  2.6590 -18.099 -10.130  2.6590 
  1441.500  2.7100 -18.260 -10.260  2.7100 
  1442.000  2.5650 -18.715 -10.684  2.5650 
  1442.500  2.4270 -18.943 -10.881  2.4270 
  1443.000  2.4400 -18.648 -10.555  2.4400 
  1443.500  2.4540 -18.255 -10.131  2.4540 
  1444.000  2.6130 -17.960 -9.8054  2.6130 
  1444.500  2.6780 -17.567 -9.3814  2.6780 
  1445.000  2.7450 -17.354 -9.1375  2.7450 
  1445.500  2.7820 -17.141 -8.8936  2.7820 
  1446.000  2.8260 -16.813 -8.5346  2.8260 
  1446.500  2.8350 -16.975 -8.6657  2.8350 
  1447.000  2.8440 -17.332 -8.9918  2.8440 
  1447.500  2.7810 -17.609 -9.2379  2.7810 
  1448.000  2.6520 -17.885 -9.4829  2.6520 
  1448.500  2.5180 -18.633 -10.200  2.5180 
  1449.000  2.4150 -18.844 -10.380  2.4150 
  1449.500  2.3160 -19.056 -10.561  2.3160 
  1450.000  2.2800 -19.218 -10.692  2.2800 
  1450.500  2.2450 -19.380 -10.823  2.2450 
  1451.000  2.2090 -19.674 -11.086  2.2090 
  1451.500  2.2140 -19.967 -11.348  2.2140 
  1452.000  2.2270 -20.684 -12.035  2.2270 
  1452.500  2.2400 -21.402 -12.722  2.2400 
  1453.000  2.2600 -22.005 -13.294  2.2600 
  1453.500  2.2760 -22.608 -13.866  2.2760 
  1454.000  2.2860 -23.048 -14.275  2.2860 
  1454.500  2.3020 -23.489 -14.685  2.3020 
  1455.000  2.3120 -24.042 -15.207  2.3120 
  1455.500  2.3330 -23.846 -14.980  2.3330 
  1456.000  2.3920 -23.454 -14.557  2.3920 
  1456.500  2.4520 -23.209 -14.281  2.4520 
  1457.000  2.5190 -22.964 -14.005  2.5190 
  1457.500  2.5480 -22.703 -13.713  2.5480 
  1458.000  2.4410 -23.127 -14.106  2.4410 
  1458.500  2.2210 -23.648 -14.596  2.2210 
  1459.000  2.1280 -24.007 -14.925  2.1280 
  1459.500  2.0950 -24.268 -15.155  2.0950 
  1460.000  2.1570 -24.529 -15.385  2.1570 
  1460.500  2.2670 -24.136 -14.961  2.2670 
  1461.000  2.3770 -23.581 -14.375  2.3770 
  1461.500  2.4780 -23.614 -14.377  2.4780 
  1462.000  2.5840 -23.842 -14.574  2.5840 
  1462.500  2.8460 -24.265 -14.966  2.8460 
  1463.000  2.9570 -24.657 -15.327  2.9570 
  1463.500  2.9580 -24.657 -15.296  2.9580 
  1464.000  2.6550 -24.657 -15.265  2.6550 
  1464.500  2.4210 -22.861 -13.438  2.4210 
  1465.000  2.4050 -22.339 -12.885  2.4050 
  1465.500  2.3890 -21.654 -12.169  2.3890 
  1466.000  2.3890 -20.969 -11.454  2.3890 
  1466.500  2.3890 -20.250 -10.704  2.3890 
  1467.000  2.3710 -20.315 -10.738  2.3710 
  1467.500  2.3520 -20.380 -10.772  2.3520 
  1468.000  2.3150 -20.412 -10.773  2.3150 
  1468.500  2.2690 -19.727 -10.057  2.2690 
  1469.000  2.2190 -18.927 -9.2260  2.2190 
  1469.500  2.1210 -18.128 -8.3960  2.1210 
  1470.000  2.0830 -16.169 -6.4061  2.0830 
  1470.500  2.0600 -15.778 -5.9842  2.0600 
  1471.000  2.0650 -15.223 -5.3983  2.0650 
  1471.500  2.1050 -15.679 -5.8233  2.1050 
  1472.000  2.1460 -16.136 -6.2494  2.1460 
  1472.500  2.1850 -16.755 -6.8375  2.1850 
  1473.000  2.2000 -16.494 -6.5455  2.2000 
  1473.500  2.1700 -16.330 -6.3506  2.1700 
  1474.000  2.1370 -16.167 -6.1567  2.1370 
  1474.500  2.1130 -15.481 -5.4398  2.1130 
  1475.000  2.0890 -15.220 -5.1478  2.0890 
  1475.500  2.0610 -14.959 -4.8559  2.0610 
  1476.000  2.0340 -14.893 -4.7590  2.0340 
  1476.500  2.0020 -14.893 -4.7281  2.0020 
  1477.000  1.9980 -14.631 -4.4351  1.9980 
  1477.500  2.0180 -14.468 -4.2412  2.0180 
  1478.000  2.0390 -14.076 -3.8183  2.0390 
  1478.500  2.0670 -15.642 -5.3533  2.0670 
  1479.000  2.0950 -17.240 -6.9204  2.0950 
  1479.500  2.1240 -17.648 -7.2975  2.1240 
  1480.000  2.1550 -18.056 -7.6746  2.1550 
  1480.500  2.1870 -18.186 -7.7736  2.1870 
  1481.000  2.2720 -18.316 -7.8727  2.2720 
  1481.500  2.2980 -18.055 -7.5808  2.2980 
  1482.000  2.3090 -17.794 -7.2888  2.3090 
  1482.500  2.1970 -16.749 -6.2129  2.1970 
  1483.000  2.1150 -16.095 -5.5280  2.1150 
  1483.500  2.1240 -15.704 -5.1061  2.1240 
  1484.000  2.1340 -15.377 -4.7481  2.1340 
  1484.500  2.2580 -15.116 -4.4562  2.2580 
  1485.000  2.3250 -15.115 -4.4243  2.3250 
  1485.500  2.3670 -15.605 -4.8833  2.3670 
  1486.000  2.3840 -16.061 -5.3084  2.3840 
  1486.500  2.3050 -15.751 -4.9675  2.3050 
  1487.000  2.1790 -15.441 -4.6266  2.1790 
  1487.500  2.1350 -14.527 -3.6816  2.1350 
  1488.000  2.1890 -14.298 -3.4217  2.1890 
  1488.500  2.3020 -14.689 -3.7818  2.3020 
  1489.000  2.4220 -15.407 -4.4689  2.4220 
  1489.500  2.6330 -16.222 -5.2529  2.6330 
  1490.000  2.6840 -18.310 -7.3100  2.6840 
  1490.500  2.7360 -19.256 -8.2251  2.7360 
  1491.000  2.7480 -20.593 -9.5311  2.7480 
  1491.500  2.7300 -22.093 -11.000  2.7300 
  1492.000  2.7120 -23.235 -12.111  2.7120 
  1492.500  2.5690 -23.610 -12.455  2.5690 
  1493.000  2.5380 -23.986 -12.800  2.5380 
  1493.500  2.5070 -24.148 -12.932  2.5070 
  1494.000  2.5070 -23.495 -12.248  2.5070 
  1494.500  2.5070 -23.397 -12.119  2.5070 
  1495.000  2.5350 -23.527 -12.218  2.5350 
  1495.500  2.5580 -23.657 -12.317  2.5580 
  1496.000  2.6050 -23.232 -11.861  2.6050 
  1496.500  2.6650 -23.036 -11.634  2.6650 
  1497.000  2.7250 -23.754 -12.321  2.7250 
  1497.500  2.7500 -24.732 -13.268  2.7500 
  1498.000  2.6890 -25.124 -13.629  2.6890 
  1498.500  2.6320 -25.433 -13.907  2.6320 
  1499.000  2.5770 -25.743 -14.186  2.5770 
  1499.500  2.3980 -26.069 -14.481  2.3980 
  1500.000  2.2360 -26.068 -14.449  2.2360 
  1500.500  2.1520 -21.859 -10.210  2.1520 
  1501.000  2.0860 -19.900 -8.2196  2.0860 
  1501.500  2.1960 -18.986 -7.2747  2.1960 
  1502.000  2.2870 -19.736 -7.9937  2.2870 
  1502.500  2.3340 -21.791 -10.018  2.3340 
