~Version Information
VERS.                     2.0: CWLS log ASCII Standard Version 2.00
WRAP.                      NO: One line per depth step
~Well Information Block
#MNEM.UNIT                               Data Type  Information
#---------                               ---------  -----------
STRT.FT                                    47.0000:
STOP.FT                                  1830.0000:
STEP.FT                                     0.5000:
NULL.                 -999.25                     :
COMP.                                             :COMPANY            
WELL.     SAN EMIDIO C-2                          :WELL               
FLD .                                             :FIELD              
CTRY.                                             :COUNTRY            
STAT.                                             :STATE              
LOC .                                             :LOCATION           
UWI .                                             :UNIQUE WELL ID     
SRVC.                                             :Service company    
DATE.                                             :LOG DATE           
~Curve Information
#MNEM.UNIT           API CODE  Curve Description
#---------           --------  -----------------
DEPT.FT                      :   1 DEPTH
RESI.OHMM                    :   2
SP  .MV                      :   3
SBL .MV                      :   4
RD  .OHMM                    :   5
~A
# ...
  1503.000  2.3820 -23.161 -11.357  2.3820 
  1503.500  2.4750 -24.041 -12.206  2.4750 
  1504.000  2.2720 -24.562 -12.696  2.2720 
  1504.500  2.2570 -25.540 -13.643  2.2570 
  1505.000  2.2420 -26.322 -14.394  2.2420 
  1505.500  2.2850 -26.583 -14.624  2.2850 
  1506.000  2.3290 -27.007 -15.017  2.3290 
  1506.500  2.3930 -26.256 -14.235  2.3930 
  1507.000  2.5140 -25.929 -13.877  2.5140 
  1507.500  2.6120 -26.907 -14.825  2.6120 
  1508.000  2.7450 -27.494 -15.381  2.7450 
  1508.500  2.7950 -28.080 -15.936  2.7950 
  1509.000  2.8710 -28.047 -15.872  2.8710 
  1509.500  2.8970 -28.014 -15.808  2.8970 
  1510.000  2.7760 -27.588 -15.351  2.7760 
  1510.500  2.6720 -28.240 -15.972  2.6720 
  1511.000  2.5950 -28.925 -16.626  2.5950 
  1511.500  2.5660 -29.642 -17.312  2.5660 
  1512.000  2.7390 -30.163 -17.802  2.7390 
  1512.500  2.9970 -30.685 -18.293  2.9970 
  1513.000  3.4690 -31.043 -18.620  3.4690 
  1513.500  4.6690 -30.929 -18.475  4.6690 
  1514.000  5.3680 -30.814 -18.329  5.3680 
  1514.500  5.9940 -29.997 -17.482  5.9940 
  1515.000  6.2560 -30.779 -18.233  6.2560 
  1515.500  6.3550 -31.431 -18.854  6.3550 
  1516.000  6.3700 -31.920 -19.312  6.3700 
  1516.500  6.2280 -32.410 -19.771  6.2280 
  1517.000  5.8740 -33.257 -20.587  5.8740 
  1517.500  4.8730 -34.105 -21.404  4.8730 
  1518.000  3.5800 -35.018 -22.286  3.5800 
  1518.500  3.1920 -35.930 -23.167  3.1920 
  1519.000  3.0170 -36.386 -23.592  3.0170 
  1519.500  2.9230 -36.843 -24.018  2.9230 
  1520.000  2.8200 -37.494 -24.638  2.8200 
  1520.500  2.7390 -37.559 -24.672  2.7390 
  1521.000  2.6120 -37.624 -24.706  2.6120 
  1521.500  2.5200 -37.542 -24.594  2.5200 
  1522.000  2.4040 -37.460 -24.481  2.4040 
  1522.500  2.3400 -37.393 -24.383  2.3400 
  1523.000  2.2120 -37.425 -24.384  2.2120 
  1523.500  2.3240 -37.473 -24.401  2.3240 
  1524.000  2.4860 -37.522 -24.419  2.4860 
  1524.500  2.9900 -37.766 -24.632  2.9900 
  1525.000  4.3150 -38.010 -24.845  4.3150 
  1525.500  4.7220 -38.385 -25.189  4.7220 
  1526.000  5.3200 -38.759 -25.532  5.3200 
  1526.500  5.8740 -39.019 -25.761  5.8740 
  1527.000  6.6190 -38.431 -25.142  6.6190 
  1527.500  7.0020 -37.908 -24.588  7.0020 
  1528.000  6.6480 -37.712 -24.361  6.6480 
  1528.500  4.9060 -37.646 -24.265  4.9060 
  1529.000  2.8330 -37.482 -24.070  2.8330 
  1529.500  2.4580 -37.433 -23.990  2.4580 
  1530.000  2.3710 -37.384 -23.910  2.3710 
  1530.500  2.5090 -37.089 -23.584  2.5090 
  1531.000  2.7890 -36.615 -23.079  2.7890 
  1531.500  2.9070 -36.142 -22.575  2.9070 
  1532.000  3.0310 -32.649 -19.051  3.0310 
  1532.500  3.1490 -30.169 -16.540  3.1490 
  1533.000  3.2790 -28.146 -14.486  3.2790 
  1533.500  3.4460 -27.460 -13.769  3.4460 
  1534.000  3.5880 -26.644 -12.922  3.5880 
  1534.500  3.7240 -27.752 -13.999  3.7240 
  1535.000  3.8650 -28.698 -14.914  3.8650 
  1535.500  3.9890 -29.644 -15.830  3.9890 
  1536.000  4.1160 -30.687 -16.842  4.1160 
  1536.500  4.2390 -31.730 -17.854  4.2390 
  1537.000  4.3450 -32.545 -18.638  4.3450 
  1537.500  4.3160 -32.936 -18.998  4.3160 
  1538.000  4.4240 -33.328 -19.359  4.4240 
  1538.500  4.1630 -34.191 -20.191  4.1630 
  1539.000  3.9980 -35.055 -21.024  3.9980 
  1539.500  3.7540 -35.837 -21.775  3.7540 
  1540.000  3.3320 -36.294 -22.201  3.3320 
  1540.500  3.0650 -36.162 -22.038  3.0650 
  1541.000  2.9770 -35.933 -21.778  2.9770 
  1541.500  3.3470 -34.367 -20.181  3.3470 
  1542.000  3.6620 -30.679 -16.463  3.6620 
  1542.500  3.7620 -28.264 -14.017  3.7620 
  1543.000  3.8130 -27.383 -13.105  3.8130 
  1543.500  3.7580 -26.599 -12.290  3.7580 
  1544.000  3.7040 -26.337 -11.997  3.7040 
  1544.500  3.4460 -26.271 -11.900  3.4460 
  1545.000  3.3350 -26.206 -11.804  3.3350 
  1545.500  3.2280 -26.156 -11.723  3.2280 
  1546.000  3.1000 -26.107 -11.643  3.1000 
  1546.500  3.0760 -26.007 -11.512  3.0760 
  1547.000  3.0520 -25.925 -11.399  3.0520 
  1547.500  3.0210 -25.843 -11.286  3.0210 
  1548.000  2.9900 -25.778 -11.190  2.9900 
  1548.500  2.9640 -25.712 -11.093  2.9640 
  1549.000  2.9370 -25.156 -10.507  2.9370 
  1549.500  2.8780 -24.405 -9.7246  2.8780 
  1550.000  2.8520 -23.882 -9.1707  2.8520 
  1550.500  2.8260 -23.424 -8.6817  2.8260 
  1551.000  2.7630 -22.965 -8.1918  2.7630 
  1551.500  2.6880 -22.799 -7.9949  2.6880 
  1552.000  2.6280 -22.749 -7.9139  2.6280 
  1552.500  2.5350 -22.698 -7.8320  2.5350 
  1553.000  2.4890 -22.696 -7.7991  2.4890 
  1553.500  2.4660 -22.694 -7.7662  2.4660 
  1554.000  2.4770 -22.708 -7.7492  2.4770 
  1554.500  2.5440 -22.723 -7.7333  2.5440 
  1555.000  2.6040 -22.688 -7.6674  2.6040 
  1555.500  2.6660 -22.654 -7.6025  2.6660 
  1556.000  2.7260 -22.586 -7.5035  2.7260 
  1556.500  2.7560 -22.389 -7.2756  2.7560 
  1557.000  2.7870 -22.192 -7.0477  2.7870 
  1557.500  2.8360 -21.634 -6.4587  2.8360 
  1558.000  2.8420 -21.469 -6.2628  2.8420 
  1558.500  2.8350 -21.402 -6.1649  2.8350 
  1559.000  2.8160 -21.482 -6.2140  2.8160 
  1559.500  2.7650 -21.561 -6.2620  2.7650 
  1560.000  2.7390 -21.603 -6.2731  2.7390 
  1560.500  2.6720 -21.645 -6.2842  2.6720 
  1561.000  2.6060 -21.687 -6.2952  2.6060 
  1561.500  2.5650 -21.750 -6.3273  2.5650 
  1562.000  2.5320 -21.813 -6.3594  2.5320 
  1562.500  2.5010 -21.860 -6.3755  2.5010 
  1563.000  2.4810 -21.906 -6.3905  2.4810 
  1563.500  2.4610 -21.709 -6.1626  2.4610 
  1564.000  2.4880 -21.479 -5.9017  2.4880 
  1564.500  2.5150 -20.954 -5.3458  2.5150 
  1565.000  2.5400 -20.398 -4.7588  2.5400 
  1565.500  2.5660 -19.842 -4.1719  2.5660 
  1566.000  2.5910 -18.894 -3.1930  2.5910 
  1566.500  2.6170 -17.946 -2.2140  2.6170 
  1567.000  2.6580 -17.046 -1.2831  2.6580 
  1567.500  2.6780 -16.147 -0.3532  2.6780 
  1568.000  2.6990 -15.199  0.6257  2.6990 
  1568.500  2.7350 -14.250  1.6057  2.7350 
  1569.000  2.7590 -13.742  2.1446  2.7590 
  1569.500  2.7650 -13.235  2.6825  2.7650 
  1570.000  2.7700 -12.874  3.0745  2.7700 
  1570.500  2.7610 -12.514  3.4654  2.7610 
  1571.000  2.7510 -11.989  4.0213  2.7510 
  1571.500  2.7410 -11.596  4.4452  2.7410 
  1572.000  2.7310 -11.333  4.7392  2.7310 
  1572.500  2.6940 -11.070  5.0331  2.6940 
  1573.000  2.5980 -10.644  5.4900  2.5980 
  1573.500  2.4610 -10.463  5.7019  2.4610 
  1574.000  2.3200 -10.282  5.9139  2.3200 
  1574.500  2.2130 -10.083  6.1438  2.2130 
  1575.000  2.1530 -10.212  6.0457  2.1530 
  1575.500  2.1380 -10.601  5.6877  2.1380 
  1576.000  2.2110 -11.056  5.2636  2.2110 
  1576.500  2.2920 -11.609  4.7415  2.2920 
  1577.000  2.4460 -11.966  4.4154  2.4460 
  1577.500  2.7120 -12.324  4.0884  2.7120 
  1578.000  3.1380 -13.724  2.7193  3.1380 
  1578.500  3.5830 -15.581  0.8932  3.5830 
  1579.000  3.8680 -17.504 -0.9988  3.8680 
  1579.500  4.1280 -18.547 -2.0109  4.1280 
  1580.000  4.2830 -20.176 -3.6090  4.2830 
  1580.500  4.4440 -20.957 -4.3591  4.4440 
  1581.000  4.7640 -22.227 -5.5981  4.7640 
  1581.500  4.9930 -22.650 -5.9902  4.9930 
  1582.000  5.1290 -22.909 -6.2183  5.1290 
  1582.500  4.7390 -22.744 -6.0223  4.7390 
  1583.000  3.7920 -22.578 -5.8254  3.7920 
  1583.500  3.6650 -22.903 -6.1195  3.6650 
  1584.000  3.6230 -24.532 -7.7176  3.6230 
  1584.500  3.5580 -25.378 -8.5326  3.5580 
  1585.000  3.4540 -26.388 -9.5117  3.4540 
  1585.500  3.2720 -27.022 -10.115  3.2720 
  1586.000  2.9830 -27.657 -10.719  2.9830 
  1586.500  2.6650 -28.046 -11.077  2.6650 
  1587.000  2.3380 -28.142 -11.142  2.3380 
  1587.500  2.2750 -28.238 -11.207  2.2750 
  1588.000  2.2980 -28.367 -11.305  2.2980 
  1588.500  2.3210 -28.479 -11.386  2.3210 
  1589.000  2.4550 -28.591 -11.467  2.4550 
  1589.500  2.5100 -28.589 -11.434  2.5100 
  1590.000  2.5960 -28.228 -11.042  2.5960 
  1590.500  2.5950 -27.998 -10.782  2.5950 
  1591.000  2.4800 -27.768 -10.521  2.4800 
  1591.500  2.3490 -27.750 -10.472  2.3490 
  1592.000  2.1860 -27.732 -10.423  2.1860 
  1592.500  2.0700 -27.844 -10.504  2.0700 
  1593.000  2.0420 -27.956 -10.585  2.0420 
  1593.500  2.0410 -28.215 -10.813  2.0410 
