~Version Information
VERS.                     2.0: CWLS log ASCII Standard Version 2.00
WRAP.                      NO: One line per depth step
~Well Information Block
#MNEM.UNIT                               Data Type  Information
#---------                               ---------  -----------
STRT.FT                                    47.0000:
STOP.FT                                  1830.0000:
STEP.FT                                     0.5000:
NULL.                 -999.25                     :
COMP.                                             :COMPANY            
WELL.     SAN EMIDIO C-2                          :WELL               
FLD .                                             :FIELD              
CTRY.                                             :COUNTRY            
STAT.                                             :STATE              
LOC .                                             :LOCATION           
UWI .                                             :UNIQUE WELL ID     
SRVC.                                             :Service company    
DATE.                                             :LOG DATE           
~Curve Information
#MNEM.UNIT           API CODE  Curve Description
#---------           --------  -----------------
DEPT.FT                      :   1 DEPTH
RESI.OHMM                    :   2
SP  .MV                      :   3
SBL .MV                      :   4
RD  .OHMM                    :   5
~A
# ...
   957.000  10.065 -4.4380 -2.4380  10.065 
   957.500  10.942 -4.3600 -2.3600  10.942 
   958.000  11.170 -4.2330 -2.2330  11.170 
   958.500  11.505 -4.1860 -2.1860  11.505 
   959.000  10.013 -4.1400 -2.1400  10.013 
   959.500  9.1460 -4.0780 -2.0780  9.1460 
   960.000  8.3540 -4.6980 -2.6980  8.3540 
   960.500  7.2540 -5.2530 -3.2530  7.2540 
   961.000  6.8760 -5.5800 -3.5800  6.8760 
   961.500  6.5180 -5.9070 -3.9070  6.5180 
   962.000  6.2550 -6.3330 -4.3330  6.2550 
   962.500  6.0020 -6.4980 -4.4980  6.0020 
   963.000  5.6770 -6.5810 -4.5810  5.6770 
   963.500  6.8740 -6.6650 -4.6650  6.8740 
   964.000  7.8510 -6.7160 -4.7160  7.8510 
   964.500  9.1500 -6.7680 -4.7680  9.1500 
   965.000  9.5310 -6.2510 -4.2510  9.5310 
   965.500  10.017 -5.3760 -3.3760  10.017 
   966.000  10.203 -5.2160 -3.2160  10.203 
   966.500  10.415 -5.2840 -3.2840  10.415 
   967.000  10.608 -5.4490 -3.4490  10.608 
   967.500  10.517 -5.5490 -3.5490  10.517 
   968.000  10.082 -5.6490 -3.6490  10.082 
   968.500  9.7510 -5.8140 -3.8140  9.7510 
   969.000  9.5060 -5.5730 -3.5730  9.5060 
   969.500  9.2670 -5.3320 -3.3320  9.2670 
   970.000  9.6530 -4.9770 -2.9770  9.6530 
   970.500  9.9880 -4.6220 -2.6220  9.9880 
   971.000  10.242 -4.0400 -2.0400  10.242 
   971.500  10.361 -3.8150 -1.8150  10.361 
   972.000  10.482 -3.5580 -1.5580  10.482 
   972.500  10.346 -3.3000 -1.3000  10.346 
   973.000  8.8840 -3.8880 -1.8880  8.8840 
   973.500  7.6110 -4.3130 -2.3130  7.6110 
   974.000  7.4280 -4.8360 -2.8360  7.4280 
   974.500  7.1370 -5.1300 -3.1300  7.1370 
   975.000  6.2110 -5.4580 -3.4580  6.2110 
   975.500  5.0850 -5.6850 -3.6850  5.0850 
   976.000  4.7000 -5.8800 -3.8800  4.7000 
   976.500  4.6370 -5.9280 -3.9280  4.6370 
   977.000  6.2640 -5.9760 -3.9760  6.2640 
   977.500  6.6180 -5.9760 -3.9760  6.6180 
   978.000  6.9910 -5.9760 -3.9760  6.9910 
   978.500  8.1440 -5.8460 -3.8460  8.1440 
   979.000  8.5740 -5.6830 -3.6830  8.5740 
   979.500  9.0480 -5.6500 -3.6500  9.0480 
   980.000  9.2940 -5.6820 -3.6820  9.2940 
   980.500  9.4930 -5.8770 -3.8770  9.4930 
   981.000  9.6970 -6.0060 -4.0060  9.6970 
   981.500  9.8710 -6.1520 -4.1520  9.8710 
   982.000  10.049 -6.2980 -4.2980  10.049 
   982.500  9.6500 -6.4600 -4.4600  9.6500 
   983.000  8.7800 -6.3950 -4.3950  8.7800 
   983.500  7.9890 -6.3290 -4.3290  7.9890 
   984.000  7.6540 -6.2480 -4.2480  7.6540 
   984.500  7.1700 -6.1660 -4.1660  7.1700 
   985.000  6.8390 -5.9220 -3.9220  6.8390 
   985.500  7.2990 -5.6780 -3.6780  7.2990 
   986.000  7.8590 -5.7430 -3.7430  7.8590 
   986.500  8.2010 -5.9860 -3.9860  8.2010 
   987.000  7.6310 -6.2300 -4.2300  7.6310 
   987.500  6.3470 -6.4570 -4.4570  6.3470 
   988.000  5.7230 -6.6840 -4.6840  5.7230 
   988.500  5.1950 -7.0250 -5.0250  5.1950 
   989.000  4.8340 -7.3660 -5.3660  4.8340 
   989.500  4.5700 -7.6250 -5.6250  4.5700 
   990.000  5.6430 -7.6900 -5.6900  5.6430 
   990.500  5.8620 -7.1050 -5.1050  5.8620 
   991.000  5.9280 -6.8770 -4.8770  5.9280 
   991.500  5.8080 -6.6490 -4.6490  5.8080 
   992.000  5.8340 -6.3890 -4.3890  5.8340 
   992.500  5.8860 -6.4210 -4.4210  5.8860 
   993.000  6.0390 -6.4700 -4.4700  6.0390 
   993.500  6.1960 -6.5180 -4.5180  6.1960 
   994.000  6.7780 -6.6480 -4.6480  6.7780 
   994.500  7.1040 -6.7120 -4.7120  7.1040 
   995.000  7.4970 -6.7770 -4.7770  7.4970 
   995.500  7.9110 -6.7770 -4.7770  7.9110 
   996.000  8.6730 -6.7440 -4.7440  8.6730 
   996.500  9.1520 -6.7110 -4.7110  9.1520 
   997.000  9.4970 -6.5160 -4.5160  9.4970 
   997.500  9.8540 -6.3210 -4.3210  9.8540 
   998.000  10.133 -6.0930 -4.0930  10.133 
   998.500  10.420 -5.9300 -3.9300  10.420 
   999.000  10.874 -5.6700 -3.6700  10.874 
   999.500  11.094 -5.4420 -3.4420  11.094 
  1000.000  11.216 -4.8290 -2.8290  11.216 
  1000.500  11.322 -4.8630 -2.8630  11.322 
  1001.000  11.276 -5.1090 -3.1090  11.276 
  1001.500  11.129 -5.3560 -3.3560  11.129 
  1002.000  10.898 -5.9120 -3.9120  10.898 
  1002.500  10.672 -6.1750 -4.1750  10.672 
  1003.000  10.275 -6.4370 -4.4370  10.275 
  1003.500  10.268 -7.1560 -5.1560  10.268 
  1004.000  10.260 -7.4840 -5.4840  10.260 
  1004.500  10.373 -7.8120 -5.8120  10.373 
  1005.000  10.487 -8.1400 -6.1400  10.487 
  1005.500  10.602 -8.4680 -6.4680  10.602 
  1006.000  10.738 -8.9260 -6.9260  10.738 
  1006.500  10.876 -9.1240 -7.1240  10.876 
  1007.000  11.053 -9.2560 -7.2560  11.053 
  1007.500  11.232 -9.1600 -7.1600  11.232 
  1008.000  11.262 -8.7700 -6.7700  11.262 
  1008.500  11.166 -7.9560 -5.9560  11.166 
  1009.000  10.996 -7.6640 -5.6640  10.996 
  1009.500  10.563 -7.3720 -5.3720  10.563 
  1010.000  10.426 -7.1620 -5.1620  10.426 
  1010.500  10.360 -6.9520 -4.9520  10.360 
  1011.000  10.505 -7.0500 -5.0500  10.505 
  1011.500  10.700 -7.1500 -5.1500  10.700 
  1012.000  10.849 -7.2500 -5.2500  10.849 
  1012.500  10.977 -7.3500 -5.3500  10.977 
  1013.000  11.307 -7.5460 -5.5460  11.307 
  1013.500  10.765 -7.6290 -5.6290  10.765 
  1014.000  9.9090 -7.7130 -5.7130  9.9090 
  1014.500  9.1620 -7.8450 -5.8450  9.1620 
  1015.000  8.7820 -7.9780 -5.9780  8.7820 
  1015.500  8.4560 -8.1910 -6.1910  8.4560 
  1016.000  8.4020 -8.4050 -6.4050  8.4020 
  1016.500  8.4620 -8.5360 -6.5360  8.4620 
  1017.000  8.4850 -8.6030 -6.6030  8.4850 
  1017.500  8.5070 -8.5890 -6.5890  8.5070 
  1018.000  8.5200 -8.5740 -6.5740  8.5200 
  1018.500  8.5340 -8.5430 -6.5430  8.5340 
  1019.000  8.9700 -8.4140 -6.4140  8.9700 
  1019.500  9.9970 -8.1870 -6.1870  9.9970 
  1020.000  10.485 -7.9770 -5.9770  10.485 
  1020.500  10.584 -7.7670 -5.7670  10.584 
  1021.000  10.636 -7.3440 -5.3440  10.636 
  1021.500  10.689 -6.9220 -4.9220  10.689 
  1022.000  10.862 -6.5310 -4.5310  10.862 
  1022.500  10.941 -6.4350 -4.4350  10.941 
  1023.000  11.119 -6.3400 -4.3400  11.119 
  1023.500  11.274 -6.2760 -4.2760  11.274 
  1024.000  11.128 -6.2130 -4.2130  11.128 
  1024.500  10.983 -6.1650 -4.1650  10.983 
  1025.000  10.575 -6.1180 -4.1180  10.575 
  1025.500  10.182 -6.0210 -4.0210  10.182 
  1026.000  9.4140 -6.0120 -4.0120  9.4140 
  1026.500  9.3340 -6.0030 -4.0030  9.3340 
  1027.000  9.2540 -5.9940 -3.9940  9.2540 
  1027.500  10.477 -5.9790 -3.9790  10.477 
  1028.000  10.866 -5.9640 -3.9640  10.866 
  1028.500  11.105 -6.0630 -4.0630  11.105 
  1029.000  11.350 -6.1190 -4.1190  11.350 
  1029.500  11.877 -6.1760 -4.1760  11.877 
  1030.000  12.043 -6.2320 -4.2320  12.043 
  1030.500  11.287 -6.2820 -4.2820  11.287 
  1031.000  10.794 -6.3330 -4.3330  10.794 
  1031.500  10.690 -5.9100 -3.9100  10.690 
  1032.000  10.586 -5.7490 -3.7490  10.586 
  1032.500  10.723 -5.3590 -3.3590  10.723 
  1033.000  10.861 -4.9690 -2.9690  10.861 
  1033.500  11.075 -4.2200 -2.2200  11.075 
  1034.000  11.293 -3.4230 -1.4230  11.293 
  1034.500  11.580 -2.6250 -0.6250  11.580 
  1035.000  11.848 -1.2560  0.7440  11.848 
  1035.500  11.760 -0.2460  1.7540  11.760 
  1036.000  11.673  0.0130  2.0130  11.673 
  1036.500  10.505 -2.9570 -0.9570  10.505 
  1037.000  9.3480 -4.3290 -2.3290  9.3480 
  1037.500  8.9200 -5.0810 -3.0810  8.9200 
  1038.000  8.7060 -5.8660 -3.8660  8.7060 
  1038.500  8.6510 -6.5850 -4.5850  8.6510 
  1039.000  8.5960 -6.0980 -4.0980  8.5960 
  1039.500  8.0020 -4.9250 -2.9250  8.0020 
  1040.000  7.0570 -4.0130 -2.0130  7.0570 
  1040.500  6.6580 -3.1340 -1.1340  6.6580 
  1041.000  6.3530 -2.8740 -0.8740  6.3530 
  1041.500  5.9140 -3.3650 -1.3650  5.9140 
  1042.000  5.5050 -3.9870 -1.9870  5.5050 
  1042.500  5.2530 -4.6080 -2.6080  5.2530 
  1043.000  5.2670 -5.2300 -3.2300  5.2670 
  1043.500  5.3290 -5.4930 -3.4930  5.3290 
  1044.000  5.7680 -5.7550 -3.7550  5.7680 
  1044.500  6.0630 -6.1150 -4.1150  6.0630 
  1045.000  6.8800 -6.2800 -4.2800  6.8800 
  1045.500  7.4980 -6.4450 -4.4450  7.4980 
  1046.000  8.0070 -6.7400 -4.7400  8.0070 
  1046.500  8.5500 -6.9380 -4.9380  8.5500 
  1047.000  9.1310 -7.0050 -5.0050  9.1310 
  1047.500  9.7070 -7.1370 -5.1370  9.7070 
