~Version Information
VERS.                     2.0: CWLS log ASCII Standard Version 2.00
WRAP.                      NO: One line per depth step
~Well Information Block
#MNEM.UNIT                               Data Type  Information
#---------                               ---------  -----------
STRT.FT                                    47.0000:
STOP.FT                                  1830.0000:
STEP.FT                                     0.5000:
NULL.                 -999.25                     :
COMP.                                             :COMPANY            
WELL.     SAN EMIDIO C-2                          :WELL               
FLD .                                             :FIELD              
CTRY.                                             :COUNTRY            
STAT.                                             :STATE              
LOC .                                             :LOCATION           
UWI .                                             :UNIQUE WELL ID     
SRVC.                                             :Service company    
DATE.                                             :LOG DATE           
~Curve Information
#MNEM.UNIT           API CODE  Curve Description
#---------           --------  -----------------
DEPT.FT                      :   1 DEPTH
RESI.OHMM                    :   2
SP  .MV                      :   3
SBL .MV                      :   4
RD  .OHMM                    :   5
~A
# ...
   411.000  4.8030 -6.7500 -4.7500  4.8030 
   411.500  4.5220 -6.5250 -4.5250  4.5220 
   412.000  4.3350 -6.3810 -4.3810  4.3350 
   412.500  4.1550 -6.2370 -4.2370  4.1550 
   413.000  3.8420 -6.1430 -4.1430  3.8420 
   413.500  3.6920 -6.1940 -4.1940  3.6920 
   414.000  3.6110 -6.2450 -4.2450  3.6110 
   414.500  3.6040 -6.4430 -4.4430  3.6040 
   415.000  3.6630 -6.6730 -4.6730  3.6630 
   415.500  3.7730 -6.9680 -4.9680  3.7730 
   416.000  3.8860 -7.8480 -5.8480  3.8860 
   416.500  4.1210 -9.5400 -7.5400  4.1210 
   417.000  4.6960 -10.647 -8.6470  4.6960 
   417.500  5.3880 -11.527 -9.5270  5.3880 
   418.000  5.9370 -11.805 -9.8050  5.9370 
   418.500  6.2400 -12.084 -10.084  6.2400 
   419.000  6.5580 -12.200 -10.200  6.5580 
   419.500  7.2750 -12.316 -10.316  7.2750 
   420.000  7.6120 -12.417 -10.417  7.6120 
   420.500  7.8940 -12.387 -10.387  7.8940 
   421.000  8.0940 -12.325 -10.325  8.0940 
   421.500  8.3000 -12.230 -10.230  8.3000 
   422.000  8.3220 -11.940 -9.9400  8.3220 
   422.500  8.2870 -11.650 -9.6500  8.2870 
   423.000  8.5360 -10.873 -8.8730  8.5360 
   423.500  9.2170 -10.095 -8.0950  9.2170 
   424.000  9.3250 -8.7010 -6.7010  9.3250 
   424.500  9.2870 -8.0060 -6.0060  9.2870 
   425.000  8.9620 -7.3100 -5.3100  8.9620 
   425.500  7.8730 -6.3070 -4.3070  7.8730 
   426.000  7.4150 -5.9870 -3.9870  7.4150 
   426.500  6.8130 -5.5040 -3.5040  6.8130 
   427.000  6.2050 -5.5090 -3.5090  6.2050 
   427.500  5.5250 -6.0820 -4.0820  5.5250 
   428.000  4.7880 -6.6540 -4.6540  4.7880 
   428.500  4.4390 -7.4880 -5.4880  4.4390 
   429.000  4.1810 -8.3210 -6.3210  4.1810 
   429.500  4.1560 -9.2030 -7.2030  4.1560 
   430.000  4.4490 -9.7270 -7.7270  4.4490 
   430.500  5.1060 -10.251 -8.2510  5.1060 
   431.000  6.1980 -11.035 -9.0350  6.1980 
   431.500  6.8320 -11.755 -9.7550  6.8320 
   432.000  7.4620 -12.052 -10.052  7.4620 
   432.500  7.7930 -12.348 -10.348  7.7930 
   433.000  8.0570 -12.938 -10.938  8.0570 
   433.500  8.3300 -13.105 -11.105  8.3300 
   434.000  8.7580 -13.239 -11.239  8.7580 
   434.500  8.9030 -13.309 -11.309  8.9030 
   435.000  9.0500 -13.378 -11.378  9.0500 
   435.500  9.3460 -13.578 -11.578  9.3460 
   436.000  9.5870 -13.680 -11.680  9.5870 
   436.500  9.6810 -13.408 -11.408  9.6810 
   437.000  9.4720 -13.136 -11.136  9.4720 
   437.500  9.4160 -11.939 -9.9390  9.4160 
   438.000  9.4650 -11.651 -9.6510  9.4650 
   438.500  9.5780 -11.688 -9.6880  9.5780 
   439.000  9.9580 -11.741 -9.7410  9.9580 
   439.500  10.330 -11.795 -9.7950  10.330 
   440.000  10.596 -11.864 -9.8640  10.596 
   440.500  10.652 -11.934 -9.9340  10.652 
   441.000  10.659 -11.289 -9.2890  10.659 
   441.500  10.524 -10.449 -8.4490  10.524 
   442.000  10.205 -9.6090 -7.6090  10.205 
   442.500  9.6120 -8.6710 -6.6710  9.6120 
   443.000  8.7330 -6.8240 -4.8240  8.7330 
   443.500  7.8820 -5.7240 -3.7240  7.8820 
   444.000  6.8470 -5.7280 -3.7280  6.8470 
   444.500  6.0960 -6.3830 -4.3830  6.0960 
   445.000  5.6770 -6.9720 -4.9720  5.6770 
   445.500  5.4320 -7.5610 -5.5610  5.4320 
   446.000  6.5350 -8.4430 -6.4430  6.5350 
   446.500  7.0590 -9.2270 -7.2270  7.0590 
   447.000  7.5060 -9.9140 -7.9140  7.5060 
   447.500  7.6470 -9.9510 -7.9510  7.6470 
   448.000  7.6700 -9.4360 -7.4360  7.6700 
   448.500  7.6920 -9.2450 -7.2450  7.6920 
   449.000  7.7150 -9.0550 -7.0550  7.7150 
   449.500  7.7210 -9.0270 -7.0270  7.7210 
   450.000  7.6900 -9.1620 -7.1620  7.6900 
   450.500  7.6580 -9.1460 -7.1460  7.6580 
   451.000  7.5570 -9.1310 -7.1310  7.5570 
   451.500  7.4070 -7.5410 -5.5410  7.4070 
   452.000  7.1950 -6.6000 -4.6000  7.1950 
   452.500  6.6070 -5.6270 -3.6270  6.6070 
   453.000  5.6980 -5.9530 -3.9530  5.6980 
   453.500  5.2560 -6.9290 -4.9290  5.2560 
   454.000  4.8710 -7.1580 -5.1580  4.8710 
   454.500  4.5850 -7.4190 -5.4190  4.5850 
   455.000  4.5340 -7.6800 -5.6800  4.5340 
   455.500  6.6140 -7.2590 -5.2590  6.6140 
   456.000  7.4340 -6.7080 -4.7080  7.4340 
   456.500  7.4350 -6.1570 -4.1570  7.4350 
   457.000  6.9210 -5.1510 -3.1510  6.9210 
   457.500  5.5670 -5.2180 -3.2180  5.5670 
   458.000  4.8880 -5.9990 -3.9990  4.8880 
   458.500  4.9320 -6.4060 -4.4060  4.9320 
   459.000  4.9780 -6.8130 -4.8130  4.9780 
   459.500  4.9670 -8.0170 -6.0170  4.9670 
   460.000  4.7710 -8.4730 -6.4730  4.7710 
   460.500  4.6550 -8.9290 -6.9290  4.6550 
   461.000  4.5420 -9.8070 -7.8070  4.5420 
   461.500  5.4130 -10.231 -8.2310  5.4130 
   462.000  6.0580 -10.654 -8.6540  6.0580 
   462.500  6.6580 -11.631 -9.6310  6.6580 
   463.000  7.1710 -11.827 -9.8270  7.1710 
   463.500  7.6040 -12.023 -10.023  7.6040 
   464.000  8.0990 -12.317 -10.317  8.0990 
   464.500  8.4530 -12.513 -10.513  8.4530 
   465.000  8.7730 -12.595 -10.595  8.7730 
   465.500  9.1060 -12.678 -10.678  9.1060 
   466.000  9.4510 -12.760 -10.760  9.4510 
   466.500  9.8090 -12.843 -10.843  9.8090 
   467.000  10.193 -12.649 -10.649  10.193 
   467.500  10.497 -12.488 -10.488  10.497 
   468.000  10.629 -12.343 -10.343  10.629 
   468.500  10.762 -12.198 -10.198  10.762 
   469.000  11.158 -12.070 -10.070  11.158 
   469.500  10.574 -11.941 -9.9410  10.574 
   470.000  9.5590 -11.650 -9.6500  9.5590 
   470.500  8.8180 -11.554 -9.5540  8.8180 
   471.000  9.2040 -11.506 -9.5060  9.2040 
   471.500  9.4780 -11.459 -9.4590  9.4780 
   472.000  9.6400 -10.973 -8.9730  9.6400 
   472.500  9.8060 -10.487 -8.4870  9.8060 
   473.000  9.8960 -9.9190 -7.9190  9.8960 
   473.500  9.3990 -9.3520 -7.3520  9.3990 
   474.000  8.4400 -8.6720 -6.6720  8.4400 
   474.500  7.3110 -8.9000 -6.9000  7.3110 
   475.000  6.5790 -9.6490 -7.6490  6.5790 
   475.500  5.8430 -10.349 -8.3490  5.8430 
   476.000  5.4020 -11.050 -9.0500  5.4020 
   476.500  6.0050 -11.522 -9.5220  6.0050 
   477.000  6.9050 -11.995 -9.9950  6.9050 
   477.500  7.6410 -12.647 -10.647  7.6410 
   478.000  8.2310 -12.909 -10.909  8.2310 
   478.500  8.8270 -12.862 -10.862  8.8270 
   479.000  9.2560 -12.816 -10.816  9.2560 
   479.500  9.7060 -12.038 -10.038  9.7060 
   480.000  10.041 -10.383 -8.3830  10.041 
   480.500  10.203 -8.5980 -6.5980  10.203 
   481.000  9.9340 -7.9500 -5.9500  9.9340 
   481.500  9.6720 -7.3020 -5.3020  9.6720 
   482.000  7.9580 -6.7200 -4.7200  7.9580 
   482.500  6.4300 -7.0790 -5.0790  6.4300 
   483.000  6.1080 -7.4390 -5.4390  6.1080 
   483.500  6.5060 -7.8300 -5.8300  6.5060 
   484.000  6.5230 -8.1570 -6.1570  6.5230 
   484.500  6.2100 -8.1920 -6.1920  6.2100 
   485.000  5.8460 -7.8690 -5.8690  5.8460 
   485.500  5.8080 -7.4810 -5.4810  5.8080 
   486.000  6.2150 -7.3360 -5.3360  6.2150 
   486.500  6.7250 -7.1920 -5.1920  6.7250 
   487.000  6.8800 -7.1620 -5.1620  6.8800 
   487.500  6.9750 -7.5530 -5.5530  6.9750 
   488.000  6.8760 -7.9450 -5.9450  6.8760 
   488.500  6.7780 -8.5640 -6.5640  6.7780 
   489.000  6.2530 -9.1190 -7.1190  6.2530 
   489.500  6.2830 -9.5270 -7.5270  6.2830 
   490.000  6.3130 -9.9340 -7.9340  6.3130 
   490.500  6.8930 -10.652 -8.6520  6.8930 
   491.000  7.9600 -10.946 -8.9460  7.9600 
   491.500  8.5370 -11.240 -9.2400  8.5370 
   492.000  8.8510 -11.794 -9.7940  8.8510 
   492.500  9.0040 -12.219 -10.219  9.0040 
   493.000  9.1590 -12.221 -10.221  9.1590 
   493.500  9.4970 -11.345 -9.3450  9.4970 
   494.000  9.2260 -10.762 -8.7620  9.2260 
   494.500  8.4740 -10.407 -8.4070  8.4740 
   495.000  8.5720 -10.507 -8.5070  8.5720 
   495.500  8.8480 -10.379 -8.3790  8.8480 
   496.000  9.2570 -9.9260 -7.9260  9.2570 
   496.500  9.4910 -7.9780 -5.9780  9.4910 
   497.000  9.9970 -7.3310 -5.3310  9.9970 
   497.500  10.366 -6.2280 -4.2280  10.366 
   498.000  10.699 -5.2880 -3.2880  10.699 
   498.500  9.8710 -4.6720 -2.6720  9.8710 
   499.000  7.2260 -4.6100 -2.6100  7.2260 
   499.500  6.1350 -5.3260 -3.3260  6.1350 
   500.000  6.2060 -6.0750 -4.0750  6.2060 
   500.500  6.8940 -6.3330 -4.3330  6.8940 
   501.000  7.1110 -6.2170 -4.2170  7.1110 
   501.500  7.2050 -6.1020 -4.1020  7.2050 
