~Version Information
VERS.                     2.0: CWLS log ASCII Standard Version 2.00
WRAP.                      NO: One line per depth step
~Well Information Block
#MNEM.UNIT                               Data Type  Information
#---------                               ---------  -----------
STRT.FT                                    47.0000:
STOP.FT                                  1830.0000:
STEP.FT                                     0.5000:
NULL.                 -999.25                     :
COMP.                                             :COMPANY            
WELL.     SAN EMIDIO C-2                          :WELL               
FLD .                                             :FIELD              
CTRY.                                             :COUNTRY            
STAT.                                             :STATE              
LOC .                                             :LOCATION           
UWI .                                             :UNIQUE WELL ID     
SRVC.                                             :Service company    
DATE.                                             :LOG DATE           
~Curve Information
#MNEM.UNIT           API CODE  Curve Description
#---------           --------  -----------------
DEPT.FT                      :   1 DEPTH
RESI.OHMM                    :   2
SP  .MV                      :   3
SBL .MV                      :   4
RD  .OHMM                    :   5
~A
# ...
   320.000  22.586 -11.994 -9.9940  22.586 
   320.500  23.057 -11.997 -9.9970  23.057 
   321.000  23.326 -12.016 -10.016  23.326 
   321.500  23.493 -12.034 -10.034  23.493 
   322.000  23.396 -11.615 -9.6150  23.396 
   322.500  23.143 -11.358 -9.3580  23.143 
   323.000  22.970 -10.987 -8.9870  22.970 
   323.500  22.799 -10.615 -8.6150  22.799 
   324.000  22.680 -10.439 -8.4390  22.680 
   324.500  22.562 -10.263 -8.2630  22.562 
   325.000  22.570 -10.200 -8.2000  22.570 
   325.500  20.961 -10.137 -8.1370  20.961 
   326.000  19.077 -10.204 -8.2040  19.077 
   326.500  18.038 -10.254 -8.2540  18.038 
   327.000  17.055 -10.304 -8.3040  17.055 
   327.500  15.076 -10.468 -8.4680  15.076 
   328.000  14.033 -10.599 -8.5990  14.033 
   328.500  13.328 -10.730 -8.7300  13.328 
   329.000  12.518 -11.121 -9.1210  12.518 
   329.500  12.464 -11.220 -9.2200  12.464 
   330.000  12.864 -11.205 -9.2050  12.864 
   330.500  13.276 -11.190 -9.1900  13.276 
   331.000  13.796 -11.094 -9.0940  13.796 
   331.500  13.891 -11.095 -9.0950  13.891 
   332.000  13.494 -11.145 -9.1450  13.494 
   332.500  13.465 -11.195 -9.1950  13.465 
   333.000  13.742 -11.407 -9.4070  13.742 
   333.500  14.120 -11.620 -9.6200  14.120 
   334.000  14.362 -11.849 -9.8490  14.362 
   334.500  14.608 -12.078 -10.078  14.608 
   335.000  14.627 -12.209 -10.209  14.627 
   335.500  14.645 -12.178 -10.178  14.645 
   336.000  14.896 -12.082 -10.082  14.896 
   336.500  15.152 -11.985 -9.9850  15.152 
   337.000  17.224 -11.889 -9.8890  17.224 
   337.500  18.345 -11.891 -9.8910  18.345 
   338.000  19.539 -11.940 -9.9400  19.539 
   338.500  21.718 -11.990 -9.9900  21.718 
   339.000  21.917 -12.154 -10.154  21.917 
   339.500  22.019 -12.253 -10.253  22.019 
   340.000  21.728 -12.254 -10.254  21.728 
   340.500  21.440 -12.255 -10.255  21.440 
   341.000  22.278 -11.835 -9.8350  22.278 
   341.500  23.045 -11.349 -9.3490  23.045 
   342.000  23.838 -11.285 -9.2850  23.838 
   342.500  24.548 -11.237 -9.2370  24.548 
   343.000  25.110 -11.190 -9.1900  25.110 
   343.500  25.283 -10.834 -8.8340  25.283 
   344.000  24.231 -10.446 -8.4460  24.231 
   344.500  20.802 -9.8620 -7.8620  20.802 
   345.000  18.470 -9.3110 -7.3110  18.470 
   345.500  13.308 -8.6950 -6.6950  13.308 
   346.000  12.085 -8.4690 -6.4690  12.085 
   346.500  12.087 -8.3080 -6.3080  12.087 
   347.000  12.673 -8.1460 -6.1460  12.673 
   347.500  13.227 -8.1150 -6.1150  13.227 
   348.000  13.439 -8.0840 -6.0840  13.439 
   348.500  13.291 -8.0850 -6.0850  13.291 
   349.000  12.852 -8.0870 -6.0870  12.852 
   349.500  12.044 -8.0720 -6.0720  12.044 
   350.000  11.806 -8.0570 -6.0570  11.806 
   350.500  11.574 -8.0600 -6.0600  11.574 
   351.000  11.697 -8.0630 -6.0630  11.697 
   351.500  11.822 -8.1150 -6.1150  11.822 
   352.000  11.617 -8.1680 -6.1680  11.617 
   352.500  10.720 -8.2030 -6.2030  10.720 
   353.000  10.027 -8.2390 -6.2390  10.027 
   353.500  9.5910 -8.6000 -6.6000  9.5910 
   354.000  9.3610 -9.2530 -7.2530  9.3610 
   354.500  9.1990 -10.100 -8.1000  9.1990 
   355.000  9.0600 -11.241 -9.2410  9.0600 
   355.500  9.0040 -11.569 -9.5690  9.0040 
   356.000  8.9880 -12.189 -10.189  8.9880 
   356.500  9.3220 -12.680 -10.680  9.3220 
   357.000  10.180 -13.008 -11.008  10.180 
   357.500  10.629 -13.206 -11.206  10.629 
   358.000  11.248 -13.274 -11.274  11.248 
   358.500  11.851 -13.342 -11.342  11.851 
   359.000  12.180 -13.346 -11.346  12.180 
   359.500  12.519 -13.414 -11.414  12.519 
   360.000  13.145 -13.433 -11.433  13.145 
   360.500  13.802 -13.453 -11.453  13.802 
   361.000  14.459 -13.521 -11.521  14.459 
   361.500  15.148 -13.573 -11.573  15.148 
   362.000  16.285 -13.625 -11.625  16.285 
   362.500  16.739 -13.661 -11.661  16.739 
   363.000  17.166 -13.696 -11.696  17.166 
   363.500  17.683 -13.732 -11.732  17.683 
   364.000  17.852 -13.736 -11.736  17.852 
   364.500  17.269 -13.739 -11.739  17.269 
   365.000  16.742 -13.726 -11.726  16.742 
   365.500  16.341 -13.713 -11.713  16.341 
   366.000  16.095 -13.700 -11.700  16.095 
   366.500  16.450 -13.687 -11.687  16.450 
   367.000  16.813 -13.690 -11.690  16.813 
   367.500  17.203 -13.693 -11.693  17.203 
   368.000  17.504 -13.707 -11.707  17.504 
   368.500  17.810 -13.721 -11.721  17.810 
   369.000  17.940 -13.735 -11.735  17.940 
   369.500  17.315 -13.739 -11.739  17.315 
   370.000  16.525 -13.742 -11.742  16.525 
   370.500  16.058 -13.729 -11.729  16.058 
   371.000  16.083 -13.716 -11.716  16.083 
   371.500  16.109 -13.703 -11.703  16.109 
   372.000  16.373 -13.690 -11.690  16.373 
   372.500  16.529 -13.661 -11.661  16.529 
   373.000  16.537 -13.632 -11.632  16.537 
   373.500  16.545 -13.505 -11.505  16.545 
   374.000  16.479 -13.411 -11.411  16.479 
   374.500  16.376 -13.349 -11.349  16.376 
   375.000  15.877 -13.255 -11.255  15.877 
   375.500  14.384 -13.158 -11.158  14.384 
   376.000  13.845 -13.321 -11.321  13.845 
   376.500  13.327 -13.500 -11.500  13.327 
   377.000  13.091 -13.680 -11.680  13.091 
   377.500  13.570 -13.810 -11.810  13.570 
   378.000  14.099 -13.941 -11.941  14.099 
   378.500  14.648 -14.104 -12.104  14.648 
   379.000  15.565 -14.170 -12.170  15.565 
   379.500  15.671 -14.235 -12.235  15.671 
   380.000  15.050 -14.301 -12.301  15.050 
   380.500  14.618 -14.366 -12.366  14.618 
   381.000  15.290 -14.530 -12.530  15.290 
   381.500  15.673 -14.579 -12.579  15.673 
   382.000  15.412 -14.628 -12.628  15.412 
   382.500  15.155 -14.710 -12.710  15.155 
   383.000  14.555 -14.792 -12.792  14.555 
   383.500  14.887 -14.858 -12.858  14.887 
   384.000  15.537 -14.891 -12.891  15.537 
   384.500  15.890 -14.648 -12.648  15.890 
   385.000  16.016 -14.405 -12.405  16.016 
   385.500  16.143 -13.593 -11.593  16.143 
   386.000  15.469 -13.399 -11.399  15.469 
   386.500  14.173 -13.578 -11.578  14.173 
   387.000  12.955 -13.757 -11.757  12.955 
   387.500  12.057 -13.937 -11.937  12.057 
   388.000  12.004 -14.116 -12.116  12.004 
   388.500  12.899 -14.247 -12.247  12.899 
   389.000  13.675 -14.378 -12.378  13.675 
   389.500  14.112 -14.508 -12.508  14.112 
   390.000  14.564 -14.639 -12.639  14.564 
   390.500  15.268 -14.639 -12.639  15.268 
   391.000  15.616 -14.640 -12.640  15.616 
   391.500  15.757 -14.543 -12.543  15.757 
   392.000  15.134 -14.414 -12.414  15.134 
   392.500  14.665 -14.382 -12.382  14.665 
   393.000  14.148 -14.350 -12.350  14.148 
   393.500  14.438 -14.286 -12.286  14.438 
   394.000  15.034 -14.254 -12.254  15.034 
   394.500  15.411 -14.222 -12.222  15.411 
   395.000  15.797 -14.190 -12.190  15.797 
   395.500  14.802 -14.159 -12.159  14.802 
   396.000  14.409 -14.127 -12.127  14.409 
   396.500  14.313 -14.095 -12.095  14.313 
   397.000  14.345 -14.063 -12.063  14.345 
   397.500  14.738 -14.031 -12.031  14.738 
   398.000  15.073 -14.000 -12.000  15.073 
   398.500  15.416 -13.805 -11.805  15.416 
   399.000  15.696 -13.124 -11.124  15.696 
   399.500  15.383 -12.637 -10.637  15.383 
   400.000  15.212 -12.215 -10.215  15.212 
   400.500  15.217 -11.666 -9.6660  15.217 
   401.000  15.395 -11.116 -9.1160  15.395 
   401.500  15.575 -10.582 -8.5820  15.575 
   402.000  15.899 -10.049 -8.0490  15.899 
   402.500  15.941 -8.9800 -6.9800  15.941 
   403.000  15.558 -8.2030 -6.2030  15.558 
   403.500  14.813 -8.1080 -6.1080  14.813 
   404.000  13.097 -9.0200 -7.0200  13.097 
   404.500  12.303 -9.8350 -7.8350  12.303 
   405.000  11.557 -10.227 -8.2270  11.557 
   405.500  9.3410 -9.8070 -7.8070  9.3410 
   406.000  8.8140 -9.3870 -7.3870  8.8140 
   406.500  8.0600 -8.2860 -6.2860  8.0600 
   407.000  7.7780 -7.4440 -5.4440  7.7780 
   407.500  7.4730 -7.0890 -5.0890  7.4730 
   408.000  7.3840 -7.1240 -5.1240  7.3840 
   408.500  7.2960 -7.3050 -5.3050  7.2960 
   409.000  6.6420 -7.4860 -5.4860  6.6420 
   409.500  6.1700 -7.4400 -5.4400  6.1700 
   410.000  5.6160 -7.3940 -5.3940  5.6160 
   410.500  5.0900 -7.0720 -5.0720  5.0900 
