~Version Information
VERS.                     2.0: CWLS log ASCII Standard Version 2.00
WRAP.                      NO: One line per depth step
~Well Information Block
#MNEM.UNIT                               Data Type  Information
#---------                               ---------  -----------
STRT.FT                                    47.0000:
STOP.FT                                  1830.0000:
STEP.FT                                     0.5000:
NULL.                 -999.25                     :
COMP.                                             :COMPANY            
WELL.     SAN EMIDIO C-2                          :WELL               
FLD .                                             :FIELD              
CTRY.                                             :COUNTRY            
STAT.                                             :STATE              
LOC .                                             :LOCATION           
UWI .                                             :UNIQUE WELL ID     
SRVC.                                             :Service company    
DATE.                                             :LOG DATE           
~Curve Information
#MNEM.UNIT           API CODE  Curve Description
#---------           --------  -----------------
DEPT.FT                      :   1 DEPTH
RESI.OHMM                    :   2
SP  .MV                      :   3
SBL .MV                      :   4
RD  .OHMM                    :   5
~A
# ...
  1230.000  7.7330 -4.8220 -2.8220  7.7330 
  1230.500  7.5490 -4.7920 -2.7920  7.5490 
  1231.000  7.3520 -4.7460 -2.7460  7.3520 
  1231.500  7.1600 -4.6990 -2.6990  7.1600 
  1232.000  7.1640 -4.6200 -2.6200  7.1640 
  1232.500  7.1680 -4.5410 -2.5410  7.1680 
  1233.000  8.2090 -4.4300 -2.4300  8.2090 
  1233.500  9.7460 -4.3180 -2.3180  9.7460 
  1234.000  12.718 -4.2070 -2.2070  12.718 
  1234.500  17.360 -4.0960 -2.0960  17.360 
  1235.000  20.891 -3.9350 -1.9350  20.891 
  1235.500  21.718 -3.7740 -1.7740  21.718 
  1236.000  21.391 -3.6950 -1.6950  21.391 
  1236.500  20.278 -3.6160 -1.6160  20.278 
  1237.000  19.223 -4.4020 -2.4020  19.223 
  1237.500  16.282 -4.5840 -2.5840  16.282 
  1238.000  14.459 -4.7660 -2.7660  14.459 
  1238.500  10.253 -4.9320 -2.9320  10.253 
  1239.000  8.4910 -4.9670 -2.9670  8.4910 
  1239.500  7.7120 -4.9700 -2.9700  7.7120 
  1240.000  7.2450 -4.9720 -2.9720  7.2450 
  1240.500  7.1840 -4.8770 -2.8770  7.1840 
  1241.000  7.5030 -4.6510 -2.6510  7.5030 
  1241.500  7.8350 -4.4260 -2.4260  7.8350 
  1242.000  8.2000 -3.7100 -1.7100  8.2000 
  1242.500  8.1310 -3.4510 -1.4510  8.1310 
  1243.000  7.3680 -3.4220 -1.4220  7.3680 
  1243.500  6.9380 -3.6200 -1.6200  6.9380 
  1244.000  6.3730 -3.8190 -1.8190  6.3730 
  1244.500  6.2210 -4.0170 -2.0170  6.2210 
  1245.000  6.0860 -4.5090 -2.5090  6.0860 
  1245.500  5.9540 -5.0010 -3.0010  5.9540 
  1246.000  5.6950 -5.1180 -3.1180  5.6950 
  1246.500  5.6210 -5.2350 -3.2350  5.6210 
  1247.000  6.0990 -4.9430 -2.9430  6.0990 
  1247.500  6.6480 -4.4240 -2.4240  6.6480 
  1248.000  7.0050 -4.1000 -2.1000  7.0050 
  1248.500  7.6690 -3.9720 -1.9720  7.6690 
  1249.000  8.4530 -3.8450 -1.8450  8.4530 
  1249.500  9.2130 -3.7500 -1.7500  9.2130 
  1250.000  10.132 -3.6550 -1.6550  10.132 
  1250.500  10.478 -3.7070 -1.7070  10.478 
  1251.000  10.835 -3.7590 -1.7590  10.835 
  1251.500  11.407 -3.8110 -1.8110  11.407 
  1252.000  11.849 -4.2980 -2.2980  11.849 
  1252.500  12.197 -4.7840 -2.7840  12.197 
  1253.000  12.387 -5.2230 -3.2230  12.387 
  1253.500  11.317 -5.6610 -3.6610  11.317 
  1254.000  9.4500 -6.6700 -4.6700  9.4500 
  1254.500  6.5750 -7.0430 -5.0430  6.5750 
  1255.000  5.7050 -7.4160 -5.4160  5.7050 
  1255.500  4.8940 -7.5440 -5.5440  4.8940 
  1256.000  4.5420 -7.6730 -5.6730  4.5420 
  1256.500  4.5100 -7.6870 -5.6870  4.5100 
  1257.000  4.5390 -7.7010 -5.7010  4.5390 
  1257.500  5.2530 -7.6500 -5.6500  5.2530 
  1258.000  5.4810 -7.5990 -5.5990  5.4810 
  1258.500  5.7190 -7.2050 -5.2050  5.7190 
  1259.000  6.0490 -6.8110 -4.8110  6.0490 
  1259.500  6.3970 -6.2700 -4.2700  6.3970 
  1260.000  7.0290 -5.7290 -3.7290  7.0290 
  1260.500  7.5010 -4.9110 -2.9110  7.5010 
  1261.000  7.9150 -4.4690 -2.4690  7.9150 
  1261.500  8.1850 -4.0260 -2.0260  8.1850 
  1262.000  5.0320 -3.3380 -1.3380  5.0320 
  1262.500  4.4550 -3.3690 -1.3690  4.4550 
  1263.000  4.2000 -4.0840 -2.0840  4.2000 
  1263.500  4.4020 -4.6040 -2.6040  4.4020 
  1264.000  5.1870 -5.3850 -3.3850  5.1870 
  1264.500  6.1530 -6.1660 -4.1660  6.1530 
  1265.000  7.1200 -7.2400 -5.2400  7.1200 
  1265.500  7.4630 -7.4650 -5.4650  7.4630 
  1266.000  7.7000 -7.4850 -5.4850  7.7000 
  1266.500  7.9450 -7.5050 -5.5050  7.9450 
  1267.000  8.3830 -7.5250 -5.5250  8.3830 
  1267.500  8.7070 -7.5060 -5.5060  8.7070 
  1268.000  8.9030 -7.4870 -5.4870  8.9030 
  1268.500  9.0830 -7.4850 -5.4850  9.0830 
  1269.000  9.2660 -7.4820 -5.4820  9.2660 
  1269.500  10.045 -7.4580 -5.4580  10.045 
  1270.000  10.696 -7.4340 -5.4340  10.696 
  1270.500  11.135 -7.4100 -5.4100  11.135 
  1271.000  11.131 -7.3760 -5.3760  11.131 
  1271.500  10.881 -7.3410 -5.3410  10.881 
  1272.000  9.6110 -7.2730 -5.2730  9.6110 
  1272.500  8.5090 -7.2380 -5.2380  8.5090 
  1273.000  8.2430 -7.2040 -5.2040  8.2430 
  1273.500  8.1110 -6.7450 -4.7450  8.1110 
  1274.000  8.1090 -6.2860 -4.2860  8.1090 
  1274.500  8.1070 -5.6960 -3.6960  8.1070 
  1275.000  8.0780 -5.1060 -3.1060  8.0780 
  1275.500  8.0480 -4.6470 -2.6470  8.0480 
  1276.000  7.9740 -4.4160 -2.4160  7.9740 
  1276.500  7.3840 -4.6090 -2.6090  7.3840 
  1277.000  6.7620 -4.9330 -2.9330  6.7620 
  1277.500  6.2900 -5.2420 -3.2420  6.2900 
  1278.000  5.8510 -5.5500 -3.5500  5.8510 
  1278.500  4.9410 -6.2970 -4.2970  4.9410 
  1279.000  4.6380 -7.0450 -5.0450  4.6380 
  1279.500  4.5740 -7.5980 -5.5980  4.5740 
  1280.000  5.8310 -8.0200 -6.0200  5.8310 
  1280.500  6.5540 -8.4420 -6.4420  6.5540 
  1281.000  6.8690 -8.6350 -6.6350  6.8690 
  1281.500  7.1760 -8.2080 -6.2080  7.1760 
  1282.000  7.4960 -8.0100 -6.0100  7.4960 
  1282.500  8.0710 -8.4320 -6.4320  8.0710 
  1283.000  8.3180 -8.8540 -6.8540  8.3180 
  1283.500  8.5720 -9.3420 -7.3420  8.5720 
  1284.000  8.8830 -9.8290 -7.8290  8.8830 
  1284.500  8.9410 -9.5000 -7.5000  8.9410 
  1285.000  8.9190 -9.1710 -7.1710  8.9190 
  1285.500  8.7770 -8.8420 -6.8420  8.7770 
  1286.000  8.0010 -9.2320 -7.2320  8.0010 
  1286.500  7.8560 -9.7840 -7.7840  7.8560 
  1287.000  8.5550 -9.9780 -7.9780  8.5550 
  1287.500  8.8460 -10.138 -8.1380  8.8460 
  1288.000  9.1890 -10.103 -8.1030  9.1890 
  1288.500  9.5230 -9.5460 -7.5460  9.5230 
  1289.000  9.7150 -9.2180 -7.2180  9.7150 
  1289.500  9.2640 -8.9220 -6.9220  9.2640 
  1290.000  8.7740 -8.9850 -6.9850  8.7740 
  1290.500  8.3480 -9.0480 -7.0480  8.3480 
  1291.000  8.0500 -9.4050 -7.4050  8.0500 
  1291.500  8.2690 -9.7610 -7.7610  8.2690 
  1292.000  8.7250 -9.9000 -7.9000  8.7250 
  1292.500  9.2070 -10.040 -8.0400  9.2070 
  1293.000  9.4460 -10.179 -8.1790  9.4460 
  1293.500  9.6910 -10.226 -8.2260  9.6910 
  1294.000  9.7320 -10.272 -8.2720  9.7320 
  1294.500  9.7730 -10.254 -8.2540  9.7730 
  1295.000  9.3190 -10.235 -8.2350  9.3190 
  1295.500  8.8860 -10.069 -8.0690  8.8860 
  1296.000  8.7250 -10.034 -8.0340  8.7250 
  1296.500  8.3580 -10.065 -8.0650  8.3580 
  1297.000  7.9160 -10.715 -8.7150  7.9160 
  1297.500  6.3620 -11.136 -9.1360  6.3620 
  1298.000  5.5310 -11.330 -9.3300  5.5310 
  1298.500  5.3580 -11.524 -9.5240  5.3580 
  1299.000  5.3810 -11.620 -9.6200  5.3810 
  1299.500  5.6850 -11.716 -9.7160  5.6850 
  1300.000  6.0050 -11.291 -9.2910  6.0050 
  1300.500  6.1100 -10.866 -8.8660  6.1100 
  1301.000  6.2160 -10.606 -8.6060  6.2160 
  1301.500  6.3100 -10.705 -8.7050  6.3100 
  1302.000  6.4050 -10.821 -8.8210  6.4050 
  1302.500  6.5310 -10.936 -8.9360  6.5310 
  1303.000  6.6590 -11.133 -9.1330  6.6590 
  1303.500  6.7600 -11.281 -9.2810  6.7600 
  1304.000  6.8610 -11.429 -9.4290  6.8610 
  1304.500  6.2870 -11.528 -9.5280  6.2870 
  1305.000  6.1080 -11.628 -9.6280  6.1080 
  1305.500  5.9340 -11.695 -9.6950  5.9340 
  1306.000  5.9760 -11.762 -9.7620  5.9760 
  1306.500  6.0180 -10.490 -8.4900  6.0180 
  1307.000  6.2830 -10.198 -8.1980  6.2830 
  1307.500  6.5750 -9.9060 -7.9060  6.5750 
  1308.000  6.6220 -9.3850 -7.3850  6.6220 
  1308.500  6.3040 -8.9940 -6.9940  6.3040 
  1309.000  5.7890 -8.6040 -6.6040  5.7890 
  1309.500  4.1970 -8.1810 -6.1810  4.1970 
  1310.000  4.7410 -7.8560 -5.8560  4.7410 
  1310.500  4.9610 -8.0860 -6.0860  4.9610 
  1311.000  5.0760 -8.8050 -6.8050  5.0760 
  1311.500  4.9650 -9.2140 -7.2140  4.9650 
  1312.000  4.7530 -9.6240 -7.6240  4.7530 
  1312.500  4.5510 -10.440 -8.4400  4.5510 
  1313.000  4.2070 -10.915 -8.9150  4.2070 
  1313.500  4.0420 -11.389 -9.3890  4.0420 
  1314.000  3.9440 -11.782 -9.7820  3.9440 
  1314.500  5.1460 -12.175 -10.175  5.1460 
  1315.000  5.3600 -12.584 -10.584  5.3600 
  1315.500  5.4960 -12.993 -10.993  5.4960 
  1316.000  5.7130 -13.647 -11.647  5.7130 
  1316.500  5.8910 -14.300 -12.300  5.8910 
  1317.000  6.0750 -14.693 -12.693  6.0750 
  1317.500  6.1870 -15.054 -13.054  6.1870 
  1318.000  6.2730 -14.500 -12.500  6.2730 
  1318.500  6.2760 -13.490 -11.490  6.2760 
  1319.000  6.0420 -13.068 -11.068  6.0420 
  1319.500  5.7910 -12.645 -10.645  5.7910 
  1320.000  5.6960 -12.254 -10.254  5.6960 
  1320.500  5.6030 -12.843 -10.843  5.6030 
