~Version Information
VERS.                     2.0: CWLS log ASCII Standard Version 2.00
WRAP.                      NO: One line per depth step
~Well Information Block
#MNEM.UNIT                               Data Type  Information
#---------                               ---------  -----------
STRT.FT                                    47.0000:
STOP.FT                                  1830.0000:
STEP.FT                                     0.5000:
NULL.                 -999.25                     :
COMP.                                             :COMPANY            
WELL.     SAN EMIDIO C-2                          :WELL               
FLD .                                             :FIELD              
CTRY.                                             :COUNTRY            
STAT.                                             :STATE              
LOC .                                             :LOCATION           
UWI .                                             :UNIQUE WELL ID     
SRVC.                                             :Service company    
DATE.                                             :LOG DATE           
~Curve Information
#MNEM.UNIT           API CODE  Curve Description
#---------           --------  -----------------
DEPT.FT                      :   1 DEPTH
RESI.OHMM                    :   2
SP  .MV                      :   3
SBL .MV                      :   4
RD  .OHMM                    :   5
~A
    47.000 -999.25 -999.25 -999.25 -999.25 
    47.500 -999.25 -999.25 -999.25 -999.25 
    48.000 -999.25  18.398  20.398 -999.25 
    48.500  35.542  16.998  18.998  35.542 
    49.000  31.851  15.436  17.436  31.851 
    49.500  28.930  14.346  16.346  28.930 
    50.000  26.573  13.255  15.255  26.573 
    50.500  25.128  12.148  14.148  25.128 
    51.000  25.533  11.042  13.042  25.533 
    51.500  26.062  9.9680  11.968  26.062 
    52.000  26.245  8.8940  10.894  26.245 
    52.500  27.030  7.6900  9.6900  27.030 
    53.000  30.524  6.4860  8.4860  30.524 
    53.500  31.934  5.3790  7.3790  31.934 
    54.000  34.556  4.2730  6.2730  34.556 
    54.500  35.509  3.1660  5.1660  35.509 
    55.000  36.284  2.3030  4.3030  36.284 
    55.500  37.076  1.4410  3.4410  37.076 
    56.000  37.675  0.6100  2.6100  37.675 
    56.500  37.222 -0.2200  1.7800  37.222 
    57.000  36.774 -1.5870  0.4130  36.774 
    57.500  32.878 -2.3360 -0.3360  32.878 
    58.000  31.583 -3.1500 -1.1500  31.583 
    58.500  29.866 -4.0940 -2.0940  29.866 
    59.000  28.658 -4.4540 -2.4540  28.658 
    59.500  27.499 -4.6340 -2.6340  27.499 
    60.000  26.536 -4.8150 -2.8150  26.536 
    60.500  25.837 -4.9140 -2.9140  25.837 
    61.000  25.498 -5.0130 -3.0130  25.498 
    61.500  25.163 -5.0480 -3.0480  25.163 
    62.000  24.611 -5.0820 -3.0820  24.611 
    62.500  24.673 -5.1170 -3.1170  24.673 
    63.000  24.763 -5.1510 -3.1510  24.763 
    63.500  24.853 -5.2180 -3.2180  24.853 
    64.000  25.197 -5.2850 -3.2850  25.197 
    64.500  24.589 -5.3040 -3.3040  24.589 
    65.000  24.049 -5.3220 -3.3220  24.049 
    65.500  23.680 -5.3560 -3.3560  23.680 
    66.000  25.624 -5.3900 -3.3900  25.624 
    66.500  26.748 -5.3920 -3.3920  26.748 
    67.000  26.906 -5.3940 -3.3940  26.906 
    67.500  27.064 -5.3640 -3.3640  27.064 
    68.000  27.194 -5.3330 -3.3330  27.194 
    68.500  27.201 -5.3270 -3.3270  27.201 
    69.000  27.208 -5.3210 -3.3210  27.208 
    69.500  27.155 -5.3140 -3.3140  27.155 
    70.000  24.114 -5.3080 -3.3080  24.114 
    70.500  22.297 -5.2780 -3.2780  22.297 
    71.000  21.037 -5.2470 -3.2470  21.037 
    71.500  21.138 -5.2170 -3.2170  21.138 
    72.000  21.238 -5.1860 -3.1860  21.238 
    72.500  21.436 -5.1560 -3.1560  21.436 
    73.000  20.592 -5.1250 -3.1250  20.592 
    73.500  19.871 -5.0950 -3.0950  19.871 
    74.000  19.787 -5.0960 -3.0960  19.787 
    74.500  20.702 -5.0970 -3.0970  20.702 
    75.000  21.083 -5.0980 -3.0980  21.083 
    75.500  21.560 -5.0990 -3.0990  21.560 
    76.000  21.999 -5.1010 -3.1010  21.999 
    76.500  22.497 -5.1000 -3.1000  22.497 
    77.000  22.955 -5.1000 -3.1000  22.955 
    77.500  23.527 -5.1000 -3.1000  23.527 
    78.000  23.952 -5.0840 -3.0840  23.952 
    78.500  23.683 -5.0680 -3.0680  23.683 
    79.000  21.793 -5.0440 -3.0440  21.793 
    79.500  20.741 -5.0190 -3.0190  20.741 
    80.000  20.415 -4.9950 -2.9950  20.415 
    80.500  21.256 -4.9700 -2.9700  21.256 
    81.000  22.032 -5.0030 -3.0030  22.032 
    81.500  22.940 -5.0360 -3.0360  22.940 
    82.000  23.831 -5.0140 -3.0140  23.831 
    82.500  24.316 -4.9920 -2.9920  24.316 
    83.000  24.314 -4.9710 -2.9710  24.314 
    83.500  24.312 -4.9220 -2.9220  24.312 
    84.000  23.771 -4.8730 -2.8730  23.771 
    84.500  22.930 -4.8080 -2.8080  22.930 
    85.000  22.218 -4.8410 -2.8410  22.218 
    85.500  21.626 -4.8730 -2.8730  21.626 
    86.000  21.335 -4.9700 -2.9700  21.335 
    86.500  21.262 -5.0680 -3.0680  21.262 
    87.000  21.189 -5.3440 -3.3440  21.189 
    87.500  20.624 -5.6200 -3.6200  20.624 
    88.000  19.021 -6.5300 -4.5300  19.021 
    88.500  17.268 -6.7250 -4.7250  17.268 
    89.000  18.347 -6.9520 -4.9520  18.347 
    89.500  19.492 -7.0500 -5.0500  19.492 
    90.000  18.845 -6.9520 -4.9520  18.845 
    90.500  18.220 -6.9040 -4.9040  18.220 
    91.000  18.259 -6.8550 -4.8550  18.259 
    91.500  21.754 -6.8060 -4.8060  21.754 
    92.000  24.447 -6.7570 -4.7570  24.447 
    92.500  26.505 -6.7410 -4.7410  26.505 
    93.000  27.658 -6.7250 -4.7250  27.658 
    93.500  29.784 -6.7140 -4.7140  29.784 
    94.000  30.733 -6.7030 -4.7030  30.733 
    94.500  32.287 -6.6920 -4.6920  32.287 
    95.000  33.242 -6.6760 -4.6760  33.242 
    95.500  33.918 -6.6600 -4.6600  33.918 
    96.000  34.376 -6.6760 -4.6760  34.376 
    96.500  34.451 -6.6920 -4.6920  34.451 
    97.000  32.276 -6.6600 -4.6600  32.276 
    97.500  29.237 -6.6270 -4.6270  29.237 
    98.000  27.025 -6.5620 -4.5620  27.025 
    98.500  26.333 -6.4970 -4.4970  26.333 
    99.000  25.659 -6.2380 -4.2380  25.659 
    99.500  24.531 -6.0430 -4.0430  24.531 
   100.000  24.147 -6.0100 -4.0100  24.147 
   100.500  23.875 -6.4810 -4.4810  23.875 
   101.000  23.607 -6.9520 -4.9520  23.607 
   101.500  23.606 -7.2450 -5.2450  23.606 
   102.000  23.604 -7.4720 -5.4720  23.604 
   102.500  23.709 -7.7000 -5.7000  23.709 
   103.000  23.814 -7.7480 -5.7480  23.814 
   103.500  24.573 -7.7970 -5.7970  24.573 
   104.000  25.758 -7.8130 -5.8130  25.758 
   104.500  26.341 -7.8290 -5.8290  26.341 
   105.000  26.937 -7.8620 -5.8620  26.937 
   105.500  27.671 -7.8950 -5.8950  27.671 
   106.000  26.693 -7.9160 -5.9160  26.693 
   106.500  26.452 -7.9380 -5.9380  26.452 
   107.000  26.689 -7.9590 -5.9590  26.689 
   107.500  27.110 -8.0240 -6.0240  27.110 
   108.000  27.600 -8.0890 -6.0890  27.600 
   108.500  28.672 -8.0890 -6.0890  28.672 
   109.000  30.122 -8.0890 -6.0890  30.122 
   109.500  31.082 -8.1220 -6.1220  31.082 
   110.000  31.502 -8.1550 -6.1550  31.502 
   110.500  31.784 -8.1380 -6.1380  31.784 
   111.000  31.781 -8.1220 -6.1220  31.781 
   111.500  31.073 -8.1220 -6.1220  31.073 
   112.000  28.917 -8.1220 -6.1220  28.917 
   112.500  27.397 -8.1000 -6.1000  27.397 
   113.000  26.786 -8.0780 -6.0780  26.786 
   113.500  26.189 -8.0570 -6.0570  26.189 
   114.000  25.664 -8.0460 -6.0460  25.664 
   114.500  25.633 -8.0350 -6.0350  25.633 
   115.000  25.602 -8.0240 -6.0240  25.602 
   115.500  24.312 -8.0080 -6.0080  24.312 
   116.000  23.717 -7.9920 -5.9920  23.717 
   116.500  23.822 -7.9750 -5.9750  23.822 
   117.000  23.928 -7.9590 -5.9590  23.928 
   117.500  24.088 -7.8940 -5.8940  24.088 
   118.000  24.249 -7.8290 -5.8290  24.249 
   118.500  24.247 -7.7320 -5.7320  24.247 
   119.000  23.707 -7.6340 -5.6340  23.707 
   119.500  23.179 -7.4880 -5.4880  23.179 
   120.000  22.384 -7.3420 -5.3420  22.384 
   120.500  21.617 -7.2930 -5.2930  21.617 
   121.000  21.278 -7.2440 -5.2440  21.278 
   121.500  20.945 -7.2610 -5.2610  20.945 
   122.000  20.114 -7.2770 -5.2770  20.114 
   122.500  19.821 -7.3580 -5.3580  19.821 
   123.000  19.532 -7.4390 -5.4390  19.532 
   123.500  18.884 -7.6350 -5.6350  18.884 
   124.000  19.529 -7.7100 -5.7100  19.529 
   124.500  20.334 -7.7860 -5.7860  20.334 
   125.000  21.026 -7.8620 -5.8620  21.026 
   125.500  21.743 -7.9250 -5.9250  21.743 
   126.000  23.462 -7.9890 -5.9890  23.462 
   126.500  22.678 -8.0530 -6.0530  22.678 
   127.000  21.969 -8.1060 -6.1060  21.969 
   127.500  21.282 -8.1590 -6.1590  21.282 
   128.000  20.387 -8.2120 -6.2120  20.387 
   128.500  20.473 -8.2210 -6.2210  20.473 
   129.000  20.559 -8.2310 -6.2310  20.559 
   129.500  21.115 -8.2400 -6.2400  21.115 
   130.000  21.685 -8.2880 -6.2880  21.685 
   130.500  22.372 -8.3350 -6.3350  22.372 
   131.000  22.693 -8.3450 -6.3450  22.693 
   131.500  23.020 -8.3540 -6.3540  23.020 
   132.000  23.509 -8.3640 -6.3640  23.509 
   132.500  24.009 -8.3730 -6.3730  24.009 
   133.000  24.825 -8.3830 -6.3830  24.825 
   133.500  25.325 -8.3920 -6.3920  25.325 
   134.000  24.782 -8.4130 -6.4130  24.782 
   134.500  24.252 -8.4330 -6.4330  24.252 
   135.000  22.767 -8.4530 -6.4530  22.767 
   135.500  22.106 -8.4740 -6.4740  22.106 
   136.000  22.000 -8.4940 -6.4940  22.000 
   136.500  22.747 -8.5140 -6.5140  22.747 
   137.000  23.679 -8.5330 -6.5330  23.679 
   137.500  24.209 -8.5510 -6.5510  24.209 
