~Version Information
VERS.                     2.0: CWLS log ASCII Standard Version 2.00
WRAP.                      NO: One line per depth step
~Well Information Block
#MNEM.UNIT                               Data Type  Information
#---------                               ---------  -----------
STRT.FT                                    47.0000:
STOP.FT                                  1830.0000:
STEP.FT                                     0.5000:
NULL.                 -999.25                     :
COMP.                                             :COMPANY            
WELL.     SAN EMIDIO C-2                          :WELL               
FLD .                                             :FIELD              
CTRY.                                             :COUNTRY            
STAT.                                             :STATE              
LOC .                                             :LOCATION           
UWI .                                             :UNIQUE WELL ID     
SRVC.                                             :Service company    
DATE.                                             :LOG DATE           
~Curve Information
#MNEM.UNIT           API CODE  Curve Description
#---------           --------  -----------------
DEPT.FT                      :   1 DEPTH
RESI.OHMM                    :   2
SP  .MV                      :   3
SBL .MV                      :   4
RD  .OHMM                    :   5
~A
# ...
  1776.000  1.6210 -35.401 -6.7103  1.6210 
  1776.500  1.5890 -35.581 -6.8594  1.5890 
  1777.000  1.5930 -35.761 -7.0084  1.5930 
  1777.500  1.6370 -36.186 -7.4025  1.6370 
  1778.000  1.6820 -35.795 -6.9806  1.6820 
  1778.500  1.8450 -35.404 -6.5586  1.8450 
  1779.000  1.8790 -34.817 -5.9407  1.8790 
  1779.500  1.8790 -35.340 -6.4328  1.8790 
  1780.000  1.8760 -35.961 -7.0229  1.8760 
  1780.500  1.8720 -36.304 -7.3349  1.8720 
  1781.000  1.8640 -36.648 -7.6480  1.8640 
  1781.500  1.8390 -37.170 -8.1391  1.8390 
  1782.000  1.8150 -37.432 -8.3701  1.8150 
  1782.500  1.7430 -37.694 -8.6012  1.7430 
  1783.000  1.6560 -35.997 -6.8733  1.6560 
  1783.500  1.6080 -35.573 -6.4184  1.6080 
  1784.000  1.5770 -35.705 -6.5194  1.5770 
  1784.500  1.5490 -35.837 -6.6205  1.5490 
  1785.000  1.5300 -36.555 -7.3076  1.5300 
  1785.500  1.5120 -37.371 -8.0926  1.5120 
  1786.000  1.5190 -37.388 -8.0787  1.5190 
  1786.500  1.5330 -37.405 -8.0648  1.5330 
  1787.000  1.5720 -36.883 -7.5119  1.5720 
  1787.500  1.6860 -36.542 -7.1399  1.6860 
  1788.000  1.8160 -36.200 -6.7670  1.8160 
  1788.500  1.8740 -36.136 -6.6721  1.8740 
  1789.000  1.9000 -36.071 -6.5762  1.9000 
  1789.500  1.9090 -36.267 -6.7412  1.9090 
  1790.000  1.9190 -36.447 -6.8903  1.9190 
  1790.500  1.9250 -36.627 -7.0394  1.9250 
  1791.000  1.9320 -36.840 -7.2214  1.9320 
  1791.500  1.9360 -37.052 -7.4025  1.9360 
  1792.000  1.9390 -37.167 -7.4866  1.9390 
  1792.500  1.9420 -37.282 -7.5707  1.9420 
  1793.000  1.9430 -37.331 -7.5887  1.9430 
  1793.500  1.9480 -37.381 -7.6078  1.9480 
  1794.000  1.9520 -37.371 -7.5669  1.9520 
  1794.500  1.9510 -37.361 -7.5259  1.9510 
  1795.000  1.9490 -37.351 -7.4850  1.9490 
  1795.500  1.9300 -37.253 -7.3561  1.9300 
  1796.000  1.9110 -37.058 -7.1302  1.9110 
  1796.500  1.8350 -36.634 -6.6752  1.8350 
  1797.000  1.7870 -36.244 -6.2543  1.7870 
  1797.500  1.7080 -36.016 -5.9954  1.7080 
  1798.000  1.6600 -35.789 -5.7375  1.6600 
  1798.500  1.6250 -35.952 -5.8695  1.6250 
  1799.000  1.5910 -37.127 -7.0136  1.5910 
  1799.500  1.6130 -37.618 -7.4737  1.6130 
  1800.000  1.6350 -38.140 -7.9647  1.6350 
  1800.500  1.6670 -38.314 -8.1078  1.6670 
  1801.000  1.7000 -38.488 -8.2509  1.7000 
  1801.500  1.7020 -38.547 -8.2790  1.7020 
  1802.000  1.7040 -38.606 -8.3070  1.7040 
  1802.500  1.6970 -38.665 -8.3351  1.6970 
  1803.000  1.6900 -38.593 -8.2322  1.6900 
  1803.500  1.6650 -38.424 -8.0322  1.6650 
  1804.000  1.6490 -38.190 -7.7673  1.6490 
  1804.500  1.6310 -38.054 -7.6004  1.6310 
  1805.000  1.6130 -37.917 -7.4325  1.6130 
  1805.500  1.5990 -37.911 -7.3955  1.5990 
  1806.000  1.5850 -38.068 -7.5216  1.5850 
  1806.500  1.5750 -38.149 -7.5717  1.5750 
  1807.000  1.5640 -38.230 -7.6218  1.5640 
  1807.500  1.5590 -38.312 -7.6728  1.5590 
  1808.000  1.5630 -38.355 -7.6849  1.5630 
  1808.500  1.5670 -38.398 -7.6970  1.5670 
  1809.000  1.5760 -38.424 -7.6920  1.5760 
  1809.500  1.9020 -38.451 -7.6881  1.9020 
  1810.000  1.9810 -38.412 -7.6182  1.9810 
  1810.500  2.0640 -38.341 -7.5163  2.0640 
  1811.000  2.1500 -38.270 -7.4143  2.1500 
  1811.500  2.2390 -38.150 -7.2634  2.2390 
  1812.000  2.3930 -38.030 -7.1125  2.3930 
  1812.500  2.6640 -37.763 -6.8145  2.6640 
  1813.000  3.0260 -37.496 -6.5166  3.0260 
  1813.500  3.4750 -37.457 -6.4467  3.4750 
  1814.000  3.7480 -37.419 -6.3778  3.7480 
  1814.500  3.8740 -37.657 -6.5848  3.8740 
  1815.000  3.8790 -37.896 -6.7929  3.8790 
  1815.500  3.8840 -38.281 -7.1470  3.8840 
  1816.000  3.7520 -38.667 -7.5021  3.7520 
  1816.500  3.4640 -38.710 -7.5141  3.4640 
  1817.000  3.2060 -38.753 -7.5262  3.2060 
  1817.500  2.9740 -38.665 -7.4073  2.9740 
  1818.000  2.7770 -38.578 -7.2893  2.7770 
  1818.500  2.8410 -38.343 -7.0234  2.8410 
  1819.000  2.9060 -38.109 -6.7585  2.9060 
  1819.500  2.9360 -37.776 -6.3946  2.9360 
  1820.000  2.9670 -37.934 -6.5216  2.9670 
  1820.500  2.9580 -38.809 -7.3657  2.9580 
  1821.000  2.9480 -39.684 -8.2098  2.9480 
  1821.500  3.2160 -40.069 -8.5638  3.2160 
  1822.000  3.6440 -39.900 -8.3639  3.6440 
  1822.500  4.2720 -39.731 -8.1640  4.2720 
  1823.000  4.6490 -38.876 -7.2781  4.6490 
  1823.500  4.9470 -38.642 -7.0131  4.9470 
  1824.000  5.5440 -38.408 -6.7482  5.5440 
  1824.500  6.4840 -38.663 -6.9723  6.4840 
  1825.000  7.2820 -38.820 -7.0984  7.2820 
  1825.500  6.9710 -38.846 -7.0934  6.9710 
  1826.000  6.0570 -38.580 -6.7965  6.0570 
  1826.500  5.4690 -38.313 -6.4986  5.4690 
  1827.000  5.3420 -37.262 -5.4166  5.3420 
  1827.500  5.7490 -37.550 -5.6737  5.7490 
  1828.000  6.3130 -38.197 -6.2898  6.3130 
  1828.500  6.6870 -38.876 -6.9379  6.6870 
  1829.000  7.3100 -39.392 -7.4229  7.3100 
  1829.500  7.5370 -39.843 -7.8430  7.5370 
  1830.000  7.6850 -999.25 -999.25  7.6850 
